{
  "html_attributions": [],
  "results": [
    {
      "geometry": {
        "location": {
          "lat": 40.7127753,
          "lng": -74.0059728
        },
        "viewport": {
          "northeast": {
            "lat": 40.91757705070789,
            "lng": -73.70027206817629
          },
          "southwest": {
            "lat": 40.47739906045452,
            "lng": -74.25908991427882
          }
        }
      },
      "icon": "https://maps.gstatic.com/mapfiles/place_api/icons/v1/png_71/geocode-71.png",
      "icon_background_color": "#7B9EB0",
      "icon_mask_base_uri": "https://maps.gstatic.com/mapfiles/place_api/icons/v2/generic_pinlet",
      "name": "\u7d10\u7d04",
      "photos": [
        {
          "height": 600,
          "html_attributions": [
            "<a href=\"https://maps.google.com/maps/contrib/102389334567210814614\">Bukurie</a>"
          ],
          "photo_reference": "AeJbb3cDlW4mhONxN465nhXruCElme8KzpiDu6VMNtl-xYdMjHeZKHRaPgT_U9V5jzf5Y161zU5pPHNyjAp12zqu1-WMpAUUifc0ORetxiTf0poTDqTipc8bti_wChvsgqS5d4GttJopyzG0J9amEibFhZgmub2mYyn-HE8_cDIYpUnCsa5B",
          "width": 480
        }
      ],
      "place_id": "ChIJOwg_06VPwokRYv534QaPC8g",
      "reference": "ChIJOwg_06VPwokRYv534QaPC8g",
      "scope": "GOOGLE",
      "types": [
        "locality",
        "political"
      ],
      "vicinity": "\u7d10\u7d04"
    },
    {
      "business_status": "OPERATIONAL",
      "geometry": {
        "location": {
          "lat": 40.6938075,
          "lng": -73.9410137
        },
        "viewport": {
          "northeast": {
            "lat": 40.69529988029149,
            "lng": -73.9395625197085
          },
          "southwest": {
            "lat": 40.69260191970849,
            "lng": -73.94226048029151
          }
        }
      },
      "icon": "https://maps.gstatic.com/mapfiles/place_api/icons/v1/png_71/school-71.png",
      "icon_background_color": "#7B9EB0",
      "icon_mask_base_uri": "https://maps.gstatic.com/mapfiles/place_api/icons/v2/school_pinlet",
      "name": "Young Scholars' Academy-Dscvry",
      "photos": [
        {
          "height": 4032,
          "html_attributions": [
            "<a href=\"https://maps.google.com/maps/contrib/115562514863352898236\">nelsy Rodriguez</a>"
          ],
          "photo_reference": "AeJbb3fKJEMtOnEseBuQ0hitCuK1j08k49_U1eZQIjUS9ReXAY5uOZ34TRdwW78u8mfbzuCWCc7ijfkelY_0cfIbqpjRC7nM6jBrFccFsbYpXoO5ckqjEzJNqoC6AYozZMIFKt_PKW57CSnP_PaLvBDIOJ4-VPe7kC8Z9Znb0cWzy-Le-1Xe",
          "width": 3024
        }
      ],
      "place_id": "ChIJF-AfDfRbwokRBrQAeJxVoZY",
      "plus_code": {
        "compound_code": "M3V5+GH \u7f8e\u570b\u7d10\u7d04\u5e03\u9c81\u514b\u6797",
        "global_code": "87G8M3V5+GH"
      },
      "rating": 4.4,
      "reference": "ChIJF-AfDfRbwokRBrQAeJxVoZY",
      "scope": "GOOGLE",
      "types": [
        "primary_school",
        "school",
        "point_of_interest",
        "establishment"
      ],
      "user_ratings_total": 15,
      "vicinity": "280 Hart Street, Brooklyn"
    },
    {
      "business_status": "OPERATIONAL",
      "geometry": {
        "location": {
          "lat": 40.68909379999999,
          "lng": -73.9340074
        },
        "viewport": {
          "northeast": {
            "lat": 40.6905247802915,
            "lng": -73.93268356970849
          },
          "southwest": {
            "lat": 40.6878268197085,
            "lng": -73.93538153029151
          }
        }
      },
      "icon": "https://maps.gstatic.com/mapfiles/place_api/icons/v1/png_71/generic_business-71.png",
      "icon_background_color": "#7B9EB0",
      "icon_mask_base_uri": "https://maps.gstatic.com/mapfiles/place_api/icons/v2/generic_pinlet",
      "name": "Quincy Senior Residences LP",
      "photos": [
        {
          "height": 4160,
          "html_attributions": [
            "<a href=\"https://maps.google.com/maps/contrib/115319277659742147150\">Starlene Evans</a>"
          ],
          "photo_reference": "AeJbb3eV5vtf_-plbokzcliUo5PjbHZ0GWpg4jGxAgLuGw81kPwhEH4oaFuNxW3zAjkVUtb8zIMk5TehwgfkECv_Re8Sc3Q9mHLO1QEOB9Sln9Xih6Oo3ladd8qjDSTs_GF_pDl1P_f78viTuyx23_T-oTcL8rmNR4N3iS3tiN6h3CESuhSd",
          "width": 3120
        }
      ],
      "place_id": "ChIJOcy1zgpcwokRKhD26Vi2x54",
      "plus_code": {
        "compound_code": "M3Q8+J9 \u7f8e\u570b\u7d10\u7d04\u5e03\u9c81\u514b\u6797",
        "global_code": "87G8M3Q8+J9"
      },
      "rating": 4.5,
      "reference": "ChIJOcy1zgpcwokRKhD26Vi2x54",
      "scope": "GOOGLE",
      "types": [
        "point_of_interest",
        "establishment"
      ],
      "user_ratings_total": 49,
      "vicinity": "625 Quincy Street #1, Brooklyn"
    },
    {
      "business_status": "OPERATIONAL",
      "geometry": {
        "location": {
          "lat": 40.69133980000001,
          "lng": -73.93455999999999
        },
        "viewport": {
          "northeast": {
            "lat": 40.6929221302915,
            "lng": -73.93323766970849
          },
          "southwest": {
            "lat": 40.6902241697085,
            "lng": -73.9359356302915
          }
        }
      },
      "icon": "https://maps.gstatic.com/mapfiles/place_api/icons/v1/png_71/shopping-71.png",
      "icon_background_color": "#4B96F3",
      "icon_mask_base_uri": "https://maps.gstatic.com/mapfiles/place_api/icons/v2/shopping_pinlet",
      "name": "AF Supply",
      "opening_hours": {
        "open_now": false
      },
      "photos": [
        {
          "height": 3024,
          "html_attributions": [
            "<a href=\"https://maps.google.com/maps/contrib/110464958797457330589\">Anton Harnyk</a>"
          ],
          "photo_reference": "AeJbb3cJpduf66SANzBHJJChYT-JfoGlM0jVhcNtsueyo290q7LA-i3Wuco-WD6J6dUnBRs24c6B880Kvr8LCybzIdQLwqxUK19g5UR2OzciDRLmJZYAGL8PCZ439yTRzsdW6q30cnp681MMEq33gb8FtY-Wu78IINFBaVpRmjj4tGvrLz8e",
          "width": 4032
        }
      ],
      "place_id": "ChIJDUbAXwpcwokRcdN8zwn87qQ",
      "plus_code": {
        "compound_code": "M3R8+G5 \u7f8e\u570b\u7d10\u7d04",
        "global_code": "87G8M3R8+G5"
      },
      "price_level": 3,
      "rating": 3.6,
      "reference": "ChIJDUbAXwpcwokRcdN8zwn87qQ",
      "scope": "GOOGLE",
      "types": [
        "furniture_store",
        "home_goods_store",
        "store",
        "point_of_interest",
        "establishment"
      ],
      "user_ratings_total": 57,
      "vicinity": "942 Lafayette Avenue, Brooklyn"
    },
    {
      "business_status": "OPERATIONAL",
      "geometry": {
        "location": {
          "lat": 40.692412,
          "lng": -73.940156
        },
        "viewport": {
          "northeast": {
            "lat": 40.69388438029149,
            "lng": -73.9388209697085
          },
          "southwest": {
            "lat": 40.6911864197085,
            "lng": -73.94151893029151
          }
        }
      },
      "icon": "https://maps.gstatic.com/mapfiles/place_api/icons/v1/png_71/restaurant-71.png",
      "icon_background_color": "#FF9E67",
      "icon_mask_base_uri": "https://maps.gstatic.com/mapfiles/place_api/icons/v2/restaurant_pinlet",
      "name": "Due Fratelli Pizza",
      "opening_hours": {
        "open_now": true
      },
      "photos": [
        {
          "height": 652,
          "html_attributions": [
            "<a href=\"https://maps.google.com/maps/contrib/116437016482179276633\">Due Fratelli Pizza</a>"
          ],
          "photo_reference": "AeJbb3cucvJFtR-E3Hz95QYI2L_XBWVnNz3tsL0P9cQ-vdyWAqJBWp8fUXlAuE7dM6H8OxsiV2FnTew6UpLR199R5djXL5m5xLBO6SYOTbb-Wc8qiPs1-LOg-FDwGiDoVH7bwJNP0ExfTmSUYpwPYaITDX9bOSb3A4iFuX4Ga2H9lEyTTMiU",
          "width": 947
        }
      ],
      "place_id": "ChIJ8YqSXvRbwokRTub-mqtWkRo",
      "plus_code": {
        "compound_code": "M3R5+XW \u7f8e\u570b\u7d10\u7d04",
        "global_code": "87G8M3R5+XW"
      },
      "price_level": 2,
      "rating": 4,
      "reference": "ChIJ8YqSXvRbwokRTub-mqtWkRo",
      "scope": "GOOGLE",
      "types": [
        "meal_delivery",
        "meal_takeaway",
        "restaurant",
        "food",
        "point_of_interest",
        "establishment"
      ],
      "user_ratings_total": 210,
      "vicinity": "894 DeKalb Avenue, Brooklyn"
    },
    {
      "business_status": "OPERATIONAL",
      "geometry": {
        "location": {
          "lat": 40.6913388,
          "lng": -73.94056669999999
        },
        "viewport": {
          "northeast": {
            "lat": 40.6925774802915,
            "lng": -73.9392366197085
          },
          "southwest": {
            "lat": 40.68987951970851,
            "lng": -73.94193458029152
          }
        }
      },
      "icon": "https://maps.gstatic.com/mapfiles/place_api/icons/v1/png_71/worship_general-71.png",
      "icon_background_color": "#7B9EB0",
      "icon_mask_base_uri": "https://maps.gstatic.com/mapfiles/place_api/icons/v2/worship_christian_pinlet",
      "name": "Church Avenue Merchants Block",
      "place_id": "ChIJba0v7_RbwokR8N1MrmYhn_I",
      "plus_code": {
        "compound_code": "M3R5+GQ \u7f8e\u570b\u7d10\u7d04\u5e03\u9c81\u514b\u6797",
        "global_code": "87G8M3R5+GQ"
      },
      "reference": "ChIJba0v7_RbwokR8N1MrmYhn_I",
      "scope": "GOOGLE",
      "types": [
        "church",
        "place_of_worship",
        "point_of_interest",
        "establishment"
      ],
      "vicinity": "787 Lafayette Avenue, Brooklyn"
    },
    {
      "business_status": "OPERATIONAL",
      "geometry": {
        "location": {
          "lat": 40.6944294,
          "lng": -73.93466149999999
        },
        "viewport": {
          "northeast": {
            "lat": 40.69579703029149,
            "lng": -73.93315511970849
          },
          "southwest": {
            "lat": 40.6930990697085,
            "lng": -73.9358530802915
          }
        }
      },
      "icon": "https://maps.gstatic.com/mapfiles/place_api/icons/v1/png_71/generic_business-71.png",
      "icon_background_color": "#7B9EB0",
      "icon_mask_base_uri": "https://maps.gstatic.com/mapfiles/place_api/icons/v2/generic_pinlet",
      "name": "Maria Lawton Senior Center",
      "opening_hours": {
        "open_now": false
      },
      "place_id": "ChIJzesS7AlcwokR9ebDLk3CzVY",
      "plus_code": {
        "compound_code": "M3V8+Q4 \u7f8e\u570b\u7d10\u7d04",
        "global_code": "87G8M3V8+Q4"
      },
      "rating": 3.3,
      "reference": "ChIJzesS7AlcwokR9ebDLk3CzVY",
      "scope": "GOOGLE",
      "types": [
        "point_of_interest",
        "establishment"
      ],
      "user_ratings_total": 11,
      "vicinity": "400 Hart Street, Brooklyn"
    },
    {
      "business_status": "OPERATIONAL",
      "geometry": {
        "location": {
          "lat": 40.6887604,
          "lng": -73.9366616
        },
        "viewport": {
          "northeast": {
            "lat": 40.69002053029149,
            "lng": -73.9353102197085
          },
          "southwest": {
            "lat": 40.6873225697085,
            "lng": -73.9380081802915
          }
        }
      },
      "icon": "https://maps.gstatic.com/mapfiles/place_api/icons/v1/png_71/generic_business-71.png",
      "icon_background_color": "#7B9EB0",
      "icon_mask_base_uri": "https://maps.gstatic.com/mapfiles/place_api/icons/v2/generic_pinlet",
      "name": "Dr. Michel S. Vington, MD",
      "place_id": "ChIJF306ropbwokR71WLTUh0CDA",
      "plus_code": {
        "compound_code": "M3Q7+G8 \u7f8e\u570b\u7d10\u7d04",
        "global_code": "87G8M3Q7+G8"
      },
      "reference": "ChIJF306ropbwokR71WLTUh0CDA",
      "scope": "GOOGLE",
      "types": [
        "doctor",
        "health",
        "point_of_interest",
        "establishment"
      ],
      "vicinity": "567 Quincy Street, Brooklyn"
    },
    {
      "business_status": "CLOSED_TEMPORARILY",
      "geometry": {
        "location": {
          "lat": 40.6912661,
          "lng": -73.9418745
        },
        "viewport": {
          "northeast": {
            "lat": 40.69283128029149,
            "lng": -73.9405688697085
          },
          "southwest": {
            "lat": 40.69013331970849,
            "lng": -73.9432668302915
          }
        }
      },
      "icon": "https://maps.gstatic.com/mapfiles/place_api/icons/v1/png_71/generic_business-71.png",
      "icon_background_color": "#7B9EB0",
      "icon_mask_base_uri": "https://maps.gstatic.com/mapfiles/place_api/icons/v2/generic_pinlet",
      "name": "Great American Construction",
      "permanently_closed": true,
      "place_id": "ChIJIVJVvfRbwokR8TIJGiK70qE",
      "plus_code": {
        "compound_code": "M3R5+G7 \u7f8e\u570b\u7d10\u7d04",
        "global_code": "87G8M3R5+G7"
      },
      "rating": 5,
      "reference": "ChIJIVJVvfRbwokR8TIJGiK70qE",
      "scope": "GOOGLE",
      "types": [
        "general_contractor",
        "point_of_interest",
        "establishment"
      ],
      "user_ratings_total": 1,
      "vicinity": "775 Lafayette Avenue, Brooklyn"
    },
    {
      "business_status": "OPERATIONAL",
      "geometry": {
        "location": {
          "lat": 40.6880167,
          "lng": -73.9367646
        },
        "viewport": {
          "northeast": {
            "lat": 40.68941433029149,
            "lng": -73.9354258197085
          },
          "southwest": {
            "lat": 40.6867163697085,
            "lng": -73.9381237802915
          }
        }
      },
      "icon": "https://maps.gstatic.com/mapfiles/place_api/icons/v1/png_71/generic_business-71.png",
      "icon_background_color": "#7B9EB0",
      "icon_mask_base_uri": "https://maps.gstatic.com/mapfiles/place_api/icons/v2/generic_pinlet",
      "name": "Medgar Evers Apartments",
      "place_id": "ChIJbTEpmIpbwokR5ta-92NyPs8",
      "plus_code": {
        "compound_code": "M3Q7+67 \u7f8e\u570b\u7d10\u7d04\u5e03\u9c81\u514b\u6797",
        "global_code": "87G8M3Q7+67"
      },
      "rating": 3.9,
      "reference": "ChIJbTEpmIpbwokR5ta-92NyPs8",
      "scope": "GOOGLE",
      "types": [
        "point_of_interest",
        "establishment"
      ],
      "user_ratings_total": 10,
      "vicinity": "745 Gates Avenue # 1E, Brooklyn"
    },
    {
      "business_status": "OPERATIONAL",
      "geometry": {
        "location": {
          "lat": 40.6959352,
          "lng": -73.9397196
        },
        "viewport": {
          "northeast": {
            "lat": 40.6971740802915,
            "lng": -73.9383483197085
          },
          "southwest": {
            "lat": 40.6944761197085,
            "lng": -73.9410462802915
          }
        }
      },
      "icon": "https://maps.gstatic.com/mapfiles/place_api/icons/v1/png_71/school-71.png",
      "icon_background_color": "#7B9EB0",
      "icon_mask_base_uri": "https://maps.gstatic.com/mapfiles/place_api/icons/v2/school_pinlet",
      "name": "Mommy & Daddy's Little Angel's",
      "place_id": "ChIJaeLtlfZbwokRn9XBTKn9jBw",
      "plus_code": {
        "compound_code": "M3W6+94 \u7f8e\u570b\u7d10\u7d04\u5e03\u9c81\u514b\u6797",
        "global_code": "87G8M3W6+94"
      },
      "rating": 5,
      "reference": "ChIJaeLtlfZbwokRn9XBTKn9jBw",
      "scope": "GOOGLE",
      "types": [
        "point_of_interest",
        "establishment"
      ],
      "user_ratings_total": 1,
      "vicinity": "303 Vernon Avenue # 4G, Brooklyn"
    },
    {
      "business_status": "CLOSED_TEMPORARILY",
      "geometry": {
        "location": {
          "lat": 40.6884471,
          "lng": -73.9352955
        },
        "viewport": {
          "northeast": {
            "lat": 40.6899325302915,
            "lng": -73.9339856197085
          },
          "southwest": {
            "lat": 40.6872345697085,
            "lng": -73.93668358029151
          }
        }
      },
      "icon": "https://maps.gstatic.com/mapfiles/place_api/icons/v1/png_71/school-71.png",
      "icon_background_color": "#7B9EB0",
      "icon_mask_base_uri": "https://maps.gstatic.com/mapfiles/place_api/icons/v2/school_pinlet",
      "name": "Trevor Rampersad School",
      "permanently_closed": true,
      "place_id": "ChIJ55L3VnVcwokRKKTOQc77X0Y",
      "plus_code": {
        "compound_code": "M3Q7+9V \u7f8e\u570b\u7d10\u7d04",
        "global_code": "87G8M3Q7+9V"
      },
      "reference": "ChIJ55L3VnVcwokRKKTOQc77X0Y",
      "scope": "GOOGLE",
      "types": [
        "school",
        "point_of_interest",
        "establishment"
      ],
      "vicinity": "616 Quincy Street, Brooklyn"
    },
    {
      "business_status": "OPERATIONAL",
      "geometry": {
        "location": {
          "lat": 40.6926111,
          "lng": -73.9396732
        },
        "viewport": {
          "northeast": {
            "lat": 40.6940222802915,
            "lng": -73.9382373697085
          },
          "southwest": {
            "lat": 40.6913243197085,
            "lng": -73.94093533029151
          }
        }
      },
      "icon": "https://maps.gstatic.com/mapfiles/place_api/icons/v1/png_71/generic_business-71.png",
      "icon_background_color": "#7B9EB0",
      "icon_mask_base_uri": "https://maps.gstatic.com/mapfiles/place_api/icons/v2/generic_pinlet",
      "name": "Community Access Inc",
      "photos": [
        {
          "height": 4608,
          "html_attributions": [
            "<a href=\"https://maps.google.com/maps/contrib/105455833083446178530\">Aunie Creations, LLC</a>"
          ],
          "photo_reference": "AeJbb3cLMvEy7dflsLnrkVUCKZiR9vC5miTAMlJahY_6AtzQAY6PUjpoSkbcidsJY0AGglMh51nukIxzIsk6U7gbNZHsUaoWTm7Dg3VGCS0-oVs0g4GKxDs4lNXDHZdhhkLELRy-IBaf88Ta32Pk40wRzcA7PLupniQQ2TuIW2IEijyGAJxo",
          "width": 2592
        }
      ],
      "place_id": "ChIJtzbDTfRbwokRHfSdtaqsu7M",
      "plus_code": {
        "compound_code": "M3V6+24 \u7f8e\u570b\u7d10\u7d04",
        "global_code": "87G8M3V6+24"
      },
      "rating": 3.7,
      "reference": "ChIJtzbDTfRbwokRHfSdtaqsu7M",
      "scope": "GOOGLE",
      "types": [
        "point_of_interest",
        "establishment"
      ],
      "user_ratings_total": 7,
      "vicinity": "910 DeKalb Avenue, Brooklyn"
    },
    {
      "business_status": "CLOSED_TEMPORARILY",
      "geometry": {
        "location": {
          "lat": 40.6966458,
          "lng": -73.93626189999999
        },
        "viewport": {
          "northeast": {
            "lat": 40.6981244802915,
            "lng": -73.93480201970848
          },
          "southwest": {
            "lat": 40.6954265197085,
            "lng": -73.93749998029149
          }
        }
      },
      "icon": "https://maps.gstatic.com/mapfiles/place_api/icons/v1/png_71/shopping-71.png",
      "icon_background_color": "#4B96F3",
      "icon_mask_base_uri": "https://maps.gstatic.com/mapfiles/place_api/icons/v2/shoppingcart_pinlet",
      "name": "FOOD BAZAAR",
      "permanently_closed": true,
      "photos": [
        {
          "height": 2340,
          "html_attributions": [
            "<a href=\"https://maps.google.com/maps/contrib/104552224087775190927\">Joshua Figueroa</a>"
          ],
          "photo_reference": "AeJbb3cCCk2GrdVwy6gi79i0SbQd6rqD8SgR4D-vSBKjqnpgrOYQ1dPX0kFug3TOtFUZRjlnPiYdCnYSqAPiXfQnJCkRl0Q3x4YsWpFfskHeWjnOfO_nyyY6Bg565ocHwSXo3ddQ42yqFkAvfoqOPrCr4gbJJLOOxVTxviOWb-xqW300qoPS",
          "width": 4160
        }
      ],
      "place_id": "ChIJ1wyl1PdbwokRbdiDPtmRp8k",
      "plus_code": {
        "compound_code": "M3W7+MF \u7f8e\u570b\u7d10\u7d04",
        "global_code": "87G8M3W7+MF"
      },
      "rating": 4.2,
      "reference": "ChIJ1wyl1PdbwokRbdiDPtmRp8k",
      "scope": "GOOGLE",
      "types": [
        "supermarket",
        "grocery_or_supermarket",
        "food",
        "store",
        "point_of_interest",
        "establishment"
      ],
      "user_ratings_total": 2976,
      "vicinity": "1102 Myrtle Avenue, Brooklyn"
    },
    {
      "business_status": "OPERATIONAL",
      "geometry": {
        "location": {
          "lat": 40.6926578,
          "lng": -73.9359051
        },
        "viewport": {
          "northeast": {
            "lat": 40.69424848029149,
            "lng": -73.93460441970848
          },
          "southwest": {
            "lat": 40.6915505197085,
            "lng": -73.9373023802915
          }
        }
      },
      "icon": "https://maps.gstatic.com/mapfiles/place_api/icons/v1/png_71/generic_business-71.png",
      "icon_background_color": "#7B9EB0",
      "icon_mask_base_uri": "https://maps.gstatic.com/mapfiles/place_api/icons/v2/generic_pinlet",
      "name": "Eleanor Roosevelt Playground",
      "opening_hours": {
        "open_now": true
      },
      "photos": [
        {
          "height": 940,
          "html_attributions": [
            "<a href=\"https://maps.google.com/maps/contrib/105686651025518319676\">Eleanor Roosevelt Playground</a>"
          ],
          "photo_reference": "AeJbb3fL2mS30-qlYP5VnPwaTUSbDfkvTXZrE5c19-IQeikYgyYJhhAmFxPl0RSIT7HhBS3heYrKSDFTLCimCdVa0BP9FZ3vhO6oKXwq3w8887SueEWExoxhAs3qkoasgWg5taX9dDUpndWkH0fjqKSri0_XYH7jIMdY9yWw6Wo9iqp5URbk",
          "width": 1253
        }
      ],
      "place_id": "ChIJ4fa5DApcwokRx75XxCSdRWM",
      "plus_code": {
        "compound_code": "M3V7+3J \u7f8e\u570b\u7d10\u7d04",
        "global_code": "87G8M3V7+3J"
      },
      "rating": 4,
      "reference": "ChIJ4fa5DApcwokRx75XxCSdRWM",
      "scope": "GOOGLE",
      "types": [
        "point_of_interest",
        "establishment"
      ],
      "user_ratings_total": 66,
      "vicinity": "982 DeKalb Avenue, Brooklyn"
    },
    {
      "business_status": "CLOSED_TEMPORARILY",
      "geometry": {
        "location": {
          "lat": 40.6937567,
          "lng": -73.9407123
        },
        "viewport": {
          "northeast": {
            "lat": 40.6952744802915,
            "lng": -73.93942276970849
          },
          "southwest": {
            "lat": 40.6925765197085,
            "lng": -73.9421207302915
          }
        }
      },
      "icon": "https://maps.gstatic.com/mapfiles/place_api/icons/v1/png_71/school-71.png",
      "icon_background_color": "#7B9EB0",
      "icon_mask_base_uri": "https://maps.gstatic.com/mapfiles/place_api/icons/v2/school_pinlet",
      "name": "Brooklyn School District 16",
      "permanently_closed": true,
      "place_id": "ChIJF-AfDfRbwokRqNRLqcY1vS4",
      "plus_code": {
        "compound_code": "M3V5+GP \u7f8e\u570b\u7d10\u7d04\u5e03\u9c81\u514b\u6797",
        "global_code": "87G8M3V5+GP"
      },
      "reference": "ChIJF-AfDfRbwokRqNRLqcY1vS4",
      "scope": "GOOGLE",
      "types": [
        "school",
        "point_of_interest",
        "establishment"
      ],
      "vicinity": "280 Hart Street, Brooklyn"
    },
    {
      "business_status": "OPERATIONAL",
      "geometry": {
        "location": {
          "lat": 40.6917225,
          "lng": -73.934465
        },
        "viewport": {
          "northeast": {
            "lat": 40.6931210302915,
            "lng": -73.9331262197085
          },
          "southwest": {
            "lat": 40.6904230697085,
            "lng": -73.9358241802915
          }
        }
      },
      "icon": "https://maps.gstatic.com/mapfiles/place_api/icons/v1/png_71/shopping-71.png",
      "icon_background_color": "#4B96F3",
      "icon_mask_base_uri": "https://maps.gstatic.com/mapfiles/place_api/icons/v2/shopping_pinlet",
      "name": "Burner Supplies Inc",
      "opening_hours": {
        "open_now": false
      },
      "place_id": "ChIJDUbAXwpcwokR5Iq901xwMnM",
      "plus_code": {
        "compound_code": "M3R8+M6 \u7f8e\u570b\u7d10\u7d04",
        "global_code": "87G8M3R8+M6"
      },
      "rating": 2.5,
      "reference": "ChIJDUbAXwpcwokR5Iq901xwMnM",
      "scope": "GOOGLE",
      "types": [
        "store",
        "point_of_interest",
        "establishment"
      ],
      "user_ratings_total": 2,
      "vicinity": "942 Lafayette Avenue, Brooklyn"
    },
    {
      "business_status": "OPERATIONAL",
      "geometry": {
        "location": {
          "lat": 40.6930697,
          "lng": -73.94021029999999
        },
        "viewport": {
          "northeast": {
            "lat": 40.69442678029149,
            "lng": -73.93877636970849
          },
          "southwest": {
            "lat": 40.69172881970849,
            "lng": -73.9414743302915
          }
        }
      },
      "icon": "https://maps.gstatic.com/mapfiles/place_api/icons/v1/png_71/generic_business-71.png",
      "icon_background_color": "#7B9EB0",
      "icon_mask_base_uri": "https://maps.gstatic.com/mapfiles/place_api/icons/v2/generic_pinlet",
      "name": "Ery's Unisex Salon",
      "opening_hours": {
        "open_now": true
      },
      "photos": [
        {
          "height": 3024,
          "html_attributions": [
            "<a href=\"https://maps.google.com/maps/contrib/106198955171123355253\">Thomas Turnbull</a>"
          ],
          "photo_reference": "AeJbb3cf9NecZO2rbaes5HIXQiCQ3t8glxfkRXBoGvPVxhjFazXPv6Kq4oGR_I4Nj6g_0TBC96DW6UZDp6xJzMycw9EOkaLkbHnakcAJngwn15bZhdlxNiceRpV6zvI3E4XtC0PXVI34rjZUVuNb42YP-9XRwujdBwDWtNRmrCHrT-sRuQ5y",
          "width": 4032
        }
      ],
      "place_id": "ChIJtYPdQPRbwokRjyDi7WHQ1uQ",
      "plus_code": {
        "compound_code": "M3V5+6W \u7f8e\u570b\u7d10\u7d04",
        "global_code": "87G8M3V5+6W"
      },
      "rating": 4.8,
      "reference": "ChIJtYPdQPRbwokRjyDi7WHQ1uQ",
      "scope": "GOOGLE",
      "types": [
        "beauty_salon",
        "point_of_interest",
        "establishment"
      ],
      "user_ratings_total": 43,
      "vicinity": "154 Marcus Garvey Boulevard, Brooklyn"
    },
    {
      "business_status": "OPERATIONAL",
      "geometry": {
        "location": {
          "lat": 40.69070899999999,
          "lng": -73.936306
        },
        "viewport": {
          "northeast": {
            "lat": 40.6921304302915,
            "lng": -73.9349715697085
          },
          "southwest": {
            "lat": 40.6894324697085,
            "lng": -73.9376695302915
          }
        }
      },
      "icon": "https://maps.gstatic.com/mapfiles/place_api/icons/v1/png_71/atm-71.png",
      "icon_background_color": "#909CE1",
      "icon_mask_base_uri": "https://maps.gstatic.com/mapfiles/place_api/icons/v2/atm_pinlet",
      "name": "Cardtronics ATM",
      "place_id": "ChIJa7UKY_VbwokRed9J5nNk72s",
      "plus_code": {
        "compound_code": "M3R7+7F \u7f8e\u570b\u7d10\u7d04\u5e03\u9c81\u514b\u6797",
        "global_code": "87G8M3R7+7F"
      },
      "reference": "ChIJa7UKY_VbwokRed9J5nNk72s",
      "scope": "GOOGLE",
      "types": [
        "atm",
        "finance",
        "point_of_interest",
        "establishment"
      ],
      "vicinity": "262 Van Buren Street, Brooklyn"
    },
    {
      "geometry": {
        "location": {
          "lat": 40.6781784,
          "lng": -73.9441579
        },
        "viewport": {
          "northeast": {
            "lat": 40.73944597129348,
            "lng": -73.83336505117123
          },
          "southwest": {
            "lat": 40.55104197967331,
            "lng": -74.05662998413648
          }
        }
      },
      "icon": "https://maps.gstatic.com/mapfiles/place_api/icons/v1/png_71/geocode-71.png",
      "icon_background_color": "#7B9EB0",
      "icon_mask_base_uri": "https://maps.gstatic.com/mapfiles/place_api/icons/v2/generic_pinlet",
      "name": "\u5e03\u9c81\u514b\u6797",
      "photos": [
        {
          "height": 3024,
          "html_attributions": [
            "<a href=\"https://maps.google.com/maps/contrib/114417859579881743500\">Chengxiang Yuan</a>"
          ],
          "photo_reference": "AeJbb3fo7F_CeWymJ_VZqlRRI-Q3Qp4ks5isw9JJ_8EbaZ9rk0g7ROkKYvT19cH_cklBkxTNmOJmNBXVArcwLdZ2KkcGwNbi_uQND_OkCyxxVCCtqLxLk7m6M-q8rUPwmodLYCCSxrcNgozuq4yVW4M7V1UsafrWXzvEHPrOWzRfOfABM8a1",
          "width": 4032
        }
      ],
      "place_id": "ChIJCSF8lBZEwokRhngABHRcdoI",
      "reference": "ChIJCSF8lBZEwokRhngABHRcdoI",
      "scope": "GOOGLE",
      "types": [
        "sublocality_level_1",
        "sublocality",
        "political"
      ],
      "vicinity": "\u5e03\u9c81\u514b\u6797"
    },
    {
      "business_status": "CLOSED_TEMPORARILY",
      "geometry": {
        "location": {
          "lat": 40.692381,
          "lng": -73.937972
        },
        "viewport": {
          "northeast": {
            "lat": 40.6936209302915,
            "lng": -73.9365930697085
          },
          "southwest": {
            "lat": 40.6909229697085,
            "lng": -73.9392910302915
          }
        }
      },
      "icon": "https://maps.gstatic.com/mapfiles/place_api/icons/v1/png_71/generic_business-71.png",
      "icon_background_color": "#7B9EB0",
      "icon_mask_base_uri": "https://maps.gstatic.com/mapfiles/place_api/icons/v2/generic_pinlet",
      "name": "Alsaaz International Corporation",
      "permanently_closed": true,
      "place_id": "ChIJ_ybkpPVbwokR3BUOoTFK-kY",
      "plus_code": {
        "compound_code": "M3R6+XR New York, NY, USA",
        "global_code": "87G8M3R6+XR"
      },
      "reference": "ChIJ_ybkpPVbwokR3BUOoTFK-kY",
      "scope": "GOOGLE",
      "types": [
        "point_of_interest",
        "establishment"
      ],
      "vicinity": "415A Kosciuszko Street, Brooklyn"
    },
    {
      "business_status": "CLOSED_TEMPORARILY",
      "geometry": {
        "location": {
          "lat": 40.6903111,
          "lng": -73.9363812
        },
        "viewport": {
          "northeast": {
            "lat": 40.6915568802915,
            "lng": -73.93501146970848
          },
          "southwest": {
            "lat": 40.6888589197085,
            "lng": -73.93770943029149
          }
        }
      },
      "icon": "https://maps.gstatic.com/mapfiles/place_api/icons/v1/png_71/generic_business-71.png",
      "icon_background_color": "#7B9EB0",
      "icon_mask_base_uri": "https://maps.gstatic.com/mapfiles/place_api/icons/v2/generic_pinlet",
      "name": "Campala Design",
      "permanently_closed": true,
      "place_id": "ChIJ7dJ3XvVbwokRlprMcN8Ptj8",
      "plus_code": {
        "compound_code": "M3R7+4C New York, NY, USA",
        "global_code": "87G8M3R7+4C"
      },
      "reference": "ChIJ7dJ3XvVbwokRlprMcN8Ptj8",
      "scope": "GOOGLE",
      "types": [
        "point_of_interest",
        "establishment"
      ],
      "vicinity": "791 Greene Avenue, Brooklyn"
    },
    {
      "business_status": "OPERATIONAL",
      "geometry": {
        "location": {
          "lat": 40.69405980000001,
          "lng": -73.9394494
        },
        "viewport": {
          "northeast": {
            "lat": 40.6954997302915,
            "lng": -73.93812886970849
          },
          "southwest": {
            "lat": 40.6928017697085,
            "lng": -73.9408268302915
          }
        }
      },
      "icon": "https://maps.gstatic.com/mapfiles/place_api/icons/v1/png_71/generic_business-71.png",
      "icon_background_color": "#7B9EB0",
      "icon_mask_base_uri": "https://maps.gstatic.com/mapfiles/place_api/icons/v2/generic_pinlet",
      "name": "A Twist Of Feith Inc",
      "photos": [
        {
          "height": 768,
          "html_attributions": [
            "<a href=\"https://maps.google.com/maps/contrib/117246240368476533359\">A Twist Of Feith Inc</a>"
          ],
          "photo_reference": "AeJbb3fWk5MBS1J4pw1W5g5wDsaJaBm6uGGPYR6ToVN3o1xJFzgPvjlEeQrnjC6PtqXoxBso0axSit2Z4Y8reIDzXeef631zYsZmcUx2UAW1UAuLURRjFKYT4-0TGuAAZuz5f5xNzb3zkb6UfUMeRppcFnsBn-yvSzW_5q-wxfoCyixtZm-U",
          "width": 1024
        }
      ],
      "place_id": "ChIJKfrLL_RbwokRiWNs4uz-P3Q",
      "plus_code": {
        "compound_code": "M3V6+J6 Brooklyn, NY, USA",
        "global_code": "87G8M3V6+J6"
      },
      "reference": "ChIJKfrLL_RbwokRiWNs4uz-P3Q",
      "scope": "GOOGLE",
      "types": [
        "real_estate_agency",
        "point_of_interest",
        "establishment"
      ],
      "vicinity": "300 Hart Street, Brooklyn"
    },
    {
      "business_status": "OPERATIONAL",
      "geometry": {
        "location": {
          "lat": 40.6921097,
          "lng": -73.9374729
        },
        "viewport": {
          "northeast": {
            "lat": 40.6935081802915,
            "lng": -73.9361340197085
          },
          "southwest": {
            "lat": 40.6908102197085,
            "lng": -73.93883198029151
          }
        }
      },
      "icon": "https://maps.gstatic.com/mapfiles/place_api/icons/v1/png_71/generic_business-71.png",
      "icon_background_color": "#7B9EB0",
      "icon_mask_base_uri": "https://maps.gstatic.com/mapfiles/place_api/icons/v2/generic_pinlet",
      "name": "Daniella Mon\u00e9 Photography",
      "opening_hours": {
        "open_now": false
      },
      "photos": [
        {
          "height": 1576,
          "html_attributions": [
            "<a href=\"https://maps.google.com/maps/contrib/116905197564722115711\">DMP Headshots</a>"
          ],
          "photo_reference": "AeJbb3fqfPqw61CKonN4rxS8saFwEY_F5eB-8twBcoTliUHxiDiHRbn15htTzlSGz_KqTF0X4kNBrIJ_QXgmCUwiHNr87KuWWphTUNGvXkzk7VSytW23dqJw1X0gLzlfJFJQm7zYlvNm0lUS5dLQoYJqpnqH2vhtCoQqIoiO8GziwAEhBIai",
          "width": 2800
        }
      ],
      "place_id": "ChIJeQsjzQtcwokRng4IVQsbwvQ",
      "plus_code": {
        "compound_code": "M3R7+R2 New York, NY, USA",
        "global_code": "87G8M3R7+R2"
      },
      "rating": 5,
      "reference": "ChIJeQsjzQtcwokRng4IVQsbwvQ",
      "scope": "GOOGLE",
      "types": [
        "point_of_interest",
        "establishment"
      ],
      "user_ratings_total": 25,
      "vicinity": "Kosciuszko Street, Brooklyn"
    },
    {
      "business_status": "CLOSED_TEMPORARILY",
      "geometry": {
        "location": {
          "lat": 40.6919559,
          "lng": -73.93700199999999
        },
        "viewport": {
          "northeast": {
            "lat": 40.69331433029149,
            "lng": -73.93557341970849
          },
          "southwest": {
            "lat": 40.69061636970849,
            "lng": -73.93827138029151
          }
        }
      },
      "icon": "https://maps.gstatic.com/mapfiles/place_api/icons/v1/png_71/generic_business-71.png",
      "icon_background_color": "#7B9EB0",
      "icon_mask_base_uri": "https://maps.gstatic.com/mapfiles/place_api/icons/v2/generic_pinlet",
      "name": "Bagill's Legal Support",
      "permanently_closed": true,
      "place_id": "ChIJV2mFnPVbwokRjcPuKqciiwU",
      "plus_code": {
        "compound_code": "M3R7+Q5 New York, NY, USA",
        "global_code": "87G8M3R7+Q5"
      },
      "reference": "ChIJV2mFnPVbwokRjcPuKqciiwU",
      "scope": "GOOGLE",
      "types": [
        "point_of_interest",
        "establishment"
      ],
      "vicinity": "144 Lewis Avenue, Brooklyn"
    },
    {
      "business_status": "OPERATIONAL",
      "geometry": {
        "location": {
          "lat": 40.6925359,
          "lng": -73.93654819999999
        },
        "viewport": {
          "northeast": {
            "lat": 40.6937846802915,
            "lng": -73.93516531970849
          },
          "southwest": {
            "lat": 40.6910867197085,
            "lng": -73.9378632802915
          }
        }
      },
      "icon": "https://maps.gstatic.com/mapfiles/place_api/icons/v1/png_71/school-71.png",
      "icon_background_color": "#7B9EB0",
      "icon_mask_base_uri": "https://maps.gstatic.com/mapfiles/place_api/icons/v2/school_pinlet",
      "name": "Kidz Schoolhouse Early Learning Academy, LLC I 24/7 Group Family Day Care Service",
      "opening_hours": {
        "open_now": true
      },
      "photos": [
        {
          "height": 393,
          "html_attributions": [
            "<a href=\"https://maps.google.com/maps/contrib/116116976342066941772\">Kidz Schoolhouse Early Learning Academy, LLC I 24/7 Group Family Day Care Service</a>"
          ],
          "photo_reference": "AeJbb3ck8cZIuuFUSvURWgdhnLGmArQAp_o5ipn-r-hQJpbrnEPkTPv9Oh92xr65lPSemEMsVdq9ZkvScqHzfzxsC9mldz_3k9W5toTlZvTM2-3Qm3PNkxhyJFDvFzg6Ubc33Edsd8XWl7XMhgDbnsNZf52CQV7axDe7saFYpKN1VjSJMAwv",
          "width": 699
        }
      ],
      "place_id": "ChIJkSGnkXRcwokRgEeYSpaHluY",
      "plus_code": {
        "compound_code": "M3V7+29 New York, NY, USA",
        "global_code": "87G8M3V7+29"
      },
      "rating": 5,
      "reference": "ChIJkSGnkXRcwokRgEeYSpaHluY",
      "scope": "GOOGLE",
      "types": [
        "point_of_interest",
        "establishment"
      ],
      "user_ratings_total": 3,
      "vicinity": "463 Kosciuszko Street, Brooklyn"
    },
    {
      "business_status": "OPERATIONAL",
      "geometry": {
        "location": {
          "lat": 40.69194,
          "lng": -73.9370142
        },
        "viewport": {
          "northeast": {
            "lat": 40.6932993302915,
            "lng": -73.93557806970848
          },
          "southwest": {
            "lat": 40.6906013697085,
            "lng": -73.93827603029149
          }
        }
      },
      "icon": "https://maps.gstatic.com/mapfiles/place_api/icons/v1/png_71/generic_business-71.png",
      "icon_background_color": "#7B9EB0",
      "icon_mask_base_uri": "https://maps.gstatic.com/mapfiles/place_api/icons/v2/generic_pinlet",
      "name": "Bagill's Testing",
      "opening_hours": {
        "open_now": true
      },
      "photos": [
        {
          "height": 2048,
          "html_attributions": [
            "<a href=\"https://maps.google.com/maps/contrib/106132602939745810046\">Bagill&#39;s Testing</a>"
          ],
          "photo_reference": "AeJbb3f4HY4bZjX7vly__Ckk4B8e9s3A0TUyJVD0LIznTjEhKjEnQaVN2vsQHAaIGVuPwXua6zPthnEbqqhwWe2EWpElC0_OZczjQfvJedHqn9WIKJoCeMj5laF8MfSP0baOo3lyuwgaw2ms8GnN2_b5XrjWkL5cdWZCR4fGYT0S55Qsy2Sn",
          "width": 1535
        }
      ],
      "place_id": "ChIJV2mFnPVbwokRjI7GkH7lpk8",
      "plus_code": {
        "compound_code": "M3R7+Q5 New York, NY, USA",
        "global_code": "87G8M3R7+Q5"
      },
      "rating": 1,
      "reference": "ChIJV2mFnPVbwokRjI7GkH7lpk8",
      "scope": "GOOGLE",
      "types": [
        "health",
        "point_of_interest",
        "establishment"
      ],
      "user_ratings_total": 2,
      "vicinity": "144 Lewis Avenue Suite A, Brooklyn"
    },
    {
      "business_status": "OPERATIONAL",
      "geometry": {
        "location": {
          "lat": 40.6927153,
          "lng": -73.93799489999999
        },
        "viewport": {
          "northeast": {
            "lat": 40.69415993029151,
            "lng": -73.93666721970848
          },
          "southwest": {
            "lat": 40.69146196970851,
            "lng": -73.9393651802915
          }
        }
      },
      "icon": "https://maps.gstatic.com/mapfiles/place_api/icons/v1/png_71/civic_building-71.png",
      "icon_background_color": "#7B9EB0",
      "icon_mask_base_uri": "https://maps.gstatic.com/mapfiles/place_api/icons/v2/civic-bldg_pinlet",
      "name": "FDNY Engine 217",
      "photos": [
        {
          "height": 3774,
          "html_attributions": [
            "<a href=\"https://maps.google.com/maps/contrib/115034317907569632101\">Slava Gorodovoy</a>"
          ],
          "photo_reference": "AeJbb3c3Bgx0092TuaFohC9HE2nISyhsIO9klwOCEP_5jXSvc5qG9lzj6S3xYvMMGBmEv_3Sz8cd-hjiv8BOHkI00V2DqUW5ty6CIr1gxgTaI8T80ryt8Jj6KqkMM9r0bhR3_3j8rHfGEA6skqIzAVwXhFWWIqoccX7D-JonSge1soQiliAD",
          "width": 2830
        }
      ],
      "place_id": "ChIJMTfVu_VbwokR4AUkfMo1sJ0",
      "plus_code": {
        "compound_code": "M3V6+3R Brooklyn, NY, USA",
        "global_code": "87G8M3V6+3R"
      },
      "rating": 4,
      "reference": "ChIJMTfVu_VbwokR4AUkfMo1sJ0",
      "scope": "GOOGLE",
      "types": [
        "fire_station",
        "point_of_interest",
        "establishment"
      ],
      "user_ratings_total": 4,
      "vicinity": "940 DeKalb Avenue, Brooklyn"
    },
    {
      "business_status": "OPERATIONAL",
      "geometry": {
        "location": {
          "lat": 40.691835,
          "lng": -73.936205
        },
        "viewport": {
          "northeast": {
            "lat": 40.6930764802915,
            "lng": -73.9348336197085
          },
          "southwest": {
            "lat": 40.69037851970851,
            "lng": -73.9375315802915
          }
        }
      },
      "icon": "https://maps.gstatic.com/mapfiles/place_api/icons/v1/png_71/generic_business-71.png",
      "icon_background_color": "#13B5C7",
      "icon_mask_base_uri": "https://maps.gstatic.com/mapfiles/place_api/icons/v2/generic_pinlet",
      "name": "Floating Tower",
      "opening_hours": {
        "open_now": false
      },
      "photos": [
        {
          "height": 1190,
          "html_attributions": [
            "<a href=\"https://maps.google.com/maps/contrib/101241802957838360580\">Floating Tower</a>"
          ],
          "photo_reference": "AeJbb3d1BWYAsxxFCvTofPep_mIJX4hQp1EQYwBDAljnJwoNKnb2NeGGBkDvQznKkp43x2AjLA0mcKP9voRnVgjH8e3YR7FgqFP0U7lcb_xz4NHKm1WWj317cDxCgIHH1Fy2IUl-hL0-PSnNzIFxBQ-H87xG1QCe3p9ky2feOyJByAV8-BUs",
          "width": 1500
        }
      ],
      "place_id": "ChIJ5-A371BZwokRmHmLuiISkHI",
      "plus_code": {
        "compound_code": "M3R7+PG Brooklyn, NY, USA",
        "global_code": "87G8M3R7+PG"
      },
      "reference": "ChIJ5-A371BZwokRmHmLuiISkHI",
      "scope": "GOOGLE",
      "types": [
        "point_of_interest",
        "establishment"
      ],
      "vicinity": "907 Lafayette Avenue, Brooklyn"
    },
    {
      "business_status": "OPERATIONAL",
      "geometry": {
        "location": {
          "lat": 40.6913142,
          "lng": -73.9371038
        },
        "viewport": {
          "northeast": {
            "lat": 40.6927569802915,
            "lng": -73.9357851197085
          },
          "southwest": {
            "lat": 40.6900590197085,
            "lng": -73.93848308029152
          }
        }
      },
      "icon": "https://maps.gstatic.com/mapfiles/place_api/icons/v1/png_71/generic_business-71.png",
      "icon_background_color": "#7B9EB0",
      "icon_mask_base_uri": "https://maps.gstatic.com/mapfiles/place_api/icons/v2/generic_pinlet",
      "name": "LGM Real Estate",
      "photos": [
        {
          "height": 390,
          "html_attributions": [
            "<a href=\"https://maps.google.com/maps/contrib/104631869133193750327\">LGM Real Estate</a>"
          ],
          "photo_reference": "AeJbb3cXPq0I9f3_5F4ix75Dz8k4mNmVNgMm7JUHOWkVKZklO1baVmDUu_Q2SrotWkSH3zYmsUwRnYrGhKtOlggsEKeDUvPzPyreastMAY0KfFFg32adf59DdKwaRSFawRJYOJvIC0v0Nl6kMsZtFDiXnH6pjvi8kM8J0FTeaol9kHvpcK-3",
          "width": 574
        }
      ],
      "place_id": "ChIJN89aG5NbwokRYGbFqF6I71A",
      "plus_code": {
        "compound_code": "M3R7+G5 Brooklyn, NY, USA",
        "global_code": "87G8M3R7+G5"
      },
      "reference": "ChIJN89aG5NbwokRYGbFqF6I71A",
      "scope": "GOOGLE",
      "types": [
        "real_estate_agency",
        "point_of_interest",
        "establishment"
      ],
      "vicinity": "890 Lafayette Avenue, Brooklyn"
    },
    {
      "business_status": "CLOSED_TEMPORARILY",
      "geometry": {
        "location": {
          "lat": 40.6904679,
          "lng": -73.9375908
        },
        "viewport": {
          "northeast": {
            "lat": 40.69193458029149,
            "lng": -73.93626541970849
          },
          "southwest": {
            "lat": 40.6892366197085,
            "lng": -73.9389633802915
          }
        }
      },
      "icon": "https://maps.gstatic.com/mapfiles/place_api/icons/v1/png_71/generic_business-71.png",
      "icon_background_color": "#7B9EB0",
      "icon_mask_base_uri": "https://maps.gstatic.com/mapfiles/place_api/icons/v2/generic_pinlet",
      "name": "Beauty Through My Eyes",
      "permanently_closed": true,
      "place_id": "ChIJy666P_VbwokRmX_mWoIKL08",
      "plus_code": {
        "compound_code": "M3R6+5X Brooklyn, NY, USA",
        "global_code": "87G8M3R6+5X"
      },
      "reference": "ChIJy666P_VbwokRmX_mWoIKL08",
      "scope": "GOOGLE",
      "types": [
        "point_of_interest",
        "establishment"
      ],
      "vicinity": "220 Van Buren Street # 2, Brooklyn"
    },
    {
      "business_status": "OPERATIONAL",
      "geometry": {
        "location": {
          "lat": 40.6924553,
          "lng": -73.939796
        },
        "viewport": {
          "northeast": {
            "lat": 40.69379438029149,
            "lng": -73.93850921970848
          },
          "southwest": {
            "lat": 40.6910964197085,
            "lng": -73.9412071802915
          }
        }
      },
      "icon": "https://maps.gstatic.com/mapfiles/place_api/icons/v1/png_71/restaurant-71.png",
      "icon_background_color": "#FF9E67",
      "icon_mask_base_uri": "https://maps.gstatic.com/mapfiles/place_api/icons/v2/restaurant_pinlet",
      "name": "Crown Fried Chicken",
      "opening_hours": {
        "open_now": true
      },
      "photos": [
        {
          "height": 3024,
          "html_attributions": [
            "<a href=\"https://maps.google.com/maps/contrib/114435191733734457806\">Applied ESL</a>"
          ],
          "photo_reference": "AeJbb3f-H1Or_GW2oaFwu6Mx3xbB1GPwwQV1jzyu2Zhbk1eZKqYuyqc1LzN7FdfTBLZ7cgDJejDzGipOEBnfnurRgCdlKwIfbh4MIJ7DYlDVNlZtzoVtS-fpH_RAYoJesYwoqRDwrskLx95eXMpugrAbQlNubFd6Wj1ofRgq8BSDe9HFN-e3",
          "width": 4032
        }
      ],
      "place_id": "ChIJYQcvWvRbwokRR_-5oi9mg00",
      "plus_code": {
        "compound_code": "M3R6+X3 New York, NY, USA",
        "global_code": "87G8M3R6+X3"
      },
      "price_level": 1,
      "rating": 4,
      "reference": "ChIJYQcvWvRbwokRR_-5oi9mg00",
      "scope": "GOOGLE",
      "types": [
        "meal_takeaway",
        "restaurant",
        "food",
        "point_of_interest",
        "establishment"
      ],
      "user_ratings_total": 100,
      "vicinity": "167 Marcus Garvey Boulevard, Brooklyn"
    },
    {
      "business_status": "OPERATIONAL",
      "geometry": {
        "location": {
          "lat": 40.6910588,
          "lng": -73.93932269999999
        },
        "viewport": {
          "northeast": {
            "lat": 40.6923606802915,
            "lng": -73.9381165697085
          },
          "southwest": {
            "lat": 40.6896627197085,
            "lng": -73.9408145302915
          }
        }
      },
      "icon": "https://maps.gstatic.com/mapfiles/place_api/icons/v1/png_71/generic_business-71.png",
      "icon_background_color": "#7B9EB0",
      "icon_mask_base_uri": "https://maps.gstatic.com/mapfiles/place_api/icons/v2/generic_pinlet",
      "name": "Western Union",
      "opening_hours": {
        "open_now": true
      },
      "photos": [
        {
          "height": 3024,
          "html_attributions": [
            "<a href=\"https://maps.google.com/maps/contrib/114185866995673746667\">Jonathan Rosario</a>"
          ],
          "photo_reference": "AeJbb3fOoA-m06ZZ9xcJ1vALwMLaGLu2QwIv5GLLHfShfFE6fVnaf46dt6-D4XxjVFdT8KqrEqr3XPGlQg6Z5NcYXziOP3m8O5gwKIkb8OmorscM7KICXmlMuhUiXe9qM7fADsA2uprVDQkBO2uKWFjYXWqHZ7feqaqfFejNt4lwRvSBXeOb",
          "width": 4032
        }
      ],
      "place_id": "ChIJFbPN5vRbwokRAm7ayYo3oj0",
      "plus_code": {
        "compound_code": "M3R6+C7 Brooklyn, NY, USA",
        "global_code": "87G8M3R6+C7"
      },
      "rating": 5,
      "reference": "ChIJFbPN5vRbwokRAm7ayYo3oj0",
      "scope": "GOOGLE",
      "types": [
        "finance",
        "point_of_interest",
        "establishment"
      ],
      "user_ratings_total": 1,
      "vicinity": "Ideal Food Basket, 830 Lafayette Avenue, Brooklyn"
    },
    {
      "business_status": "OPERATIONAL",
      "geometry": {
        "location": {
          "lat": 40.69105620000001,
          "lng": -73.9393805
        },
        "viewport": {
          "northeast": {
            "lat": 40.6923593802915,
            "lng": -73.93814546970849
          },
          "southwest": {
            "lat": 40.68966141970851,
            "lng": -73.9408434302915
          }
        }
      },
      "icon": "https://maps.gstatic.com/mapfiles/place_api/icons/v1/png_71/generic_business-71.png",
      "icon_background_color": "#7B9EB0",
      "icon_mask_base_uri": "https://maps.gstatic.com/mapfiles/place_api/icons/v2/generic_pinlet",
      "name": "Coupon Express Inc",
      "place_id": "ChIJFbPN5vRbwokRE1b-FzgeCHo",
      "plus_code": {
        "compound_code": "M3R6+C6 New York, NY, USA",
        "global_code": "87G8M3R6+C6"
      },
      "reference": "ChIJFbPN5vRbwokRE1b-FzgeCHo",
      "scope": "GOOGLE",
      "types": [
        "point_of_interest",
        "establishment"
      ],
      "vicinity": "830 Lafayette Avenue, Brooklyn"
    },
    {
      "business_status": "OPERATIONAL",
      "geometry": {
        "location": {
          "lat": 40.6928808,
          "lng": -73.9401578
        },
        "viewport": {
          "northeast": {
            "lat": 40.69423688029151,
            "lng": -73.93873266970849
          },
          "southwest": {
            "lat": 40.69153891970851,
            "lng": -73.9414306302915
          }
        }
      },
      "icon": "https://maps.gstatic.com/mapfiles/place_api/icons/v1/png_71/generic_business-71.png",
      "icon_background_color": "#7B9EB0",
      "icon_mask_base_uri": "https://maps.gstatic.com/mapfiles/place_api/icons/v2/generic_pinlet",
      "name": "Western Union",
      "opening_hours": {
        "open_now": true
      },
      "photos": [
        {
          "height": 1000,
          "html_attributions": [
            "<a href=\"https://maps.google.com/maps/contrib/114905373278918078203\">Western Union</a>"
          ],
          "photo_reference": "AeJbb3ekVfFgevp2TE00CUMOX_1iuNpcSuUGiWvX4pFqnt8d3Ika09x652dWO0JsH-dfgBRuIOTY7mX7aCZD6Pa8sDXHAkAIRt7-fXb-xajd9ftB7HeRdwKdHjsca1Tqu7S3Grmv8LjyHs2A-_duvS9X-1rPTe75FVbq_-xY41S3-7gO4UHC",
          "width": 1000
        }
      ],
      "place_id": "ChIJOWgXQ_RbwokRC0y4sLsXaTg",
      "plus_code": {
        "compound_code": "M3V5+5W Brooklyn, NY, USA",
        "global_code": "87G8M3V5+5W"
      },
      "rating": 2,
      "reference": "ChIJOWgXQ_RbwokRC0y4sLsXaTg",
      "scope": "GOOGLE",
      "types": [
        "finance",
        "point_of_interest",
        "establishment"
      ],
      "user_ratings_total": 1,
      "vicinity": "Pay-o-matic, 158-160 Marcus Garvey Boulevard, Brooklyn"
    },
    {
      "business_status": "OPERATIONAL",
      "geometry": {
        "location": {
          "lat": 40.692879,
          "lng": -73.94021
        },
        "viewport": {
          "northeast": {
            "lat": 40.6942375302915,
            "lng": -73.93875901970848
          },
          "southwest": {
            "lat": 40.6915395697085,
            "lng": -73.94145698029149
          }
        }
      },
      "icon": "https://maps.gstatic.com/mapfiles/place_api/icons/v1/png_71/generic_business-71.png",
      "icon_background_color": "#7B9EB0",
      "icon_mask_base_uri": "https://maps.gstatic.com/mapfiles/place_api/icons/v2/generic_pinlet",
      "name": "Liberty Tax",
      "photos": [
        {
          "height": 417,
          "html_attributions": [
            "<a href=\"https://maps.google.com/maps/contrib/103347674190768154349\">Liberty Tax</a>"
          ],
          "photo_reference": "AeJbb3crLxjBcy00OHwCYQ-GSmO9ySDrOyfcZdLdAu4CGZBK8SDyigLkhB-95bSKeOSm0J2Rw6EegrafeEKbys4iOd-yMsC445-nwUcDnQLDKDLIYTs5WTInkDGadair6gEvggD7agLbw-2_-s-6bjSiB1ippTUG4F8xhENQBqxx3xoW_Fgq",
          "width": 417
        }
      ],
      "place_id": "ChIJrVkjWvRbwokRAmqhDZSY7hk",
      "plus_code": {
        "compound_code": "M3V5+5W New York, NY, USA",
        "global_code": "87G8M3V5+5W"
      },
      "rating": 4.3,
      "reference": "ChIJrVkjWvRbwokRAmqhDZSY7hk",
      "scope": "GOOGLE",
      "types": [
        "finance",
        "point_of_interest",
        "establishment"
      ],
      "user_ratings_total": 8,
      "vicinity": "158B Marcus Garvey Boulevard, Brooklyn"
    },
    {
      "business_status": "CLOSED_TEMPORARILY",
      "geometry": {
        "location": {
          "lat": 40.6939012,
          "lng": -73.9345355
        },
        "viewport": {
          "northeast": {
            "lat": 40.6953290302915,
            "lng": -73.9332009697085
          },
          "southwest": {
            "lat": 40.6926310697085,
            "lng": -73.9358989302915
          }
        }
      },
      "icon": "https://maps.gstatic.com/mapfiles/place_api/icons/v1/png_71/generic_business-71.png",
      "icon_background_color": "#7B9EB0",
      "icon_mask_base_uri": "https://maps.gstatic.com/mapfiles/place_api/icons/v2/generic_pinlet",
      "name": "New Life Worship and Praise Ministry Inc",
      "permanently_closed": true,
      "place_id": "ChIJTf769AlcwokRrnznX1OaewE",
      "plus_code": {
        "compound_code": "M3V8+H5 Brooklyn, NY, USA",
        "global_code": "87G8M3V8+H5"
      },
      "reference": "ChIJTf769AlcwokRrnznX1OaewE",
      "scope": "GOOGLE",
      "types": [
        "point_of_interest",
        "establishment"
      ],
      "vicinity": "412 Pulaski Street, Between Stuyvesant & Dekalb Street, Brooklyn"
    },
    {
      "business_status": "OPERATIONAL",
      "geometry": {
        "location": {
          "lat": 40.694589,
          "lng": -73.93843799999999
        },
        "viewport": {
          "northeast": {
            "lat": 40.69582683029149,
            "lng": -73.93706726970849
          },
          "southwest": {
            "lat": 40.6931288697085,
            "lng": -73.9397652302915
          }
        }
      },
      "icon": "https://maps.gstatic.com/mapfiles/place_api/icons/v1/png_71/generic_business-71.png",
      "icon_background_color": "#13B5C7",
      "icon_mask_base_uri": "https://maps.gstatic.com/mapfiles/place_api/icons/v2/generic_pinlet",
      "name": "NY Magician Matias Letelier",
      "opening_hours": {
        "open_now": true
      },
      "photos": [
        {
          "height": 1365,
          "html_attributions": [
            "<a href=\"https://maps.google.com/maps/contrib/111585402983731341226\">NY Magician Matias Letelier</a>"
          ],
          "photo_reference": "AeJbb3c6s7KcZy7zy4x7ha58ON1A2oQ64aGFqbQSDrMPnfv3OYVD7qbG3oMen5HVne99d6x_BcXOLStJ9XVJ7DfewQD8rARkoZu7RJy19UPjdyuwZn-R7T-FF2PmdEBg2lAULTgEjQdJ3NuV2OneFy8U5-7j9nskNvFZfGVDbk1N7uTl6kmE",
          "width": 2048
        }
      ],
      "place_id": "ChIJr6grURV344kRrNTW2RY0-9s",
      "plus_code": {
        "compound_code": "M3V6+RJ Brooklyn, NY, USA",
        "global_code": "87G8M3V6+RJ"
      },
      "rating": 4.8,
      "reference": "ChIJr6grURV344kRrNTW2RY0-9s",
      "scope": "GOOGLE",
      "types": [
        "point_of_interest",
        "establishment"
      ],
      "user_ratings_total": 21,
      "vicinity": "311 Hart Street #2c, Brooklyn"
    },
    {
      "business_status": "CLOSED_TEMPORARILY",
      "geometry": {
        "location": {
          "lat": 40.689841,
          "lng": -73.936582
        },
        "viewport": {
          "northeast": {
            "lat": 40.6913028802915,
            "lng": -73.9352768697085
          },
          "southwest": {
            "lat": 40.6886049197085,
            "lng": -73.93797483029151
          }
        }
      },
      "icon": "https://maps.gstatic.com/mapfiles/place_api/icons/v1/png_71/shopping-71.png",
      "icon_background_color": "#4B96F3",
      "icon_mask_base_uri": "https://maps.gstatic.com/mapfiles/place_api/icons/v2/shopping_pinlet",
      "name": "The Republik of Brooklyn",
      "permanently_closed": true,
      "photos": [
        {
          "height": 1064,
          "html_attributions": [
            "<a href=\"https://maps.google.com/maps/contrib/115823067920574265905\">The Republik of Brooklyn</a>"
          ],
          "photo_reference": "AeJbb3dQQKFBJ0H4WqT6Ui1fwADwLu4PqZ6kPbo9Ubqmuq5Np91OqNxqARKdkZqRg6vYtT-bG2meHywixZGQFIa2t2RYKGd5xWPrcwV-hfHNIkFqMWA7uir666X3HpnXipfijRZwSON9NStgBqPwNQyqtdQqMsOv3ebAE-abqhV0a4cd1K1d",
          "width": 1600
        }
      ],
      "place_id": "ChIJn8iaWvVbwokRJfsmAsYaFl0",
      "plus_code": {
        "compound_code": "M3Q7+W9 Brooklyn, NY, USA",
        "global_code": "87G8M3Q7+W9"
      },
      "reference": "ChIJn8iaWvVbwokRJfsmAsYaFl0",
      "scope": "GOOGLE",
      "types": [
        "clothing_store",
        "store",
        "point_of_interest",
        "establishment"
      ],
      "vicinity": "794 Greene Avenue, Brooklyn"
    },
    {
      "business_status": "OPERATIONAL",
      "geometry": {
        "location": {
          "lat": 40.6913178,
          "lng": -73.93397209999999
        },
        "viewport": {
          "northeast": {
            "lat": 40.6925659802915,
            "lng": -73.9326726697085
          },
          "southwest": {
            "lat": 40.6898680197085,
            "lng": -73.9353706302915
          }
        }
      },
      "icon": "https://maps.gstatic.com/mapfiles/place_api/icons/v1/png_71/generic_business-71.png",
      "icon_background_color": "#7B9EB0",
      "icon_mask_base_uri": "https://maps.gstatic.com/mapfiles/place_api/icons/v2/generic_pinlet",
      "name": "Housing Bridge",
      "place_id": "ChIJxyp-WApcwokRsgyAGtAuM2g",
      "plus_code": {
        "compound_code": "M3R8+GC New York, NY, USA",
        "global_code": "87G8M3R8+GC"
      },
      "rating": 2.5,
      "reference": "ChIJxyp-WApcwokRsgyAGtAuM2g",
      "scope": "GOOGLE",
      "types": [
        "point_of_interest",
        "establishment"
      ],
      "user_ratings_total": 4,
      "vicinity": "124 Stuyvesant Avenue, Brooklyn"
    },
    {
      "business_status": "OPERATIONAL",
      "geometry": {
        "location": {
          "lat": 40.6923911,
          "lng": -73.9404497
        },
        "viewport": {
          "northeast": {
            "lat": 40.69385443029149,
            "lng": -73.93913886970849
          },
          "southwest": {
            "lat": 40.6911564697085,
            "lng": -73.94183683029149
          }
        }
      },
      "icon": "https://maps.gstatic.com/mapfiles/place_api/icons/v1/png_71/generic_business-71.png",
      "icon_background_color": "#7B9EB0",
      "icon_mask_base_uri": "https://maps.gstatic.com/mapfiles/place_api/icons/v2/generic_pinlet",
      "name": "Domino's Pizza",
      "opening_hours": {
        "open_now": true
      },
      "photos": [
        {
          "height": 4032,
          "html_attributions": [
            "<a href=\"https://maps.google.com/maps/contrib/108133439036434080996\">Mohiuddin Rahman</a>"
          ],
          "photo_reference": "AeJbb3fTnnuwQ_WUwwxCrOf_8_YFFPR2tKtoF4ysujIh8rWYNccY6lG1Hj9F_x0pRMDuV2dCTKC7zIlluDzp68nv6Ap_bDa_rWcPXoJn8yFyMi7LRqdPOIp0tE9jcNCoKZVLMdh56TcLA3ABotLVQ7zxTiblvtukMuy_oVJksHbY6J11loUh",
          "width": 3024
        }
      ],
      "place_id": "ChIJY3CUYPRbwokRCYlSWA3M3EU",
      "plus_code": {
        "compound_code": "M3R5+XR New York, NY, USA",
        "global_code": "87G8M3R5+XR"
      },
      "price_level": 1,
      "rating": 2.2,
      "reference": "ChIJY3CUYPRbwokRCYlSWA3M3EU",
      "scope": "GOOGLE",
      "types": [
        "meal_delivery",
        "meal_takeaway",
        "restaurant",
        "food",
        "point_of_interest",
        "establishment"
      ],
      "user_ratings_total": 499,
      "vicinity": "886 DeKalb Avenue, Brooklyn"
    },
    {
      "business_status": "CLOSED_TEMPORARILY",
      "geometry": {
        "location": {
          "lat": 40.6925086,
          "lng": -73.9407107
        },
        "viewport": {
          "northeast": {
            "lat": 40.6938934802915,
            "lng": -73.93940786970849
          },
          "southwest": {
            "lat": 40.6911955197085,
            "lng": -73.94210583029151
          }
        }
      },
      "icon": "https://maps.gstatic.com/mapfiles/place_api/icons/v1/png_71/generic_business-71.png",
      "icon_background_color": "#7B9EB0",
      "icon_mask_base_uri": "https://maps.gstatic.com/mapfiles/place_api/icons/v2/generic_pinlet",
      "name": "Radical Nourishment",
      "permanently_closed": true,
      "place_id": "ChIJlVNFYfRbwokRpMjWNhxO6e4",
      "plus_code": {
        "compound_code": "M3V5+2P Brooklyn, NY, USA",
        "global_code": "87G8M3V5+2P"
      },
      "reference": "ChIJlVNFYfRbwokRpMjWNhxO6e4",
      "scope": "GOOGLE",
      "types": [
        "health",
        "point_of_interest",
        "establishment"
      ],
      "vicinity": "880 DeKalb Avenue #402, Brooklyn"
    },
    {
      "business_status": "OPERATIONAL",
      "geometry": {
        "location": {
          "lat": 40.6903079,
          "lng": -73.9396885
        },
        "viewport": {
          "northeast": {
            "lat": 40.69164143029149,
            "lng": -73.93823426970849
          },
          "southwest": {
            "lat": 40.6889434697085,
            "lng": -73.9409322302915
          }
        }
      },
      "icon": "https://maps.gstatic.com/mapfiles/place_api/icons/v1/png_71/generic_business-71.png",
      "icon_background_color": "#7B9EB0",
      "icon_mask_base_uri": "https://maps.gstatic.com/mapfiles/place_api/icons/v2/generic_pinlet",
      "name": "Dekalb Car Service Corp",
      "opening_hours": {
        "open_now": true
      },
      "photos": [
        {
          "height": 1012,
          "html_attributions": [
            "<a href=\"https://maps.google.com/maps/contrib/102627110152179663833\">Dekalb Car Service Corp</a>"
          ],
          "photo_reference": "AeJbb3cs_1iainr_xSkfUUTDti1rjFUiiPyjQEfZnYXbEX_ALE15HrmyRhY1j29spug86qE11QHVrIhTsCg726XFtjTwv3spDR-3XZF_7vfLdg3eYQ-XVD0UJi--OX_fhCtK7ZbSurkYCCeYGLL8MXkG8CpmajLZ71x1AgYGWxPpwiAhCk59",
          "width": 1800
        }
      ],
      "place_id": "ChIJOcYR2_RbwokRYkvxHzZ-0dI",
      "plus_code": {
        "compound_code": "M3R6+44 Brooklyn, NY, USA",
        "global_code": "87G8M3R6+44"
      },
      "rating": 2.5,
      "reference": "ChIJOcYR2_RbwokRYkvxHzZ-0dI",
      "scope": "GOOGLE",
      "types": [
        "taxi_stand",
        "point_of_interest",
        "establishment"
      ],
      "user_ratings_total": 118,
      "vicinity": "220 Marcus Garvey Boulevard, Brooklyn"
    },
    {
      "business_status": "OPERATIONAL",
      "geometry": {
        "location": {
          "lat": 40.69144249999999,
          "lng": -73.94070219999999
        },
        "viewport": {
          "northeast": {
            "lat": 40.69262278029149,
            "lng": -73.93932131970848
          },
          "southwest": {
            "lat": 40.6899248197085,
            "lng": -73.94201928029149
          }
        }
      },
      "icon": "https://maps.gstatic.com/mapfiles/place_api/icons/v1/png_71/school-71.png",
      "icon_background_color": "#7B9EB0",
      "icon_mask_base_uri": "https://maps.gstatic.com/mapfiles/place_api/icons/v2/school_pinlet",
      "name": "P.S. 25 - The Eubie Blake School",
      "photos": [
        {
          "height": 3024,
          "html_attributions": [
            "<a href=\"https://maps.google.com/maps/contrib/102550561366235521460\">Anita Coley</a>"
          ],
          "photo_reference": "AeJbb3cIxogqvFuLUTyEiAho7OVXwE4kpkjtoy4tvYLs8Z8Df7VzkupjIHKwBBgnlh1l3l_OsnVkm8SQRpZJwKs2um6HHNZUHsCJXVzUQ9oDVbYYZTds34DURuzLv7Vo8gGNDpKGWucI3O9_8rc1GLJ1B3pgsdxEeuHyzMckY8NNeK4p_XzW",
          "width": 4032
        }
      ],
      "place_id": "ChIJy8w7lPRbwokRVL3YcA5cXMA",
      "plus_code": {
        "compound_code": "M3R5+HP New York, NY, USA",
        "global_code": "87G8M3R5+HP"
      },
      "rating": 5,
      "reference": "ChIJy8w7lPRbwokRVL3YcA5cXMA",
      "scope": "GOOGLE",
      "types": [
        "primary_school",
        "school",
        "point_of_interest",
        "establishment"
      ],
      "user_ratings_total": 5,
      "vicinity": "787 Lafayette Avenue, Brooklyn"
    },
    {
      "business_status": "CLOSED_TEMPORARILY",
      "geometry": {
        "location": {
          "lat": 40.68950299999999,
          "lng": -73.936069
        },
        "viewport": {
          "northeast": {
            "lat": 40.69083628029149,
            "lng": -73.9348577197085
          },
          "southwest": {
            "lat": 40.68813831970849,
            "lng": -73.93755568029151
          }
        }
      },
      "icon": "https://maps.gstatic.com/mapfiles/place_api/icons/v1/png_71/cafe-71.png",
      "icon_background_color": "#FF9E67",
      "icon_mask_base_uri": "https://maps.gstatic.com/mapfiles/place_api/icons/v2/cafe_pinlet",
      "name": "Canticles Sober Lounge",
      "permanently_closed": true,
      "photos": [
        {
          "height": 1080,
          "html_attributions": [
            "<a href=\"https://maps.google.com/maps/contrib/105643338252724276565\">Kristal Smith</a>"
          ],
          "photo_reference": "AeJbb3e8Uf2vORqpImV5sT71PODffFNFYgwdYstr7e6gYr231yBNEXIXoUuOLT-CtlVWLxR9z9cbVIHomBwMLHijQCRWsH4N3lJqDx9A8HCOZqyPz3YpAJuSg2lSgfHesqf4QNRrII4or-yxC1cquYB3WGSjRWppSfKhaLo0ytUVxADz9sDG",
          "width": 1440
        }
      ],
      "place_id": "ChIJd18VVvVbwokR2rD77KsivTY",
      "plus_code": {
        "compound_code": "M3Q7+RH Brooklyn, NY, USA",
        "global_code": "87G8M3Q7+RH"
      },
      "rating": 4.3,
      "reference": "ChIJd18VVvVbwokR2rD77KsivTY",
      "scope": "GOOGLE",
      "types": [
        "cafe",
        "food",
        "point_of_interest",
        "establishment"
      ],
      "user_ratings_total": 12,
      "vicinity": "207 Lewis Avenue, Brooklyn"
    },
    {
      "business_status": "OPERATIONAL",
      "geometry": {
        "location": {
          "lat": 40.6916202,
          "lng": -73.9332768
        },
        "viewport": {
          "northeast": {
            "lat": 40.6929205302915,
            "lng": -73.9320805197085
          },
          "southwest": {
            "lat": 40.6902225697085,
            "lng": -73.93477848029151
          }
        }
      },
      "icon": "https://maps.gstatic.com/mapfiles/place_api/icons/v1/png_71/school-71.png",
      "icon_background_color": "#7B9EB0",
      "icon_mask_base_uri": "https://maps.gstatic.com/mapfiles/place_api/icons/v2/school_pinlet",
      "name": "Brooklyn Emerging Leaders Academy (BELA) Charter High School",
      "opening_hours": {
        "open_now": false
      },
      "photos": [
        {
          "height": 459,
          "html_attributions": [
            "<a href=\"https://maps.google.com/maps/contrib/104462448616023386615\">Brooklyn Emerging Leaders Academy (BELA) Charter High School</a>"
          ],
          "photo_reference": "AeJbb3dw9I3Ng1NewX-eJNNWXVGP7kNi_MpcW5FcEGTDm505mtg46WOW_CQ35gIxKb-tXTWRZT_03l92anwdlJnRJ_pgRjKiwFU7tr9d87GL7srpc4YN6y-aEqUPd8cmjTCAD73g06Xf5Pr14JG8MHcjjfEI8FNXQ7WK5_0LBXoybgcoLyj7",
          "width": 1121
        }
      ],
      "place_id": "ChIJrY3qVApcwokRKJTSaaLIVCs",
      "plus_code": {
        "compound_code": "M3R8+JM New York, NY, USA",
        "global_code": "87G8M3R8+JM"
      },
      "rating": 3.8,
      "reference": "ChIJrY3qVApcwokRKJTSaaLIVCs",
      "scope": "GOOGLE",
      "types": [
        "school",
        "point_of_interest",
        "establishment"
      ],
      "user_ratings_total": 12,
      "vicinity": "125 Stuyvesant Avenue Floor 2, Brooklyn"
    },
    {
      "business_status": "OPERATIONAL",
      "geometry": {
        "location": {
          "lat": 40.6930667,
          "lng": -73.9347451
        },
        "viewport": {
          "northeast": {
            "lat": 40.6941162302915,
            "lng": -73.93347891970849
          },
          "southwest": {
            "lat": 40.6914182697085,
            "lng": -73.93617688029151
          }
        }
      },
      "icon": "https://maps.gstatic.com/mapfiles/place_api/icons/v1/png_71/school-71.png",
      "icon_background_color": "#7B9EB0",
      "icon_mask_base_uri": "https://maps.gstatic.com/mapfiles/place_api/icons/v2/school_pinlet",
      "name": "P.S. 081 Thaddeus Stevens",
      "opening_hours": {
        "open_now": false
      },
      "place_id": "ChIJe968EApcwokRGIcd6SxitK8",
      "plus_code": {
        "compound_code": "M3V8+64 New York, NY, USA",
        "global_code": "87G8M3V8+64"
      },
      "rating": 3.9,
      "reference": "ChIJe968EApcwokRGIcd6SxitK8",
      "scope": "GOOGLE",
      "types": [
        "primary_school",
        "school",
        "point_of_interest",
        "establishment"
      ],
      "user_ratings_total": 14,
      "vicinity": "990 DeKalb Avenue, Brooklyn"
    },
    {
      "business_status": "OPERATIONAL",
      "geometry": {
        "location": {
          "lat": 40.6901913,
          "lng": -73.9336655
        },
        "viewport": {
          "northeast": {
            "lat": 40.6915500802915,
            "lng": -73.9322327197085
          },
          "southwest": {
            "lat": 40.6888521197085,
            "lng": -73.93493068029152
          }
        }
      },
      "icon": "https://maps.gstatic.com/mapfiles/place_api/icons/v1/png_71/generic_business-71.png",
      "icon_background_color": "#7B9EB0",
      "icon_mask_base_uri": "https://maps.gstatic.com/mapfiles/place_api/icons/v2/generic_pinlet",
      "name": "New York Literary Society Ltd",
      "place_id": "ChIJ7yDS5QpcwokRlHGMP97NPsA",
      "plus_code": {
        "compound_code": "M3R8+3G New York, NY, USA",
        "global_code": "87G8M3R8+3G"
      },
      "rating": 5,
      "reference": "ChIJ7yDS5QpcwokRlHGMP97NPsA",
      "scope": "GOOGLE",
      "types": [
        "point_of_interest",
        "establishment"
      ],
      "user_ratings_total": 1,
      "vicinity": "148 Stuyvesant Avenue, Brooklyn"
    },
    {
      "business_status": "CLOSED_TEMPORARILY",
      "geometry": {
        "location": {
          "lat": 40.6893573,
          "lng": -73.9347308
        },
        "viewport": {
          "northeast": {
            "lat": 40.69079488029149,
            "lng": -73.93339971970849
          },
          "southwest": {
            "lat": 40.68809691970849,
            "lng": -73.93609768029151
          }
        }
      },
      "icon": "https://maps.gstatic.com/mapfiles/place_api/icons/v1/png_71/generic_business-71.png",
      "icon_background_color": "#7B9EB0",
      "icon_mask_base_uri": "https://maps.gstatic.com/mapfiles/place_api/icons/v2/generic_pinlet",
      "name": "Batson Communications",
      "permanently_closed": true,
      "place_id": "ChIJ-_X6tgpcwokRUs5a4N-WE-s",
      "plus_code": {
        "compound_code": "M3Q8+P4 New York, NY, USA",
        "global_code": "87G8M3Q8+P4"
      },
      "reference": "ChIJ-_X6tgpcwokRUs5a4N-WE-s",
      "scope": "GOOGLE",
      "types": [
        "point_of_interest",
        "establishment"
      ],
      "vicinity": "628 Lexington Avenue, Brooklyn"
    },
    {
      "business_status": "OPERATIONAL",
      "geometry": {
        "location": {
          "lat": 40.6922716,
          "lng": -73.94178149999999
        },
        "viewport": {
          "northeast": {
            "lat": 40.69372303029149,
            "lng": -73.94043656970848
          },
          "southwest": {
            "lat": 40.69102506970849,
            "lng": -73.9431345302915
          }
        }
      },
      "icon": "https://maps.gstatic.com/mapfiles/place_api/icons/v1/png_71/generic_business-71.png",
      "icon_background_color": "#7B9EB0",
      "icon_mask_base_uri": "https://maps.gstatic.com/mapfiles/place_api/icons/v2/generic_pinlet",
      "name": "SIMHAEE Cosmetic",
      "opening_hours": {
        "open_now": false
      },
      "place_id": "ChIJy6w3gPRbwokRslcdiQsI96s",
      "plus_code": {
        "compound_code": "M3R5+W7 New York, NY, USA",
        "global_code": "87G8M3R5+W7"
      },
      "reference": "ChIJy6w3gPRbwokRslcdiQsI96s",
      "scope": "GOOGLE",
      "types": [
        "health",
        "point_of_interest",
        "establishment"
      ],
      "vicinity": "856 DeKalb Avenue, Brooklyn"
    },
    {
      "business_status": "OPERATIONAL",
      "geometry": {
        "location": {
          "lat": 40.68885819999999,
          "lng": -73.9352766
        },
        "viewport": {
          "northeast": {
            "lat": 40.69014693029149,
            "lng": -73.9338982697085
          },
          "southwest": {
            "lat": 40.6874489697085,
            "lng": -73.9365962302915
          }
        }
      },
      "icon": "https://maps.gstatic.com/mapfiles/place_api/icons/v1/png_71/worship_general-71.png",
      "icon_background_color": "#7B9EB0",
      "icon_mask_base_uri": "https://maps.gstatic.com/mapfiles/place_api/icons/v2/worship_christian_pinlet",
      "name": "Refuge Church of God Inc",
      "photos": [
        {
          "height": 2988,
          "html_attributions": [
            "<a href=\"https://maps.google.com/maps/contrib/106261681301277997125\">P Rubens</a>"
          ],
          "photo_reference": "AeJbb3epm7y3rYIFV4IqFTZjhEzCVv86wz22afa9tQmzCuBG4KQy-vxZmGUi5HcbIvfUM18ARA6QcBlRbzoA6mOWy9N1NfmeK-xh0SB8SP40cft3LbSVS7TBeyHrm3OTlPy8SErALHkyqhN_2KY9TTQijLccE5Yk1lD_QI1UAYVXUcmRyx7T",
          "width": 5312
        }
      ],
      "place_id": "ChIJU6qDUnVcwokRGJuridBoaRE",
      "plus_code": {
        "compound_code": "M3Q7+GV Brooklyn, NY, USA",
        "global_code": "87G8M3Q7+GV"
      },
      "rating": 4.8,
      "reference": "ChIJU6qDUnVcwokRGJuridBoaRE",
      "scope": "GOOGLE",
      "types": [
        "church",
        "place_of_worship",
        "point_of_interest",
        "establishment"
      ],
      "user_ratings_total": 5,
      "vicinity": "595 Quincy Street, Brooklyn"
    },
    {
      "business_status": "OPERATIONAL",
      "geometry": {
        "location": {
          "lat": 40.6888751,
          "lng": -73.93597620000001
        },
        "viewport": {
          "northeast": {
            "lat": 40.6902101802915,
            "lng": -73.9347496197085
          },
          "southwest": {
            "lat": 40.6875122197085,
            "lng": -73.93744758029152
          }
        }
      },
      "icon": "https://maps.gstatic.com/mapfiles/place_api/icons/v1/png_71/generic_business-71.png",
      "icon_background_color": "#7B9EB0",
      "icon_mask_base_uri": "https://maps.gstatic.com/mapfiles/place_api/icons/v2/generic_pinlet",
      "name": "Goshire Properties LLC",
      "opening_hours": {
        "open_now": false
      },
      "photos": [
        {
          "height": 565,
          "html_attributions": [
            "<a href=\"https://maps.google.com/maps/contrib/106182767556184246199\">Goshire Properties LLC</a>"
          ],
          "photo_reference": "AeJbb3dJUvgLDJl8Mi2WFx6tH8exVfKrWyNwOKDPAgESZXYkQU9X5WdVULFEZm8aFyELr7Xpuxf9V1sMFGfsAFRM8tjKELz37IeMqh4WMFiOnE2s5Vms1v01qDR_QrObPJDWXowy4XUoUyk0OYXKev-NCPXu7J5W4zRh5E46wZWRErD3lV4S",
          "width": 849
        }
      ],
      "place_id": "ChIJg0qcVXVcwokRs3nU5ter-zs",
      "plus_code": {
        "compound_code": "M3Q7+HJ Brooklyn, NY, USA",
        "global_code": "87G8M3Q7+HJ"
      },
      "rating": 5,
      "reference": "ChIJg0qcVXVcwokRs3nU5ter-zs",
      "scope": "GOOGLE",
      "types": [
        "point_of_interest",
        "establishment"
      ],
      "user_ratings_total": 1,
      "vicinity": "219 Lewis Avenue, Brooklyn"
    },
    {
      "business_status": "OPERATIONAL",
      "geometry": {
        "location": {
          "lat": 40.6888751,
          "lng": -73.93597620000001
        },
        "viewport": {
          "northeast": {
            "lat": 40.6902101802915,
            "lng": -73.9347496197085
          },
          "southwest": {
            "lat": 40.6875122197085,
            "lng": -73.93744758029152
          }
        }
      },
      "icon": "https://maps.gstatic.com/mapfiles/place_api/icons/v1/png_71/generic_business-71.png",
      "icon_background_color": "#7B9EB0",
      "icon_mask_base_uri": "https://maps.gstatic.com/mapfiles/place_api/icons/v2/generic_pinlet",
      "name": "Chantior Real Estate",
      "opening_hours": {
        "open_now": false
      },
      "photos": [
        {
          "height": 3018,
          "html_attributions": [
            "<a href=\"https://maps.google.com/maps/contrib/106749403476275851394\">Chantior Real Estate</a>"
          ],
          "photo_reference": "AeJbb3fJ0yMnNE3zYi-32R75eU5z6SounwuCWYPQTwAdWUvyf_bh1E8iw5821R2-dR8W_9VjsGc74KnIz9BxPq7MNBtPTpxjb6rWs69Q9rDakbMNYwIIG2geQRVn5mAqNFKmdJfowDzXUPShyvafXo9Zp13NAw1etGTJzHpiDAyEi2jzafT4",
          "width": 3018
        }
      ],
      "place_id": "ChIJg0qcVXVcwokRcHn9rkSHOro",
      "plus_code": {
        "compound_code": "M3Q7+HJ Brooklyn, NY, USA",
        "global_code": "87G8M3Q7+HJ"
      },
      "rating": 4.1,
      "reference": "ChIJg0qcVXVcwokRcHn9rkSHOro",
      "scope": "GOOGLE",
      "types": [
        "real_estate_agency",
        "point_of_interest",
        "establishment"
      ],
      "user_ratings_total": 15,
      "vicinity": "219 Lewis Avenue, Brooklyn"
    },
    {
      "business_status": "OPERATIONAL",
      "geometry": {
        "location": {
          "lat": 40.692226,
          "lng": -73.941791
        },
        "viewport": {
          "northeast": {
            "lat": 40.6937002302915,
            "lng": -73.94043656970848
          },
          "southwest": {
            "lat": 40.6910022697085,
            "lng": -73.9431345302915
          }
        }
      },
      "icon": "https://maps.gstatic.com/mapfiles/place_api/icons/v1/png_71/generic_business-71.png",
      "icon_background_color": "#7B9EB0",
      "icon_mask_base_uri": "https://maps.gstatic.com/mapfiles/place_api/icons/v2/generic_pinlet",
      "name": "E. Jacob Simhaee",
      "opening_hours": {
        "open_now": false
      },
      "place_id": "ChIJb0vJgfRbwokR0sII0Sfvx_s",
      "plus_code": {
        "compound_code": "M3R5+V7 Brooklyn, NY, USA",
        "global_code": "87G8M3R5+V7"
      },
      "rating": 5,
      "reference": "ChIJb0vJgfRbwokR0sII0Sfvx_s",
      "scope": "GOOGLE",
      "types": [
        "doctor",
        "health",
        "point_of_interest",
        "establishment"
      ],
      "user_ratings_total": 1,
      "vicinity": "856 DeKalb Avenue, Brooklyn"
    },
    {
      "business_status": "OPERATIONAL",
      "geometry": {
        "location": {
          "lat": 40.6943418,
          "lng": -73.9330803
        },
        "viewport": {
          "northeast": {
            "lat": 40.6956348302915,
            "lng": -73.9317201697085
          },
          "southwest": {
            "lat": 40.6929368697085,
            "lng": -73.9344181302915
          }
        }
      },
      "icon": "https://maps.gstatic.com/mapfiles/place_api/icons/v1/png_71/generic_business-71.png",
      "icon_background_color": "#7B9EB0",
      "icon_mask_base_uri": "https://maps.gstatic.com/mapfiles/place_api/icons/v2/generic_pinlet",
      "name": "EKO Homes",
      "photos": [
        {
          "height": 833,
          "html_attributions": [
            "<a href=\"https://maps.google.com/maps/contrib/114915268325307898128\">EKO Homes Renovations</a>"
          ],
          "photo_reference": "AeJbb3cHrp9DArna_wGVjPCS6pxDgvXaf0w-R0wnuGm7BpusPMdLKPlKIDokm0Vj5ELe5EQf4s5o08PDR24K70bjqlnu2QGvXwVdieHiIEM0Z-KyXHPmRWgjnaBkP_lHAJ865czPbO5u88vSpcFRchbHl_dk3TGkSbf5bJMj_94VFByq_V3u",
          "width": 622
        }
      ],
      "place_id": "ChIJ02KfuhpcwokRVEwmvhASlaI",
      "plus_code": {
        "compound_code": "M3V8+PQ Brooklyn, NY, USA",
        "global_code": "87G8M3V8+PQ"
      },
      "rating": 4,
      "reference": "ChIJ02KfuhpcwokRVEwmvhASlaI",
      "scope": "GOOGLE",
      "types": [
        "general_contractor",
        "point_of_interest",
        "establishment"
      ],
      "user_ratings_total": 2,
      "vicinity": "437 Pulaski Street, Brooklyn"
    },
    {
      "business_status": "OPERATIONAL",
      "geometry": {
        "location": {
          "lat": 40.69508599999999,
          "lng": -73.933775
        },
        "viewport": {
          "northeast": {
            "lat": 40.6963448802915,
            "lng": -73.9324076697085
          },
          "southwest": {
            "lat": 40.6936469197085,
            "lng": -73.9351056302915
          }
        }
      },
      "icon": "https://maps.gstatic.com/mapfiles/place_api/icons/v1/png_71/generic_business-71.png",
      "icon_background_color": "#7B9EB0",
      "icon_mask_base_uri": "https://maps.gstatic.com/mapfiles/place_api/icons/v2/generic_pinlet",
      "name": "Cathay Express Transportation",
      "opening_hours": {
        "open_now": true
      },
      "photos": [
        {
          "height": 290,
          "html_attributions": [
            "<a href=\"https://maps.google.com/maps/contrib/114436204786400024225\">Cathay Express Transportation</a>"
          ],
          "photo_reference": "AeJbb3csDDNQsLuzJgZFvpZ1JOTmYNmcwcwPlrdRyP2aPDTqife6mVE59RPJCc2aniKTYzVsJDRqCjoq2U8WKeUQCeEg6gsRIp22iYco7xAf0BewwLwKR7f3Xjavj9A0O0NiLmVM8dxfDfxtOfWbXYQuDHrDrLFcvGmSOif_9OY_uxz8Zz0",
          "width": 512
        }
      ],
      "place_id": "ChIJp8kYvQlcwokRfHHDSvZgSYA",
      "plus_code": {
        "compound_code": "M3W8+2F Brooklyn, NY, USA",
        "global_code": "87G8M3W8+2F"
      },
      "rating": 5,
      "reference": "ChIJp8kYvQlcwokRfHHDSvZgSYA",
      "scope": "GOOGLE",
      "types": [
        "car_rental",
        "health",
        "point_of_interest",
        "establishment"
      ],
      "user_ratings_total": 5,
      "vicinity": "409 Hart Street, Brooklyn"
    },
    {
      "business_status": "OPERATIONAL",
      "geometry": {
        "location": {
          "lat": 40.6946122,
          "lng": -73.9410911
        },
        "viewport": {
          "northeast": {
            "lat": 40.6960546302915,
            "lng": -73.93976531970848
          },
          "southwest": {
            "lat": 40.6933566697085,
            "lng": -73.94246328029149
          }
        }
      },
      "icon": "https://maps.gstatic.com/mapfiles/place_api/icons/v1/png_71/shopping-71.png",
      "icon_background_color": "#4B96F3",
      "icon_mask_base_uri": "https://maps.gstatic.com/mapfiles/place_api/icons/v2/shopping_pinlet",
      "name": "Violets Web",
      "opening_hours": {
        "open_now": true
      },
      "place_id": "ChIJE83IHPRbwokR1m7Ze5YI-6A",
      "plus_code": {
        "compound_code": "M3V5+RH New York, NY, USA",
        "global_code": "87G8M3V5+RH"
      },
      "reference": "ChIJE83IHPRbwokR1m7Ze5YI-6A",
      "scope": "GOOGLE",
      "types": [
        "store",
        "health",
        "point_of_interest",
        "establishment"
      ],
      "vicinity": "702 Willoughby Avenue, Brooklyn"
    },
    {
      "business_status": "OPERATIONAL",
      "geometry": {
        "location": {
          "lat": 40.6922431,
          "lng": -73.9419881
        },
        "viewport": {
          "northeast": {
            "lat": 40.6936968802915,
            "lng": -73.9406529197085
          },
          "southwest": {
            "lat": 40.6909989197085,
            "lng": -73.9433508802915
          }
        }
      },
      "icon": "https://maps.gstatic.com/mapfiles/place_api/icons/v1/png_71/shopping-71.png",
      "icon_background_color": "#4B96F3",
      "icon_mask_base_uri": "https://maps.gstatic.com/mapfiles/place_api/icons/v2/shoppingcart_pinlet",
      "name": "Bravo Supermarkets",
      "opening_hours": {
        "open_now": true
      },
      "photos": [
        {
          "height": 1192,
          "html_attributions": [
            "<a href=\"https://maps.google.com/maps/contrib/100907177702746728835\">Bravo Supermarkets</a>"
          ],
          "photo_reference": "AeJbb3duDi8GM7GT-PdCjD6iIANprA-nUbPBUShtPQSgH9_CSmsnj1T9TNOJeYHu4RtuR_E5sOdlqEVY3EMLx0DXZ-Nn9tN3ROcnM4EbW7dF_hxb0aoxgogbzBB1YEptGmeyGbHNB5B1OsAE9Jxlc1DGI_E2S5FqWLr3fTm1UY-jHmql9hSi",
          "width": 2119
        }
      ],
      "place_id": "ChIJwzhPfvNbwokRjKfSvVnwtAg",
      "plus_code": {
        "compound_code": "M3R5+V6 New York, NY, USA",
        "global_code": "87G8M3R5+V6"
      },
      "rating": 3.9,
      "reference": "ChIJwzhPfvNbwokRjKfSvVnwtAg",
      "scope": "GOOGLE",
      "types": [
        "supermarket",
        "grocery_or_supermarket",
        "store",
        "food",
        "point_of_interest",
        "establishment"
      ],
      "user_ratings_total": 401,
      "vicinity": "844 DeKalb Avenue, Brooklyn"
    },
    {
      "business_status": "OPERATIONAL",
      "geometry": {
        "location": {
          "lat": 40.690505,
          "lng": -73.9413579
        },
        "viewport": {
          "northeast": {
            "lat": 40.6917435302915,
            "lng": -73.9399734197085
          },
          "southwest": {
            "lat": 40.6890455697085,
            "lng": -73.9426713802915
          }
        }
      },
      "icon": "https://maps.gstatic.com/mapfiles/place_api/icons/v1/png_71/generic_business-71.png",
      "icon_background_color": "#7B9EB0",
      "icon_mask_base_uri": "https://maps.gstatic.com/mapfiles/place_api/icons/v2/generic_pinlet",
      "name": "Orchid House Cleaning",
      "opening_hours": {
        "open_now": true
      },
      "photos": [
        {
          "height": 467,
          "html_attributions": [
            "<a href=\"https://maps.google.com/maps/contrib/115387713200509160124\">Orchid House Cleaning</a>"
          ],
          "photo_reference": "AeJbb3cNS-qYUVW2g5oROwYkNt4vGBZxTHQjyBnlCi7ZsQ3PgNpiwZaWi6eGPYlOaAcqfKIlYsL1Z-iOg6hGENKN6Pbfd-kXBLNY-x9JWvOlB0omwDpuIDtDNVKRRRdl0P-EL2VsMW_jFPEMiZiy4p9Nn56W3QEnsMIYQWhE-cMJNZhDqRPj",
          "width": 700
        }
      ],
      "place_id": "ChIJlwsF0GL0wokRnkH1TK4HOyI",
      "plus_code": {
        "compound_code": "M3R5+6F Brooklyn, NY, USA",
        "global_code": "87G8M3R5+6F"
      },
      "rating": 4.7,
      "reference": "ChIJlwsF0GL0wokRnkH1TK4HOyI",
      "scope": "GOOGLE",
      "types": [
        "point_of_interest",
        "establishment"
      ],
      "user_ratings_total": 31,
      "vicinity": "111 Van Buren Street #3r, Brooklyn"
    },
    {
      "business_status": "OPERATIONAL",
      "geometry": {
        "location": {
          "lat": 40.69024899999999,
          "lng": -73.932965
        },
        "viewport": {
          "northeast": {
            "lat": 40.6917170302915,
            "lng": -73.93164536970849
          },
          "southwest": {
            "lat": 40.6890190697085,
            "lng": -73.9343433302915
          }
        }
      },
      "icon": "https://maps.gstatic.com/mapfiles/place_api/icons/v1/png_71/generic_business-71.png",
      "icon_background_color": "#7B9EB0",
      "icon_mask_base_uri": "https://maps.gstatic.com/mapfiles/place_api/icons/v2/generic_pinlet",
      "name": "Lipke Productions",
      "place_id": "ChIJbfjmHQtcwokR9VFN375sWDA",
      "plus_code": {
        "compound_code": "M3R8+3R Brooklyn, NY, USA",
        "global_code": "87G8M3R8+3R"
      },
      "reference": "ChIJbfjmHQtcwokR9VFN375sWDA",
      "scope": "GOOGLE",
      "types": [
        "point_of_interest",
        "establishment"
      ],
      "vicinity": "876 Greene Avenue #1R, Brooklyn"
    }
  ],
  "status": "OK"
}