{
  "html_attributions": [],
  "results": [
    {
      "geometry": {
        "location": {
          "lat": 40.7127753,
          "lng": -74.0059728
        },
        "viewport": {
          "northeast": {
            "lat": 40.91757705070789,
            "lng": -73.70027206817629
          },
          "southwest": {
            "lat": 40.47739906045452,
            "lng": -74.25908991427882
          }
        }
      },
      "icon": "https://maps.gstatic.com/mapfiles/place_api/icons/v1/png_71/geocode-71.png",
      "icon_background_color": "#7B9EB0",
      "icon_mask_base_uri": "https://maps.gstatic.com/mapfiles/place_api/icons/v2/generic_pinlet",
      "name": "\u7d10\u7d04",
      "photos": [
        {
          "height": 600,
          "html_attributions": [
            "<a href=\"https://maps.google.com/maps/contrib/102389334567210814614\">Bukurie</a>"
          ],
          "photo_reference": "AeJbb3dXIefKsE65hKZ-wTXRh4SYOVGIyRER4-GssEpXVcEKyfPQ5snNCJIrUaI4BrhQRTy1IQUxAYnIf6z1DLUwICIUUSSaJ4zyOLq2Swr-IH3xXcrTbug1DXd3yP8mpBAcaOj4SAwes3rWiSS0v6FpIKKFJWp0P_IxPVapVnXcHgTCfSiU",
          "width": 480
        }
      ],
      "place_id": "ChIJOwg_06VPwokRYv534QaPC8g",
      "reference": "ChIJOwg_06VPwokRYv534QaPC8g",
      "scope": "GOOGLE",
      "types": [
        "locality",
        "political"
      ],
      "vicinity": "\u7d10\u7d04"
    },
    {
      "business_status": "OPERATIONAL",
      "geometry": {
        "location": {
          "lat": 40.74505920000001,
          "lng": -73.9338284
        },
        "viewport": {
          "northeast": {
            "lat": 40.7464521302915,
            "lng": -73.9324571197085
          },
          "southwest": {
            "lat": 40.7437541697085,
            "lng": -73.93515508029151
          }
        }
      },
      "icon": "https://maps.gstatic.com/mapfiles/place_api/icons/v1/png_71/lodging-71.png",
      "icon_background_color": "#909CE1",
      "icon_mask_base_uri": "https://maps.gstatic.com/mapfiles/place_api/icons/v2/hotel_pinlet",
      "name": "Days Inn by Wyndham Long Island City",
      "opening_hours": {
        "open_now": true
      },
      "photos": [
        {
          "height": 400,
          "html_attributions": [
            "<a href=\"https://maps.google.com/maps/contrib/109730387462226358756\">Days Inn by Wyndham Long Island City</a>"
          ],
          "photo_reference": "AeJbb3e61L8Eimm4xI3DInvvKMZhC8I1kgRPpXd0fgEYZ3Poj2LsU5r6EP9HE3b4UswqmZm9TBqLGMbWNSYI5DHcN6Mpn8Q-bOuc-iwjVCMLRDnK-qV9V0oXB0sZmOFSqeesn8sweQJdwiO0RIbDVitY02Wcm_PzIvOXxg_q7Tf8IkPOzy0U",
          "width": 600
        }
      ],
      "place_id": "ChIJvw9M5dRewokREFWKM5CUOjU",
      "plus_code": {
        "compound_code": "P3W8+2F \u7f8e\u570b\u7d10\u7d04",
        "global_code": "87G8P3W8+2F"
      },
      "rating": 3.3,
      "reference": "ChIJvw9M5dRewokREFWKM5CUOjU",
      "scope": "GOOGLE",
      "types": [
        "lodging",
        "point_of_interest",
        "establishment"
      ],
      "user_ratings_total": 523,
      "vicinity": "31-36 Queens Boulevard, Queens"
    },
    {
      "business_status": "OPERATIONAL",
      "geometry": {
        "location": {
          "lat": 40.7446524,
          "lng": -73.93692949999999
        },
        "viewport": {
          "northeast": {
            "lat": 40.7456919302915,
            "lng": -73.93563766970848
          },
          "southwest": {
            "lat": 40.7429939697085,
            "lng": -73.9383356302915
          }
        }
      },
      "icon": "https://maps.gstatic.com/mapfiles/place_api/icons/v1/png_71/school-71.png",
      "icon_background_color": "#7B9EB0",
      "icon_mask_base_uri": "https://maps.gstatic.com/mapfiles/place_api/icons/v2/school_pinlet",
      "name": "Academy of Finance and Enterprise",
      "opening_hours": {
        "open_now": false
      },
      "place_id": "ChIJbXSVOStZwokRS_476Ebfc7w",
      "plus_code": {
        "compound_code": "P3V7+V6 \u7f8e\u570b\u7d10\u7d04",
        "global_code": "87G8P3V7+V6"
      },
      "rating": 3.8,
      "reference": "ChIJbXSVOStZwokRS_476Ebfc7w",
      "scope": "GOOGLE",
      "types": [
        "secondary_school",
        "school",
        "point_of_interest",
        "establishment"
      ],
      "user_ratings_total": 39,
      "vicinity": "30-20 Thomson Avenue, Queens"
    },
    {
      "business_status": "OPERATIONAL",
      "geometry": {
        "location": {
          "lat": 40.74164449999999,
          "lng": -73.93348870000001
        },
        "viewport": {
          "northeast": {
            "lat": 40.7430093802915,
            "lng": -73.9320109697085
          },
          "southwest": {
            "lat": 40.7403114197085,
            "lng": -73.9347089302915
          }
        }
      },
      "icon": "https://maps.gstatic.com/mapfiles/place_api/icons/v1/png_71/generic_business-71.png",
      "icon_background_color": "#7B9EB0",
      "icon_mask_base_uri": "https://maps.gstatic.com/mapfiles/place_api/icons/v2/generic_pinlet",
      "name": "City Ice Pavilion",
      "opening_hours": {
        "open_now": true
      },
      "photos": [
        {
          "height": 304,
          "html_attributions": [
            "<a href=\"https://maps.google.com/maps/contrib/115566367671752838595\">City Ice Pavilion</a>"
          ],
          "photo_reference": "AeJbb3e___6lpm3--QNAELADXSwH752TXvL-lTvraGV2nqzlkEURlggwYwP32Mf6xbc6_WeNdLC8X-I2CALfZThEejgI2Nprj4MW86V2s9XwDhTUZAiNdStq59Lu05w5gTQCKMx8e_vUcyNwdq7yz7ZuCvr4hpm3oYywD8oY86m0lU7x_kuZ",
          "width": 620
        }
      ],
      "place_id": "ChIJKcw3CtNewokRpSovxoxqooA",
      "plus_code": {
        "compound_code": "P3R8+MJ \u7f8e\u570b\u7d10\u7d04\u9577\u5cf6\u5e02",
        "global_code": "87G8P3R8+MJ"
      },
      "rating": 4.3,
      "reference": "ChIJKcw3CtNewokRpSovxoxqooA",
      "scope": "GOOGLE",
      "types": [
        "point_of_interest",
        "establishment"
      ],
      "user_ratings_total": 259,
      "vicinity": "47-32 32nd Place, Long Island City"
    },
    {
      "business_status": "OPERATIONAL",
      "geometry": {
        "location": {
          "lat": 40.74506959999999,
          "lng": -73.9377013
        },
        "viewport": {
          "northeast": {
            "lat": 40.74650053029149,
            "lng": -73.93634146970851
          },
          "southwest": {
            "lat": 40.74380256970849,
            "lng": -73.93903943029152
          }
        }
      },
      "icon": "https://maps.gstatic.com/mapfiles/place_api/icons/v1/png_71/school-71.png",
      "icon_background_color": "#7B9EB0",
      "icon_mask_base_uri": "https://maps.gstatic.com/mapfiles/place_api/icons/v2/school_pinlet",
      "name": "Continuing Education - LaGuardia Community College",
      "opening_hours": {
        "open_now": false
      },
      "photos": [
        {
          "height": 4048,
          "html_attributions": [
            "<a href=\"https://maps.google.com/maps/contrib/100872391141690109962\">- Anna -</a>"
          ],
          "photo_reference": "AeJbb3dhOHgAJTOPEpDGAIsL_Qe7SuyuLSnNjEzVtryMN39lgByB5V3PNmt_bTYKRDICbpMuxYxXWes8Ytw0WnxNQB6TsSyddle2x93m-hl6wFwdMz_7Jbv3FUo6-08mGw55KvAuIZ3alOLPnAQ_PYvyCrK6JZ3R0UdeEEb1X6CieFtVi96Z",
          "width": 3036
        }
      ],
      "place_id": "ChIJeZK5ZStZwokR6QgBWgERr80",
      "plus_code": {
        "compound_code": "P3W6+2W \u7f8e\u570b\u7d10\u7d04",
        "global_code": "87G8P3W6+2W"
      },
      "rating": 5,
      "reference": "ChIJeZK5ZStZwokR6QgBWgERr80",
      "scope": "GOOGLE",
      "types": [
        "school",
        "point_of_interest",
        "establishment"
      ],
      "user_ratings_total": 5,
      "vicinity": "29-10 Thomson Avenue, Queens"
    },
    {
      "business_status": "OPERATIONAL",
      "geometry": {
        "location": {
          "lat": 40.7446926,
          "lng": -73.9378186
        },
        "viewport": {
          "northeast": {
            "lat": 40.74630338029149,
            "lng": -73.93633626970849
          },
          "southwest": {
            "lat": 40.7436054197085,
            "lng": -73.9390342302915
          }
        }
      },
      "icon": "https://maps.gstatic.com/mapfiles/place_api/icons/v1/png_71/school-71.png",
      "icon_background_color": "#7B9EB0",
      "icon_mask_base_uri": "https://maps.gstatic.com/mapfiles/place_api/icons/v2/school_pinlet",
      "name": "Program for Deaf Adults, Division of Adult and Continuing Education",
      "opening_hours": {
        "open_now": true
      },
      "place_id": "ChIJeZK5ZStZwokRlctvLDOzcH4",
      "plus_code": {
        "compound_code": "P3V6+VV \u7f8e\u570b\u7d10\u7d04\u9577\u5cf6\u5e02",
        "global_code": "87G8P3V6+VV"
      },
      "rating": 4,
      "reference": "ChIJeZK5ZStZwokRlctvLDOzcH4",
      "scope": "GOOGLE",
      "types": [
        "point_of_interest",
        "establishment"
      ],
      "user_ratings_total": 1,
      "vicinity": "29-10 Thomson Avenue, Long Island City"
    },
    {
      "business_status": "OPERATIONAL",
      "geometry": {
        "location": {
          "lat": 40.7442821,
          "lng": -73.9380442
        },
        "viewport": {
          "northeast": {
            "lat": 40.7460764302915,
            "lng": -73.93650471970851
          },
          "southwest": {
            "lat": 40.7433784697085,
            "lng": -73.93920268029152
          }
        }
      },
      "icon": "https://maps.gstatic.com/mapfiles/place_api/icons/v1/png_71/civic_building-71.png",
      "icon_background_color": "#7B9EB0",
      "icon_mask_base_uri": "https://maps.gstatic.com/mapfiles/place_api/icons/v2/civic-bldg_pinlet",
      "name": "Laguardia Workforce Career",
      "opening_hours": {
        "open_now": false
      },
      "place_id": "ChIJeZK5ZStZwokRLgmCnha9M6s",
      "plus_code": {
        "compound_code": "P3V6+PQ \u7f8e\u570b\u7d10\u7d04\u9577\u5cf6\u5e02",
        "global_code": "87G8P3V6+PQ"
      },
      "reference": "ChIJeZK5ZStZwokRLgmCnha9M6s",
      "scope": "GOOGLE",
      "types": [
        "point_of_interest",
        "establishment"
      ],
      "vicinity": "2910 Thomson Avenue, Long Island City"
    },
    {
      "business_status": "OPERATIONAL",
      "geometry": {
        "location": {
          "lat": 40.7455089,
          "lng": -73.9326835
        },
        "viewport": {
          "northeast": {
            "lat": 40.7468063802915,
            "lng": -73.93123736970848
          },
          "southwest": {
            "lat": 40.7441084197085,
            "lng": -73.9339353302915
          }
        }
      },
      "icon": "https://maps.gstatic.com/mapfiles/place_api/icons/v1/png_71/generic_business-71.png",
      "icon_background_color": "#7B9EB0",
      "icon_mask_base_uri": "https://maps.gstatic.com/mapfiles/place_api/icons/v2/generic_pinlet",
      "name": "CityView Racquet Club",
      "opening_hours": {
        "open_now": true
      },
      "photos": [
        {
          "height": 732,
          "html_attributions": [
            "<a href=\"https://maps.google.com/maps/contrib/111656385545597343264\">CityView Racquet Club</a>"
          ],
          "photo_reference": "AeJbb3en-Qak239i6Mk6gsqJDUQqj0SzTTZzAreWf1ieiGvRLQFK-dZWIi6_Tfkvhb_vOUYUZ2Ffg6ntnpinYl9dxhx_Oc8asWPekbJgDtJFKuTEA38D7-ESRBRDfZYeHWmK3Oy_A5HI949ennj75HGjxz6iK-5oxAEnsD8Uj_R5dkhyYwoZ",
          "width": 1111
        }
      ],
      "place_id": "ChIJb1GBdtNewokRTIdWX5FCSeE",
      "plus_code": {
        "compound_code": "P3W8+6W \u7f8e\u570b\u7d10\u7d04\u9577\u5cf6\u5e02",
        "global_code": "87G8P3W8+6W"
      },
      "rating": 4.1,
      "reference": "ChIJb1GBdtNewokRTIdWX5FCSeE",
      "scope": "GOOGLE",
      "types": [
        "spa",
        "night_club",
        "bar",
        "health",
        "store",
        "school",
        "point_of_interest",
        "establishment"
      ],
      "user_ratings_total": 41,
      "vicinity": "43-34 32nd Place, Long Island City"
    },
    {
      "business_status": "OPERATIONAL",
      "geometry": {
        "location": {
          "lat": 40.7446926,
          "lng": -73.9378186
        },
        "viewport": {
          "northeast": {
            "lat": 40.7463059802915,
            "lng": -73.9363553197085
          },
          "southwest": {
            "lat": 40.7436080197085,
            "lng": -73.93905328029152
          }
        }
      },
      "icon": "https://maps.gstatic.com/mapfiles/place_api/icons/v1/png_71/school-71.png",
      "icon_background_color": "#7B9EB0",
      "icon_mask_base_uri": "https://maps.gstatic.com/mapfiles/place_api/icons/v2/school_pinlet",
      "name": "ASL-English Interpretation Program - CUNY/LaGuardia Community College",
      "opening_hours": {
        "open_now": false
      },
      "place_id": "ChIJ7UHOOStZwokRnOLYQB0LJBA",
      "plus_code": {
        "compound_code": "P3V6+VV \u7f8e\u570b\u7d10\u7d04\u9577\u5cf6\u5e02",
        "global_code": "87G8P3V6+VV"
      },
      "rating": 4.8,
      "reference": "ChIJ7UHOOStZwokRnOLYQB0LJBA",
      "scope": "GOOGLE",
      "types": [
        "point_of_interest",
        "establishment"
      ],
      "user_ratings_total": 4,
      "vicinity": "29-10 Thomson Avenue, Long Island City"
    },
    {
      "business_status": "OPERATIONAL",
      "geometry": {
        "location": {
          "lat": 40.7439997,
          "lng": -73.9350126
        },
        "viewport": {
          "northeast": {
            "lat": 40.7457981302915,
            "lng": -73.93357321970848
          },
          "southwest": {
            "lat": 40.74310016970851,
            "lng": -73.9362711802915
          }
        }
      },
      "icon": "https://maps.gstatic.com/mapfiles/place_api/icons/v1/png_71/school-71.png",
      "icon_background_color": "#7B9EB0",
      "icon_mask_base_uri": "https://maps.gstatic.com/mapfiles/place_api/icons/v2/school_pinlet",
      "name": "City University of New York",
      "place_id": "ChIJS3gYNCtZwokRmW-RhA7CJyI",
      "plus_code": {
        "compound_code": "P3V7+HX \u7f8e\u570b\u7d10\u7d04\u9577\u5cf6\u5e02",
        "global_code": "87G8P3V7+HX"
      },
      "rating": 4.8,
      "reference": "ChIJS3gYNCtZwokRmW-RhA7CJyI",
      "scope": "GOOGLE",
      "types": [
        "university",
        "point_of_interest",
        "establishment"
      ],
      "user_ratings_total": 5,
      "vicinity": "3110 Thomson Avenue, Long Island City"
    },
    {
      "business_status": "OPERATIONAL",
      "geometry": {
        "location": {
          "lat": 40.7452876,
          "lng": -73.9322189
        },
        "viewport": {
          "northeast": {
            "lat": 40.74659628029151,
            "lng": -73.9309868197085
          },
          "southwest": {
            "lat": 40.74389831970851,
            "lng": -73.9336847802915
          }
        }
      },
      "icon": "https://maps.gstatic.com/mapfiles/place_api/icons/v1/png_71/school-71.png",
      "icon_background_color": "#7B9EB0",
      "icon_mask_base_uri": "https://maps.gstatic.com/mapfiles/place_api/icons/v2/school_pinlet",
      "name": "Long Island City YMCA",
      "opening_hours": {
        "open_now": true
      },
      "photos": [
        {
          "height": 1960,
          "html_attributions": [
            "<a href=\"https://maps.google.com/maps/contrib/112869120355325476508\">Michelle B</a>"
          ],
          "photo_reference": "AeJbb3fs7uJPzb3_wnestOk0HknreSyFL6c3D5nlTUWs4Oabaqi2BfVvTp0BqXvo0f65d6IdzcjqHR-kza4Kp03m8d-EbbhNM34RFamADdt2eZVRrh9gn584bSAW8FfWOjGAQvY5MAKraBmM8DZn7UaD4WwdgEessYcGETuPboAT92Cqc4kV",
          "width": 4032
        }
      ],
      "place_id": "ChIJn_wkUNRewokRaonYIT_VYv0",
      "plus_code": {
        "compound_code": "P3W9+44 \u7f8e\u570b\u7d10\u7d04\u9577\u5cf6\u5e02",
        "global_code": "87G8P3W9+44"
      },
      "rating": 3.7,
      "reference": "ChIJn_wkUNRewokRaonYIT_VYv0",
      "scope": "GOOGLE",
      "types": [
        "gym",
        "health",
        "point_of_interest",
        "establishment"
      ],
      "user_ratings_total": 181,
      "vicinity": "32-23 Queens Boulevard, Long Island City"
    },
    {
      "business_status": "OPERATIONAL",
      "geometry": {
        "location": {
          "lat": 40.74479079999999,
          "lng": -73.9378414
        },
        "viewport": {
          "northeast": {
            "lat": 40.74633078029149,
            "lng": -73.93644516970852
          },
          "southwest": {
            "lat": 40.74363281970849,
            "lng": -73.93914313029153
          }
        }
      },
      "icon": "https://maps.gstatic.com/mapfiles/place_api/icons/v1/png_71/school-71.png",
      "icon_background_color": "#7B9EB0",
      "icon_mask_base_uri": "https://maps.gstatic.com/mapfiles/place_api/icons/v2/school_pinlet",
      "name": "High School of Applied Communication",
      "place_id": "ChIJbXSVOStZwokRzOc15JBE4ww",
      "plus_code": {
        "compound_code": "P3V6+WV \u7f8e\u570b\u7d10\u7d04",
        "global_code": "87G8P3V6+WV"
      },
      "rating": 2.6,
      "reference": "ChIJbXSVOStZwokRzOc15JBE4ww",
      "scope": "GOOGLE",
      "types": [
        "secondary_school",
        "school",
        "point_of_interest",
        "establishment"
      ],
      "user_ratings_total": 5,
      "vicinity": "30-20 Thomson Avenue, Queens"
    },
    {
      "business_status": "OPERATIONAL",
      "geometry": {
        "location": {
          "lat": 40.74303219999999,
          "lng": -73.9336896
        },
        "viewport": {
          "northeast": {
            "lat": 40.7443655802915,
            "lng": -73.9324514697085
          },
          "southwest": {
            "lat": 40.7416676197085,
            "lng": -73.9351494302915
          }
        }
      },
      "icon": "https://maps.gstatic.com/mapfiles/place_api/icons/v1/png_71/restaurant-71.png",
      "icon_background_color": "#FF9E67",
      "icon_mask_base_uri": "https://maps.gstatic.com/mapfiles/place_api/icons/v2/restaurant_pinlet",
      "name": "Van Dam Diner",
      "opening_hours": {
        "open_now": true
      },
      "photos": [
        {
          "height": 2169,
          "html_attributions": [
            "<a href=\"https://maps.google.com/maps/contrib/111444671146808251214\">Eric Finkelstein</a>"
          ],
          "photo_reference": "AeJbb3ctOsytTpB6GB2a_dRNGmW7F74tLA3TVxJn9n8IUNuIPMIBQP91V3a-cGCyo0tuOgnWScigki8Wl9NGKDEgoXXxmD0bMneB9PEjxLAD2GKsksGR_i5xW39q0kYATDHvwowIwQU7ZVgD2UVHh6iqr6rR5lFMRkFBmqWN7tgxoaqcG-xe",
          "width": 3649
        }
      ],
      "place_id": "ChIJLU8ELs1ewokRZA7ySTR_WaI",
      "plus_code": {
        "compound_code": "P3V8+6G \u7f8e\u570b\u7d10\u7d04",
        "global_code": "87G8P3V8+6G"
      },
      "price_level": 2,
      "rating": 4.3,
      "reference": "ChIJLU8ELs1ewokRZA7ySTR_WaI",
      "scope": "GOOGLE",
      "types": [
        "meal_delivery",
        "restaurant",
        "food",
        "point_of_interest",
        "establishment"
      ],
      "user_ratings_total": 321,
      "vicinity": "4555 Van Dam Street, New York"
    },
    {
      "business_status": "OPERATIONAL",
      "geometry": {
        "location": {
          "lat": 40.7427897,
          "lng": -73.9355578
        },
        "viewport": {
          "northeast": {
            "lat": 40.74417098029149,
            "lng": -73.93419811970848
          },
          "southwest": {
            "lat": 40.74147301970849,
            "lng": -73.9368960802915
          }
        }
      },
      "icon": "https://maps.gstatic.com/mapfiles/place_api/icons/v1/png_71/generic_business-71.png",
      "icon_background_color": "#7B9EB0",
      "icon_mask_base_uri": "https://maps.gstatic.com/mapfiles/place_api/icons/v2/generic_pinlet",
      "name": "Micro Management",
      "place_id": "ChIJWXopBCxZwokR71b6Io7r5SA",
      "plus_code": {
        "compound_code": "P3V7+4Q \u7f8e\u570b\u7d10\u7d04\u9577\u5cf6\u5e02",
        "global_code": "87G8P3V7+4Q"
      },
      "reference": "ChIJWXopBCxZwokR71b6Io7r5SA",
      "scope": "GOOGLE",
      "types": [
        "point_of_interest",
        "establishment"
      ],
      "vicinity": "3100 47th Avenue N, Long Island City"
    },
    {
      "business_status": "OPERATIONAL",
      "geometry": {
        "location": {
          "lat": 40.7445949,
          "lng": -73.9378807
        },
        "viewport": {
          "northeast": {
            "lat": 40.74623283029149,
            "lng": -73.93644516970852
          },
          "southwest": {
            "lat": 40.7435348697085,
            "lng": -73.93914313029153
          }
        }
      },
      "icon": "https://maps.gstatic.com/mapfiles/place_api/icons/v1/png_71/school-71.png",
      "icon_background_color": "#7B9EB0",
      "icon_mask_base_uri": "https://maps.gstatic.com/mapfiles/place_api/icons/v2/school_pinlet",
      "name": "Bard High School Early College Queens",
      "photos": [
        {
          "height": 3024,
          "html_attributions": [
            "<a href=\"https://maps.google.com/maps/contrib/104094676749070747146\">Iaroslav R</a>"
          ],
          "photo_reference": "AeJbb3fXoesD0uo3BwuiObrIE-N4Skhm86SAn3tWSPUQxCuC_gHI9ARL-IQnRRzeHME_zbHBLY7J8_-6ICF1rhECRbl77vDK8L8N9Ir9uwhXvUs4YDgdrIHwUULvVSzm3zUCmGRMWwDwOTYaOZpRMIZlEf-8ntor2D-XjAre-w_oT6dCIpOP",
          "width": 4032
        }
      ],
      "place_id": "ChIJs9z8UylZwokRx5b85QE4LAA",
      "plus_code": {
        "compound_code": "P3V6+RR \u7f8e\u570b\u7d10\u7d04",
        "global_code": "87G8P3V6+RR"
      },
      "rating": 4.7,
      "reference": "ChIJs9z8UylZwokRx5b85QE4LAA",
      "scope": "GOOGLE",
      "types": [
        "secondary_school",
        "university",
        "school",
        "point_of_interest",
        "establishment"
      ],
      "user_ratings_total": 63,
      "vicinity": "30-20 Thomson Avenue, Queens"
    },
    {
      "business_status": "OPERATIONAL",
      "geometry": {
        "location": {
          "lat": 40.7460208,
          "lng": -73.932775
        },
        "viewport": {
          "northeast": {
            "lat": 40.7470689802915,
            "lng": -73.9312245697085
          },
          "southwest": {
            "lat": 40.7443710197085,
            "lng": -73.93392253029151
          }
        }
      },
      "icon": "https://maps.gstatic.com/mapfiles/place_api/icons/v1/png_71/generic_business-71.png",
      "icon_background_color": "#7B9EB0",
      "icon_mask_base_uri": "https://maps.gstatic.com/mapfiles/place_api/icons/v2/generic_pinlet",
      "name": "Mayo Studios",
      "opening_hours": {
        "open_now": false
      },
      "photos": [
        {
          "height": 1256,
          "html_attributions": [
            "<a href=\"https://maps.google.com/maps/contrib/111261686792519766814\">Mayo Studios</a>"
          ],
          "photo_reference": "AeJbb3dm_f5j0M41YHeoVdpxEGeQzfcFVQcssSLSYosEBbKWUHXeUOdDBKA9QK5sIK2yWTovoTwdFlAKIVG5xEXqNYeeS8VwGFZAATOf9NY9ae-kENy-IPHoyFkYDBEk9jFGeHmur0O3ehtHjxsspMxhYfsD10HidAvKT7-d1uTk9yBBo8pX",
          "width": 1800
        }
      ],
      "place_id": "ChIJRd-3kC9ZwokRp4EP2m0CmJk",
      "plus_code": {
        "compound_code": "P3W8+CV \u7f8e\u570b\u7d10\u7d04",
        "global_code": "87G8P3W8+CV"
      },
      "rating": 4.6,
      "reference": "ChIJRd-3kC9ZwokRp4EP2m0CmJk",
      "scope": "GOOGLE",
      "types": [
        "point_of_interest",
        "establishment"
      ],
      "user_ratings_total": 10,
      "vicinity": "32-00 Skillman Avenue floor 3, Queens"
    },
    {
      "business_status": "OPERATIONAL",
      "geometry": {
        "location": {
          "lat": 40.742804,
          "lng": -73.9363744
        },
        "viewport": {
          "northeast": {
            "lat": 40.74417683029149,
            "lng": -73.93523536970851
          },
          "southwest": {
            "lat": 40.74147886970849,
            "lng": -73.93793333029151
          }
        }
      },
      "icon": "https://maps.gstatic.com/mapfiles/place_api/icons/v1/png_71/generic_business-71.png",
      "icon_background_color": "#7B9EB0",
      "icon_mask_base_uri": "https://maps.gstatic.com/mapfiles/place_api/icons/v2/generic_pinlet",
      "name": "LiveOnNY",
      "photos": [
        {
          "height": 600,
          "html_attributions": [
            "<a href=\"https://maps.google.com/maps/contrib/105956881036674259631\">LiveOnNY</a>"
          ],
          "photo_reference": "AeJbb3fu4NQaYpNzVp2mfqr69HMjvgJk99wdTBAWcvolXyYYyN9HbNBZT4ThgFtqWLvj6V1XeZPGh7TyVN2OwGaJ-hUYhSRKnEmdzdgAC820y3RsDVutdu4tfdiu-A6eOw93ObZMEFB1CrJJaCKWHRN10ADrJvnQZ8urxDRpz-7PzsqhLndq",
          "width": 900
        }
      ],
      "place_id": "ChIJbbNJorNZwokRTdlUX1cnl9Q",
      "plus_code": {
        "compound_code": "P3V7+4F \u7f8e\u570b\u7d10\u7d04",
        "global_code": "87G8P3V7+4F"
      },
      "rating": 4,
      "reference": "ChIJbbNJorNZwokRTdlUX1cnl9Q",
      "scope": "GOOGLE",
      "types": [
        "point_of_interest",
        "establishment"
      ],
      "user_ratings_total": 22,
      "vicinity": "30-30 47th Avenue 9th Floor, Queens"
    },
    {
      "business_status": "OPERATIONAL",
      "geometry": {
        "location": {
          "lat": 40.7443193,
          "lng": -73.9312549
        },
        "viewport": {
          "northeast": {
            "lat": 40.74573918029149,
            "lng": -73.9298956697085
          },
          "southwest": {
            "lat": 40.7430412197085,
            "lng": -73.9325936302915
          }
        }
      },
      "icon": "https://maps.gstatic.com/mapfiles/place_api/icons/v1/png_71/generic_business-71.png",
      "icon_background_color": "#7B9EB0",
      "icon_mask_base_uri": "https://maps.gstatic.com/mapfiles/place_api/icons/v2/generic_pinlet",
      "name": "Allied Universal",
      "opening_hours": {
        "open_now": false
      },
      "photos": [
        {
          "height": 1920,
          "html_attributions": [
            "<a href=\"https://maps.google.com/maps/contrib/118392191559667486508\">Lawrence Hamilton Jr</a>"
          ],
          "photo_reference": "AeJbb3e8DEueI6CpjfJqpEwoLIVlkcFgrV8BwAiu2vfOvgzj41bfQiuqJQZiKLBMkDYXMh-vXH5yKiPbQZT-4bfe-_VotIZ_qr_LamvlLHkDm84ApdVpJGLQGGE7PfnMS8hE7yhvgQ5hmWI-XI-itqUESt3TN9X-exWwPMJnGOEfV5quQbnt",
          "width": 2560
        }
      ],
      "place_id": "ChIJRfew1ktSwokRdyUu0Qpj1xU",
      "plus_code": {
        "compound_code": "P3V9+PF \u7f8e\u570b\u7d10\u7d04",
        "global_code": "87G8P3V9+PF"
      },
      "rating": 3.1,
      "reference": "ChIJRfew1ktSwokRdyUu0Qpj1xU",
      "scope": "GOOGLE",
      "types": [
        "point_of_interest",
        "establishment"
      ],
      "user_ratings_total": 186,
      "vicinity": "33-10 Queens Boulevard UNIT 300, Queens"
    },
    {
      "business_status": "CLOSED_TEMPORARILY",
      "geometry": {
        "location": {
          "lat": 40.7427897,
          "lng": -73.9355578
        },
        "viewport": {
          "northeast": {
            "lat": 40.74417098029149,
            "lng": -73.93419811970848
          },
          "southwest": {
            "lat": 40.74147301970849,
            "lng": -73.9368960802915
          }
        }
      },
      "icon": "https://maps.gstatic.com/mapfiles/place_api/icons/v1/png_71/generic_business-71.png",
      "icon_background_color": "#7B9EB0",
      "icon_mask_base_uri": "https://maps.gstatic.com/mapfiles/place_api/icons/v2/generic_pinlet",
      "name": "Lick Studios",
      "permanently_closed": true,
      "place_id": "ChIJ2dO4UdNewokRUX4MX96xGAE",
      "plus_code": {
        "compound_code": "P3V7+4Q \u7f8e\u570b\u7d10\u7d04\u9577\u5cf6\u5e02",
        "global_code": "87G8P3V7+4Q"
      },
      "reference": "ChIJ2dO4UdNewokRUX4MX96xGAE",
      "scope": "GOOGLE",
      "types": [
        "point_of_interest",
        "establishment"
      ],
      "vicinity": "3100 47th Avenue C, Long Island City"
    },
    {
      "geometry": {
        "location": {
          "lat": 40.744679,
          "lng": -73.9485424
        },
        "viewport": {
          "northeast": {
            "lat": 40.76305627050633,
            "lng": -73.90948293911667
          },
          "southwest": {
            "lat": 40.727849032336,
            "lng": -73.96285774645361
          }
        }
      },
      "icon": "https://maps.gstatic.com/mapfiles/place_api/icons/v1/png_71/geocode-71.png",
      "icon_background_color": "#7B9EB0",
      "icon_mask_base_uri": "https://maps.gstatic.com/mapfiles/place_api/icons/v2/generic_pinlet",
      "name": "\u9577\u5cf6\u5e02",
      "photos": [
        {
          "height": 3000,
          "html_attributions": [
            "<a href=\"https://maps.google.com/maps/contrib/106309005578646235768\">love alter</a>"
          ],
          "photo_reference": "AeJbb3czdqr80Sbb_tsF-RoN8U3NqP5qzIJDY0fM6_CGe8oHrc8TCreYETmVYoGfmGlUGHur9DBfzlKoljLMy8CstniNRZmJ5-1kws4Eywizjd-nYugY6p6HOuNyl9AslzM_L0BSkjafwtQXxwueJ6PonASfP4Q7__cYT6lh9BGHiFnXMgPn",
          "width": 4000
        }
      ],
      "place_id": "ChIJWbG6xytZwokRMY7uxcRsFVY",
      "reference": "ChIJWbG6xytZwokRMY7uxcRsFVY",
      "scope": "GOOGLE",
      "types": [
        "neighborhood",
        "political"
      ],
      "vicinity": "\u7687\u540e\u5340"
    },
    {
      "business_status": "OPERATIONAL",
      "geometry": {
        "location": {
          "lat": 40.7442821,
          "lng": -73.9380442
        },
        "viewport": {
          "northeast": {
            "lat": 40.7460764302915,
            "lng": -73.93650471970851
          },
          "southwest": {
            "lat": 40.7433784697085,
            "lng": -73.93920268029152
          }
        }
      },
      "icon": "https://maps.gstatic.com/mapfiles/place_api/icons/v1/png_71/generic_business-71.png",
      "icon_background_color": "#7B9EB0",
      "icon_mask_base_uri": "https://maps.gstatic.com/mapfiles/place_api/icons/v2/generic_pinlet",
      "name": "Mercury Beach Maid Inc",
      "place_id": "ChIJeZK5ZStZwokRKnQ3lgp-tYU",
      "plus_code": {
        "compound_code": "P3V6+PQ Long Island City, Queens, NY, USA",
        "global_code": "87G8P3V6+PQ"
      },
      "reference": "ChIJeZK5ZStZwokRKnQ3lgp-tYU",
      "scope": "GOOGLE",
      "types": [
        "clothing_store",
        "store",
        "point_of_interest",
        "establishment"
      ],
      "vicinity": "2910 Thomson Avenue, Long Island City"
    },
    {
      "business_status": "OPERATIONAL",
      "geometry": {
        "location": {
          "lat": 40.7439998,
          "lng": -73.9350125
        },
        "viewport": {
          "northeast": {
            "lat": 40.7457981302915,
            "lng": -73.93357311970851
          },
          "southwest": {
            "lat": 40.7431001697085,
            "lng": -73.93627108029152
          }
        }
      },
      "icon": "https://maps.gstatic.com/mapfiles/place_api/icons/v1/png_71/school-71.png",
      "icon_background_color": "#7B9EB0",
      "icon_mask_base_uri": "https://maps.gstatic.com/mapfiles/place_api/icons/v2/school_pinlet",
      "name": "International High School at LaGuardia Community College",
      "place_id": "ChIJS3gYNCtZwokRf4xm2Q-xirc",
      "plus_code": {
        "compound_code": "P3V7+HX New York, NY, USA",
        "global_code": "87G8P3V7+HX"
      },
      "rating": 4.5,
      "reference": "ChIJS3gYNCtZwokRf4xm2Q-xirc",
      "scope": "GOOGLE",
      "types": [
        "secondary_school",
        "school",
        "point_of_interest",
        "establishment"
      ],
      "user_ratings_total": 15,
      "vicinity": "45-35 Van Dam Street, Queens"
    },
    {
      "business_status": "OPERATIONAL",
      "geometry": {
        "location": {
          "lat": 40.7433295,
          "lng": -73.9333269
        },
        "viewport": {
          "northeast": {
            "lat": 40.74562780000002,
            "lng": -73.9325801197085
          },
          "southwest": {
            "lat": 40.74256339999999,
            "lng": -73.93527808029151
          }
        }
      },
      "icon": "https://maps.gstatic.com/mapfiles/place_api/icons/v1/png_71/school-71.png",
      "icon_background_color": "#7B9EB0",
      "icon_mask_base_uri": "https://maps.gstatic.com/mapfiles/place_api/icons/v2/school_pinlet",
      "name": "Middle College High School at LaGuardia Community College",
      "opening_hours": {
        "open_now": false
      },
      "photos": [
        {
          "height": 4032,
          "html_attributions": [
            "<a href=\"https://maps.google.com/maps/contrib/116169908472051739378\">Domingo Rodr\u00edguez</a>"
          ],
          "photo_reference": "AeJbb3d04125ofJIav0f4YplzcTscPqCKigW0EGCwyza9BpaThuK87RbHSqIIREMz_NT3UfoaUbjiYHMzKViEHLsWQDIBtttDared8zltJueLDX502k015aIt241WgFGsaDdBK7zYn1hJFDceUS5YooayqCRz3xt2Negn_c_pYcJtd0x95x0",
          "width": 3024
        }
      ],
      "place_id": "ChIJS3gYNCtZwokR8tuGmD-Ny0M",
      "plus_code": {
        "compound_code": "P3V8+8M New York, NY, USA",
        "global_code": "87G8P3V8+8M"
      },
      "rating": 4.4,
      "reference": "ChIJS3gYNCtZwokR8tuGmD-Ny0M",
      "scope": "GOOGLE",
      "types": [
        "secondary_school",
        "school",
        "point_of_interest",
        "establishment"
      ],
      "user_ratings_total": 18,
      "vicinity": "45-35 Van Dam Street, Queens"
    },
    {
      "business_status": "OPERATIONAL",
      "geometry": {
        "location": {
          "lat": 40.7439393,
          "lng": -73.9351889
        },
        "viewport": {
          "northeast": {
            "lat": 40.7457771802915,
            "lng": -73.93370781970849
          },
          "southwest": {
            "lat": 40.74307921970851,
            "lng": -73.9364057802915
          }
        }
      },
      "icon": "https://maps.gstatic.com/mapfiles/place_api/icons/v1/png_71/generic_business-71.png",
      "icon_background_color": "#13B5C7",
      "icon_mask_base_uri": "https://maps.gstatic.com/mapfiles/place_api/icons/v2/generic_pinlet",
      "name": "LaGuardia Performing Arts Center",
      "photos": [
        {
          "height": 3266,
          "html_attributions": [
            "<a href=\"https://maps.google.com/maps/contrib/107179911950381260118\">La Guardia Performing Arts</a>"
          ],
          "photo_reference": "AeJbb3cYiUX6H9-DNpxoR1WNAOV3AfbjqSJfvwMSo3ozHCgRgkJDWtM2POJSdZ4Z9bcIulkvVGNxlNXH0vXU9E3VSLkU1nvWxPb9v2a2vxNmsbMWY_UWAWHFWaCD93sYTs3V9aILYbtpO7HU4QPJWigEKCF4GuhJbTmjtHOtDWcS-JD_t0-n",
          "width": 4907
        }
      ],
      "place_id": "ChIJS3gYNCtZwokReDd0o89zXg0",
      "plus_code": {
        "compound_code": "P3V7+HW Long Island City, Queens, NY, USA",
        "global_code": "87G8P3V7+HW"
      },
      "rating": 4.4,
      "reference": "ChIJS3gYNCtZwokReDd0o89zXg0",
      "scope": "GOOGLE",
      "types": [
        "point_of_interest",
        "establishment"
      ],
      "user_ratings_total": 1786,
      "vicinity": "31-10 Thomson Avenue, Long Island City"
    },
    {
      "business_status": "OPERATIONAL",
      "geometry": {
        "location": {
          "lat": 40.74265659999999,
          "lng": -73.9341677
        },
        "viewport": {
          "northeast": {
            "lat": 40.74399513029149,
            "lng": -73.9327284697085
          },
          "southwest": {
            "lat": 40.7412971697085,
            "lng": -73.9354264302915
          }
        }
      },
      "icon": "https://maps.gstatic.com/mapfiles/place_api/icons/v1/png_71/civic_building-71.png",
      "icon_background_color": "#7B9EB0",
      "icon_mask_base_uri": "https://maps.gstatic.com/mapfiles/place_api/icons/v2/civic-bldg_pinlet",
      "name": "Queensboro Correctional Facility",
      "opening_hours": {
        "open_now": true
      },
      "place_id": "ChIJGZMNZtNewokRnDdQ2b_VMqA",
      "plus_code": {
        "compound_code": "P3V8+38 Long Island City, Queens, NY, USA",
        "global_code": "87G8P3V8+38"
      },
      "reference": "ChIJGZMNZtNewokRnDdQ2b_VMqA",
      "scope": "GOOGLE",
      "types": [
        "point_of_interest",
        "establishment"
      ],
      "vicinity": "47-04 Van Dam Street, Long Island City"
    },
    {
      "business_status": "OPERATIONAL",
      "geometry": {
        "location": {
          "lat": 40.7441012,
          "lng": -73.94062219999999
        },
        "viewport": {
          "northeast": {
            "lat": 40.7455183302915,
            "lng": -73.93937816970849
          },
          "southwest": {
            "lat": 40.7428203697085,
            "lng": -73.9420761302915
          }
        }
      },
      "icon": "https://maps.gstatic.com/mapfiles/place_api/icons/v1/png_71/lodging-71.png",
      "icon_background_color": "#909CE1",
      "icon_mask_base_uri": "https://maps.gstatic.com/mapfiles/place_api/icons/v2/hotel_pinlet",
      "name": "Feather Factory Hotel",
      "photos": [
        {
          "height": 3024,
          "html_attributions": [
            "<a href=\"https://maps.google.com/maps/contrib/105288344522572383346\">Katia Pereira</a>"
          ],
          "photo_reference": "AeJbb3fB-LNhpN8G6BeE9CRzS0dvdw-5D3jvYBAmsWx8Jk6f9j-wMeQOY7XJ_W7LAtUzn98ODGZFuBr0y9ds83HGavdnKlTb97UDFtQMgzjzIYdrVR326AjLZY96GCtca7u2WEj4jISvx0KSVL7gRvqRNe-QvVfW7eRlspwQ9E1CXyZZ6EVp",
          "width": 4032
        }
      ],
      "place_id": "ChIJffXi9StZwokRhAf3Lp6dMzI",
      "plus_code": {
        "compound_code": "P3V5+JQ New York, NY, USA",
        "global_code": "87G8P3V5+JQ"
      },
      "rating": 4.1,
      "reference": "ChIJffXi9StZwokRhAf3Lp6dMzI",
      "scope": "GOOGLE",
      "types": [
        "lodging",
        "point_of_interest",
        "establishment"
      ],
      "user_ratings_total": 560,
      "vicinity": "Queens County, 26-32 Skillman Avenue, Queens"
    },
    {
      "business_status": "OPERATIONAL",
      "geometry": {
        "location": {
          "lat": 40.742448,
          "lng": -73.9325837
        },
        "viewport": {
          "northeast": {
            "lat": 40.7439300802915,
            "lng": -73.93120826970849
          },
          "southwest": {
            "lat": 40.7412321197085,
            "lng": -73.9339062302915
          }
        }
      },
      "icon": "https://maps.gstatic.com/mapfiles/place_api/icons/v1/png_71/generic_business-71.png",
      "icon_background_color": "#7B9EB0",
      "icon_mask_base_uri": "https://maps.gstatic.com/mapfiles/place_api/icons/v2/generic_pinlet",
      "name": "Taffard Fabrics",
      "opening_hours": {
        "open_now": false
      },
      "photos": [
        {
          "height": 480,
          "html_attributions": [
            "<a href=\"https://maps.google.com/maps/contrib/112398354644811016547\">Taffard Fabrics</a>"
          ],
          "photo_reference": "AeJbb3cpoYSUCwqMZsNG4Y-UO4k5r-uLg8phsfVP5Ktyi0UQEedvmK0w3rmYMi4CTMQ9m3C5HmS4AneiD9pZvyBGNQ4CMJk7QP1iaDnug4vErRpLKRrqzTdd4POlq_v8ekYmYa30-TBj4z4qim5RqG_iMxWd5OuPNNToMnx88TB5iYBKFAyC",
          "width": 980
        }
      ],
      "place_id": "ChIJ_8y5g6hZwokRkIM6eVXaQcs",
      "plus_code": {
        "compound_code": "P3R8+XX New York, NY, USA",
        "global_code": "87G8P3R8+XX"
      },
      "reference": "ChIJ_8y5g6hZwokRkIM6eVXaQcs",
      "scope": "GOOGLE",
      "types": [
        "point_of_interest",
        "establishment"
      ],
      "vicinity": "33-00 47th Avenue, Queens"
    },
    {
      "business_status": "OPERATIONAL",
      "geometry": {
        "location": {
          "lat": 40.7423837,
          "lng": -73.9364608
        },
        "viewport": {
          "northeast": {
            "lat": 40.7439451302915,
            "lng": -73.93532021970849
          },
          "southwest": {
            "lat": 40.7412471697085,
            "lng": -73.93801818029151
          }
        }
      },
      "icon": "https://maps.gstatic.com/mapfiles/place_api/icons/v1/png_71/generic_business-71.png",
      "icon_background_color": "#7B9EB0",
      "icon_mask_base_uri": "https://maps.gstatic.com/mapfiles/place_api/icons/v2/generic_pinlet",
      "name": "Spin Master Inc.",
      "photos": [
        {
          "height": 4032,
          "html_attributions": [
            "<a href=\"https://maps.google.com/maps/contrib/112026086779139845041\">Patty Parker</a>"
          ],
          "photo_reference": "AeJbb3cTGmsMt1wVANXfKM5bAKkM99RmfvI9m2dKkp6qTjaZRG7QsHi5lh_MaiGtgAuOuo8HWPIA_cnnSzwDCy48dPx05-9PUUIePVq6GhOwJ5iE8cY6bmDqqEs_WpmON4XwymctcFvb8-BUd_FAtGNhvqEBrxfWjX8Jwdg1FVypPBDIBbjU",
          "width": 3024
        }
      ],
      "place_id": "ChIJjyX2GqRZwokRzp9N2NY2wuY",
      "plus_code": {
        "compound_code": "P3R7+XC New York, NY, USA",
        "global_code": "87G8P3R7+XC"
      },
      "rating": 3.7,
      "reference": "ChIJjyX2GqRZwokRzp9N2NY2wuY",
      "scope": "GOOGLE",
      "types": [
        "point_of_interest",
        "establishment"
      ],
      "user_ratings_total": 3,
      "vicinity": "30-30 47th Avenue, Queens"
    },
    {
      "business_status": "OPERATIONAL",
      "geometry": {
        "location": {
          "lat": 40.7439997,
          "lng": -73.9350126
        },
        "viewport": {
          "northeast": {
            "lat": 40.7457981302915,
            "lng": -73.93357321970848
          },
          "southwest": {
            "lat": 40.74310016970851,
            "lng": -73.9362711802915
          }
        }
      },
      "icon": "https://maps.gstatic.com/mapfiles/place_api/icons/v1/png_71/museum-71.png",
      "icon_background_color": "#13B5C7",
      "icon_mask_base_uri": "https://maps.gstatic.com/mapfiles/place_api/icons/v2/museum_pinlet",
      "name": "La Guardia & Wagner Archives",
      "opening_hours": {
        "open_now": false
      },
      "place_id": "ChIJS3gYNCtZwokRSy8JvCLT33I",
      "plus_code": {
        "compound_code": "P3V7+HX Long Island City, Queens, NY, USA",
        "global_code": "87G8P3V7+HX"
      },
      "rating": 3.8,
      "reference": "ChIJS3gYNCtZwokRSy8JvCLT33I",
      "scope": "GOOGLE",
      "types": [
        "tourist_attraction",
        "museum",
        "point_of_interest",
        "establishment"
      ],
      "user_ratings_total": 4,
      "vicinity": "3110 Thomson Avenue, Long Island City"
    },
    {
      "business_status": "OPERATIONAL",
      "geometry": {
        "location": {
          "lat": 40.742804,
          "lng": -73.9363744
        },
        "viewport": {
          "northeast": {
            "lat": 40.74417683029149,
            "lng": -73.93523536970851
          },
          "southwest": {
            "lat": 40.74147886970849,
            "lng": -73.93793333029151
          }
        }
      },
      "icon": "https://maps.gstatic.com/mapfiles/place_api/icons/v1/png_71/generic_business-71.png",
      "icon_background_color": "#7B9EB0",
      "icon_mask_base_uri": "https://maps.gstatic.com/mapfiles/place_api/icons/v2/generic_pinlet",
      "name": "Cardinal Industries Inc",
      "photos": [
        {
          "height": 1536,
          "html_attributions": [
            "<a href=\"https://maps.google.com/maps/contrib/117067749643694208252\">Michelle Allen</a>"
          ],
          "photo_reference": "AeJbb3fdodcLEi02xU8_jnHBtDeNbJMNBv-KN9wRp-G_CrbGG7obXTbM34B8MMP-R3qCs53tk20pOr7TjANBQVuWLbN8itcMId82WGY3Z2K85cQiRQbkSKyh8Ok3lKkDi4NYzPEdSf8HBp4jfTXff2-L-CsOPq_w0ZR8fQnsiaWHknuJg50K",
          "width": 2048
        }
      ],
      "place_id": "ChIJV6cTOiVZwokRC8aw8vVUqOA",
      "plus_code": {
        "compound_code": "P3V7+4F Long Island City, Queens, NY, USA",
        "global_code": "87G8P3V7+4F"
      },
      "rating": 2.1,
      "reference": "ChIJV6cTOiVZwokRC8aw8vVUqOA",
      "scope": "GOOGLE",
      "types": [
        "point_of_interest",
        "establishment"
      ],
      "user_ratings_total": 18,
      "vicinity": "30-30 47th Avenue suite 680, Long Island City"
    },
    {
      "business_status": "OPERATIONAL",
      "geometry": {
        "location": {
          "lat": 40.7483999,
          "lng": -73.9380657
        },
        "viewport": {
          "northeast": {
            "lat": 40.7498958302915,
            "lng": -73.93672126970849
          },
          "southwest": {
            "lat": 40.7471978697085,
            "lng": -73.93941923029149
          }
        }
      },
      "icon": "https://maps.gstatic.com/mapfiles/place_api/icons/v1/png_71/restaurant-71.png",
      "icon_background_color": "#FF9E67",
      "icon_mask_base_uri": "https://maps.gstatic.com/mapfiles/place_api/icons/v2/restaurant_pinlet",
      "name": "Murray's Cheese Bar",
      "opening_hours": {
        "open_now": true
      },
      "photos": [
        {
          "height": 1335,
          "html_attributions": [
            "<a href=\"https://maps.google.com/maps/contrib/108998028152401378068\">Murray&#39;s Cheese Bar</a>"
          ],
          "photo_reference": "AeJbb3fKpEhe9ByzvsTaq86v64xhmQ-KsUpFVpANYwui2fTFFdaLvWfbmd_2hwzi767HLOtTcN8hwKw3fL29pfbDARELdZd48ykYtz04OpMAdoyT9O10P3m-rVdx2eguexo1RDDOZQpHcB_6EdSPYu9PpqH9j0oLd3953q3UPWzBfC3LHYf_",
          "width": 2000
        }
      ],
      "place_id": "ChIJlTkor5NZwokRssoIkYdJOcc",
      "plus_code": {
        "compound_code": "P3X6+9Q New York, NY, USA",
        "global_code": "87G8P3X6+9Q"
      },
      "price_level": 2,
      "rating": 4.5,
      "reference": "ChIJlTkor5NZwokRssoIkYdJOcc",
      "scope": "GOOGLE",
      "types": [
        "bar",
        "restaurant",
        "food",
        "point_of_interest",
        "establishment"
      ],
      "user_ratings_total": 949,
      "vicinity": "28-30 Jackson Avenue, Queens"
    },
    {
      "business_status": "OPERATIONAL",
      "geometry": {
        "location": {
          "lat": 40.74283,
          "lng": -73.935434
        },
        "viewport": {
          "northeast": {
            "lat": 40.7442848302915,
            "lng": -73.9339923197085
          },
          "southwest": {
            "lat": 40.7415868697085,
            "lng": -73.9366902802915
          }
        }
      },
      "icon": "https://maps.gstatic.com/mapfiles/place_api/icons/v1/png_71/shopping-71.png",
      "icon_background_color": "#4B96F3",
      "icon_mask_base_uri": "https://maps.gstatic.com/mapfiles/place_api/icons/v2/shopping_pinlet",
      "name": "Unique Settings of New York",
      "opening_hours": {
        "open_now": false
      },
      "place_id": "ChIJmTKoUdNewokRb69sQ0tocVk",
      "plus_code": {
        "compound_code": "P3V7+4R Long Island City, Queens, NY, USA",
        "global_code": "87G8P3V7+4R"
      },
      "rating": 4.1,
      "reference": "ChIJmTKoUdNewokRb69sQ0tocVk",
      "scope": "GOOGLE",
      "types": [
        "jewelry_store",
        "store",
        "point_of_interest",
        "establishment"
      ],
      "user_ratings_total": 9,
      "vicinity": "The Falchi Building, 31-00 47th Avenue, 2nd Floor, Long Island City"
    },
    {
      "business_status": "OPERATIONAL",
      "geometry": {
        "location": {
          "lat": 40.7448805,
          "lng": -73.9359119
        },
        "viewport": {
          "northeast": {
            "lat": 40.74630103029151,
            "lng": -73.9345809197085
          },
          "southwest": {
            "lat": 40.74360306970851,
            "lng": -73.9372788802915
          }
        }
      },
      "icon": "https://maps.gstatic.com/mapfiles/place_api/icons/v1/png_71/generic_business-71.png",
      "icon_background_color": "#7B9EB0",
      "icon_mask_base_uri": "https://maps.gstatic.com/mapfiles/place_api/icons/v2/generic_pinlet",
      "name": "School Construction Authority",
      "opening_hours": {
        "open_now": false
      },
      "photos": [
        {
          "height": 2988,
          "html_attributions": [
            "<a href=\"https://maps.google.com/maps/contrib/108983803859134937182\">Julio Morales</a>"
          ],
          "photo_reference": "AeJbb3eSpY2RnOOFvVsWjTHZr1gAs-DYD8DeC8yENLWoao_Cb--vehdjpa0sGG6VsYK3g2Ebvgc6hRmIX_p6Cb0Bt2nTX9ha16r8XHdIna-ZtgihO7fZITyu7lhzTyiIdk5pxc3MWDVmi3X8xmJuBGN0TR_TBk9UhabBVCcopm-MZ32NO1VM",
          "width": 5312
        }
      ],
      "place_id": "ChIJvUFiy9RewokRqW30mdspZaE",
      "plus_code": {
        "compound_code": "P3V7+XJ New York, NY, USA",
        "global_code": "87G8P3V7+XJ"
      },
      "rating": 4.3,
      "reference": "ChIJvUFiy9RewokRqW30mdspZaE",
      "scope": "GOOGLE",
      "types": [
        "point_of_interest",
        "establishment"
      ],
      "user_ratings_total": 38,
      "vicinity": "30-30 Thomson Avenue, Queens"
    },
    {
      "business_status": "OPERATIONAL",
      "geometry": {
        "location": {
          "lat": 40.7440161,
          "lng": -73.935088
        },
        "viewport": {
          "northeast": {
            "lat": 40.7458107302915,
            "lng": -73.9336493697085
          },
          "southwest": {
            "lat": 40.7431127697085,
            "lng": -73.93634733029151
          }
        }
      },
      "icon": "https://maps.gstatic.com/mapfiles/place_api/icons/v1/png_71/shopping-71.png",
      "icon_background_color": "#4B96F3",
      "icon_mask_base_uri": "https://maps.gstatic.com/mapfiles/place_api/icons/v2/shopping_pinlet",
      "name": "Collegiate Bookstore",
      "opening_hours": {
        "open_now": true
      },
      "photos": [
        {
          "height": 827,
          "html_attributions": [
            "<a href=\"https://maps.google.com/maps/contrib/116210560245821620778\">Thuy\u1ebft Rose Tattoo</a>"
          ],
          "photo_reference": "AeJbb3ecf8c25hNRzTZioEOvyTr3lGRY95mQqABv5FwRpn9hdh-6LlwD1PRwZLs_il2TEQhbLQi-S9mxQY2G7WCb-NoAMUs4VLBLB6hZ2Z5X8FKPkb4heuL7yojIYRA5ZO5BYUYyAtSc-jizNodJnL6l5_Brh4Q36ZokB2YSzECInIFOIYMW",
          "width": 1792
        }
      ],
      "place_id": "ChIJS3gYNCtZwokRPEfl6NFqY_s",
      "plus_code": {
        "compound_code": "P3V7+JX New York, NY, USA",
        "global_code": "87G8P3V7+JX"
      },
      "price_level": 2,
      "rating": 4,
      "reference": "ChIJS3gYNCtZwokRPEfl6NFqY_s",
      "scope": "GOOGLE",
      "types": [
        "book_store",
        "store",
        "point_of_interest",
        "establishment"
      ],
      "user_ratings_total": 4,
      "vicinity": "31-10 Thomson Avenue, Queens"
    },
    {
      "business_status": "OPERATIONAL",
      "geometry": {
        "location": {
          "lat": 40.7439616,
          "lng": -73.9361658
        },
        "viewport": {
          "northeast": {
            "lat": 40.74523423029149,
            "lng": -73.9350155697085
          },
          "southwest": {
            "lat": 40.7425362697085,
            "lng": -73.93771353029152
          }
        }
      },
      "icon": "https://maps.gstatic.com/mapfiles/place_api/icons/v1/png_71/civic_building-71.png",
      "icon_background_color": "#7B9EB0",
      "icon_mask_base_uri": "https://maps.gstatic.com/mapfiles/place_api/icons/v2/civic-bldg_pinlet",
      "name": "New York City Administration",
      "place_id": "ChIJTRm9UitZwokRqo1El2xnsUQ",
      "plus_code": {
        "compound_code": "P3V7+HG Long Island City, Queens, NY, USA",
        "global_code": "87G8P3V7+HG"
      },
      "rating": 3.7,
      "reference": "ChIJTRm9UitZwokRqo1El2xnsUQ",
      "scope": "GOOGLE",
      "types": [
        "local_government_office",
        "point_of_interest",
        "establishment"
      ],
      "user_ratings_total": 3,
      "vicinity": "3030 Thomson Avenue, Long Island City"
    },
    {
      "business_status": "OPERATIONAL",
      "geometry": {
        "location": {
          "lat": 40.742852,
          "lng": -73.9362864
        },
        "viewport": {
          "northeast": {
            "lat": 40.7443441802915,
            "lng": -73.9349234197085
          },
          "southwest": {
            "lat": 40.7416462197085,
            "lng": -73.9376213802915
          }
        }
      },
      "icon": "https://maps.gstatic.com/mapfiles/place_api/icons/v1/png_71/shopping-71.png",
      "icon_background_color": "#4B96F3",
      "icon_mask_base_uri": "https://maps.gstatic.com/mapfiles/place_api/icons/v2/shopping_pinlet",
      "name": "Sirona Dental Systems INC",
      "opening_hours": {
        "open_now": false
      },
      "place_id": "ChIJc4PFrSxZwokRNSlCJdKNntQ",
      "plus_code": {
        "compound_code": "P3V7+4F Long Island City, Queens, NY, USA",
        "global_code": "87G8P3V7+4F"
      },
      "reference": "ChIJc4PFrSxZwokRNSlCJdKNntQ",
      "scope": "GOOGLE",
      "types": [
        "health",
        "store",
        "point_of_interest",
        "establishment"
      ],
      "vicinity": "3030 47th Avenue UNIT 500, Long Island City"
    },
    {
      "business_status": "OPERATIONAL",
      "geometry": {
        "location": {
          "lat": 40.7428809,
          "lng": -73.9375002
        },
        "viewport": {
          "northeast": {
            "lat": 40.7442793802915,
            "lng": -73.93626786970849
          },
          "southwest": {
            "lat": 40.7415814197085,
            "lng": -73.9389658302915
          }
        }
      },
      "icon": "https://maps.gstatic.com/mapfiles/place_api/icons/v1/png_71/generic_business-71.png",
      "icon_background_color": "#7B9EB0",
      "icon_mask_base_uri": "https://maps.gstatic.com/mapfiles/place_api/icons/v2/generic_pinlet",
      "name": "Jaydan Interiors LLC",
      "opening_hours": {
        "open_now": false
      },
      "photos": [
        {
          "height": 2620,
          "html_attributions": [
            "<a href=\"https://maps.google.com/maps/contrib/110645034110384927859\">MARC OFFNER</a>"
          ],
          "photo_reference": "AeJbb3fkCFO1L2cusARWqaYwcWBRYNO6Wbv7cEisJcG5PFpOp7T_4J0DHit7qg9mqMMPM2Md5E4MqXTf9BQdwsdRNzaSoQZQeHx4yu7wof_glRUXnyBsO-kj5zltKChCOMhdCU2HEm1ULTYfgO5_WW_9kW9O7Z_pA37O1bOTyfd3UbvAjEW-",
          "width": 4656
        }
      ],
      "place_id": "ChIJsygN1ylZwokRUghdJNdc4Qg",
      "plus_code": {
        "compound_code": "P3V6+5X New York, NY, USA",
        "global_code": "87G8P3V6+5X"
      },
      "rating": 5,
      "reference": "ChIJsygN1ylZwokRUghdJNdc4Qg",
      "scope": "GOOGLE",
      "types": [
        "general_contractor",
        "point_of_interest",
        "establishment"
      ],
      "user_ratings_total": 2,
      "vicinity": "47-09 30th Street 1st Floor, Queens"
    },
    {
      "business_status": "OPERATIONAL",
      "geometry": {
        "location": {
          "lat": 40.7427897,
          "lng": -73.9355578
        },
        "viewport": {
          "northeast": {
            "lat": 40.74417098029149,
            "lng": -73.93419811970848
          },
          "southwest": {
            "lat": 40.74147301970849,
            "lng": -73.9368960802915
          }
        }
      },
      "icon": "https://maps.gstatic.com/mapfiles/place_api/icons/v1/png_71/generic_business-71.png",
      "icon_background_color": "#7B9EB0",
      "icon_mask_base_uri": "https://maps.gstatic.com/mapfiles/place_api/icons/v2/generic_pinlet",
      "name": "Rosado Chechanover Bayrasli",
      "place_id": "ChIJO3UdTtNewokRwrg6U6Rz-RY",
      "plus_code": {
        "compound_code": "P3V7+4Q Long Island City, Queens, NY, USA",
        "global_code": "87G8P3V7+4Q"
      },
      "rating": 2.5,
      "reference": "ChIJO3UdTtNewokRwrg6U6Rz-RY",
      "scope": "GOOGLE",
      "types": [
        "lawyer",
        "point_of_interest",
        "establishment"
      ],
      "user_ratings_total": 2,
      "vicinity": "3100 47th Avenue # 2A, Long Island City"
    },
    {
      "business_status": "OPERATIONAL",
      "geometry": {
        "location": {
          "lat": 40.7416523,
          "lng": -73.9336553
        },
        "viewport": {
          "northeast": {
            "lat": 40.74303648029149,
            "lng": -73.9325643697085
          },
          "southwest": {
            "lat": 40.7403385197085,
            "lng": -73.93526233029151
          }
        }
      },
      "icon": "https://maps.gstatic.com/mapfiles/place_api/icons/v1/png_71/generic_business-71.png",
      "icon_background_color": "#7B9EB0",
      "icon_mask_base_uri": "https://maps.gstatic.com/mapfiles/place_api/icons/v2/generic_pinlet",
      "name": "Goodwill NYNJ Outlet Store & Donation Center",
      "opening_hours": {
        "open_now": true
      },
      "photos": [
        {
          "height": 3024,
          "html_attributions": [
            "<a href=\"https://maps.google.com/maps/contrib/106323060574953843325\">Volodymyr T</a>"
          ],
          "photo_reference": "AeJbb3fnkMCOtCZGXwNGMve3-GRV8k9rOt1GKDsm7joRlLnfwqIyHvi8yzWD2D95UWoISRuG7xGYybwV61-hTalgTgKQmpeM2semHB5FFgtYxSxdz3_6jHalxEUmVwOV5HBJ6SJlmabqgrZuDoadCTajXyJ8y636yLE-gHR_YyhciZKcAsQQ",
          "width": 4032
        }
      ],
      "place_id": "ChIJh_gFFNNewokRiDxda63fCuE",
      "plus_code": {
        "compound_code": "P3R8+MG New York, NY, USA",
        "global_code": "87G8P3R8+MG"
      },
      "rating": 3.7,
      "reference": "ChIJh_gFFNNewokRiDxda63fCuE",
      "scope": "GOOGLE",
      "types": [
        "point_of_interest",
        "establishment"
      ],
      "user_ratings_total": 409,
      "vicinity": "47-47 Van Dam Street, Queens"
    },
    {
      "business_status": "OPERATIONAL",
      "geometry": {
        "location": {
          "lat": 40.7427897,
          "lng": -73.9355578
        },
        "viewport": {
          "northeast": {
            "lat": 40.74417098029149,
            "lng": -73.93419811970848
          },
          "southwest": {
            "lat": 40.74147301970849,
            "lng": -73.9368960802915
          }
        }
      },
      "icon": "https://maps.gstatic.com/mapfiles/place_api/icons/v1/png_71/generic_business-71.png",
      "icon_background_color": "#7B9EB0",
      "icon_mask_base_uri": "https://maps.gstatic.com/mapfiles/place_api/icons/v2/generic_pinlet",
      "name": "Genesis Industries Ltd",
      "place_id": "ChIJ2crLYdlewokRZfvj7HcgfHg",
      "plus_code": {
        "compound_code": "P3V7+4Q Long Island City, Queens, NY, USA",
        "global_code": "87G8P3V7+4Q"
      },
      "reference": "ChIJ2crLYdlewokRZfvj7HcgfHg",
      "scope": "GOOGLE",
      "types": [
        "point_of_interest",
        "establishment"
      ],
      "vicinity": "3100 47th Avenue # 2E, Long Island City"
    },
    {
      "business_status": "OPERATIONAL",
      "geometry": {
        "location": {
          "lat": 40.74447979999999,
          "lng": -73.93319749999999
        },
        "viewport": {
          "northeast": {
            "lat": 40.74592208029149,
            "lng": -73.93182846970849
          },
          "southwest": {
            "lat": 40.74322411970849,
            "lng": -73.93452643029151
          }
        }
      },
      "icon": "https://maps.gstatic.com/mapfiles/place_api/icons/v1/png_71/generic_business-71.png",
      "icon_background_color": "#7B9EB0",
      "icon_mask_base_uri": "https://maps.gstatic.com/mapfiles/place_api/icons/v2/generic_pinlet",
      "name": "Mana Products Inc.",
      "opening_hours": {
        "open_now": false
      },
      "photos": [
        {
          "height": 3124,
          "html_attributions": [
            "<a href=\"https://maps.google.com/maps/contrib/116062071343759220644\">Daniel Santiago</a>"
          ],
          "photo_reference": "AeJbb3fhRnu4PF2kSRU3pcqMveZLuLWJFs7XiDunSGmPaaQXvW6Ou337g7ksta5mwWBRn8mXWZnSq2AMEy8Hdsx5tK17gTpZpihCwkjOoBxAZg-EFlyx0T95rgzOxiPWMj-V8ZmCv76VdNhFd3MHNVMrM-alPYvyzwBoVWk48JhZlwfArXLy",
          "width": 2474
        }
      ],
      "place_id": "ChIJ_yOA0C1ZwokRjbc9j_S_S78",
      "plus_code": {
        "compound_code": "P3V8+QP Long Island City, Queens, NY, USA",
        "global_code": "87G8P3V8+QP"
      },
      "rating": 3.4,
      "reference": "ChIJ_yOA0C1ZwokRjbc9j_S_S78",
      "scope": "GOOGLE",
      "types": [
        "store",
        "point_of_interest",
        "establishment"
      ],
      "user_ratings_total": 11,
      "vicinity": "3202 Queens Boulevard, Long Island City"
    },
    {
      "business_status": "OPERATIONAL",
      "geometry": {
        "location": {
          "lat": 40.7448676,
          "lng": -73.93590379999999
        },
        "viewport": {
          "northeast": {
            "lat": 40.7462918802915,
            "lng": -73.93456191970849
          },
          "southwest": {
            "lat": 40.7435939197085,
            "lng": -73.9372598802915
          }
        }
      },
      "icon": "https://maps.gstatic.com/mapfiles/place_api/icons/v1/png_71/generic_business-71.png",
      "icon_background_color": "#7B9EB0",
      "icon_mask_base_uri": "https://maps.gstatic.com/mapfiles/place_api/icons/v2/generic_pinlet",
      "name": "CB Richard Ellis",
      "place_id": "ChIJvUFiy9RewokRXY0RbiEgs-s",
      "plus_code": {
        "compound_code": "P3V7+WJ Long Island City, Queens, NY, USA",
        "global_code": "87G8P3V7+WJ"
      },
      "reference": "ChIJvUFiy9RewokRXY0RbiEgs-s",
      "scope": "GOOGLE",
      "types": [
        "real_estate_agency",
        "point_of_interest",
        "establishment"
      ],
      "vicinity": "3030 Thomson Avenue # 6A, Long Island City"
    },
    {
      "business_status": "CLOSED_TEMPORARILY",
      "geometry": {
        "location": {
          "lat": 40.7427897,
          "lng": -73.9355578
        },
        "viewport": {
          "northeast": {
            "lat": 40.74417098029149,
            "lng": -73.93419811970848
          },
          "southwest": {
            "lat": 40.74147301970849,
            "lng": -73.9368960802915
          }
        }
      },
      "icon": "https://maps.gstatic.com/mapfiles/place_api/icons/v1/png_71/generic_business-71.png",
      "icon_background_color": "#7B9EB0",
      "icon_mask_base_uri": "https://maps.gstatic.com/mapfiles/place_api/icons/v2/generic_pinlet",
      "name": "Genal Strap Inc",
      "permanently_closed": true,
      "place_id": "ChIJnTpnzdBewokRTBDbPH5tE00",
      "plus_code": {
        "compound_code": "P3V7+4Q Long Island City, Queens, NY, USA",
        "global_code": "87G8P3V7+4Q"
      },
      "reference": "ChIJnTpnzdBewokRTBDbPH5tE00",
      "scope": "GOOGLE",
      "types": [
        "point_of_interest",
        "establishment"
      ],
      "vicinity": "3100 47th Avenue UNIT 3A, Long Island City"
    },
    {
      "business_status": "CLOSED_TEMPORARILY",
      "geometry": {
        "location": {
          "lat": 40.7440702,
          "lng": -73.93313479999999
        },
        "viewport": {
          "northeast": {
            "lat": 40.7455289802915,
            "lng": -73.9315990697085
          },
          "southwest": {
            "lat": 40.7428310197085,
            "lng": -73.9342970302915
          }
        }
      },
      "icon": "https://maps.gstatic.com/mapfiles/place_api/icons/v1/png_71/generic_business-71.png",
      "icon_background_color": "#7B9EB0",
      "icon_mask_base_uri": "https://maps.gstatic.com/mapfiles/place_api/icons/v2/generic_pinlet",
      "name": "Profound Beauty Inc",
      "permanently_closed": true,
      "place_id": "ChIJXW2x9dRewokRUDLy44eloFI",
      "plus_code": {
        "compound_code": "P3V8+JP Long Island City, Queens, NY, USA",
        "global_code": "87G8P3V8+JP"
      },
      "rating": 4,
      "reference": "ChIJXW2x9dRewokRUDLy44eloFI",
      "scope": "GOOGLE",
      "types": [
        "beauty_salon",
        "point_of_interest",
        "establishment"
      ],
      "user_ratings_total": 1,
      "vicinity": "3202 Queens Boulevard # 6, Long Island City"
    },
    {
      "business_status": "CLOSED_TEMPORARILY",
      "geometry": {
        "location": {
          "lat": 40.74288670000001,
          "lng": -73.935538
        },
        "viewport": {
          "northeast": {
            "lat": 40.74430353029149,
            "lng": -73.93404431970848
          },
          "southwest": {
            "lat": 40.7416055697085,
            "lng": -73.9367422802915
          }
        }
      },
      "icon": "https://maps.gstatic.com/mapfiles/place_api/icons/v1/png_71/generic_business-71.png",
      "icon_background_color": "#7B9EB0",
      "icon_mask_base_uri": "https://maps.gstatic.com/mapfiles/place_api/icons/v2/generic_pinlet",
      "name": "Perceptual Productions",
      "permanently_closed": true,
      "place_id": "ChIJbTQdUdNewokR38fqG0OoAkM",
      "plus_code": {
        "compound_code": "P3V7+5Q Long Island City, Queens, NY, USA",
        "global_code": "87G8P3V7+5Q"
      },
      "reference": "ChIJbTQdUdNewokR38fqG0OoAkM",
      "scope": "GOOGLE",
      "types": [
        "point_of_interest",
        "establishment"
      ],
      "vicinity": "31-00 47th Avenue, Long Island City"
    },
    {
      "business_status": "OPERATIONAL",
      "geometry": {
        "location": {
          "lat": 40.7443709,
          "lng": -73.93282
        },
        "viewport": {
          "northeast": {
            "lat": 40.74570068029149,
            "lng": -73.93140881970851
          },
          "southwest": {
            "lat": 40.74300271970849,
            "lng": -73.93410678029151
          }
        }
      },
      "icon": "https://maps.gstatic.com/mapfiles/place_api/icons/v1/png_71/school-71.png",
      "icon_background_color": "#7B9EB0",
      "icon_mask_base_uri": "https://maps.gstatic.com/mapfiles/place_api/icons/v2/school_pinlet",
      "name": "MDS TLC School",
      "opening_hours": {
        "open_now": true
      },
      "photos": [
        {
          "height": 3024,
          "html_attributions": [
            "<a href=\"https://maps.google.com/maps/contrib/102488951151296425408\">MDS TLC School</a>"
          ],
          "photo_reference": "AeJbb3et3Lnh_21r9itciKIn6UuqP5EMygH1FxPktdhnMP4rg0bamVq4kb8EzjytjN2PYYBZeUsuJpOBcXDtN_a2SaSeuFbYSiEPM_ffsQ6POQUvpcxJzODMU-UDYtzG5lzdZCZr04cGP9z3qFhL4I4SCkhJYx1C_ST0gVb9gSXscZbY-CNr",
          "width": 4032
        }
      ],
      "place_id": "ChIJxaLzXtRewokR-IqXCASXre8",
      "plus_code": {
        "compound_code": "P3V8+PV Long Island City, Queens, NY, USA",
        "global_code": "87G8P3V8+PV"
      },
      "rating": 3.5,
      "reference": "ChIJxaLzXtRewokR-IqXCASXre8",
      "scope": "GOOGLE",
      "types": [
        "school",
        "point_of_interest",
        "establishment"
      ],
      "user_ratings_total": 10,
      "vicinity": "3202 Queens Boulevard # C, Long Island City"
    },
    {
      "business_status": "OPERATIONAL",
      "geometry": {
        "location": {
          "lat": 40.7438107,
          "lng": -73.9364738
        },
        "viewport": {
          "northeast": {
            "lat": 40.74513588029149,
            "lng": -73.9351929197085
          },
          "southwest": {
            "lat": 40.74243791970849,
            "lng": -73.9378908802915
          }
        }
      },
      "icon": "https://maps.gstatic.com/mapfiles/place_api/icons/v1/png_71/civic_building-71.png",
      "icon_background_color": "#7B9EB0",
      "icon_mask_base_uri": "https://maps.gstatic.com/mapfiles/place_api/icons/v2/civic-bldg_pinlet",
      "name": "Department of Design and Construction",
      "opening_hours": {
        "open_now": false
      },
      "photos": [
        {
          "height": 1400,
          "html_attributions": [
            "<a href=\"https://maps.google.com/maps/contrib/112435417613540045980\">Department of Design and Construction</a>"
          ],
          "photo_reference": "AeJbb3eNR3jufWchG7yTJfaZTq17j8UFlodexj8boVB5iKHVIxfMS2-nHc6QlKPXGnriVhtoNHP3hD4OMzik76XMc4k9cIBGYp1VkiDwZzSzv-vOnJ7miNsIQYYmvK1hzeyQgsdwR5Ou0nNnhKksL4AnMhI4tERWb4rj3h-DUY49InY9SMwn",
          "width": 2488
        }
      ],
      "place_id": "ChIJvUFiy9RewokRWJ5Em64GlEk",
      "plus_code": {
        "compound_code": "P3V7+GC New York, NY, USA",
        "global_code": "87G8P3V7+GC"
      },
      "rating": 4.3,
      "reference": "ChIJvUFiy9RewokRWJ5Em64GlEk",
      "scope": "GOOGLE",
      "types": [
        "local_government_office",
        "point_of_interest",
        "establishment"
      ],
      "user_ratings_total": 11,
      "vicinity": "30-30 Thomson Avenue, Queens"
    },
    {
      "business_status": "OPERATIONAL",
      "geometry": {
        "location": {
          "lat": 40.7443019,
          "lng": -73.9311822
        },
        "viewport": {
          "northeast": {
            "lat": 40.7457260802915,
            "lng": -73.9298002697085
          },
          "southwest": {
            "lat": 40.74302811970851,
            "lng": -73.93249823029151
          }
        }
      },
      "icon": "https://maps.gstatic.com/mapfiles/place_api/icons/v1/png_71/generic_business-71.png",
      "icon_background_color": "#7B9EB0",
      "icon_mask_base_uri": "https://maps.gstatic.com/mapfiles/place_api/icons/v2/generic_pinlet",
      "name": "Restore Plus Physical Therapy & Rehabilitation",
      "photos": [
        {
          "height": 292,
          "html_attributions": [
            "<a href=\"https://maps.google.com/maps/contrib/105167416343603196713\">Restore Plus Physical Therapy &amp; Rehabilitation</a>"
          ],
          "photo_reference": "AeJbb3e9dLIJRJAQKXpDzyh1NED61Izai2jfa6u0ycoABCSaFcSdZ3r3BQrf2ZJY2PQbtECOFGmcfyxZhgx4KCsyAsjbBDDbT9FZtF3ogX4nnWUnqSd7w0QIyhz4OUbTpTE-lQb1BbJxZV9A1JeG4nWrQCej_YiUSvJyEn4U3S8W5N8LSGwJ",
          "width": 1242
        }
      ],
      "place_id": "ChIJEZVfPtRewokReRLOKQVMuu4",
      "plus_code": {
        "compound_code": "P3V9+PG Long Island City, Queens, NY, USA",
        "global_code": "87G8P3V9+PG"
      },
      "rating": 4.9,
      "reference": "ChIJEZVfPtRewokReRLOKQVMuu4",
      "scope": "GOOGLE",
      "types": [
        "health",
        "point_of_interest",
        "establishment"
      ],
      "user_ratings_total": 129,
      "vicinity": "33-10 Queens Boulevard #301, Long Island City"
    },
    {
      "business_status": "CLOSED_TEMPORARILY",
      "geometry": {
        "location": {
          "lat": 40.7429352,
          "lng": -73.9363381
        },
        "viewport": {
          "northeast": {
            "lat": 40.7443888302915,
            "lng": -73.9349614697085
          },
          "southwest": {
            "lat": 40.7416908697085,
            "lng": -73.9376594302915
          }
        }
      },
      "icon": "https://maps.gstatic.com/mapfiles/place_api/icons/v1/png_71/generic_business-71.png",
      "icon_background_color": "#7B9EB0",
      "icon_mask_base_uri": "https://maps.gstatic.com/mapfiles/place_api/icons/v2/generic_pinlet",
      "name": "Michael C Fina Co",
      "permanently_closed": true,
      "photos": [
        {
          "height": 1028,
          "html_attributions": [
            "<a href=\"https://maps.google.com/maps/contrib/100164942376283524742\">Michael C Fina Co</a>"
          ],
          "photo_reference": "AeJbb3c20Imw-aTy5yEhcgOCeH8Hp1L5MYUeYdkpoEiTFoCMgXGMs2N5dAPlDG4pW0RwZF0AuQR6-aBcZ8i2bvoosF_sTLjj6B8C92qYpqdyl0L5z-PduumL68qEhInwSFHv1GpMEv9XWo4FZC1HBvVAkctqWWka0AUN1q7OR_Eci0_nS1cg",
          "width": 1534
        }
      ],
      "place_id": "ChIJPXAPZdJewokRy81E9HQGkhc",
      "plus_code": {
        "compound_code": "P3V7+5F Long Island City, Queens, NY, USA",
        "global_code": "87G8P3V7+5F"
      },
      "rating": 3.6,
      "reference": "ChIJPXAPZdJewokRy81E9HQGkhc",
      "scope": "GOOGLE",
      "types": [
        "storage",
        "store",
        "point_of_interest",
        "establishment"
      ],
      "user_ratings_total": 13,
      "vicinity": "30-30 47th Avenue, Long Island City"
    },
    {
      "business_status": "CLOSED_TEMPORARILY",
      "geometry": {
        "location": {
          "lat": 40.7427897,
          "lng": -73.9355578
        },
        "viewport": {
          "northeast": {
            "lat": 40.74417098029149,
            "lng": -73.93419811970848
          },
          "southwest": {
            "lat": 40.74147301970849,
            "lng": -73.9368960802915
          }
        }
      },
      "icon": "https://maps.gstatic.com/mapfiles/place_api/icons/v1/png_71/shopping-71.png",
      "icon_background_color": "#4B96F3",
      "icon_mask_base_uri": "https://maps.gstatic.com/mapfiles/place_api/icons/v2/shopping_pinlet",
      "name": "Doll House Footwear",
      "permanently_closed": true,
      "place_id": "ChIJ2dO4UdNewokRyOA8KNJjQo8",
      "plus_code": {
        "compound_code": "P3V7+4Q Long Island City, Queens, NY, USA",
        "global_code": "87G8P3V7+4Q"
      },
      "rating": 5,
      "reference": "ChIJ2dO4UdNewokRyOA8KNJjQo8",
      "scope": "GOOGLE",
      "types": [
        "shoe_store",
        "store",
        "point_of_interest",
        "establishment"
      ],
      "user_ratings_total": 1,
      "vicinity": "3100 47th Avenue # 5A, Long Island City"
    },
    {
      "business_status": "CLOSED_TEMPORARILY",
      "geometry": {
        "location": {
          "lat": 40.74450909999999,
          "lng": -73.93299139999999
        },
        "viewport": {
          "northeast": {
            "lat": 40.74592473029149,
            "lng": -73.9317185197085
          },
          "southwest": {
            "lat": 40.74322676970849,
            "lng": -73.9344164802915
          }
        }
      },
      "icon": "https://maps.gstatic.com/mapfiles/place_api/icons/v1/png_71/generic_business-71.png",
      "icon_background_color": "#7B9EB0",
      "icon_mask_base_uri": "https://maps.gstatic.com/mapfiles/place_api/icons/v2/generic_pinlet",
      "name": "Black Opal",
      "permanently_closed": true,
      "photos": [
        {
          "height": 3024,
          "html_attributions": [
            "<a href=\"https://maps.google.com/maps/contrib/113079186152754654033\">Tyler Wilson</a>"
          ],
          "photo_reference": "AeJbb3cexMDKSbdLwcGoK8wHia6P8XEJbODaDack4xhpk32Zz3SDaXO_pjte1Vned8EsPGDYvuDTprOQjqvZL5oD8in3LVKPd4H_sFoK7zkYhUw6gGmhAKwaKEKFQf8hKDUbaGBAPb5NGQleuqCfedmjcWVA-0Xfxa0I9uAVfc5CRRyVUfsH",
          "width": 4032
        }
      ],
      "place_id": "ChIJXW2x9dRewokRDYTwdvW3mpU",
      "plus_code": {
        "compound_code": "P3V8+RR Long Island City, Queens, NY, USA",
        "global_code": "87G8P3V8+RR"
      },
      "rating": 3.7,
      "reference": "ChIJXW2x9dRewokRDYTwdvW3mpU",
      "scope": "GOOGLE",
      "types": [
        "point_of_interest",
        "establishment"
      ],
      "user_ratings_total": 6,
      "vicinity": "3202 Queens Boulevard, Long Island City"
    },
    {
      "business_status": "OPERATIONAL",
      "geometry": {
        "location": {
          "lat": 40.74827630000001,
          "lng": -73.9382495
        },
        "viewport": {
          "northeast": {
            "lat": 40.74977533029151,
            "lng": -73.93699536970848
          },
          "southwest": {
            "lat": 40.74707736970851,
            "lng": -73.93969333029149
          }
        }
      },
      "icon": "https://maps.gstatic.com/mapfiles/place_api/icons/v1/png_71/generic_business-71.png",
      "icon_background_color": "#7B9EB0",
      "icon_mask_base_uri": "https://maps.gstatic.com/mapfiles/place_api/icons/v2/generic_pinlet",
      "name": "GCS Construction Inc",
      "opening_hours": {
        "open_now": false
      },
      "place_id": "ChIJkXsb7WZZwokRtlTcMvibr-A",
      "plus_code": {
        "compound_code": "P3X6+8P Long Island City, Queens, NY, USA",
        "global_code": "87G8P3X6+8P"
      },
      "reference": "ChIJkXsb7WZZwokRtlTcMvibr-A",
      "scope": "GOOGLE",
      "types": [
        "general_contractor",
        "point_of_interest",
        "establishment"
      ],
      "vicinity": "2810 Jackson Avenue, Long Island City"
    },
    {
      "business_status": "CLOSED_TEMPORARILY",
      "geometry": {
        "location": {
          "lat": 40.7429063,
          "lng": -73.937446
        },
        "viewport": {
          "northeast": {
            "lat": 40.74429208029149,
            "lng": -73.93623761970849
          },
          "southwest": {
            "lat": 40.7415941197085,
            "lng": -73.93893558029151
          }
        }
      },
      "icon": "https://maps.gstatic.com/mapfiles/place_api/icons/v1/png_71/generic_business-71.png",
      "icon_background_color": "#7B9EB0",
      "icon_mask_base_uri": "https://maps.gstatic.com/mapfiles/place_api/icons/v2/generic_pinlet",
      "name": "SharkStores",
      "permanently_closed": true,
      "place_id": "ChIJGxQKmCxZwokRG5BB2Mv-htQ",
      "plus_code": {
        "compound_code": "P3V7+52 Long Island City, Queens, NY, USA",
        "global_code": "87G8P3V7+52"
      },
      "rating": 1.5,
      "reference": "ChIJGxQKmCxZwokRG5BB2Mv-htQ",
      "scope": "GOOGLE",
      "types": [
        "store",
        "point_of_interest",
        "establishment"
      ],
      "user_ratings_total": 2,
      "vicinity": "47-09 30th Street, Long Island City"
    },
    {
      "business_status": "OPERATIONAL",
      "geometry": {
        "location": {
          "lat": 40.74430199999999,
          "lng": -73.93118199999999
        },
        "viewport": {
          "northeast": {
            "lat": 40.74573133029149,
            "lng": -73.9298737697085
          },
          "southwest": {
            "lat": 40.7430333697085,
            "lng": -73.9325717302915
          }
        }
      },
      "icon": "https://maps.gstatic.com/mapfiles/place_api/icons/v1/png_71/school-71.png",
      "icon_background_color": "#7B9EB0",
      "icon_mask_base_uri": "https://maps.gstatic.com/mapfiles/place_api/icons/v2/school_pinlet",
      "name": "The New York School for Medical & Dental Assistants",
      "opening_hours": {
        "open_now": false
      },
      "photos": [
        {
          "height": 875,
          "html_attributions": [
            "<a href=\"https://maps.google.com/maps/contrib/105932989720532504175\">The New York School for Medical &amp; Dental Assistants</a>"
          ],
          "photo_reference": "AeJbb3dj4ziYFEnoBi0M7KqYTzJnpHKk2n_aRsj6r8IkVRnNQbLfaEQRapbtLAWUN0AwGIMQVKr8SuIjbv186OsK6Z25qGGrDjrtCRk5WfRCr0Edq8TucfYeCHIxmpIt3eiHBFXn4Z7Qhqrq-mxycZWd3qSgY2JONomA_p4JCeL-2O_oasTG",
          "width": 960
        }
      ],
      "place_id": "ChIJEZVfPtRewokR2FCeCeCubQo",
      "plus_code": {
        "compound_code": "P3V9+PG New York, NY, USA",
        "global_code": "87G8P3V9+PG"
      },
      "rating": 4.6,
      "reference": "ChIJEZVfPtRewokR2FCeCeCubQo",
      "scope": "GOOGLE",
      "types": [
        "university",
        "health",
        "point_of_interest",
        "establishment"
      ],
      "user_ratings_total": 255,
      "vicinity": "33-10 Queens Boulevard, Queens"
    },
    {
      "business_status": "OPERATIONAL",
      "geometry": {
        "location": {
          "lat": 40.74229809999999,
          "lng": -73.93578330000001
        },
        "viewport": {
          "northeast": {
            "lat": 40.74354098029149,
            "lng": -73.9345185697085
          },
          "southwest": {
            "lat": 40.74084301970849,
            "lng": -73.93721653029151
          }
        }
      },
      "icon": "https://maps.gstatic.com/mapfiles/place_api/icons/v1/png_71/generic_business-71.png",
      "icon_background_color": "#7B9EB0",
      "icon_mask_base_uri": "https://maps.gstatic.com/mapfiles/place_api/icons/v2/generic_pinlet",
      "name": "EIA Inc.",
      "opening_hours": {
        "open_now": false
      },
      "photos": [
        {
          "height": 250,
          "html_attributions": [
            "<a href=\"https://maps.google.com/maps/contrib/100988193003931599212\">EIA Inc.</a>"
          ],
          "photo_reference": "AeJbb3fgKXO1TTnUAjuHiYCRX7Z7HH0GZ3KcoQ8_UCv1jqCURuCfedM4k2vxYrgv4i89GpKvQpjyIV1VIWvA2__p_YPE4lHy_FWMk0a2QNjHc35BHc8thjKFf8NelW9pCrf6N1DXkMm5TH4718HJX5zumIIrMYW6ImWNR9VMLkTMpCky51d6",
          "width": 250
        }
      ],
      "place_id": "ChIJXdmwhZhZwokR0QEFOTf1cr4",
      "plus_code": {
        "compound_code": "P3R7+WM New York, NY, USA",
        "global_code": "87G8P3R7+WM"
      },
      "rating": 3.9,
      "reference": "ChIJXdmwhZhZwokR0QEFOTf1cr4",
      "scope": "GOOGLE",
      "types": [
        "electrician",
        "point_of_interest",
        "establishment"
      ],
      "user_ratings_total": 14,
      "vicinity": "31-00 47th Avenue Suite 5100, Queens"
    },
    {
      "business_status": "OPERATIONAL",
      "geometry": {
        "location": {
          "lat": 40.74270839999999,
          "lng": -73.9363284
        },
        "viewport": {
          "northeast": {
            "lat": 40.74427543029149,
            "lng": -73.9349566197085
          },
          "southwest": {
            "lat": 40.7415774697085,
            "lng": -73.93765458029151
          }
        }
      },
      "icon": "https://maps.gstatic.com/mapfiles/place_api/icons/v1/png_71/generic_business-71.png",
      "icon_background_color": "#7B9EB0",
      "icon_mask_base_uri": "https://maps.gstatic.com/mapfiles/place_api/icons/v2/generic_pinlet",
      "name": "La Maison Du Chocolat",
      "opening_hours": {
        "open_now": false
      },
      "photos": [
        {
          "height": 3024,
          "html_attributions": [
            "<a href=\"https://maps.google.com/maps/contrib/115174553397114730509\">Ramez Mekhail</a>"
          ],
          "photo_reference": "AeJbb3cXCxMn1b_WNL7eoBB0s7K-VFIGFdHJ5cf37pZlgk_7Xi95P3UyeYkdN_yXiwfecbJASBmF0QL6-Knt3SeD9O18g8iJBOtQaJTV6JE56zP7DohSICrF6KOCT7ATRYb-cdMY8GSG20WGyJwG_PYkB6SS6V-VJfHHSHpDuWF_AEKSfKLS",
          "width": 4032
        }
      ],
      "place_id": "ChIJrY4wUBRfwokRYDHlMDVTXK4",
      "plus_code": {
        "compound_code": "P3V7+3F New York, NY, USA",
        "global_code": "87G8P3V7+3F"
      },
      "rating": 4.5,
      "reference": "ChIJrY4wUBRfwokRYDHlMDVTXK4",
      "scope": "GOOGLE",
      "types": [
        "point_of_interest",
        "establishment"
      ],
      "user_ratings_total": 4,
      "vicinity": "30-30 47th Avenue, Queens"
    },
    {
      "business_status": "OPERATIONAL",
      "geometry": {
        "location": {
          "lat": 40.7416668,
          "lng": -73.93270319999999
        },
        "viewport": {
          "northeast": {
            "lat": 40.7429919802915,
            "lng": -73.93115106970849
          },
          "southwest": {
            "lat": 40.7402940197085,
            "lng": -73.9338490302915
          }
        }
      },
      "icon": "https://maps.gstatic.com/mapfiles/place_api/icons/v1/png_71/restaurant-71.png",
      "icon_background_color": "#FF9E67",
      "icon_mask_base_uri": "https://maps.gstatic.com/mapfiles/place_api/icons/v2/restaurant_pinlet",
      "name": "Verterra",
      "opening_hours": {
        "open_now": true
      },
      "place_id": "ChIJG8skidNewokRfJQvtW15s64",
      "plus_code": {
        "compound_code": "P3R8+MW Long Island City, Queens, NY, USA",
        "global_code": "87G8P3R8+MW"
      },
      "reference": "ChIJG8skidNewokRfJQvtW15s64",
      "scope": "GOOGLE",
      "types": [
        "store",
        "point_of_interest",
        "food",
        "establishment"
      ],
      "vicinity": "4700 33rd Street #2, Long Island City"
    },
    {
      "business_status": "OPERATIONAL",
      "geometry": {
        "location": {
          "lat": 40.742804,
          "lng": -73.9363744
        },
        "viewport": {
          "northeast": {
            "lat": 40.7443232302915,
            "lng": -73.93497961970851
          },
          "southwest": {
            "lat": 40.7416252697085,
            "lng": -73.93767758029152
          }
        }
      },
      "icon": "https://maps.gstatic.com/mapfiles/place_api/icons/v1/png_71/shopping-71.png",
      "icon_background_color": "#4B96F3",
      "icon_mask_base_uri": "https://maps.gstatic.com/mapfiles/place_api/icons/v2/shopping_pinlet",
      "name": "A. Link",
      "place_id": "ChIJQZcBO_xYwokR43xnLD1EDP8",
      "plus_code": {
        "compound_code": "P3V7+4F Long Island City, Queens, NY, USA",
        "global_code": "87G8P3V7+4F"
      },
      "rating": 5,
      "reference": "ChIJQZcBO_xYwokR43xnLD1EDP8",
      "scope": "GOOGLE",
      "types": [
        "jewelry_store",
        "store",
        "point_of_interest",
        "establishment"
      ],
      "user_ratings_total": 2,
      "vicinity": "30-30 47th Avenue, Long Island City"
    },
    {
      "business_status": "OPERATIONAL",
      "geometry": {
        "location": {
          "lat": 40.74479669999999,
          "lng": -73.9303347
        },
        "viewport": {
          "northeast": {
            "lat": 40.7460981802915,
            "lng": -73.9290425197085
          },
          "southwest": {
            "lat": 40.7434002197085,
            "lng": -73.93174048029151
          }
        }
      },
      "icon": "https://maps.gstatic.com/mapfiles/place_api/icons/v1/png_71/generic_business-71.png",
      "icon_background_color": "#7B9EB0",
      "icon_mask_base_uri": "https://maps.gstatic.com/mapfiles/place_api/icons/v2/generic_pinlet",
      "name": "Great Toys Inc.",
      "opening_hours": {
        "open_now": false
      },
      "place_id": "ChIJlYIC1tVewokRAVCmOYCVTqU",
      "plus_code": {
        "compound_code": "P3V9+WV New York, NY, USA",
        "global_code": "87G8P3V9+WV"
      },
      "rating": 4.2,
      "reference": "ChIJlYIC1tVewokRAVCmOYCVTqU",
      "scope": "GOOGLE",
      "types": [
        "store",
        "point_of_interest",
        "establishment"
      ],
      "user_ratings_total": 6,
      "vicinity": "3409 Queens Boulevard # 3, Queens"
    },
    {
      "business_status": "OPERATIONAL",
      "geometry": {
        "location": {
          "lat": 40.7426433,
          "lng": -73.9344109
        },
        "viewport": {
          "northeast": {
            "lat": 40.7439682802915,
            "lng": -73.9328541697085
          },
          "southwest": {
            "lat": 40.7412703197085,
            "lng": -73.93555213029151
          }
        }
      },
      "icon": "https://maps.gstatic.com/mapfiles/place_api/icons/v1/png_71/generic_business-71.png",
      "icon_background_color": "#7B9EB0",
      "icon_mask_base_uri": "https://maps.gstatic.com/mapfiles/place_api/icons/v2/generic_pinlet",
      "name": "Sicilia Americo R MD",
      "place_id": "ChIJGZMNZtNewokRmFvQ1RzIO4w",
      "plus_code": {
        "compound_code": "P3V8+36 Long Island City, Queens, NY, USA",
        "global_code": "87G8P3V8+36"
      },
      "reference": "ChIJGZMNZtNewokRmFvQ1RzIO4w",
      "scope": "GOOGLE",
      "types": [
        "doctor",
        "health",
        "point_of_interest",
        "establishment"
      ],
      "vicinity": "4704 Van Dam Street, Long Island City"
    }
  ],
  "status": "OK"
}