{
  "html_attributions": [],
  "results": [
    {
      "geometry": {
        "location": {
          "lat": 40.7127753,
          "lng": -74.0059728
        },
        "viewport": {
          "northeast": {
            "lat": 40.91757705070789,
            "lng": -73.70027206817629
          },
          "southwest": {
            "lat": 40.47739906045452,
            "lng": -74.25908991427882
          }
        }
      },
      "icon": "https://maps.gstatic.com/mapfiles/place_api/icons/v1/png_71/geocode-71.png",
      "icon_background_color": "#7B9EB0",
      "icon_mask_base_uri": "https://maps.gstatic.com/mapfiles/place_api/icons/v2/generic_pinlet",
      "name": "\u7d10\u7d04",
      "photos": [
        {
          "height": 600,
          "html_attributions": [
            "<a href=\"https://maps.google.com/maps/contrib/102389334567210814614\">Bukurie</a>"
          ],
          "photo_reference": "AeJbb3dtMRebSRspvis4ETr_6NSxzqhio6YNARS-rMeY0Dj0mMPSj3YwSJTBRh4RJH9PVXAvg_q8wiGWFM0qEkk9-PRhJOmVHSNDT6SNmXmaa7AOWGsK9XZ7ZUCmb4Xm63DcM1_hwmsDI6Tk1UJSRdPD0qGjIoSIG0bLJJOg9247Y_ALVZdr",
          "width": 480
        }
      ],
      "place_id": "ChIJOwg_06VPwokRYv534QaPC8g",
      "reference": "ChIJOwg_06VPwokRYv534QaPC8g",
      "scope": "GOOGLE",
      "types": [
        "locality",
        "political"
      ],
      "vicinity": "\u7d10\u7d04"
    },
    {
      "business_status": "OPERATIONAL",
      "geometry": {
        "location": {
          "lat": 40.7376616,
          "lng": -73.9535114
        },
        "viewport": {
          "northeast": {
            "lat": 40.73891278029149,
            "lng": -73.9521057697085
          },
          "southwest": {
            "lat": 40.73621481970849,
            "lng": -73.9548037302915
          }
        }
      },
      "icon": "https://maps.gstatic.com/mapfiles/place_api/icons/v1/png_71/lodging-71.png",
      "icon_background_color": "#909CE1",
      "icon_mask_base_uri": "https://maps.gstatic.com/mapfiles/place_api/icons/v2/hotel_pinlet",
      "name": "The Box House Hotel",
      "opening_hours": {
        "open_now": true
      },
      "photos": [
        {
          "height": 4032,
          "html_attributions": [
            "<a href=\"https://maps.google.com/maps/contrib/113023389186734709786\">Amy Hanrahan</a>"
          ],
          "photo_reference": "AeJbb3cUwWJBSMZVxSh2i14oJ8895HBBHyfz7GmPAseQeFTmMZcPj23B_9nMDuqymb7hQfaqEpG2RfI5GcCqLGfvlKSzteqd7mqkNZ-cnfraIo64kmNvw5t6jDCnQ2nOn5LvEeSbSDvdnhJv0x0z4KPgdlepRSwZJjNyu35_2q2HrACsbGhO",
          "width": 3024
        }
      ],
      "place_id": "ChIJIcUvdjxZwokR7SMTXclK5Pc",
      "plus_code": {
        "compound_code": "P2QW+3H \u7f8e\u570b\u7d10\u7d04\u5e03\u9c81\u514b\u6797",
        "global_code": "87G8P2QW+3H"
      },
      "rating": 4.5,
      "reference": "ChIJIcUvdjxZwokR7SMTXclK5Pc",
      "scope": "GOOGLE",
      "types": [
        "lodging",
        "point_of_interest",
        "establishment"
      ],
      "user_ratings_total": 819,
      "vicinity": "77 Box Street, Brooklyn"
    },
    {
      "business_status": "OPERATIONAL",
      "geometry": {
        "location": {
          "lat": 40.73678929999999,
          "lng": -73.95511499999999
        },
        "viewport": {
          "northeast": {
            "lat": 40.7381279802915,
            "lng": -73.9538780697085
          },
          "southwest": {
            "lat": 40.7354300197085,
            "lng": -73.9565760302915
          }
        }
      },
      "icon": "https://maps.gstatic.com/mapfiles/place_api/icons/v1/png_71/bar-71.png",
      "icon_background_color": "#FF9E67",
      "icon_mask_base_uri": "https://maps.gstatic.com/mapfiles/place_api/icons/v2/bar_pinlet",
      "name": "Saint Vitus Bar",
      "opening_hours": {
        "open_now": false
      },
      "photos": [
        {
          "height": 3024,
          "html_attributions": [
            "<a href=\"https://maps.google.com/maps/contrib/102563775880244011722\">Stephanie Griffin</a>"
          ],
          "photo_reference": "AeJbb3eF4wCupE-wKQmq0_3InXeVdbrSGeYuay9QvYGHUScfArkbZLskXi9mSnsqOO77nS1pDkUQVK8CsP3vwwVANPfpzEJEDG6GlsvbGJqEh-jBVjaOTyiTSlT0RncRRJ2ZKwR3vsha8072IO27RG56XqMan11z3KO0drmq9dKEW7wa44kI",
          "width": 4032
        }
      ],
      "place_id": "ChIJ-d2sIzxZwokR_5ybYummqdc",
      "plus_code": {
        "compound_code": "P2PV+PX \u7f8e\u570b\u7d10\u7d04",
        "global_code": "87G8P2PV+PX"
      },
      "price_level": 1,
      "rating": 4.7,
      "reference": "ChIJ-d2sIzxZwokR_5ybYummqdc",
      "scope": "GOOGLE",
      "types": [
        "bar",
        "point_of_interest",
        "establishment"
      ],
      "user_ratings_total": 1124,
      "vicinity": "1120 Manhattan Avenue, Brooklyn"
    },
    {
      "business_status": "OPERATIONAL",
      "geometry": {
        "location": {
          "lat": 40.73326,
          "lng": -73.9570619
        },
        "viewport": {
          "northeast": {
            "lat": 40.73478173029149,
            "lng": -73.9554014697085
          },
          "southwest": {
            "lat": 40.7320837697085,
            "lng": -73.95809943029151
          }
        }
      },
      "icon": "https://maps.gstatic.com/mapfiles/place_api/icons/v1/png_71/generic_business-71.png",
      "icon_background_color": "#7B9EB0",
      "icon_mask_base_uri": "https://maps.gstatic.com/mapfiles/place_api/icons/v2/generic_pinlet",
      "name": "Better World Advertising",
      "place_id": "ChIJbyxmpD9ZwokRp-cZFRiDC4o",
      "plus_code": {
        "compound_code": "P2MV+85 \u7f8e\u570b\u7d10\u7d04",
        "global_code": "87G8P2MV+85"
      },
      "rating": 5,
      "reference": "ChIJbyxmpD9ZwokRp-cZFRiDC4o",
      "scope": "GOOGLE",
      "types": [
        "point_of_interest",
        "establishment"
      ],
      "user_ratings_total": 1,
      "vicinity": "110 Green Street, Brooklyn"
    },
    {
      "business_status": "OPERATIONAL",
      "geometry": {
        "location": {
          "lat": 40.7318203,
          "lng": -73.95813509999999
        },
        "viewport": {
          "northeast": {
            "lat": 40.73317953029149,
            "lng": -73.95667671970848
          },
          "southwest": {
            "lat": 40.73048156970849,
            "lng": -73.9593746802915
          }
        }
      },
      "icon": "https://maps.gstatic.com/mapfiles/place_api/icons/v1/png_71/restaurant-71.png",
      "icon_background_color": "#FF9E67",
      "icon_mask_base_uri": "https://maps.gstatic.com/mapfiles/place_api/icons/v2/restaurant_pinlet",
      "name": "Shanghai Lee",
      "opening_hours": {
        "open_now": true
      },
      "photos": [
        {
          "height": 3264,
          "html_attributions": [
            "<a href=\"https://maps.google.com/maps/contrib/107243238858429294338\">James Russo</a>"
          ],
          "photo_reference": "AeJbb3csRGgQkYBjK23iIUwofRcHkstVwqRxFi_7U8VxN8rWNnp_K4TVQtBHpO7ZVT_-_ghuvnZxPEYOOHqiBvD4ReFzDwQUV1FR5hBzrMFrzHI2WcrUP2lsszUCQicX-D5UCkmS_xYbvSdq4jMFL6jSohFMr_Ks8VipYt7fq_k51tfgCvid",
          "width": 2448
        }
      ],
      "place_id": "ChIJP5pM9T9ZwokRCKcaiDkyP-g",
      "plus_code": {
        "compound_code": "P2JR+PP \u7f8e\u570b\u7d10\u7d04\u5e03\u9c81\u514b\u6797",
        "global_code": "87G8P2JR+PP"
      },
      "price_level": 2,
      "rating": 3.7,
      "reference": "ChIJP5pM9T9ZwokRCKcaiDkyP-g",
      "scope": "GOOGLE",
      "types": [
        "meal_delivery",
        "restaurant",
        "food",
        "point_of_interest",
        "establishment"
      ],
      "user_ratings_total": 87,
      "vicinity": "157 Franklin Street, Brooklyn"
    },
    {
      "business_status": "OPERATIONAL",
      "geometry": {
        "location": {
          "lat": 40.7331806,
          "lng": -73.9596202
        },
        "viewport": {
          "northeast": {
            "lat": 40.73454868029149,
            "lng": -73.95836771970849
          },
          "southwest": {
            "lat": 40.7318507197085,
            "lng": -73.96106568029151
          }
        }
      },
      "icon": "https://maps.gstatic.com/mapfiles/place_api/icons/v1/png_71/bar-71.png",
      "icon_background_color": "#FF9E67",
      "icon_mask_base_uri": "https://maps.gstatic.com/mapfiles/place_api/icons/v2/bar_pinlet",
      "name": "Achilles Heel",
      "opening_hours": {
        "open_now": false
      },
      "photos": [
        {
          "height": 347,
          "html_attributions": [
            "<a href=\"https://maps.google.com/maps/contrib/110385968610681158309\">Achilles Heel</a>"
          ],
          "photo_reference": "AeJbb3fbjtSz4kuE9k3pBhk1DtumRqNwgkebMRbFAgkLdzLzItElwwIlUtkq6hLDAg7ZDQC46gv5nKrflMRS-20oPrRJmzQH_Q9Z07JIXY7mGJexbtOuII8wBCZExfkoSOcj6Xl9SL_KdOs_4mwVFyEs2qEnlPeq-QMTEwcKXzROQsAU8Hws",
          "width": 617
        }
      ],
      "place_id": "ChIJfelAXhVZwokRphnsZ_Or_o8",
      "plus_code": {
        "compound_code": "P2MR+75 \u7f8e\u570b\u7d10\u7d04\u5e03\u9c81\u514b\u6797",
        "global_code": "87G8P2MR+75"
      },
      "price_level": 2,
      "rating": 4.5,
      "reference": "ChIJfelAXhVZwokRphnsZ_Or_o8",
      "scope": "GOOGLE",
      "types": [
        "bar",
        "restaurant",
        "food",
        "point_of_interest",
        "establishment"
      ],
      "user_ratings_total": 295,
      "vicinity": "180 West Street, Brooklyn"
    },
    {
      "business_status": "OPERATIONAL",
      "geometry": {
        "location": {
          "lat": 40.7374258,
          "lng": -73.9550672
        },
        "viewport": {
          "northeast": {
            "lat": 40.73872198029149,
            "lng": -73.95370906970848
          },
          "southwest": {
            "lat": 40.7360240197085,
            "lng": -73.9564070302915
          }
        }
      },
      "icon": "https://maps.gstatic.com/mapfiles/place_api/icons/v1/png_71/restaurant-71.png",
      "icon_background_color": "#FF9E67",
      "icon_mask_base_uri": "https://maps.gstatic.com/mapfiles/place_api/icons/v2/restaurant_pinlet",
      "name": "Milk & Roses",
      "opening_hours": {
        "open_now": true
      },
      "photos": [
        {
          "height": 4032,
          "html_attributions": [
            "<a href=\"https://maps.google.com/maps/contrib/103963511143084765882\">Roi Ben Hoor</a>"
          ],
          "photo_reference": "AeJbb3cvyHnBn9EGs-Z8_TjIL8ut9QKPVRfS0vdsAxs1s-RjsvauGRriNDqRAI4zsMJjh3XL3Ez5eGj12IFcsQdRXs7c0PPS_uC_ukTu82mEKr5BU-NjsszuTy-CCA95YV9mNIbyRB2u7aGgDozpLkGrieWU83u3ovasU3roqp8QUmRA-IIr",
          "width": 3024
        }
      ],
      "place_id": "ChIJUymwHzxZwokR7PrGIBU3gz0",
      "plus_code": {
        "compound_code": "P2PV+XX \u7f8e\u570b\u7d10\u7d04",
        "global_code": "87G8P2PV+XX"
      },
      "price_level": 2,
      "rating": 4.2,
      "reference": "ChIJUymwHzxZwokR7PrGIBU3gz0",
      "scope": "GOOGLE",
      "types": [
        "cafe",
        "bar",
        "restaurant",
        "food",
        "point_of_interest",
        "establishment"
      ],
      "user_ratings_total": 571,
      "vicinity": "35 Box Street, Brooklyn"
    },
    {
      "business_status": "OPERATIONAL",
      "geometry": {
        "location": {
          "lat": 40.7332398,
          "lng": -73.9579327
        },
        "viewport": {
          "northeast": {
            "lat": 40.7346036302915,
            "lng": -73.95669421970851
          },
          "southwest": {
            "lat": 40.7319056697085,
            "lng": -73.95939218029152
          }
        }
      },
      "icon": "https://maps.gstatic.com/mapfiles/place_api/icons/v1/png_71/restaurant-71.png",
      "icon_background_color": "#FF9E67",
      "icon_mask_base_uri": "https://maps.gstatic.com/mapfiles/place_api/icons/v2/restaurant_pinlet",
      "name": "Anella",
      "opening_hours": {
        "open_now": true
      },
      "photos": [
        {
          "height": 1365,
          "html_attributions": [
            "<a href=\"https://maps.google.com/maps/contrib/100186303246675118847\">Anella</a>"
          ],
          "photo_reference": "AeJbb3cjTM2D15xMJEdCNEJGL4FBkzNkO6DDDkYMDXGIJLg7vYAjd1uXVGLFIVtqK7rAtNhz87E129ODnYkBOf9kQo_rfyYM24o7L5UeasSY7qE0SsI-jwwJJAQi3BEptcGscQ123XCYtEoXkj1NwBA5sHEG8vNzQwdCaypjsWA7zMj3f0W9",
          "width": 2048
        }
      ],
      "place_id": "ChIJ553EwD9ZwokRJ6jsBJwTxKw",
      "plus_code": {
        "compound_code": "P2MR+7R \u7f8e\u570b\u7d10\u7d04\u5e03\u9c81\u514b\u6797",
        "global_code": "87G8P2MR+7R"
      },
      "price_level": 2,
      "rating": 4.4,
      "reference": "ChIJ553EwD9ZwokRJ6jsBJwTxKw",
      "scope": "GOOGLE",
      "types": [
        "restaurant",
        "food",
        "point_of_interest",
        "establishment"
      ],
      "user_ratings_total": 331,
      "vicinity": "222 Franklin Street, Brooklyn"
    },
    {
      "business_status": "OPERATIONAL",
      "geometry": {
        "location": {
          "lat": 40.7346192,
          "lng": -73.9551747
        },
        "viewport": {
          "northeast": {
            "lat": 40.7359843302915,
            "lng": -73.9537345697085
          },
          "southwest": {
            "lat": 40.7332863697085,
            "lng": -73.95643253029151
          }
        }
      },
      "icon": "https://maps.gstatic.com/mapfiles/place_api/icons/v1/png_71/shopping-71.png",
      "icon_background_color": "#4B96F3",
      "icon_mask_base_uri": "https://maps.gstatic.com/mapfiles/place_api/icons/v2/shopping_pinlet",
      "name": "East River Tattoo",
      "opening_hours": {
        "open_now": true
      },
      "photos": [
        {
          "height": 3024,
          "html_attributions": [
            "<a href=\"https://maps.google.com/maps/contrib/109337141917151113571\">Jason Silverstein</a>"
          ],
          "photo_reference": "AeJbb3eP3zxwD_9XChMJN3lnwlm0B9z3EVGtSy347zGBhEoSQgq-HxHKQS3IlnBie87hwrFvd_bk-ZXRMmDV40lzHqz0D1-A0bo5Kv3T5PMAcqa-71bdX-83maTyhCkL6JeX20HMhkHGVB3IiIceDPdV7rnz9L4d5axsaRtw6iHTpxfnKBin",
          "width": 4032
        }
      ],
      "place_id": "ChIJm4ozQUBZwokRh_Sm6tCDqJs",
      "plus_code": {
        "compound_code": "P2MV+RW \u7f8e\u570b\u7d10\u7d04",
        "global_code": "87G8P2MV+RW"
      },
      "rating": 4.8,
      "reference": "ChIJm4ozQUBZwokRh_Sm6tCDqJs",
      "scope": "GOOGLE",
      "types": [
        "point_of_interest",
        "store",
        "establishment"
      ],
      "user_ratings_total": 73,
      "vicinity": "1047 Manhattan Avenue, Brooklyn"
    },
    {
      "business_status": "OPERATIONAL",
      "geometry": {
        "location": {
          "lat": 40.737722,
          "lng": -73.9561763
        },
        "viewport": {
          "northeast": {
            "lat": 40.7390188302915,
            "lng": -73.95475826970848
          },
          "southwest": {
            "lat": 40.7363208697085,
            "lng": -73.9574562302915
          }
        }
      },
      "icon": "https://maps.gstatic.com/mapfiles/place_api/icons/v1/png_71/restaurant-71.png",
      "icon_background_color": "#FF9E67",
      "icon_mask_base_uri": "https://maps.gstatic.com/mapfiles/place_api/icons/v2/restaurant_pinlet",
      "name": "Glasserie",
      "opening_hours": {
        "open_now": true
      },
      "photos": [
        {
          "height": 1124,
          "html_attributions": [
            "<a href=\"https://maps.google.com/maps/contrib/109604719510034146687\">Glasserie</a>"
          ],
          "photo_reference": "AeJbb3cdR4ARlTLFgKrm9Aza1f90h_4j6Axx3_A5I9HNY9A-3jIg5TG4o5AvnwB1D7bBv4rEmH6zcxPTNAjdiT6oJH-sTaHFMVbtyRyKZS_hmo1SgTYv-57kTkNFzkuHBmTZTOQ25-56kUctRpRZ6MxVIFESF8k4FmH5qo-OGuy4cfgP0GDT",
          "width": 1124
        }
      ],
      "place_id": "ChIJf9j4STxZwokRc9PDhX2eoHw",
      "plus_code": {
        "compound_code": "P2QV+3G \u7f8e\u570b\u7d10\u7d04",
        "global_code": "87G8P2QV+3G"
      },
      "price_level": 2,
      "rating": 4.5,
      "reference": "ChIJf9j4STxZwokRc9PDhX2eoHw",
      "scope": "GOOGLE",
      "types": [
        "bar",
        "restaurant",
        "food",
        "point_of_interest",
        "establishment"
      ],
      "user_ratings_total": 598,
      "vicinity": "95 Commercial Street, Brooklyn"
    },
    {
      "business_status": "OPERATIONAL",
      "geometry": {
        "location": {
          "lat": 40.7353952,
          "lng": -73.9553612
        },
        "viewport": {
          "northeast": {
            "lat": 40.7367563802915,
            "lng": -73.95388926970851
          },
          "southwest": {
            "lat": 40.7340584197085,
            "lng": -73.95658723029152
          }
        }
      },
      "icon": "https://maps.gstatic.com/mapfiles/place_api/icons/v1/png_71/restaurant-71.png",
      "icon_background_color": "#FF9E67",
      "icon_mask_base_uri": "https://maps.gstatic.com/mapfiles/place_api/icons/v2/restaurant_pinlet",
      "name": "Lobster Joint",
      "opening_hours": {
        "open_now": true
      },
      "photos": [
        {
          "height": 608,
          "html_attributions": [
            "<a href=\"https://maps.google.com/maps/contrib/114220774791882698491\">Lobster Joint</a>"
          ],
          "photo_reference": "AeJbb3e5GpCXkQdNzFgCcR6KRZmR0AmvCGTBbCbXNm-6Z5Cf0qRt7inU89a2Bgsp3zHRW_MBBOag_uzRWcpkvCSKRhN0aZaRKFwTAD_83fAYKAv-3m5-d6K6bzzw8VCIZnttunceciZUjtrXEuuAc7J0j7ER0UaFegX7WmHiG6nS9j0VnNIh",
          "width": 1080
        }
      ],
      "place_id": "ChIJM_VylD5ZwokRnCg1JTcA6VA",
      "plus_code": {
        "compound_code": "P2PV+5V \u7f8e\u570b\u7d10\u7d04\u5e03\u9c81\u514b\u6797",
        "global_code": "87G8P2PV+5V"
      },
      "price_level": 2,
      "rating": 4.4,
      "reference": "ChIJM_VylD5ZwokRnCg1JTcA6VA",
      "scope": "GOOGLE",
      "types": [
        "restaurant",
        "food",
        "point_of_interest",
        "establishment"
      ],
      "user_ratings_total": 742,
      "vicinity": "1073 Manhattan Avenue, Brooklyn"
    },
    {
      "business_status": "CLOSED_TEMPORARILY",
      "geometry": {
        "location": {
          "lat": 40.73458669999999,
          "lng": -73.95955169999999
        },
        "viewport": {
          "northeast": {
            "lat": 40.7360182802915,
            "lng": -73.95813816970849
          },
          "southwest": {
            "lat": 40.7333203197085,
            "lng": -73.9608361302915
          }
        }
      },
      "icon": "https://maps.gstatic.com/mapfiles/place_api/icons/v1/png_71/generic_business-71.png",
      "icon_background_color": "#7B9EB0",
      "icon_mask_base_uri": "https://maps.gstatic.com/mapfiles/place_api/icons/v2/generic_pinlet",
      "name": "Eagle Street Rooftop Farm",
      "permanently_closed": true,
      "photos": [
        {
          "height": 667,
          "html_attributions": [
            "<a href=\"https://maps.google.com/maps/contrib/100099612017805323370\">Annie Novak</a>"
          ],
          "photo_reference": "AeJbb3e5zlt4mzP_zSLPD_THAr7Zc0XYqSmR9hKeXo4jPbQW4crjS6H3UVXjtwzgJZcwBCt133DOmZvmAWkGFdqs7I7L1ZR6GqrAu3kdB8tLW39RfKqS42S_UrLMM2i7oEp4zhYmzVRJv7KVesUQzoGM9lJt98XRIP-NmyGNrFdbWrIr7fs2",
          "width": 1000
        }
      ],
      "place_id": "ChIJZQVvKj5ZwokRVZElDl_LOnQ",
      "plus_code": {
        "compound_code": "P2MR+R5 \u7f8e\u570b\u7d10\u7d04\u5e03\u9c81\u514b\u6797",
        "global_code": "87G8P2MR+R5"
      },
      "rating": 4.4,
      "reference": "ChIJZQVvKj5ZwokRVZElDl_LOnQ",
      "scope": "GOOGLE",
      "types": [
        "point_of_interest",
        "establishment"
      ],
      "user_ratings_total": 8,
      "vicinity": "44 Eagle Street, Brooklyn"
    },
    {
      "business_status": "OPERATIONAL",
      "geometry": {
        "location": {
          "lat": 40.7334499,
          "lng": -73.9549905
        },
        "viewport": {
          "northeast": {
            "lat": 40.73480788029151,
            "lng": -73.9535452697085
          },
          "southwest": {
            "lat": 40.73210991970851,
            "lng": -73.9562432302915
          }
        }
      },
      "icon": "https://maps.gstatic.com/mapfiles/place_api/icons/v1/png_71/bar-71.png",
      "icon_background_color": "#FF9E67",
      "icon_mask_base_uri": "https://maps.gstatic.com/mapfiles/place_api/icons/v2/bar_pinlet",
      "name": "Troost",
      "opening_hours": {
        "open_now": false
      },
      "photos": [
        {
          "height": 886,
          "html_attributions": [
            "<a href=\"https://maps.google.com/maps/contrib/114782888181702147497\">Troost</a>"
          ],
          "photo_reference": "AeJbb3fzFB7or83zLbEtzun3ddvIFcO3C_ngopur2pDoSrXLFPV8LcTe-rsDepJ2cYGurwFURh76f82hBXB9u_PAbj0JymId6eyNeFnM9gWB6_EVwgt8qTkOqoC9eotRNrnhKMlGNrUaSBCew2zplmg3MZgAr-TnTp5h1HxoF7uDJskY-m8f",
          "width": 886
        }
      ],
      "place_id": "ChIJaWZBIz9ZwokRPKO2K25Uho8",
      "plus_code": {
        "compound_code": "P2MW+92 \u7f8e\u570b\u7d10\u7d04\u5e03\u9c81\u514b\u6797",
        "global_code": "87G8P2MW+92"
      },
      "price_level": 1,
      "rating": 4.5,
      "reference": "ChIJaWZBIz9ZwokRPKO2K25Uho8",
      "scope": "GOOGLE",
      "types": [
        "bar",
        "food",
        "point_of_interest",
        "establishment"
      ],
      "user_ratings_total": 159,
      "vicinity": "1011 Manhattan Avenue, Brooklyn"
    },
    {
      "business_status": "CLOSED_TEMPORARILY",
      "geometry": {
        "location": {
          "lat": 40.7377815,
          "lng": -73.95623379999999
        },
        "viewport": {
          "northeast": {
            "lat": 40.7390420302915,
            "lng": -73.95479881970849
          },
          "southwest": {
            "lat": 40.7363440697085,
            "lng": -73.95749678029149
          }
        }
      },
      "icon": "https://maps.gstatic.com/mapfiles/place_api/icons/v1/png_71/generic_business-71.png",
      "icon_background_color": "#7B9EB0",
      "icon_mask_base_uri": "https://maps.gstatic.com/mapfiles/place_api/icons/v2/generic_pinlet",
      "name": "Allset",
      "permanently_closed": true,
      "place_id": "ChIJvcBPSDxZwokRHLS8uy0U4b8",
      "plus_code": {
        "compound_code": "P2QV+4G \u7f8e\u570b\u7d10\u7d04",
        "global_code": "87G8P2QV+4G"
      },
      "reference": "ChIJvcBPSDxZwokRHLS8uy0U4b8",
      "scope": "GOOGLE",
      "types": [
        "general_contractor",
        "point_of_interest",
        "establishment"
      ],
      "vicinity": "99 Commercial Street, Brooklyn"
    },
    {
      "business_status": "OPERATIONAL",
      "geometry": {
        "location": {
          "lat": 40.7386825,
          "lng": -73.95557869999999
        },
        "viewport": {
          "northeast": {
            "lat": 40.7400658802915,
            "lng": -73.95414251970848
          },
          "southwest": {
            "lat": 40.7373679197085,
            "lng": -73.95684048029149
          }
        }
      },
      "icon": "https://maps.gstatic.com/mapfiles/place_api/icons/v1/png_71/generic_business-71.png",
      "icon_background_color": "#7B9EB0",
      "icon_mask_base_uri": "https://maps.gstatic.com/mapfiles/place_api/icons/v2/generic_pinlet",
      "name": "STUDIO OSMAN AKAN",
      "opening_hours": {
        "open_now": false
      },
      "photos": [
        {
          "height": 1363,
          "html_attributions": [
            "<a href=\"https://maps.google.com/maps/contrib/101136244344578593400\">STUDIO OSMAN AKAN</a>"
          ],
          "photo_reference": "AeJbb3df-kkFhax9gsJR5MGU7umYnlX7X_quE_UsZ2qHPYt8e_96UcQTdfTfaeK-QX5wSAFTjYj8qq4wnW7gtCVpXaUZ8HUVcwtHfBJOnupMbucIJlngLjUhUoABNBZN7rQADpiRe3Nt25KdElFXyr7o8aaa0Te8UuKqeQVt8YT34aAiBqY",
          "width": 2048
        }
      ],
      "place_id": "ChIJ5enoWDxZwokR2VECb7FCD-8",
      "plus_code": {
        "compound_code": "P2QV+FQ \u7f8e\u570b\u7d10\u7d04\u5e03\u9c81\u514b\u6797",
        "global_code": "87G8P2QV+FQ"
      },
      "rating": 4,
      "reference": "ChIJ5enoWDxZwokR2VECb7FCD-8",
      "scope": "GOOGLE",
      "types": [
        "point_of_interest",
        "establishment"
      ],
      "user_ratings_total": 2,
      "vicinity": "1205 Manhattan Avenue #148, Brooklyn"
    },
    {
      "business_status": "OPERATIONAL",
      "geometry": {
        "location": {
          "lat": 40.73755059999999,
          "lng": -73.9547693
        },
        "viewport": {
          "northeast": {
            "lat": 40.7387985802915,
            "lng": -73.9534079197085
          },
          "southwest": {
            "lat": 40.7361006197085,
            "lng": -73.9561058802915
          }
        }
      },
      "icon": "https://maps.gstatic.com/mapfiles/place_api/icons/v1/png_71/generic_business-71.png",
      "icon_background_color": "#7B9EB0",
      "icon_mask_base_uri": "https://maps.gstatic.com/mapfiles/place_api/icons/v2/generic_pinlet",
      "name": "The Pace Companies",
      "opening_hours": {
        "open_now": false
      },
      "photos": [
        {
          "height": 4608,
          "html_attributions": [
            "<a href=\"https://maps.google.com/maps/contrib/107866321725542290163\">jerold h</a>"
          ],
          "photo_reference": "AeJbb3cfZOlJy7--CgTQu_iRjcY5-fOl4BjSN6RB0Orz5v474RntqsCK-seq9EMhnCCtAOW07Te-wLhT-ZuGoFSgI1qdx4nbJQAMMjwwabWC_MxKv9rzihqDvMabfDOWLia-TL2SfCaBLXPpc1PZ7JaFVvQg19sXT4h_PkuRHhFWcMPWOxX8",
          "width": 2592
        }
      ],
      "place_id": "ChIJW468FDxZwokRy_F0a9OBZLM",
      "plus_code": {
        "compound_code": "P2QW+23 \u7f8e\u570b\u7d10\u7d04\u5e03\u9c81\u514b\u6797",
        "global_code": "87G8P2QW+23"
      },
      "rating": 4.3,
      "reference": "ChIJW468FDxZwokRy_F0a9OBZLM",
      "scope": "GOOGLE",
      "types": [
        "plumber",
        "point_of_interest",
        "establishment"
      ],
      "user_ratings_total": 21,
      "vicinity": "41 Box Street, Brooklyn"
    },
    {
      "business_status": "OPERATIONAL",
      "geometry": {
        "location": {
          "lat": 40.7386856,
          "lng": -73.9556427
        },
        "viewport": {
          "northeast": {
            "lat": 40.74009973029149,
            "lng": -73.95418076970849
          },
          "southwest": {
            "lat": 40.7374017697085,
            "lng": -73.9568787302915
          }
        }
      },
      "icon": "https://maps.gstatic.com/mapfiles/place_api/icons/v1/png_71/generic_business-71.png",
      "icon_background_color": "#7B9EB0",
      "icon_mask_base_uri": "https://maps.gstatic.com/mapfiles/place_api/icons/v2/generic_pinlet",
      "name": "Greenpoint Manufacturing & Dsn",
      "photos": [
        {
          "height": 3024,
          "html_attributions": [
            "<a href=\"https://maps.google.com/maps/contrib/118404619479962183811\">T Szawkalo</a>"
          ],
          "photo_reference": "AeJbb3e6WlfLwPE2UwQCX3jX9Rn_I0PUT93fcFITHm31B-HwmyD5WJbV57la4NdDcuk9jgksoPVujm0p-AA3B8QGeO64EU9N85MOHnwd1UeJp2bju5m8y9pXQSUkGaO5zLhreEGeG2MsgjMebuA8aUCvedLHkE4kLL6YtwHmKctucI0z_gSV",
          "width": 4032
        }
      ],
      "place_id": "ChIJ5enoWDxZwokRGbsp6aLfDmg",
      "plus_code": {
        "compound_code": "P2QV+FP \u7f8e\u570b\u7d10\u7d04",
        "global_code": "87G8P2QV+FP"
      },
      "rating": 4.1,
      "reference": "ChIJ5enoWDxZwokRGbsp6aLfDmg",
      "scope": "GOOGLE",
      "types": [
        "point_of_interest",
        "establishment"
      ],
      "user_ratings_total": 7,
      "vicinity": "1205 Manhattan Avenue # 211, Brooklyn"
    },
    {
      "business_status": "OPERATIONAL",
      "geometry": {
        "location": {
          "lat": 40.7382477,
          "lng": -73.9549892
        },
        "viewport": {
          "northeast": {
            "lat": 40.73949393029149,
            "lng": -73.95373001970849
          },
          "southwest": {
            "lat": 40.7367959697085,
            "lng": -73.95642798029151
          }
        }
      },
      "icon": "https://maps.gstatic.com/mapfiles/place_api/icons/v1/png_71/generic_business-71.png",
      "icon_background_color": "#7B9EB0",
      "icon_mask_base_uri": "https://maps.gstatic.com/mapfiles/place_api/icons/v2/generic_pinlet",
      "name": "DiJiFi",
      "opening_hours": {
        "open_now": false
      },
      "photos": [
        {
          "height": 600,
          "html_attributions": [
            "<a href=\"https://maps.google.com/maps/contrib/110867795620167523238\">DiJiFi</a>"
          ],
          "photo_reference": "AeJbb3cXkHOlV1FOGBR1La0Z212QdORtdgg_uPETZTa6eEYsaB8F2E4VTvoeSJDzgUdQ7ko8juTQ6R6Pk8G0bwZ4kQchzGbAJABn-AAicxqErSOyMJEaNpInKaxu592t-QKGyoEyiSgrBWptS5VY1zaRDlN7SEbtLfwm6sbeF4re8Japi_eS",
          "width": 400
        }
      ],
      "place_id": "ChIJS-__XTxZwokRHyP0orUPQgU",
      "plus_code": {
        "compound_code": "P2QW+72 \u7f8e\u570b\u7d10\u7d04",
        "global_code": "87G8P2QW+72"
      },
      "rating": 4.8,
      "reference": "ChIJS-__XTxZwokRHyP0orUPQgU",
      "scope": "GOOGLE",
      "types": [
        "point_of_interest",
        "establishment"
      ],
      "user_ratings_total": 126,
      "vicinity": "1166 Manhattan Avenue #201, Brooklyn"
    },
    {
      "business_status": "OPERATIONAL",
      "geometry": {
        "location": {
          "lat": 40.7386825,
          "lng": -73.95557869999999
        },
        "viewport": {
          "northeast": {
            "lat": 40.7400981802915,
            "lng": -73.95414876970848
          },
          "southwest": {
            "lat": 40.7374002197085,
            "lng": -73.95684673029149
          }
        }
      },
      "icon": "https://maps.gstatic.com/mapfiles/place_api/icons/v1/png_71/shopping-71.png",
      "icon_background_color": "#4B96F3",
      "icon_mask_base_uri": "https://maps.gstatic.com/mapfiles/place_api/icons/v2/shopping_pinlet",
      "name": "Dixie Foam Beds",
      "opening_hours": {
        "open_now": true
      },
      "photos": [
        {
          "height": 672,
          "html_attributions": [
            "<a href=\"https://maps.google.com/maps/contrib/115486121182225521951\">Dixie Foam Beds</a>"
          ],
          "photo_reference": "AeJbb3dOvP4fldRrFAqIt3Lyag2vGx3nxzOQQErdWa0joeWUSK2YUBrvaMTt2pMs-5lxUvVZh-O-4GppRRoE17CBGPCA1tnf3u-CMrSE8dSSAk7VqoruUiCfSsI-8hT71egCTtP9RQxVvhd-ivE_lUfdwY5gSNe5rW7fPPmWUr2XDgVe0KyB",
          "width": 1200
        }
      ],
      "place_id": "ChIJ-yXnBKVZwokRKBBuHA4bYfE",
      "plus_code": {
        "compound_code": "P2QV+FQ \u7f8e\u570b\u7d10\u7d04\u5e03\u9c81\u514b\u6797",
        "global_code": "87G8P2QV+FQ"
      },
      "rating": 4.5,
      "reference": "ChIJ-yXnBKVZwokRKBBuHA4bYfE",
      "scope": "GOOGLE",
      "types": [
        "furniture_store",
        "point_of_interest",
        "home_goods_store",
        "store",
        "establishment"
      ],
      "user_ratings_total": 26,
      "vicinity": "1205 Manhattan Avenue, Brooklyn"
    },
    {
      "geometry": {
        "location": {
          "lat": 40.7830603,
          "lng": -73.9712488
        },
        "viewport": {
          "northeast": {
            "lat": 40.820045,
            "lng": -73.90331300000001
          },
          "southwest": {
            "lat": 40.698078,
            "lng": -74.03514899999999
          }
        }
      },
      "icon": "https://maps.gstatic.com/mapfiles/place_api/icons/v1/png_71/geocode-71.png",
      "icon_background_color": "#7B9EB0",
      "icon_mask_base_uri": "https://maps.gstatic.com/mapfiles/place_api/icons/v2/generic_pinlet",
      "name": "\u66fc\u54c8\u9813",
      "photos": [
        {
          "height": 1199,
          "html_attributions": [
            "<a href=\"https://maps.google.com/maps/contrib/108803842220307386999\">Debeli Atleti\u010dar</a>"
          ],
          "photo_reference": "AeJbb3cO_D-m6cWw8Gpvyhw31VNj_04eLyqekvqUsDMkqpTrwEuBObduoWTI_Szhd4SVKTpI2lUQlNDWLCjdp1OAtPpCwb5EY2G15oVvln5zFu7mGCcVSasyesjBOH9FeWUTWVrAwVTRmS-A46L08syGmaOhvEDZjLVI79WXEeoqbJj3LQl3",
          "width": 1800
        }
      ],
      "place_id": "ChIJYeZuBI9YwokRjMDs_IEyCwo",
      "reference": "ChIJYeZuBI9YwokRjMDs_IEyCwo",
      "scope": "GOOGLE",
      "types": [
        "sublocality_level_1",
        "sublocality",
        "political"
      ],
      "vicinity": "\u66fc\u54c8\u9813"
    },
    {
      "business_status": "OPERATIONAL",
      "geometry": {
        "location": {
          "lat": 40.7327684,
          "lng": -73.9555175
        },
        "viewport": {
          "northeast": {
            "lat": 40.7342100802915,
            "lng": -73.95418366970848
          },
          "southwest": {
            "lat": 40.7315121197085,
            "lng": -73.9568816302915
          }
        }
      },
      "icon": "https://maps.gstatic.com/mapfiles/place_api/icons/v1/png_71/generic_business-71.png",
      "icon_background_color": "#7B9EB0",
      "icon_mask_base_uri": "https://maps.gstatic.com/mapfiles/place_api/icons/v2/generic_pinlet",
      "name": "North Brooklyn Development",
      "place_id": "ChIJNdFUEz9ZwokRipsjgDjiqxU",
      "plus_code": {
        "compound_code": "P2MV+4Q Brooklyn, NY, USA",
        "global_code": "87G8P2MV+4Q"
      },
      "rating": 5,
      "reference": "ChIJNdFUEz9ZwokRipsjgDjiqxU",
      "scope": "GOOGLE",
      "types": [
        "point_of_interest",
        "establishment"
      ],
      "user_ratings_total": 2,
      "vicinity": "148 Huron St # Mgmt, Brooklyn"
    },
    {
      "business_status": "OPERATIONAL",
      "geometry": {
        "location": {
          "lat": 40.738656,
          "lng": -73.95558199999999
        },
        "viewport": {
          "northeast": {
            "lat": 40.7400849302915,
            "lng": -73.9541504197085
          },
          "southwest": {
            "lat": 40.7373869697085,
            "lng": -73.9568483802915
          }
        }
      },
      "icon": "https://maps.gstatic.com/mapfiles/place_api/icons/v1/png_71/generic_business-71.png",
      "icon_background_color": "#13B5C7",
      "icon_mask_base_uri": "https://maps.gstatic.com/mapfiles/place_api/icons/v2/generic_pinlet",
      "name": "Yvette Helin Studio",
      "opening_hours": {
        "open_now": true
      },
      "photos": [
        {
          "height": 474,
          "html_attributions": [
            "<a href=\"https://maps.google.com/maps/contrib/112843732495929063082\">Yvette Helin Studio</a>"
          ],
          "photo_reference": "AeJbb3ek5zSVb_w067gPx3Zlz8Eum1grGRba2DV-70uZ4MQyaXuPjOQpBXSjrDC-i6ab8I3TaVJceQYiPr2BN4-wSpti376DqVRpgDhcRn4smjXZhk-g_SNBvQ74oiYjkHWYu7NjgEPvWspnczcJvjdg2NbrdMugZBJfk9NuaPReSPXyUtsV",
          "width": 700
        }
      ],
      "place_id": "ChIJ5enoWDxZwokRX42UO-Yotag",
      "plus_code": {
        "compound_code": "P2QV+FQ Brooklyn, NY, USA",
        "global_code": "87G8P2QV+FQ"
      },
      "rating": 5,
      "reference": "ChIJ5enoWDxZwokRX42UO-Yotag",
      "scope": "GOOGLE",
      "types": [
        "point_of_interest",
        "establishment"
      ],
      "user_ratings_total": 2,
      "vicinity": "1205 Manhattan Avenue Unit 136, Brooklyn"
    },
    {
      "business_status": "OPERATIONAL",
      "geometry": {
        "location": {
          "lat": 40.7369057,
          "lng": -73.956964
        },
        "viewport": {
          "northeast": {
            "lat": 40.7383276302915,
            "lng": -73.9556798197085
          },
          "southwest": {
            "lat": 40.7356296697085,
            "lng": -73.95837778029151
          }
        }
      },
      "icon": "https://maps.gstatic.com/mapfiles/place_api/icons/v1/png_71/generic_business-71.png",
      "icon_background_color": "#7B9EB0",
      "icon_mask_base_uri": "https://maps.gstatic.com/mapfiles/place_api/icons/v2/generic_pinlet",
      "name": "Aurora Crowley Studio",
      "place_id": "ChIJIWDv0D1ZwokRG5I6E3QdvDQ",
      "plus_code": {
        "compound_code": "P2PV+Q6 New York, NY, USA",
        "global_code": "87G8P2PV+Q6"
      },
      "reference": "ChIJIWDv0D1ZwokRG5I6E3QdvDQ",
      "scope": "GOOGLE",
      "types": [
        "point_of_interest",
        "establishment"
      ],
      "vicinity": "70 Commercial Street, Brooklyn"
    },
    {
      "business_status": "OPERATIONAL",
      "geometry": {
        "location": {
          "lat": 40.7386825,
          "lng": -73.95557869999999
        },
        "viewport": {
          "northeast": {
            "lat": 40.7400981802915,
            "lng": -73.95414876970848
          },
          "southwest": {
            "lat": 40.7374002197085,
            "lng": -73.95684673029149
          }
        }
      },
      "icon": "https://maps.gstatic.com/mapfiles/place_api/icons/v1/png_71/generic_business-71.png",
      "icon_background_color": "#7B9EB0",
      "icon_mask_base_uri": "https://maps.gstatic.com/mapfiles/place_api/icons/v2/generic_pinlet",
      "name": "KleinReid",
      "place_id": "ChIJUUoHMiVZwokRcaLTU_K9a9E",
      "plus_code": {
        "compound_code": "P2QV+FQ Brooklyn, NY, USA",
        "global_code": "87G8P2QV+FQ"
      },
      "reference": "ChIJUUoHMiVZwokRcaLTU_K9a9E",
      "scope": "GOOGLE",
      "types": [
        "point_of_interest",
        "establishment"
      ],
      "vicinity": "1205 Manhattan Avenue, Brooklyn"
    },
    {
      "business_status": "CLOSED_TEMPORARILY",
      "geometry": {
        "location": {
          "lat": 40.7386825,
          "lng": -73.95557869999999
        },
        "viewport": {
          "northeast": {
            "lat": 40.7400981802915,
            "lng": -73.95414876970848
          },
          "southwest": {
            "lat": 40.7374002197085,
            "lng": -73.95684673029149
          }
        }
      },
      "icon": "https://maps.gstatic.com/mapfiles/place_api/icons/v1/png_71/generic_business-71.png",
      "icon_background_color": "#7B9EB0",
      "icon_mask_base_uri": "https://maps.gstatic.com/mapfiles/place_api/icons/v2/generic_pinlet",
      "name": "Urban Architecture Gallery",
      "permanently_closed": true,
      "place_id": "ChIJ5enoWDxZwokRNRwHyrKpK6k",
      "plus_code": {
        "compound_code": "P2QV+FQ Brooklyn, NY, USA",
        "global_code": "87G8P2QV+FQ"
      },
      "reference": "ChIJ5enoWDxZwokRNRwHyrKpK6k",
      "scope": "GOOGLE",
      "types": [
        "art_gallery",
        "point_of_interest",
        "establishment"
      ],
      "vicinity": "1205 Manhattan Avenue, Brooklyn"
    },
    {
      "business_status": "OPERATIONAL",
      "geometry": {
        "location": {
          "lat": 40.7347371,
          "lng": -73.9572318
        },
        "viewport": {
          "northeast": {
            "lat": 40.7361939302915,
            "lng": -73.9559007697085
          },
          "southwest": {
            "lat": 40.7334959697085,
            "lng": -73.95859873029151
          }
        }
      },
      "icon": "https://maps.gstatic.com/mapfiles/place_api/icons/v1/png_71/generic_business-71.png",
      "icon_background_color": "#7B9EB0",
      "icon_mask_base_uri": "https://maps.gstatic.com/mapfiles/place_api/icons/v2/generic_pinlet",
      "name": "Artistic Faux Finishes-Murals",
      "place_id": "ChIJQxURUD5ZwokRAy_kpiLLbb4",
      "plus_code": {
        "compound_code": "P2MV+V4 Brooklyn, NY, USA",
        "global_code": "87G8P2MV+V4"
      },
      "rating": 5,
      "reference": "ChIJQxURUD5ZwokRAy_kpiLLbb4",
      "scope": "GOOGLE",
      "types": [
        "painter",
        "point_of_interest",
        "establishment"
      ],
      "user_ratings_total": 1,
      "vicinity": "92 Eagle Street # 2R, Brooklyn"
    },
    {
      "business_status": "CLOSED_TEMPORARILY",
      "geometry": {
        "location": {
          "lat": 40.73737499999999,
          "lng": -73.9557727
        },
        "viewport": {
          "northeast": {
            "lat": 40.7386633802915,
            "lng": -73.95441811970849
          },
          "southwest": {
            "lat": 40.7359654197085,
            "lng": -73.9571160802915
          }
        }
      },
      "icon": "https://maps.gstatic.com/mapfiles/place_api/icons/v1/png_71/generic_business-71.png",
      "icon_background_color": "#7B9EB0",
      "icon_mask_base_uri": "https://maps.gstatic.com/mapfiles/place_api/icons/v2/generic_pinlet",
      "name": "P A Moore Hire",
      "permanently_closed": true,
      "photos": [
        {
          "height": 1512,
          "html_attributions": [
            "<a href=\"https://maps.google.com/maps/contrib/105134197090521851922\">P A Moore Hire</a>"
          ],
          "photo_reference": "AeJbb3fauEQ3nhPOVYLgXnWoawX80IdDvIK7uZJfp31vQOgSBPLEuF86NJhWWrpPOOlFaVMpJcYhd25MD09gPzqqiijABzPAhNKlDHdyoaSczg9rDKT2i_uj2xFosKj0pluIMjyyxK58FMyRbGLYWIMw3BcmCKa8tTKU5aIpvzipy2ji_vct",
          "width": 2688
        }
      ],
      "place_id": "ChIJM4H4OTxZwokRE1m2E-PURtg",
      "plus_code": {
        "compound_code": "P2PV+WM Brooklyn, NY, USA",
        "global_code": "87G8P2PV+WM"
      },
      "reference": "ChIJM4H4OTxZwokRE1m2E-PURtg",
      "scope": "GOOGLE",
      "types": [
        "point_of_interest",
        "establishment"
      ],
      "vicinity": "21 Box Street, Brooklyn"
    },
    {
      "business_status": "OPERATIONAL",
      "geometry": {
        "location": {
          "lat": 40.7340956,
          "lng": -73.9577808
        },
        "viewport": {
          "northeast": {
            "lat": 40.7354885802915,
            "lng": -73.95643911970849
          },
          "southwest": {
            "lat": 40.7327906197085,
            "lng": -73.9591370802915
          }
        }
      },
      "icon": "https://maps.gstatic.com/mapfiles/place_api/icons/v1/png_71/generic_business-71.png",
      "icon_background_color": "#7B9EB0",
      "icon_mask_base_uri": "https://maps.gstatic.com/mapfiles/place_api/icons/v2/generic_pinlet",
      "name": "Freeman Studio",
      "place_id": "ChIJpVfDtD9ZwokROUTX8hbTXoM",
      "plus_code": {
        "compound_code": "P2MR+JV Brooklyn, NY, USA",
        "global_code": "87G8P2MR+JV"
      },
      "reference": "ChIJpVfDtD9ZwokROUTX8hbTXoM",
      "scope": "GOOGLE",
      "types": [
        "point_of_interest",
        "establishment"
      ],
      "vicinity": "100 Freeman Street, Brooklyn"
    },
    {
      "business_status": "OPERATIONAL",
      "geometry": {
        "location": {
          "lat": 40.7350508,
          "lng": -73.95822890000001
        },
        "viewport": {
          "northeast": {
            "lat": 40.7363902302915,
            "lng": -73.95698436970851
          },
          "southwest": {
            "lat": 40.7336922697085,
            "lng": -73.95968233029151
          }
        }
      },
      "icon": "https://maps.gstatic.com/mapfiles/place_api/icons/v1/png_71/generic_business-71.png",
      "icon_background_color": "#7B9EB0",
      "icon_mask_base_uri": "https://maps.gstatic.com/mapfiles/place_api/icons/v2/generic_pinlet",
      "name": "Accessible Technologies",
      "opening_hours": {
        "open_now": true
      },
      "place_id": "ChIJVX78OD5ZwokRtlJsq18Bvfw",
      "plus_code": {
        "compound_code": "P2PR+2P New York, NY, USA",
        "global_code": "87G8P2PR+2P"
      },
      "reference": "ChIJVX78OD5ZwokRtlJsq18Bvfw",
      "scope": "GOOGLE",
      "types": [
        "point_of_interest",
        "establishment"
      ],
      "vicinity": "262 Franklin Street, Brooklyn"
    },
    {
      "business_status": "OPERATIONAL",
      "geometry": {
        "location": {
          "lat": 40.7366812,
          "lng": -73.9556666
        },
        "viewport": {
          "northeast": {
            "lat": 40.7379643802915,
            "lng": -73.95430686970849
          },
          "southwest": {
            "lat": 40.7352664197085,
            "lng": -73.9570048302915
          }
        }
      },
      "icon": "https://maps.gstatic.com/mapfiles/place_api/icons/v1/png_71/generic_business-71.png",
      "icon_background_color": "#7B9EB0",
      "icon_mask_base_uri": "https://maps.gstatic.com/mapfiles/place_api/icons/v2/generic_pinlet",
      "name": "Family Natural Pierogies",
      "opening_hours": {
        "open_now": false
      },
      "photos": [
        {
          "height": 250,
          "html_attributions": [
            "<a href=\"https://maps.google.com/maps/contrib/116799937739896433020\">Family Natural Pierogies</a>"
          ],
          "photo_reference": "AeJbb3dSeGxkKmY30idEv8UYMAXsCiawcgYIv_vef36ckzfFya430uSW_E2XCQmit8OnBDmOsj8Amc_7KEo6X6dhYazwzRPqtpg67zHWGGOI-2AxXRmTRo7W_R-5yQ_v8oDF1OipVckno9RaYbSg1P3Uktoa9jy1qjR15y096J8HVEkQU_M3",
          "width": 250
        }
      ],
      "place_id": "ChIJa0qV6T5ZwokR_BJ8HoLBFl8",
      "plus_code": {
        "compound_code": "P2PV+MP New York, NY, USA",
        "global_code": "87G8P2PV+MP"
      },
      "rating": 4.8,
      "reference": "ChIJa0qV6T5ZwokR_BJ8HoLBFl8",
      "scope": "GOOGLE",
      "types": [
        "point_of_interest",
        "food",
        "establishment"
      ],
      "user_ratings_total": 4,
      "vicinity": "65 Clay Street, Brooklyn"
    },
    {
      "business_status": "CLOSED_TEMPORARILY",
      "geometry": {
        "location": {
          "lat": 40.7373854,
          "lng": -73.9558663
        },
        "viewport": {
          "northeast": {
            "lat": 40.7388407802915,
            "lng": -73.95462076970848
          },
          "southwest": {
            "lat": 40.7361428197085,
            "lng": -73.95731873029149
          }
        }
      },
      "icon": "https://maps.gstatic.com/mapfiles/place_api/icons/v1/png_71/generic_business-71.png",
      "icon_background_color": "#7B9EB0",
      "icon_mask_base_uri": "https://maps.gstatic.com/mapfiles/place_api/icons/v2/generic_pinlet",
      "name": "HUSSAR METALS",
      "permanently_closed": true,
      "place_id": "ChIJvcBPSDxZwokRQDpg9dRQDGA",
      "plus_code": {
        "compound_code": "P2PV+XM Brooklyn, NY, USA",
        "global_code": "87G8P2PV+XM"
      },
      "reference": "ChIJvcBPSDxZwokRQDpg9dRQDGA",
      "scope": "GOOGLE",
      "types": [
        "point_of_interest",
        "establishment"
      ],
      "vicinity": "99 Commercial Street, Brooklyn"
    },
    {
      "business_status": "CLOSED_TEMPORARILY",
      "geometry": {
        "location": {
          "lat": 40.7340155,
          "lng": -73.9580934
        },
        "viewport": {
          "northeast": {
            "lat": 40.73535563029149,
            "lng": -73.95683171970849
          },
          "southwest": {
            "lat": 40.7326576697085,
            "lng": -73.9595296802915
          }
        }
      },
      "icon": "https://maps.gstatic.com/mapfiles/place_api/icons/v1/png_71/generic_business-71.png",
      "icon_background_color": "#7B9EB0",
      "icon_mask_base_uri": "https://maps.gstatic.com/mapfiles/place_api/icons/v2/generic_pinlet",
      "name": "Ad Hoc interactive",
      "permanently_closed": true,
      "place_id": "ChIJF6OFyT9ZwokR9U8HsH3XcGM",
      "plus_code": {
        "compound_code": "P2MR+JQ New York, NY, USA",
        "global_code": "87G8P2MR+JQ"
      },
      "reference": "ChIJF6OFyT9ZwokR9U8HsH3XcGM",
      "scope": "GOOGLE",
      "types": [
        "point_of_interest",
        "establishment"
      ],
      "vicinity": "238 Franklin Street, Brooklyn"
    },
    {
      "business_status": "OPERATIONAL",
      "geometry": {
        "location": {
          "lat": 40.7334563,
          "lng": -73.9590245
        },
        "viewport": {
          "northeast": {
            "lat": 40.7347519302915,
            "lng": -73.9576715697085
          },
          "southwest": {
            "lat": 40.7320539697085,
            "lng": -73.9603695302915
          }
        }
      },
      "icon": "https://maps.gstatic.com/mapfiles/place_api/icons/v1/png_71/generic_business-71.png",
      "icon_background_color": "#7B9EB0",
      "icon_mask_base_uri": "https://maps.gstatic.com/mapfiles/place_api/icons/v2/generic_pinlet",
      "name": "Delta Environmental Inc",
      "place_id": "ChIJV1gL3D9ZwokRTSH91Ln2AJA",
      "plus_code": {
        "compound_code": "P2MR+99 New York, NY, USA",
        "global_code": "87G8P2MR+99"
      },
      "rating": 5,
      "reference": "ChIJV1gL3D9ZwokRTSH91Ln2AJA",
      "scope": "GOOGLE",
      "types": [
        "point_of_interest",
        "establishment"
      ],
      "user_ratings_total": 1,
      "vicinity": "71 Green Street, Brooklyn"
    },
    {
      "business_status": "CLOSED_TEMPORARILY",
      "geometry": {
        "location": {
          "lat": 40.7373978,
          "lng": -73.95667399999999
        },
        "viewport": {
          "northeast": {
            "lat": 40.73870403029149,
            "lng": -73.95528541970849
          },
          "southwest": {
            "lat": 40.73600606970849,
            "lng": -73.9579833802915
          }
        }
      },
      "icon": "https://maps.gstatic.com/mapfiles/place_api/icons/v1/png_71/shopping-71.png",
      "icon_background_color": "#4B96F3",
      "icon_mask_base_uri": "https://maps.gstatic.com/mapfiles/place_api/icons/v2/shopping_pinlet",
      "name": "Amorphous Studios",
      "permanently_closed": true,
      "photos": [
        {
          "height": 3265,
          "html_attributions": [
            "<a href=\"https://maps.google.com/maps/contrib/104842433142609722240\">Rob Cooke</a>"
          ],
          "photo_reference": "AeJbb3ei_2SfS16cr4NKZ9Fy3EmIjNkbTk7WSKGh9Y9YAy6l6Ff-3QmeNcLdHxRAQFz0ThAnkSm1ZE7mV5HUcQcLo9NBQxaPDlnWrAf_6xODSjNv3ceSYtZVJz0SCr1u88tbbLSsipr_E3ATRw79UGsMcGQc_kNsxNAR8ZCEShT3HPoaSqlq",
          "width": 4898
        }
      ],
      "place_id": "ChIJwwzazD1ZwokRlTvoKki9tlU",
      "plus_code": {
        "compound_code": "P2PV+X8 Brooklyn, NY, USA",
        "global_code": "87G8P2PV+X8"
      },
      "reference": "ChIJwwzazD1ZwokRlTvoKki9tlU",
      "scope": "GOOGLE",
      "types": [
        "home_goods_store",
        "store",
        "point_of_interest",
        "establishment"
      ],
      "vicinity": "99 Commercial Street, Brooklyn"
    },
    {
      "business_status": "CLOSED_TEMPORARILY",
      "geometry": {
        "location": {
          "lat": 40.7352933,
          "lng": -73.9562148
        },
        "viewport": {
          "northeast": {
            "lat": 40.7365254802915,
            "lng": -73.9548465197085
          },
          "southwest": {
            "lat": 40.73382751970851,
            "lng": -73.9575444802915
          }
        }
      },
      "icon": "https://maps.gstatic.com/mapfiles/place_api/icons/v1/png_71/school-71.png",
      "icon_background_color": "#7B9EB0",
      "icon_mask_base_uri": "https://maps.gstatic.com/mapfiles/place_api/icons/v2/school_pinlet",
      "name": "Youth 2000 New York Inc",
      "permanently_closed": true,
      "place_id": "ChIJZSGrjD5ZwokRov8SL_1-620",
      "plus_code": {
        "compound_code": "P2PV+4G New York, NY, USA",
        "global_code": "87G8P2PV+4G"
      },
      "reference": "ChIJZSGrjD5ZwokRov8SL_1-620",
      "scope": "GOOGLE",
      "types": [
        "point_of_interest",
        "establishment"
      ],
      "vicinity": "119 Eagle Street, Brooklyn"
    },
    {
      "business_status": "OPERATIONAL",
      "geometry": {
        "location": {
          "lat": 40.7350716,
          "lng": -73.9586611
        },
        "viewport": {
          "northeast": {
            "lat": 40.7364303302915,
            "lng": -73.95720521970848
          },
          "southwest": {
            "lat": 40.7337323697085,
            "lng": -73.9599031802915
          }
        }
      },
      "icon": "https://maps.gstatic.com/mapfiles/place_api/icons/v1/png_71/generic_business-71.png",
      "icon_background_color": "#7B9EB0",
      "icon_mask_base_uri": "https://maps.gstatic.com/mapfiles/place_api/icons/v2/generic_pinlet",
      "name": "North Brooklyn Productions",
      "place_id": "ChIJV0roOj5ZwokRDU8wsbDLSyg",
      "plus_code": {
        "compound_code": "P2PR+2G Brooklyn, NY, USA",
        "global_code": "87G8P2PR+2G"
      },
      "reference": "ChIJV0roOj5ZwokRDU8wsbDLSyg",
      "scope": "GOOGLE",
      "types": [
        "point_of_interest",
        "establishment"
      ],
      "vicinity": "231 Franklin Street, Brooklyn"
    },
    {
      "business_status": "OPERATIONAL",
      "geometry": {
        "location": {
          "lat": 40.7350115,
          "lng": -73.95899229999999
        },
        "viewport": {
          "northeast": {
            "lat": 40.7363491302915,
            "lng": -73.9577578697085
          },
          "southwest": {
            "lat": 40.7336511697085,
            "lng": -73.96045583029151
          }
        }
      },
      "icon": "https://maps.gstatic.com/mapfiles/place_api/icons/v1/png_71/generic_business-71.png",
      "icon_background_color": "#7B9EB0",
      "icon_mask_base_uri": "https://maps.gstatic.com/mapfiles/place_api/icons/v2/generic_pinlet",
      "name": "Mikhail Glabets Venue Wedding Photography T.B.D.",
      "place_id": "ChIJvYIqLz5ZwokRvaKJVbPGQAY",
      "plus_code": {
        "compound_code": "P2PR+2C Brooklyn, NY, USA",
        "global_code": "87G8P2PR+2C"
      },
      "reference": "ChIJvYIqLz5ZwokRvaKJVbPGQAY",
      "scope": "GOOGLE",
      "types": [
        "point_of_interest",
        "establishment"
      ],
      "vicinity": "49-2 Eagle Street, Brooklyn"
    },
    {
      "business_status": "OPERATIONAL",
      "geometry": {
        "location": {
          "lat": 40.7354971,
          "lng": -73.9576403
        },
        "viewport": {
          "northeast": {
            "lat": 40.73691543029149,
            "lng": -73.9563027697085
          },
          "southwest": {
            "lat": 40.7342174697085,
            "lng": -73.9590007302915
          }
        }
      },
      "icon": "https://maps.gstatic.com/mapfiles/place_api/icons/v1/png_71/generic_business-71.png",
      "icon_background_color": "#7B9EB0",
      "icon_mask_base_uri": "https://maps.gstatic.com/mapfiles/place_api/icons/v2/generic_pinlet",
      "name": "Arete Living Arts Foundation",
      "opening_hours": {
        "open_now": true
      },
      "place_id": "ChIJI2bxuZZbwokRuiJLwS3B2po",
      "plus_code": {
        "compound_code": "P2PR+5W New York, NY, USA",
        "global_code": "87G8P2PR+5W"
      },
      "reference": "ChIJI2bxuZZbwokRuiJLwS3B2po",
      "scope": "GOOGLE",
      "types": [
        "point_of_interest",
        "establishment"
      ],
      "vicinity": "64 Dupont Street #2L, Brooklyn"
    },
    {
      "business_status": "OPERATIONAL",
      "geometry": {
        "location": {
          "lat": 40.7362949,
          "lng": -73.95929459999999
        },
        "viewport": {
          "northeast": {
            "lat": 40.7374077802915,
            "lng": -73.95799036970848
          },
          "southwest": {
            "lat": 40.7347098197085,
            "lng": -73.9606883302915
          }
        }
      },
      "icon": "https://maps.gstatic.com/mapfiles/place_api/icons/v1/png_71/generic_business-71.png",
      "icon_background_color": "#7B9EB0",
      "icon_mask_base_uri": "https://maps.gstatic.com/mapfiles/place_api/icons/v2/generic_pinlet",
      "name": "5 Blue Slip",
      "photos": [
        {
          "height": 2433,
          "html_attributions": [
            "<a href=\"https://maps.google.com/maps/contrib/104842433142609722240\">Rob Cooke</a>"
          ],
          "photo_reference": "AeJbb3fcZo_2VHjtZJCDcEB4FosUyAkxFucaihsz5O3eo22RGQCOZDHZweZ0-2Pdn8Rl-iP_GqD4hexVMN-3DtMAtqLD2KGhnChbBmpVWpWTQQ3rDDDjeZrrsT47p5mCFkbzHtYJFGYkKhjeUGLbiEj-GTwHaklXwrMrRy8Hz_SpJPaQrtID",
          "width": 4567
        }
      ],
      "place_id": "ChIJw_JkHj5ZwokRRGZyLOYR06A",
      "plus_code": {
        "compound_code": "P2PR+G7 New York, NY, USA",
        "global_code": "87G8P2PR+G7"
      },
      "rating": 4.2,
      "reference": "ChIJw_JkHj5ZwokRRGZyLOYR06A",
      "scope": "GOOGLE",
      "types": [
        "shopping_mall",
        "point_of_interest",
        "establishment"
      ],
      "user_ratings_total": 20,
      "vicinity": "5 Commercial Street, Brooklyn"
    },
    {
      "business_status": "OPERATIONAL",
      "geometry": {
        "location": {
          "lat": 40.7346714,
          "lng": -73.9591197
        },
        "viewport": {
          "northeast": {
            "lat": 40.7360740302915,
            "lng": -73.9577790697085
          },
          "southwest": {
            "lat": 40.73337606970851,
            "lng": -73.96047703029151
          }
        }
      },
      "icon": "https://maps.gstatic.com/mapfiles/place_api/icons/v1/png_71/generic_business-71.png",
      "icon_background_color": "#7B9EB0",
      "icon_mask_base_uri": "https://maps.gstatic.com/mapfiles/place_api/icons/v2/generic_pinlet",
      "name": "Broadway Stages",
      "place_id": "ChIJu41OKT5ZwokRB2l7-hxoPBw",
      "plus_code": {
        "compound_code": "P2MR+V9 Brooklyn, NY, USA",
        "global_code": "87G8P2MR+V9"
      },
      "rating": 4.8,
      "reference": "ChIJu41OKT5ZwokRB2l7-hxoPBw",
      "scope": "GOOGLE",
      "types": [
        "point_of_interest",
        "establishment"
      ],
      "user_ratings_total": 4,
      "vicinity": "50 Eagle Street, Brooklyn"
    },
    {
      "business_status": "OPERATIONAL",
      "geometry": {
        "location": {
          "lat": 40.73460099999999,
          "lng": -73.958637
        },
        "viewport": {
          "northeast": {
            "lat": 40.73596238029149,
            "lng": -73.95715566970848
          },
          "southwest": {
            "lat": 40.73326441970849,
            "lng": -73.95985363029149
          }
        }
      },
      "icon": "https://maps.gstatic.com/mapfiles/place_api/icons/v1/png_71/generic_business-71.png",
      "icon_background_color": "#7B9EB0",
      "icon_mask_base_uri": "https://maps.gstatic.com/mapfiles/place_api/icons/v2/generic_pinlet",
      "name": "Williamsburg Therapy Group",
      "opening_hours": {
        "open_now": true
      },
      "photos": [
        {
          "height": 633,
          "html_attributions": [
            "<a href=\"https://maps.google.com/maps/contrib/101775191737343858086\">Williamsburg Therapy Group</a>"
          ],
          "photo_reference": "AeJbb3dB4TqWytZs21RpFbYEoyGVyJ2ExHFAWiGEm8j1tX6cTJz6IgGZwMMuWNCPACxjY6MHJQX9XwJXMOazI5YKXEJDJ2rthLkTe3cuWHfeA2_8TrE5bSXN8irgPHjW8PZCZbFcEVfhg3CXZN-ci_4rdJttI4VXyjXYdP_VZ-61yesmhfMB",
          "width": 1124
        }
      ],
      "place_id": "ChIJF6eIMT5ZwokRyKvmFPqDUV0",
      "plus_code": {
        "compound_code": "P2MR+RG New York, NY, USA",
        "global_code": "87G8P2MR+RG"
      },
      "rating": 5,
      "reference": "ChIJF6eIMT5ZwokRyKvmFPqDUV0",
      "scope": "GOOGLE",
      "types": [
        "doctor",
        "health",
        "point_of_interest",
        "establishment"
      ],
      "user_ratings_total": 16,
      "vicinity": "223 Franklin Street, Brooklyn"
    },
    {
      "business_status": "OPERATIONAL",
      "geometry": {
        "location": {
          "lat": 40.73652380000001,
          "lng": -73.95715539999999
        },
        "viewport": {
          "northeast": {
            "lat": 40.73781563029151,
            "lng": -73.95579706970848
          },
          "southwest": {
            "lat": 40.73511766970852,
            "lng": -73.9584950302915
          }
        }
      },
      "icon": "https://maps.gstatic.com/mapfiles/place_api/icons/v1/png_71/shopping-71.png",
      "icon_background_color": "#4B96F3",
      "icon_mask_base_uri": "https://maps.gstatic.com/mapfiles/place_api/icons/v2/shopping_pinlet",
      "name": "Alexandra International",
      "opening_hours": {
        "open_now": true
      },
      "place_id": "ChIJw6OBdz5ZwokRVKiBHWkR7CI",
      "plus_code": {
        "compound_code": "P2PV+J4 New York, NY, USA",
        "global_code": "87G8P2PV+J4"
      },
      "reference": "ChIJw6OBdz5ZwokRVKiBHWkR7CI",
      "scope": "GOOGLE",
      "types": [
        "store",
        "point_of_interest",
        "establishment"
      ],
      "vicinity": "21 Clay Street, Brooklyn"
    },
    {
      "business_status": "OPERATIONAL",
      "geometry": {
        "location": {
          "lat": 40.7343778,
          "lng": -73.9575167
        },
        "viewport": {
          "northeast": {
            "lat": 40.7356430302915,
            "lng": -73.95617431970848
          },
          "southwest": {
            "lat": 40.7329450697085,
            "lng": -73.95887228029149
          }
        }
      },
      "icon": "https://maps.gstatic.com/mapfiles/place_api/icons/v1/png_71/restaurant-71.png",
      "icon_background_color": "#FF9E67",
      "icon_mask_base_uri": "https://maps.gstatic.com/mapfiles/place_api/icons/v2/restaurant_pinlet",
      "name": "Bakeri",
      "opening_hours": {
        "open_now": true
      },
      "photos": [
        {
          "height": 1536,
          "html_attributions": [
            "<a href=\"https://maps.google.com/maps/contrib/111878592196861633351\">Bakeri</a>"
          ],
          "photo_reference": "AeJbb3dz5HkHLplyUfq43hnAIf9N8ZsNHCP2QFCG4SOQIPy5WJq3eZzrqDJt7BeEjctjpZRHjyhSeAVAwL1szz3D9ATjxOuQfWzZl9ibaQNjbSWkBImd9oN9ry_Lgpn8TNjBDEbihHJhVECsbsW4bct--kwtZ1sYb6KvAqqMz8wxvytQHXgy",
          "width": 2048
        }
      ],
      "place_id": "ChIJ49tITD5ZwokRBDmxrKCTBLc",
      "plus_code": {
        "compound_code": "P2MR+QX Brooklyn, NY, USA",
        "global_code": "87G8P2MR+QX"
      },
      "price_level": 2,
      "rating": 4.6,
      "reference": "ChIJ49tITD5ZwokRBDmxrKCTBLc",
      "scope": "GOOGLE",
      "types": [
        "bakery",
        "food",
        "point_of_interest",
        "store",
        "establishment"
      ],
      "user_ratings_total": 397,
      "vicinity": "105 Freeman Street, Brooklyn"
    },
    {
      "business_status": "OPERATIONAL",
      "geometry": {
        "location": {
          "lat": 40.733456,
          "lng": -73.9590285
        },
        "viewport": {
          "northeast": {
            "lat": 40.7347518802915,
            "lng": -73.95767111970851
          },
          "southwest": {
            "lat": 40.73205391970851,
            "lng": -73.96036908029151
          }
        }
      },
      "icon": "https://maps.gstatic.com/mapfiles/place_api/icons/v1/png_71/generic_business-71.png",
      "icon_background_color": "#7B9EB0",
      "icon_mask_base_uri": "https://maps.gstatic.com/mapfiles/place_api/icons/v2/generic_pinlet",
      "name": "New Style Restoration LLC",
      "place_id": "ChIJV1gL3D9ZwokRfGQXxkrpaO0",
      "plus_code": {
        "compound_code": "P2MR+99 New York, NY, USA",
        "global_code": "87G8P2MR+99"
      },
      "reference": "ChIJV1gL3D9ZwokRfGQXxkrpaO0",
      "scope": "GOOGLE",
      "types": [
        "general_contractor",
        "point_of_interest",
        "establishment"
      ],
      "vicinity": "71 Green Street, Brooklyn"
    },
    {
      "business_status": "OPERATIONAL",
      "geometry": {
        "location": {
          "lat": 40.73393799999999,
          "lng": -73.959443
        },
        "viewport": {
          "northeast": {
            "lat": 40.7353324802915,
            "lng": -73.9581012697085
          },
          "southwest": {
            "lat": 40.7326345197085,
            "lng": -73.9607992302915
          }
        }
      },
      "icon": "https://maps.gstatic.com/mapfiles/place_api/icons/v1/png_71/generic_business-71.png",
      "icon_background_color": "#7B9EB0",
      "icon_mask_base_uri": "https://maps.gstatic.com/mapfiles/place_api/icons/v2/generic_pinlet",
      "name": "SHIZEN BROOKLYN",
      "opening_hours": {
        "open_now": true
      },
      "photos": [
        {
          "height": 500,
          "html_attributions": [
            "<a href=\"https://maps.google.com/maps/contrib/104610880819375194652\">SHIZEN BROOKLYN</a>"
          ],
          "photo_reference": "AeJbb3cehcfckgC2v-5Q6Qa1wDm5zSKjZRTVa4R5jnV5nmvsjAcKD78E_WwUlJb0ZqQyYmEfJ8ETRm0O_wIjelH8HG8t3KZVkoFWBMdFiqd34NQMY7Eu226IWkw73z8CIi58r7Uifh0qKbeucI5WGzi4TgKo3fKUuLsgtb4dWg_zxMoh7Q-h",
          "width": 667
        }
      ],
      "place_id": "ChIJT2HMDmdZwokRnwcjZodjgL8",
      "plus_code": {
        "compound_code": "P2MR+H6 New York, NY, USA",
        "global_code": "87G8P2MR+H6"
      },
      "rating": 4.6,
      "reference": "ChIJT2HMDmdZwokRnwcjZodjgL8",
      "scope": "GOOGLE",
      "types": [
        "hair_care",
        "point_of_interest",
        "establishment"
      ],
      "user_ratings_total": 108,
      "vicinity": "64 Freeman Street, Brooklyn"
    },
    {
      "business_status": "CLOSED_TEMPORARILY",
      "geometry": {
        "location": {
          "lat": 40.7369635,
          "lng": -73.9568682
        },
        "viewport": {
          "northeast": {
            "lat": 40.7383823302915,
            "lng": -73.95558131970849
          },
          "southwest": {
            "lat": 40.7356843697085,
            "lng": -73.9582792802915
          }
        }
      },
      "icon": "https://maps.gstatic.com/mapfiles/place_api/icons/v1/png_71/generic_business-71.png",
      "icon_background_color": "#7B9EB0",
      "icon_mask_base_uri": "https://maps.gstatic.com/mapfiles/place_api/icons/v2/generic_pinlet",
      "name": "Passion of Photography, Inc",
      "permanently_closed": true,
      "place_id": "ChIJRW3D0z1ZwokRbRdvIkDGg_A",
      "plus_code": {
        "compound_code": "P2PV+Q7 Brooklyn, NY, USA",
        "global_code": "87G8P2PV+Q7"
      },
      "reference": "ChIJRW3D0z1ZwokRbRdvIkDGg_A",
      "scope": "GOOGLE",
      "types": [
        "point_of_interest",
        "establishment"
      ],
      "vicinity": "70 Commercial Street #203, Brooklyn"
    },
    {
      "business_status": "OPERATIONAL",
      "geometry": {
        "location": {
          "lat": 40.73377910000001,
          "lng": -73.9581113
        },
        "viewport": {
          "northeast": {
            "lat": 40.7351298802915,
            "lng": -73.9568210697085
          },
          "southwest": {
            "lat": 40.7324319197085,
            "lng": -73.95951903029152
          }
        }
      },
      "icon": "https://maps.gstatic.com/mapfiles/place_api/icons/v1/png_71/generic_business-71.png",
      "icon_background_color": "#7B9EB0",
      "icon_mask_base_uri": "https://maps.gstatic.com/mapfiles/place_api/icons/v2/generic_pinlet",
      "name": "Moth + Flame",
      "place_id": "ChIJ-7MUiYlZwokRNM4WLm-wK9Q",
      "plus_code": {
        "compound_code": "P2MR+GQ New York, NY, USA",
        "global_code": "87G8P2MR+GQ"
      },
      "rating": 5,
      "reference": "ChIJ-7MUiYlZwokRNM4WLm-wK9Q",
      "scope": "GOOGLE",
      "types": [
        "point_of_interest",
        "establishment"
      ],
      "user_ratings_total": 2,
      "vicinity": "230 Franklin Street, Brooklyn"
    },
    {
      "business_status": "OPERATIONAL",
      "geometry": {
        "location": {
          "lat": 40.7370799,
          "lng": -73.9566646
        },
        "viewport": {
          "northeast": {
            "lat": 40.7384767302915,
            "lng": -73.9552382197085
          },
          "southwest": {
            "lat": 40.7357787697085,
            "lng": -73.95793618029151
          }
        }
      },
      "icon": "https://maps.gstatic.com/mapfiles/place_api/icons/v1/png_71/generic_business-71.png",
      "icon_background_color": "#7B9EB0",
      "icon_mask_base_uri": "https://maps.gstatic.com/mapfiles/place_api/icons/v2/generic_pinlet",
      "name": "M Hiller & Son",
      "photos": [
        {
          "height": 2448,
          "html_attributions": [
            "<a href=\"https://maps.google.com/maps/contrib/115803627852366019841\">Juan javier Gonzalez</a>"
          ],
          "photo_reference": "AeJbb3cCMeAiJ1K2Jk9W9nnc59qA_un7ubyZ5-fKsYfoBBXSp3C-DWAYOSgp2p3YQGpQ6sww9VmOeZ2_XMAhi5xuCUhgu0PDtFbt5oIvhBQAZCyEUJZUroAVg9OLc6HK25yximQ1BRLBBvGtSONpSZ9xJk69PVhj19ZCXiKaj2JKJtE37LQT",
          "width": 3264
        }
      ],
      "place_id": "ChIJARR6LzxZwokRb3ydra7VMaQ",
      "plus_code": {
        "compound_code": "P2PV+R8 Brooklyn, NY, USA",
        "global_code": "87G8P2PV+R8"
      },
      "rating": 5,
      "reference": "ChIJARR6LzxZwokRb3ydra7VMaQ",
      "scope": "GOOGLE",
      "types": [
        "point_of_interest",
        "establishment"
      ],
      "user_ratings_total": 4,
      "vicinity": "10 Box Street, Brooklyn"
    },
    {
      "business_status": "OPERATIONAL",
      "geometry": {
        "location": {
          "lat": 40.7336328,
          "lng": -73.9595902
        },
        "viewport": {
          "northeast": {
            "lat": 40.7349687802915,
            "lng": -73.95838381970849
          },
          "southwest": {
            "lat": 40.7322708197085,
            "lng": -73.96108178029151
          }
        }
      },
      "icon": "https://maps.gstatic.com/mapfiles/place_api/icons/v1/png_71/generic_business-71.png",
      "icon_background_color": "#7B9EB0",
      "icon_mask_base_uri": "https://maps.gstatic.com/mapfiles/place_api/icons/v2/generic_pinlet",
      "name": "Looking Glass Factory",
      "photos": [
        {
          "height": 4032,
          "html_attributions": [
            "<a href=\"https://maps.google.com/maps/contrib/101887149010983944772\">Joseph Ferguson</a>"
          ],
          "photo_reference": "AeJbb3fRzEnu4FrmC3plkeIRs6uFjoTvbcktU8J8g_sAy-xgxUnpDMpKg9bh3IS5NgXC4GD8jExsFHWjOwWidR-JJ-amECmsIb_x3MPhQrojTa5j1YZQtU5FLWHzALQPwrKkk20G27DXhktF7HnEpGOKiu7xd8eIF6Hh-NqZnwGGAK3CC_kl",
          "width": 3024
        }
      ],
      "place_id": "ChIJJYowsz1ZwokROEfawEyKTpQ",
      "plus_code": {
        "compound_code": "P2MR+F5 Brooklyn, NY, USA",
        "global_code": "87G8P2MR+F5"
      },
      "rating": 5,
      "reference": "ChIJJYowsz1ZwokROEfawEyKTpQ",
      "scope": "GOOGLE",
      "types": [
        "point_of_interest",
        "establishment"
      ],
      "user_ratings_total": 4,
      "vicinity": "190 West Street, Brooklyn"
    },
    {
      "business_status": "OPERATIONAL",
      "geometry": {
        "location": {
          "lat": 40.73367959999999,
          "lng": -73.95975779999999
        },
        "viewport": {
          "northeast": {
            "lat": 40.7350359802915,
            "lng": -73.9584739197085
          },
          "southwest": {
            "lat": 40.7323380197085,
            "lng": -73.9611718802915
          }
        }
      },
      "icon": "https://maps.gstatic.com/mapfiles/place_api/icons/v1/png_71/shopping-71.png",
      "icon_background_color": "#4B96F3",
      "icon_mask_base_uri": "https://maps.gstatic.com/mapfiles/place_api/icons/v2/shopping_pinlet",
      "name": "Creative Solutions",
      "opening_hours": {
        "open_now": false
      },
      "photos": [
        {
          "height": 1366,
          "html_attributions": [
            "<a href=\"https://maps.google.com/maps/contrib/107824805718778000231\">Creative Solutions</a>"
          ],
          "photo_reference": "AeJbb3cXdHagYEU3POGLyaCLCsMDtd2Rzhs5XbhBfNHzZ38zEAjN6suzEFjnjBambxrLCYE_9my-YfcL-TMicAwwvVE33KYQY11lli4x6c02doqyZUaQdtpx5ccqf_8bv-dA1q8qpzJ82yHL8RJvyi6B8L-ndFjrLQeVYkyxzwPbLRCcNcaf",
          "width": 2048
        }
      ],
      "place_id": "ChIJx-8AZBVZwokRw-3YT5rBtW8",
      "plus_code": {
        "compound_code": "P2MR+F3 Brooklyn, NY, USA",
        "global_code": "87G8P2MR+F3"
      },
      "rating": 5,
      "reference": "ChIJx-8AZBVZwokRw-3YT5rBtW8",
      "scope": "GOOGLE",
      "types": [
        "electronics_store",
        "point_of_interest",
        "home_goods_store",
        "store",
        "establishment"
      ],
      "user_ratings_total": 6,
      "vicinity": "190 West Street, Brooklyn"
    },
    {
      "business_status": "CLOSED_TEMPORARILY",
      "geometry": {
        "location": {
          "lat": 40.73359629999999,
          "lng": -73.95762090000001
        },
        "viewport": {
          "northeast": {
            "lat": 40.73489188029149,
            "lng": -73.9564892197085
          },
          "southwest": {
            "lat": 40.7321939197085,
            "lng": -73.95918718029151
          }
        }
      },
      "icon": "https://maps.gstatic.com/mapfiles/place_api/icons/v1/png_71/generic_business-71.png",
      "icon_background_color": "#7B9EB0",
      "icon_mask_base_uri": "https://maps.gstatic.com/mapfiles/place_api/icons/v2/generic_pinlet",
      "name": "Strong Eye Astrology",
      "permanently_closed": true,
      "place_id": "ChIJvd2osD9ZwokRZF4zHgmkraI",
      "plus_code": {
        "compound_code": "P2MR+CX New York, NY, USA",
        "global_code": "87G8P2MR+CX"
      },
      "reference": "ChIJvd2osD9ZwokRZF4zHgmkraI",
      "scope": "GOOGLE",
      "types": [
        "spa",
        "point_of_interest",
        "establishment"
      ],
      "vicinity": "97 Green Street, Brooklyn"
    },
    {
      "business_status": "OPERATIONAL",
      "geometry": {
        "location": {
          "lat": 40.7336027,
          "lng": -73.95735379999999
        },
        "viewport": {
          "northeast": {
            "lat": 40.7349096302915,
            "lng": -73.95635786970851
          },
          "southwest": {
            "lat": 40.7322116697085,
            "lng": -73.95905583029152
          }
        }
      },
      "icon": "https://maps.gstatic.com/mapfiles/place_api/icons/v1/png_71/school-71.png",
      "icon_background_color": "#7B9EB0",
      "icon_mask_base_uri": "https://maps.gstatic.com/mapfiles/place_api/icons/v2/school_pinlet",
      "name": "Didge Project",
      "place_id": "ChIJg7YWsD9ZwokR1c4Loiel16k",
      "plus_code": {
        "compound_code": "P2MV+C3 New York, NY, USA",
        "global_code": "87G8P2MV+C3"
      },
      "rating": 5,
      "reference": "ChIJg7YWsD9ZwokR1c4Loiel16k",
      "scope": "GOOGLE",
      "types": [
        "point_of_interest",
        "establishment"
      ],
      "user_ratings_total": 1,
      "vicinity": "107 Green Street, Brooklyn"
    },
    {
      "business_status": "OPERATIONAL",
      "geometry": {
        "location": {
          "lat": 40.733332,
          "lng": -73.9580278
        },
        "viewport": {
          "northeast": {
            "lat": 40.73467248029149,
            "lng": -73.95674511970849
          },
          "southwest": {
            "lat": 40.7319745197085,
            "lng": -73.9594430802915
          }
        }
      },
      "icon": "https://maps.gstatic.com/mapfiles/place_api/icons/v1/png_71/bar-71.png",
      "icon_background_color": "#FF9E67",
      "icon_mask_base_uri": "https://maps.gstatic.com/mapfiles/place_api/icons/v2/bar_pinlet",
      "name": "The Springs",
      "opening_hours": {
        "open_now": true
      },
      "photos": [
        {
          "height": 1668,
          "html_attributions": [
            "<a href=\"https://maps.google.com/maps/contrib/116604664914162669786\">The Springs</a>"
          ],
          "photo_reference": "AeJbb3dEP_wckLJyMVxI6OfeJR8eM5IXFwP60zSOWxA5EvqCzlg8J6b_e3tTrf-Bs8tRlb-8dCvsRKyzHGQV_3COr8zut8jbWaH1QLb6i5LpI4x5w3SQJNWweAWTf5k6_jBOoQBwGN0GPhrBRe-RSiILKbMWSYNmHcIcag6OCqLEblUgBdVW",
          "width": 2500
        }
      ],
      "place_id": "ChIJg8WhwD9ZwokRiSkS5fqmczE",
      "plus_code": {
        "compound_code": "P2MR+8Q Brooklyn, NY, USA",
        "global_code": "87G8P2MR+8Q"
      },
      "rating": 3.8,
      "reference": "ChIJg8WhwD9ZwokRiSkS5fqmczE",
      "scope": "GOOGLE",
      "types": [
        "bar",
        "point_of_interest",
        "establishment"
      ],
      "user_ratings_total": 298,
      "vicinity": "224 Franklin Street, Brooklyn"
    },
    {
      "business_status": "OPERATIONAL",
      "geometry": {
        "location": {
          "lat": 40.73558440000001,
          "lng": -73.9554326
        },
        "viewport": {
          "northeast": {
            "lat": 40.73694658029149,
            "lng": -73.95394026970848
          },
          "southwest": {
            "lat": 40.7342486197085,
            "lng": -73.95663823029149
          }
        }
      },
      "icon": "https://maps.gstatic.com/mapfiles/place_api/icons/v1/png_71/generic_business-71.png",
      "icon_background_color": "#7B9EB0",
      "icon_mask_base_uri": "https://maps.gstatic.com/mapfiles/place_api/icons/v2/generic_pinlet",
      "name": "Western Union",
      "opening_hours": {
        "open_now": true
      },
      "photos": [
        {
          "height": 1000,
          "html_attributions": [
            "<a href=\"https://maps.google.com/maps/contrib/114138790625075852602\">Western Union</a>"
          ],
          "photo_reference": "AeJbb3eUKL5G1pAIAi1lZdkGzIfIw4WHiI-v-KPrlJTCnNCLF2cPj4mUJ12CCwnDhcBS9EWA4a7E0RFQzzW7gi7agU15BK76D2emj-IL3ZTXipfseUCu3aFwJKw2RGlgtevU3zNPlCE0ZnLOvNcT9AeH_4rmjtRT4zYDbwn42NQf2sxqTeJN",
          "width": 1000
        }
      ],
      "place_id": "ChIJx_rVlj5ZwokRk4kpL5cWJaQ",
      "plus_code": {
        "compound_code": "P2PV+6R Brooklyn, NY, USA",
        "global_code": "87G8P2PV+6R"
      },
      "rating": 2.3,
      "reference": "ChIJx_rVlj5ZwokRk4kpL5cWJaQ",
      "scope": "GOOGLE",
      "types": [
        "finance",
        "point_of_interest",
        "establishment"
      ],
      "user_ratings_total": 3,
      "vicinity": "Pay-o-matic, 1083 Manhattan Avenue, Brooklyn"
    },
    {
      "business_status": "OPERATIONAL",
      "geometry": {
        "location": {
          "lat": 40.733104,
          "lng": -73.959279
        },
        "viewport": {
          "northeast": {
            "lat": 40.7345617802915,
            "lng": -73.95795156970848
          },
          "southwest": {
            "lat": 40.73186381970851,
            "lng": -73.96064953029149
          }
        }
      },
      "icon": "https://maps.gstatic.com/mapfiles/place_api/icons/v1/png_71/generic_business-71.png",
      "icon_background_color": "#13B5C7",
      "icon_mask_base_uri": "https://maps.gstatic.com/mapfiles/place_api/icons/v2/generic_pinlet",
      "name": "Erick Gorgeous",
      "place_id": "ChIJ6VzIzlRYwokRMXWQoDt_Asg",
      "plus_code": {
        "compound_code": "P2MR+67 Brooklyn, NY, USA",
        "global_code": "87G8P2MR+67"
      },
      "rating": 5,
      "reference": "ChIJ6VzIzlRYwokRMXWQoDt_Asg",
      "scope": "GOOGLE",
      "types": [
        "electronics_store",
        "point_of_interest",
        "home_goods_store",
        "store",
        "establishment"
      ],
      "user_ratings_total": 2,
      "vicinity": "66 Green Street, Brooklyn"
    },
    {
      "business_status": "OPERATIONAL",
      "geometry": {
        "location": {
          "lat": 40.7345249,
          "lng": -73.955384
        },
        "viewport": {
          "northeast": {
            "lat": 40.7358209302915,
            "lng": -73.9540080197085
          },
          "southwest": {
            "lat": 40.7331229697085,
            "lng": -73.95670598029152
          }
        }
      },
      "icon": "https://maps.gstatic.com/mapfiles/place_api/icons/v1/png_71/cafe-71.png",
      "icon_background_color": "#FF9E67",
      "icon_mask_base_uri": "https://maps.gstatic.com/mapfiles/place_api/icons/v2/cafe_pinlet",
      "name": "Sweetleaf Coffee Roasters",
      "opening_hours": {
        "open_now": true
      },
      "photos": [
        {
          "height": 1335,
          "html_attributions": [
            "<a href=\"https://maps.google.com/maps/contrib/113606602211782804272\">Sweetleaf Coffee Roasters</a>"
          ],
          "photo_reference": "AeJbb3dUiZGYP4lZoFHFUDNwqiT7gHv6fMKNyfrLEq7gLPRQtDKNYfHT5irasie_bIFzSdwZ6aBink99jxV49PzemgRaCM3SDqyVAYWPDAtIEEuAYHOFldlBupeDz1zjccso5C4saD7OZN9UxL2SS26HMN4vLAEcktvjS-C1DPRjcEj3iRKP",
          "width": 2000
        }
      ],
      "place_id": "ChIJ11Kj6D5ZwokR1_xM1x2XwVs",
      "plus_code": {
        "compound_code": "P2MV+RR Brooklyn, NY, USA",
        "global_code": "87G8P2MV+RR"
      },
      "price_level": 2,
      "rating": 4.6,
      "reference": "ChIJ11Kj6D5ZwokR1_xM1x2XwVs",
      "scope": "GOOGLE",
      "types": [
        "bakery",
        "cafe",
        "food",
        "point_of_interest",
        "store",
        "establishment"
      ],
      "user_ratings_total": 271,
      "vicinity": "159 Freeman Street, Brooklyn"
    },
    {
      "business_status": "OPERATIONAL",
      "geometry": {
        "location": {
          "lat": 40.7333888,
          "lng": -73.95660140000001
        },
        "viewport": {
          "northeast": {
            "lat": 40.7348461302915,
            "lng": -73.95517121970852
          },
          "southwest": {
            "lat": 40.7321481697085,
            "lng": -73.95786918029152
          }
        }
      },
      "icon": "https://maps.gstatic.com/mapfiles/place_api/icons/v1/png_71/generic_business-71.png",
      "icon_background_color": "#7B9EB0",
      "icon_mask_base_uri": "https://maps.gstatic.com/mapfiles/place_api/icons/v2/generic_pinlet",
      "name": "110 Green Street",
      "photos": [
        {
          "height": 3024,
          "html_attributions": [
            "<a href=\"https://maps.google.com/maps/contrib/107876652234420346924\">Hasnain Baxamoosa</a>"
          ],
          "photo_reference": "AeJbb3ds5stzDfskkiQck_kCQqY8y4_PVJdFXfUqNuTL7VOugc2eV7_nxobiNa4RyYbLjPtaZR0Dd4URO6XIKEWd1R-GpWXfCJNj3x_VUOJldx4dSWXuSkGt6YlQsk2ZiqipCd9XPZ9wlqdGllCS6KsCYS6w-o9IxSgsV7bzcWuaY4YM54qA",
          "width": 4032
        }
      ],
      "place_id": "ChIJbyxmpD9ZwokRphw4Nmb9s2s",
      "plus_code": {
        "compound_code": "P2MV+99 New York, NY, USA",
        "global_code": "87G8P2MV+99"
      },
      "rating": 5,
      "reference": "ChIJbyxmpD9ZwokRphw4Nmb9s2s",
      "scope": "GOOGLE",
      "types": [
        "point_of_interest",
        "establishment"
      ],
      "user_ratings_total": 5,
      "vicinity": "110 Green Street, Brooklyn"
    },
    {
      "business_status": "OPERATIONAL",
      "geometry": {
        "location": {
          "lat": 40.7347741,
          "lng": -73.9551998
        },
        "viewport": {
          "northeast": {
            "lat": 40.7361277802915,
            "lng": -73.95375871970849
          },
          "southwest": {
            "lat": 40.7334298197085,
            "lng": -73.9564566802915
          }
        }
      },
      "icon": "https://maps.gstatic.com/mapfiles/place_api/icons/v1/png_71/generic_business-71.png",
      "icon_background_color": "#7B9EB0",
      "icon_mask_base_uri": "https://maps.gstatic.com/mapfiles/place_api/icons/v2/generic_pinlet",
      "name": "Anarchy in a Jar",
      "place_id": "ChIJfSiK6T5ZwokRY8jL_AoPZnM",
      "plus_code": {
        "compound_code": "P2MV+WW New York, NY, USA",
        "global_code": "87G8P2MV+WW"
      },
      "reference": "ChIJfSiK6T5ZwokRY8jL_AoPZnM",
      "scope": "GOOGLE",
      "types": [
        "food",
        "point_of_interest",
        "establishment"
      ],
      "vicinity": "1053 Manhattan Avenue, Brooklyn"
    },
    {
      "business_status": "OPERATIONAL",
      "geometry": {
        "location": {
          "lat": 40.732919,
          "lng": -73.957943
        },
        "viewport": {
          "northeast": {
            "lat": 40.73425973029149,
            "lng": -73.95667351970849
          },
          "southwest": {
            "lat": 40.73156176970849,
            "lng": -73.95937148029151
          }
        }
      },
      "icon": "https://maps.gstatic.com/mapfiles/place_api/icons/v1/png_71/shopping-71.png",
      "icon_background_color": "#4B96F3",
      "icon_mask_base_uri": "https://maps.gstatic.com/mapfiles/place_api/icons/v2/shopping_pinlet",
      "name": "Standards Manual",
      "opening_hours": {
        "open_now": true
      },
      "photos": [
        {
          "height": 4048,
          "html_attributions": [
            "<a href=\"https://maps.google.com/maps/contrib/115132638114654413610\">Jase Hueser</a>"
          ],
          "photo_reference": "AeJbb3fn1IYTT90wCrt-1HHbsu6gX9jjR_EaemKB026kLOCE1XFq012AWwpuS6sLSxk18VHHR775xRetbi2sC-431j-O--OCyilvolOPYkfMnqVuQL_AuSW-stL2J66zuk_KOaqyZSKu4gVbzf-mfcu586nGNvuqSA7PAPowP8ls7mOsh8A",
          "width": 3036
        }
      ],
      "place_id": "ChIJ308UlT9ZwokRgbrafD8Ejks",
      "plus_code": {
        "compound_code": "P2MR+5R Brooklyn, NY, USA",
        "global_code": "87G8P2MR+5R"
      },
      "rating": 4.7,
      "reference": "ChIJ308UlT9ZwokRgbrafD8Ejks",
      "scope": "GOOGLE",
      "types": [
        "book_store",
        "point_of_interest",
        "store",
        "establishment"
      ],
      "user_ratings_total": 17,
      "vicinity": "212 Franklin Street, Brooklyn"
    },
    {
      "business_status": "OPERATIONAL",
      "geometry": {
        "location": {
          "lat": 40.732931,
          "lng": -73.957862
        },
        "viewport": {
          "northeast": {
            "lat": 40.7342675302915,
            "lng": -73.9566333697085
          },
          "southwest": {
            "lat": 40.7315695697085,
            "lng": -73.95933133029152
          }
        }
      },
      "icon": "https://maps.gstatic.com/mapfiles/place_api/icons/v1/png_71/generic_business-71.png",
      "icon_background_color": "#7B9EB0",
      "icon_mask_base_uri": "https://maps.gstatic.com/mapfiles/place_api/icons/v2/generic_pinlet",
      "name": "Order Design",
      "opening_hours": {
        "open_now": false
      },
      "photos": [
        {
          "height": 1402,
          "html_attributions": [
            "<a href=\"https://maps.google.com/maps/contrib/110026642171827169153\">Order Design</a>"
          ],
          "photo_reference": "AeJbb3eIZ0OR89swZZyxlbmfMc6x0rQcMC8peRIugqB7pfIoZR38Xoi7exoDtzYlAOLybjtGZZ_9TfocRhQfQRAokcoYZfjlxt9e0y828nAeTGrRYSkZ8_oLWuSHVZjUkZxDwxpYFw5QCpHtgqcIEcaKjaEhhQST5olPsnQHI8TSvVxnQldB",
          "width": 2048
        }
      ],
      "place_id": "ChIJETLb6j9ZwokRP7KSnoM-4q4",
      "plus_code": {
        "compound_code": "P2MR+5V Brooklyn, NY, USA",
        "global_code": "87G8P2MR+5V"
      },
      "rating": 5,
      "reference": "ChIJETLb6j9ZwokRP7KSnoM-4q4",
      "scope": "GOOGLE",
      "types": [
        "point_of_interest",
        "establishment"
      ],
      "user_ratings_total": 2,
      "vicinity": "212 Franklin Street, Brooklyn"
    }
  ],
  "status": "OK"
}