{
  "html_attributions": [],
  "results": [
    {
      "geometry": {
        "location": {
          "lat": 40.7127753,
          "lng": -74.0059728
        },
        "viewport": {
          "northeast": {
            "lat": 40.91757705070789,
            "lng": -73.70027206817629
          },
          "southwest": {
            "lat": 40.47739906045452,
            "lng": -74.25908991427882
          }
        }
      },
      "icon": "https://maps.gstatic.com/mapfiles/place_api/icons/v1/png_71/geocode-71.png",
      "icon_background_color": "#7B9EB0",
      "icon_mask_base_uri": "https://maps.gstatic.com/mapfiles/place_api/icons/v2/generic_pinlet",
      "name": "\u7d10\u7d04",
      "photos": [
        {
          "height": 600,
          "html_attributions": [
            "<a href=\"https://maps.google.com/maps/contrib/102389334567210814614\">Bukurie</a>"
          ],
          "photo_reference": "AeJbb3fQRP3mbyN2eNWfj1lqwuuN4LWbz05dF-0V_nofquVPaKpzTfTv9Um53BuqIc8162_ixutLMjX4WOTgMr79D_1uUS_daRYWy62eZ_OFiJIKYkeeO2WZUZsWZxdxOrWbe6A88juefFsLXUlNnyTlZKE6VxhMuY2-seCznncCnhWqDe-b",
          "width": 480
        }
      ],
      "place_id": "ChIJOwg_06VPwokRYv534QaPC8g",
      "reference": "ChIJOwg_06VPwokRYv534QaPC8g",
      "scope": "GOOGLE",
      "types": [
        "locality",
        "political"
      ],
      "vicinity": "\u7d10\u7d04"
    },
    {
      "business_status": "OPERATIONAL",
      "geometry": {
        "location": {
          "lat": 40.76441579999999,
          "lng": -73.96302969999999
        },
        "viewport": {
          "northeast": {
            "lat": 40.76568098029149,
            "lng": -73.96180051970849
          },
          "southwest": {
            "lat": 40.76298301970849,
            "lng": -73.9644984802915
          }
        }
      },
      "icon": "https://maps.gstatic.com/mapfiles/place_api/icons/v1/png_71/lodging-71.png",
      "icon_background_color": "#909CE1",
      "icon_mask_base_uri": "https://maps.gstatic.com/mapfiles/place_api/icons/v2/hotel_pinlet",
      "name": "The Gardens Sonesta ES Suites New York",
      "opening_hours": {
        "open_now": true
      },
      "photos": [
        {
          "height": 720,
          "html_attributions": [
            "<a href=\"https://maps.google.com/maps/contrib/100175719781977698218\">Gardens Suites Hotel by Affinia</a>"
          ],
          "photo_reference": "AeJbb3eQXLSWsZ296ehBODKhxiaxRg_y71KAOjuj-pTS0HdTFeKpgAsGE3-Sq0YuYD0vweh5zngwv-Iw5SLn9Ft1_x8jVVc1j9uy70StWC-Gza5Il0KZg4xa1ECG2TddrNX2hbXxPdUPQnqIuFQvN6WKga2rc-gdOW2Vhe6j3ZvzCyDPVBub",
          "width": 1280
        }
      ],
      "place_id": "ChIJ9dPN_OhYwokRRKPwdsxuno8",
      "plus_code": {
        "compound_code": "Q27P+QQ \u7f8e\u570b\u7d10\u7d04",
        "global_code": "87G8Q27P+QQ"
      },
      "rating": 4.2,
      "reference": "ChIJ9dPN_OhYwokRRKPwdsxuno8",
      "scope": "GOOGLE",
      "types": [
        "lodging",
        "point_of_interest",
        "establishment"
      ],
      "user_ratings_total": 404,
      "vicinity": "215 East 64th Street, New York"
    },
    {
      "business_status": "OPERATIONAL",
      "geometry": {
        "location": {
          "lat": 40.7604787,
          "lng": -73.9691078
        },
        "viewport": {
          "northeast": {
            "lat": 40.7619137302915,
            "lng": -73.9678723697085
          },
          "southwest": {
            "lat": 40.7592157697085,
            "lng": -73.97057033029151
          }
        }
      },
      "icon": "https://maps.gstatic.com/mapfiles/place_api/icons/v1/png_71/lodging-71.png",
      "icon_background_color": "#909CE1",
      "icon_mask_base_uri": "https://maps.gstatic.com/mapfiles/place_api/icons/v2/hotel_pinlet",
      "name": "Fitzpatrick",
      "photos": [
        {
          "height": 4032,
          "html_attributions": [
            "<a href=\"https://maps.google.com/maps/contrib/105516359626754483530\">Mar\u00eda Fuentes</a>"
          ],
          "photo_reference": "AeJbb3cliFK2NSWcvjb2H1zUaUOins7BZD-gvUWo9NOmpBrPjy0zr0ItuoGG5j4FJ2Tgcl5k5WvAyDqQdwLdwclwUDC9Jgg3i8b22wJ7qr2F7eY1lud7O2XL55CkUsdDiNeXdARHzFOT_OMrNo0IJcn61delpzCh8h6BjtQu8JNY6TE4XupW",
          "width": 3024
        }
      ],
      "place_id": "ChIJm41mHeVYwokRxiuLqdYBIJw",
      "plus_code": {
        "compound_code": "Q26J+59 \u7f8e\u570b\u7d10\u7d04",
        "global_code": "87G8Q26J+59"
      },
      "rating": 4.2,
      "reference": "ChIJm41mHeVYwokRxiuLqdYBIJw",
      "scope": "GOOGLE",
      "types": [
        "lodging",
        "point_of_interest",
        "establishment"
      ],
      "user_ratings_total": 520,
      "vicinity": "687 Lexington Avenue, New York"
    },
    {
      "business_status": "OPERATIONAL",
      "geometry": {
        "location": {
          "lat": 40.7607992,
          "lng": -73.969493
        },
        "viewport": {
          "northeast": {
            "lat": 40.7622721302915,
            "lng": -73.96810831970849
          },
          "southwest": {
            "lat": 40.7595741697085,
            "lng": -73.97080628029151
          }
        }
      },
      "icon": "https://maps.gstatic.com/mapfiles/place_api/icons/v1/png_71/lodging-71.png",
      "icon_background_color": "#909CE1",
      "icon_mask_base_uri": "https://maps.gstatic.com/mapfiles/place_api/icons/v2/hotel_pinlet",
      "name": "\u7d10\u7d04\u5e0257\u98ef\u5e97",
      "photos": [
        {
          "height": 805,
          "html_attributions": [
            "<a href=\"https://maps.google.com/maps/contrib/103879332583603930700\">Hotel 57 New York City</a>"
          ],
          "photo_reference": "AeJbb3fba2lXj4OFljdkPKQGByetKHpGvQXcpi7pn0g5mzTa4SuzxLtsNGNrB-_CLzIYfK0bKmFgY6xupewgEtn9KUBS5H-djkLbs1_ElphOVn89AAssyd_GQLsKrS91jQK2xT0TYMt-3zLNXr1FcLx5hkQiI55vur5U5EM6NCAN4yZBQNHR",
          "width": 1431
        }
      ],
      "place_id": "ChIJxRSyBOVYwokRVV4NWXvL8H8",
      "plus_code": {
        "compound_code": "Q26J+86 \u7f8e\u570b\u7d10\u7d04",
        "global_code": "87G8Q26J+86"
      },
      "rating": 4,
      "reference": "ChIJxRSyBOVYwokRVV4NWXvL8H8",
      "scope": "GOOGLE",
      "types": [
        "lodging",
        "point_of_interest",
        "establishment"
      ],
      "user_ratings_total": 999,
      "vicinity": "130 East 57th Street, New York"
    },
    {
      "business_status": "OPERATIONAL",
      "geometry": {
        "location": {
          "lat": 40.76573249999999,
          "lng": -73.9692262
        },
        "viewport": {
          "northeast": {
            "lat": 40.7671667302915,
            "lng": -73.96782901970849
          },
          "southwest": {
            "lat": 40.7644687697085,
            "lng": -73.97052698029151
          }
        }
      },
      "icon": "https://maps.gstatic.com/mapfiles/place_api/icons/v1/png_71/lodging-71.png",
      "icon_background_color": "#909CE1",
      "icon_mask_base_uri": "https://maps.gstatic.com/mapfiles/place_api/icons/v2/hotel_pinlet",
      "name": "The Lowell Hotel",
      "opening_hours": {
        "open_now": true
      },
      "photos": [
        {
          "height": 3456,
          "html_attributions": [
            "<a href=\"https://maps.google.com/maps/contrib/109242289716376687889\">The Lowell Hotel</a>"
          ],
          "photo_reference": "AeJbb3c4hzYCXHmEVbLOAiZLDGyUDGrmo_e4k-4NMqWVr3v9pPOFA1UKhluMszMOI5SdXWWskMLB2vSBjyUssr2bYuxnxIX9BBDQDtKx2-CjqWZBwpXcCzZZDRmUcnhaL82OeOMIndpOrcFVU2dkHZYox3PaKyo4eny-zVoZmEIq2gaaHirP",
          "width": 5184
        }
      ],
      "place_id": "ChIJb9nOTe5YwokR5og3CprlOX4",
      "plus_code": {
        "compound_code": "Q28J+78 \u7f8e\u570b\u7d10\u7d04",
        "global_code": "87G8Q28J+78"
      },
      "price_level": 3,
      "rating": 4.6,
      "reference": "ChIJb9nOTe5YwokR5og3CprlOX4",
      "scope": "GOOGLE",
      "types": [
        "night_club",
        "lodging",
        "restaurant",
        "food",
        "bar",
        "point_of_interest",
        "establishment"
      ],
      "user_ratings_total": 284,
      "vicinity": "28 East 63rd Street, New York"
    },
    {
      "business_status": "OPERATIONAL",
      "geometry": {
        "location": {
          "lat": 40.76658889999999,
          "lng": -73.9684
        },
        "viewport": {
          "northeast": {
            "lat": 40.76786948029149,
            "lng": -73.96710091970849
          },
          "southwest": {
            "lat": 40.7651715197085,
            "lng": -73.9697988802915
          }
        }
      },
      "icon": "https://maps.gstatic.com/mapfiles/place_api/icons/v1/png_71/lodging-71.png",
      "icon_background_color": "#909CE1",
      "icon_mask_base_uri": "https://maps.gstatic.com/mapfiles/place_api/icons/v2/hotel_pinlet",
      "name": "H\u00f4tel Plaza Ath\u00e9n\u00e9e",
      "opening_hours": {
        "open_now": true
      },
      "photos": [
        {
          "height": 781,
          "html_attributions": [
            "<a href=\"https://maps.google.com/maps/contrib/100615705173220912669\">H\u00f4tel Plaza Ath\u00e9n\u00e9e</a>"
          ],
          "photo_reference": "AeJbb3eRLEUR_XNtQG8AGCG7Qk7JuVfjXGVUg1AISgheDFr5nSMlaQMSh5VdmW60XJIqUt31v98vmiQXRD9_5TGPjJK3XU4gUEMvAzwKTaUS-z-tdhBZyx9kckqwCGAOzVP3jfOC0P7dalWo0OMse2S0RsBfs-pTH3TZHoTBMijB_enqNw4U",
          "width": 1147
        }
      ],
      "place_id": "ChIJmepRX-5YwokRyCRgIYoMueA",
      "plus_code": {
        "compound_code": "Q28J+JJ \u7f8e\u570b\u7d10\u7d04",
        "global_code": "87G8Q28J+JJ"
      },
      "rating": 4.3,
      "reference": "ChIJmepRX-5YwokRyCRgIYoMueA",
      "scope": "GOOGLE",
      "types": [
        "lodging",
        "point_of_interest",
        "establishment"
      ],
      "user_ratings_total": 287,
      "vicinity": "37 East 64th Street, New York"
    },
    {
      "business_status": "OPERATIONAL",
      "geometry": {
        "location": {
          "lat": 40.7614618,
          "lng": -73.96688089999999
        },
        "viewport": {
          "northeast": {
            "lat": 40.7627664802915,
            "lng": -73.9654651697085
          },
          "southwest": {
            "lat": 40.7600685197085,
            "lng": -73.9681631302915
          }
        }
      },
      "icon": "https://maps.gstatic.com/mapfiles/place_api/icons/v1/png_71/shopping-71.png",
      "icon_background_color": "#4B96F3",
      "icon_mask_base_uri": "https://maps.gstatic.com/mapfiles/place_api/icons/v2/shopping_pinlet",
      "name": "The Home Depot",
      "opening_hours": {
        "open_now": true
      },
      "photos": [
        {
          "height": 4608,
          "html_attributions": [
            "<a href=\"https://maps.google.com/maps/contrib/109045573479295920273\">Nam Nguyen</a>"
          ],
          "photo_reference": "AeJbb3cQWKYICWDmMRZgikVlL4DOTr4Be0uqaLHntkY-cTspHLBKapNqR3v0cu5pQvJe5BIecX14slRoaEuq7CXqtebEVbKXGR6k3hSDe334UjGp0D_pVoh46YYp7Bn6m5plxxsuq5AU8teKmJPWakxJse2jqTHv-B8MgxsSY1umYkKYd6OD",
          "width": 3456
        }
      ],
      "place_id": "ChIJ4_fTzMq93YkRTikCCb6fXYQ",
      "plus_code": {
        "compound_code": "Q26M+H6 \u7f8e\u570b\u7d10\u7d04",
        "global_code": "87G8Q26M+H6"
      },
      "price_level": 2,
      "rating": 4.3,
      "reference": "ChIJ4_fTzMq93YkRTikCCb6fXYQ",
      "scope": "GOOGLE",
      "types": [
        "hardware_store",
        "furniture_store",
        "home_goods_store",
        "store",
        "point_of_interest",
        "establishment"
      ],
      "user_ratings_total": 2587,
      "vicinity": "980 3rd Avenue, New York"
    },
    {
      "business_status": "OPERATIONAL",
      "geometry": {
        "location": {
          "lat": 40.7645744,
          "lng": -73.9690071
        },
        "viewport": {
          "northeast": {
            "lat": 40.7658549802915,
            "lng": -73.9675643697085
          },
          "southwest": {
            "lat": 40.7631570197085,
            "lng": -73.9702623302915
          }
        }
      },
      "icon": "https://maps.gstatic.com/mapfiles/place_api/icons/v1/png_71/lodging-71.png",
      "icon_background_color": "#909CE1",
      "icon_mask_base_uri": "https://maps.gstatic.com/mapfiles/place_api/icons/v2/hotel_pinlet",
      "name": "Loews Regency New York",
      "opening_hours": {
        "open_now": true
      },
      "photos": [
        {
          "height": 841,
          "html_attributions": [
            "<a href=\"https://maps.google.com/maps/contrib/114212735480305564741\">Loews Regency New York</a>"
          ],
          "photo_reference": "AeJbb3eJzT133_w-Igbu-tFp4zXyj0rIaJnrUhp_NWH95RCDjOkmZ1Zpw9hnGCm6ZZU5XcZQGQAZsaj2mdNamrYH8XplLiA6WHAdOzptWngEhf3gMRU4M253YGKkUk19Nx1gE3mTo1iHk83bLYLJ26Bq4X4kA3kLYWHFc9ZiWR98zG7UvK0i",
          "width": 1280
        }
      ],
      "place_id": "ChIJC0Xwu-9YwokRDQBat_jlgQ4",
      "plus_code": {
        "compound_code": "Q27J+R9 \u7f8e\u570b\u7d10\u7d04",
        "global_code": "87G8Q27J+R9"
      },
      "rating": 4.4,
      "reference": "ChIJC0Xwu-9YwokRDQBat_jlgQ4",
      "scope": "GOOGLE",
      "types": [
        "lodging",
        "point_of_interest",
        "establishment"
      ],
      "user_ratings_total": 1285,
      "vicinity": "540 Park Avenue, New York"
    },
    {
      "business_status": "OPERATIONAL",
      "geometry": {
        "location": {
          "lat": 40.7624863,
          "lng": -73.9682369
        },
        "viewport": {
          "northeast": {
            "lat": 40.76377418029149,
            "lng": -73.96702296970848
          },
          "southwest": {
            "lat": 40.76107621970849,
            "lng": -73.9697209302915
          }
        }
      },
      "icon": "https://maps.gstatic.com/mapfiles/place_api/icons/v1/png_71/shopping-71.png",
      "icon_background_color": "#4B96F3",
      "icon_mask_base_uri": "https://maps.gstatic.com/mapfiles/place_api/icons/v2/shopping_pinlet",
      "name": "ZARA",
      "opening_hours": {
        "open_now": true
      },
      "photos": [
        {
          "height": 3024,
          "html_attributions": [
            "<a href=\"https://maps.google.com/maps/contrib/117808460219123378764\">Ruwan J.</a>"
          ],
          "photo_reference": "AeJbb3ccla19iHpBDt7mC1k2Zu4dF0ApwT0iiXT8NrV1bLwuSRnd8Nh5Ua9rDBoh9U2LlUSuMWD-0fsLvp20dFWecxko_f7iIpLpcLJDdLV7Pfx1SxDDO0guDnrY-qnEV8mRVEDZ-zKQAxSKQFJgr3n9B_6YxrjEDSRkcXrUK5MHULn8wqNS",
          "width": 3024
        }
      ],
      "place_id": "ChIJBZHcgeVYwokRE6tresHQC0E",
      "plus_code": {
        "compound_code": "Q26J+XP \u7f8e\u570b\u7d10\u7d04",
        "global_code": "87G8Q26J+XP"
      },
      "price_level": 2,
      "rating": 4,
      "reference": "ChIJBZHcgeVYwokRE6tresHQC0E",
      "scope": "GOOGLE",
      "types": [
        "clothing_store",
        "store",
        "point_of_interest",
        "establishment"
      ],
      "user_ratings_total": 597,
      "vicinity": "Lexington Avenue #750, New York"
    },
    {
      "business_status": "OPERATIONAL",
      "geometry": {
        "location": {
          "lat": 40.7605629,
          "lng": -73.966608
        },
        "viewport": {
          "northeast": {
            "lat": 40.7619892302915,
            "lng": -73.96521511970849
          },
          "southwest": {
            "lat": 40.7592912697085,
            "lng": -73.9679130802915
          }
        }
      },
      "icon": "https://maps.gstatic.com/mapfiles/place_api/icons/v1/png_71/restaurant-71.png",
      "icon_background_color": "#FF9E67",
      "icon_mask_base_uri": "https://maps.gstatic.com/mapfiles/place_api/icons/v2/restaurant_pinlet",
      "name": "Land of Plenty",
      "opening_hours": {
        "open_now": true
      },
      "photos": [
        {
          "height": 3000,
          "html_attributions": [
            "<a href=\"https://maps.google.com/maps/contrib/109570231286430724648\">Nrupesh NYC</a>"
          ],
          "photo_reference": "AeJbb3cdzzYxjhCZGW7hZbR97a8fTfdg6fascrW9Q5XeUbv9tT33y9Hbz6GMEP0Uo9wxwTM_POpQPkn4KUlclM_ELAiGkgWhK9Hi0dwwYwCx1kIm-A3TBj-GEj8LiD6_NCulDzBYvx-YfNkJ8kT44hiirA1swUf2dpM0lgA2X2bo3myhNUfV",
          "width": 5333
        }
      ],
      "place_id": "ChIJ3ST_yOVYwokRvxy2GCoawXw",
      "plus_code": {
        "compound_code": "Q26M+69 \u7f8e\u570b\u7d10\u7d04",
        "global_code": "87G8Q26M+69"
      },
      "price_level": 2,
      "rating": 4.2,
      "reference": "ChIJ3ST_yOVYwokRvxy2GCoawXw",
      "scope": "GOOGLE",
      "types": [
        "meal_delivery",
        "meal_takeaway",
        "restaurant",
        "food",
        "point_of_interest",
        "establishment"
      ],
      "user_ratings_total": 387,
      "vicinity": "204 East 58th Street, New York"
    },
    {
      "business_status": "OPERATIONAL",
      "geometry": {
        "location": {
          "lat": 40.7645744,
          "lng": -73.9690071
        },
        "viewport": {
          "northeast": {
            "lat": 40.76580353029149,
            "lng": -73.96760241970848
          },
          "southwest": {
            "lat": 40.76310556970849,
            "lng": -73.9703003802915
          }
        }
      },
      "icon": "https://maps.gstatic.com/mapfiles/place_api/icons/v1/png_71/restaurant-71.png",
      "icon_background_color": "#FF9E67",
      "icon_mask_base_uri": "https://maps.gstatic.com/mapfiles/place_api/icons/v2/restaurant_pinlet",
      "name": "The Regency Bar & Grill",
      "opening_hours": {
        "open_now": true
      },
      "photos": [
        {
          "height": 1365,
          "html_attributions": [
            "<a href=\"https://maps.google.com/maps/contrib/104111246635874032234\">ZAGAT</a>"
          ],
          "photo_reference": "AeJbb3d0XI1CSyQfRrj1QCm5Q8am-T29nBnaDi-uRLGwYglcYPRrFaxUrf6qVbW1DqGB0fkIeHFCV0Dd3aF1iKIdRO5aul3h_eArsd1XTy6TT9ya1SiNZ57cnaNduvQyh_cvviM-PgugSDOusPcOm9N5WpuuIo07i_tWy5sky4hYwQB9wD74",
          "width": 2048
        }
      ],
      "place_id": "ChIJC0Xwu-9YwokRUfBe4_hMvPc",
      "plus_code": {
        "compound_code": "Q27J+R9 \u7f8e\u570b\u7d10\u7d04",
        "global_code": "87G8Q27J+R9"
      },
      "price_level": 3,
      "rating": 4.1,
      "reference": "ChIJC0Xwu-9YwokRUfBe4_hMvPc",
      "scope": "GOOGLE",
      "types": [
        "night_club",
        "restaurant",
        "food",
        "bar",
        "point_of_interest",
        "establishment"
      ],
      "user_ratings_total": 161,
      "vicinity": "540 Park Avenue, New York"
    },
    {
      "business_status": "OPERATIONAL",
      "geometry": {
        "location": {
          "lat": 40.7618697,
          "lng": -73.9682923
        },
        "viewport": {
          "northeast": {
            "lat": 40.7632385302915,
            "lng": -73.96700421970849
          },
          "southwest": {
            "lat": 40.7605405697085,
            "lng": -73.96970218029149
          }
        }
      },
      "icon": "https://maps.gstatic.com/mapfiles/place_api/icons/v1/png_71/generic_business-71.png",
      "icon_background_color": "#7B9EB0",
      "icon_mask_base_uri": "https://maps.gstatic.com/mapfiles/place_api/icons/v2/generic_pinlet",
      "name": "Bloomberg",
      "opening_hours": {
        "open_now": true
      },
      "photos": [
        {
          "height": 2359,
          "html_attributions": [
            "<a href=\"https://maps.google.com/maps/contrib/114739311218152064379\">Bloomberg</a>"
          ],
          "photo_reference": "AeJbb3fumchkhh0UBGdtmf5VsNzqzFMoq1dnYTO548D32DCYH5zR0wFzkQx9CV-WiiRFG-806d8KF9-hWYemv7Gif60AKRBKrZsK4NZ3-4NikeMz74anQIlsiGd6dYYWqr4Kj5mOIm8KJpNNYSBhU5bW2asVVhR2Fci4nO5CbZJPpVo8vxjy",
          "width": 4192
        }
      ],
      "place_id": "ChIJYwRSvOVYwokRd9voiaCsjK8",
      "plus_code": {
        "compound_code": "Q26J+PM \u7f8e\u570b\u7d10\u7d04",
        "global_code": "87G8Q26J+PM"
      },
      "rating": 4.6,
      "reference": "ChIJYwRSvOVYwokRd9voiaCsjK8",
      "scope": "GOOGLE",
      "types": [
        "point_of_interest",
        "establishment"
      ],
      "user_ratings_total": 914,
      "vicinity": "731 Lexington Avenue, New York"
    },
    {
      "business_status": "OPERATIONAL",
      "geometry": {
        "location": {
          "lat": 40.7668083,
          "lng": -73.9675769
        },
        "viewport": {
          "northeast": {
            "lat": 40.76817493029149,
            "lng": -73.9661714697085
          },
          "southwest": {
            "lat": 40.7654769697085,
            "lng": -73.9688694302915
          }
        }
      },
      "icon": "https://maps.gstatic.com/mapfiles/place_api/icons/v1/png_71/restaurant-71.png",
      "icon_background_color": "#FF9E67",
      "icon_mask_base_uri": "https://maps.gstatic.com/mapfiles/place_api/icons/v2/restaurant_pinlet",
      "name": "Daniel",
      "opening_hours": {
        "open_now": false
      },
      "photos": [
        {
          "height": 2800,
          "html_attributions": [
            "<a href=\"https://maps.google.com/maps/contrib/111192969447456401878\">Daniel</a>"
          ],
          "photo_reference": "AeJbb3e2xjtSFeclaeck47jYVFATKwsMArQF0TTyVet_gOEaTMIXNrIx8QpzzZE-R3wTGg_VXh-wrn0_YSxxrxcAZA_r8V9b-v6EDZitpN49zZfCuFopQDGz9u7xlSokXAbyYR1wkmIKfZtMMoesoe3RhYgArcKYBwrnukzSTsMvNho9KT3n",
          "width": 4200
        }
      ],
      "place_id": "ChIJ09ZGju5YwokRXOcNC23JRwk",
      "plus_code": {
        "compound_code": "Q28J+PX \u7f8e\u570b\u7d10\u7d04",
        "global_code": "87G8Q28J+PX"
      },
      "price_level": 4,
      "rating": 4.6,
      "reference": "ChIJ09ZGju5YwokRXOcNC23JRwk",
      "scope": "GOOGLE",
      "types": [
        "restaurant",
        "food",
        "point_of_interest",
        "establishment"
      ],
      "user_ratings_total": 1914,
      "vicinity": "60 East 65th Street, New York"
    },
    {
      "business_status": "OPERATIONAL",
      "geometry": {
        "location": {
          "lat": 40.7626661,
          "lng": -73.967566
        },
        "viewport": {
          "northeast": {
            "lat": 40.7636081302915,
            "lng": -73.9656153197085
          },
          "southwest": {
            "lat": 40.7609101697085,
            "lng": -73.96831328029151
          }
        }
      },
      "icon": "https://maps.gstatic.com/mapfiles/place_api/icons/v1/png_71/shopping-71.png",
      "icon_background_color": "#4B96F3",
      "icon_mask_base_uri": "https://maps.gstatic.com/mapfiles/place_api/icons/v2/shopping_pinlet",
      "name": "AllSaints",
      "opening_hours": {
        "open_now": true
      },
      "photos": [
        {
          "height": 518,
          "html_attributions": [
            "<a href=\"https://maps.google.com/maps/contrib/110872578686820312173\">AllSaints</a>"
          ],
          "photo_reference": "AeJbb3e9yL9qpVUdxYmlQ4esxBMDsf8znlU8fHzQI4HbsZpTCUSH8i0qASu6PPnL21ZCcdZgAC94EAfV1U6VvzvZhik0qN-6rXXzOnZXGA0hqJ3lcf2B8iXieGBfxQfTHCAG2qn19Vh3zGy6wOcH8xvEQIbE0Z3tocW_T6UFlfCMXEYoX4_w",
          "width": 920
        }
      ],
      "place_id": "ChIJwTN6juVYwokRLx7XhG4geeA",
      "plus_code": {
        "compound_code": "Q27J+3X \u7f8e\u570b\u7d10\u7d04",
        "global_code": "87G8Q27J+3X"
      },
      "price_level": 3,
      "rating": 4.1,
      "reference": "ChIJwTN6juVYwokRLx7XhG4geeA",
      "scope": "GOOGLE",
      "types": [
        "clothing_store",
        "shoe_store",
        "store",
        "point_of_interest",
        "establishment"
      ],
      "user_ratings_total": 8,
      "vicinity": "1000 3rd Avenue Womenswear: Third Floor Menswear: Lower Level, 3rd Avenue, New York"
    },
    {
      "business_status": "OPERATIONAL",
      "geometry": {
        "location": {
          "lat": 40.7612826,
          "lng": -73.9673021
        },
        "viewport": {
          "northeast": {
            "lat": 40.7627424302915,
            "lng": -73.9661466197085
          },
          "southwest": {
            "lat": 40.7600444697085,
            "lng": -73.9688445802915
          }
        }
      },
      "icon": "https://maps.gstatic.com/mapfiles/place_api/icons/v1/png_71/bank-71.png",
      "icon_background_color": "#909CE1",
      "icon_mask_base_uri": "https://maps.gstatic.com/mapfiles/place_api/icons/v2/bank-intl_pinlet",
      "name": "Wells Fargo Bank",
      "opening_hours": {
        "open_now": false
      },
      "photos": [
        {
          "height": 3712,
          "html_attributions": [
            "<a href=\"https://maps.google.com/maps/contrib/108427399698816213863\">Satish Shikhare</a>"
          ],
          "photo_reference": "AeJbb3eyispj-_9srk-Eh5WGCsnxtxTWsoqikAtFKOc3vSgiGFNXv808hFFEKxJrbAfg0rJDSuyiWv1qFcLf9wx-m_2DFZrWSP5MGdBGZMYi2gRYKgU5YillPV7nSr1Wl3B_chfsItP_QtbonS-RSM6I5aji58ZW47CFI1bdhC7_5fyWYwZn",
          "width": 5568
        }
      ],
      "place_id": "ChIJwyisneVYwokR37qSe49L1gs",
      "plus_code": {
        "compound_code": "Q26M+G3 \u7f8e\u570b\u7d10\u7d04",
        "global_code": "87G8Q26M+G3"
      },
      "rating": 4,
      "reference": "ChIJwyisneVYwokR37qSe49L1gs",
      "scope": "GOOGLE",
      "types": [
        "bank",
        "atm",
        "finance",
        "point_of_interest",
        "establishment"
      ],
      "user_ratings_total": 37,
      "vicinity": "968 3rd Avenue, New York"
    },
    {
      "business_status": "OPERATIONAL",
      "geometry": {
        "location": {
          "lat": 40.7593039,
          "lng": -73.9663868
        },
        "viewport": {
          "northeast": {
            "lat": 40.7608645802915,
            "lng": -73.96479616970849
          },
          "southwest": {
            "lat": 40.7581666197085,
            "lng": -73.9674941302915
          }
        }
      },
      "icon": "https://maps.gstatic.com/mapfiles/place_api/icons/v1/png_71/shopping-71.png",
      "icon_background_color": "#4B96F3",
      "icon_mask_base_uri": "https://maps.gstatic.com/mapfiles/place_api/icons/v2/shoppingcart_pinlet",
      "name": "Whole Foods Market",
      "opening_hours": {
        "open_now": true
      },
      "photos": [
        {
          "height": 960,
          "html_attributions": [
            "\u7531 Google \u4f7f\u7528\u8005\u63d0\u4f9b"
          ],
          "photo_reference": "AeJbb3fhXoPXgrJRRAlLuLrFsLdM1_9CO_Ss8Aaqsyn7NZBSyCDxDShQX7S3NiwuR10x9JUP0KpdOz7ijDQMV5UjPb-n7VXTiWQ63WSyfrYrVsvrs8RywDOwRcbwObNZ47olMXvgjenmdFTIiELbKhr9zWdf8gypQ20PeD1Jl3OzNZnGC7LF",
          "width": 1280
        }
      ],
      "place_id": "ChIJvYILMORYwokRywGbSMh9b_c",
      "plus_code": {
        "compound_code": "Q25M+PC \u7f8e\u570b\u7d10\u7d04",
        "global_code": "87G8Q25M+PC"
      },
      "price_level": 3,
      "rating": 4.2,
      "reference": "ChIJvYILMORYwokRywGbSMh9b_c",
      "scope": "GOOGLE",
      "types": [
        "grocery_or_supermarket",
        "supermarket",
        "store",
        "health",
        "food",
        "point_of_interest",
        "establishment"
      ],
      "user_ratings_total": 2072,
      "vicinity": "226 East 57th Street, New York"
    },
    {
      "business_status": "OPERATIONAL",
      "geometry": {
        "location": {
          "lat": 40.762448,
          "lng": -73.9692744
        },
        "viewport": {
          "northeast": {
            "lat": 40.7638894302915,
            "lng": -73.9678567197085
          },
          "southwest": {
            "lat": 40.7611914697085,
            "lng": -73.9705546802915
          }
        }
      },
      "icon": "https://maps.gstatic.com/mapfiles/place_api/icons/v1/png_71/generic_business-71.png",
      "icon_background_color": "#7B9EB0",
      "icon_mask_base_uri": "https://maps.gstatic.com/mapfiles/place_api/icons/v2/generic_pinlet",
      "name": "Cantor Fitzgerald",
      "opening_hours": {
        "open_now": false
      },
      "place_id": "ChIJMVyoZuVYwokRW3NLe7sDWPU",
      "plus_code": {
        "compound_code": "Q26J+X7 \u7f8e\u570b\u7d10\u7d04",
        "global_code": "87G8Q26J+X7"
      },
      "rating": 2.9,
      "reference": "ChIJMVyoZuVYwokRW3NLe7sDWPU",
      "scope": "GOOGLE",
      "types": [
        "finance",
        "point_of_interest",
        "establishment"
      ],
      "user_ratings_total": 7,
      "vicinity": "110 East 59th Street # 4, New York"
    },
    {
      "business_status": "OPERATIONAL",
      "geometry": {
        "location": {
          "lat": 40.760051,
          "lng": -73.96557299999999
        },
        "viewport": {
          "northeast": {
            "lat": 40.76149648029151,
            "lng": -73.9641475697085
          },
          "southwest": {
            "lat": 40.75879851970851,
            "lng": -73.96684553029151
          }
        }
      },
      "icon": "https://maps.gstatic.com/mapfiles/place_api/icons/v1/png_71/restaurant-71.png",
      "icon_background_color": "#FF9E67",
      "icon_mask_base_uri": "https://maps.gstatic.com/mapfiles/place_api/icons/v2/restaurant_pinlet",
      "name": "Club A",
      "opening_hours": {
        "open_now": false
      },
      "photos": [
        {
          "height": 2723,
          "html_attributions": [
            "<a href=\"https://maps.google.com/maps/contrib/111719219215411994893\">Hecatonic</a>"
          ],
          "photo_reference": "AeJbb3ecADSM2kC8p0aZ_ceQCSfFq2y6YUfrF69EkjBBeUb5FvLZnf7p4WajV2mYFmVsxLZgolY9XMzdGgfpBWP4LetXBncFbeXPUQzldGzhHL4ZNJO6wcaBjet8VQdTO6ZbuTqtJWAyZV2oBiQ4Gj1s7JTMGqNBkKnDMjCpHtiF0hellMd5",
          "width": 4088
        }
      ],
      "place_id": "ChIJhWkA1eVYwokRPKlaxy81SAY",
      "plus_code": {
        "compound_code": "Q26M+2Q \u7f8e\u570b\u7d10\u7d04",
        "global_code": "87G8Q26M+2Q"
      },
      "price_level": 3,
      "rating": 4.8,
      "reference": "ChIJhWkA1eVYwokRPKlaxy81SAY",
      "scope": "GOOGLE",
      "types": [
        "restaurant",
        "food",
        "point_of_interest",
        "establishment"
      ],
      "user_ratings_total": 2278,
      "vicinity": "240 East 58th Street, New York"
    },
    {
      "business_status": "OPERATIONAL",
      "geometry": {
        "location": {
          "lat": 40.7606665,
          "lng": -73.9622784
        },
        "viewport": {
          "northeast": {
            "lat": 40.76197868029151,
            "lng": -73.9609577197085
          },
          "southwest": {
            "lat": 40.75928071970851,
            "lng": -73.96365568029152
          }
        }
      },
      "icon": "https://maps.gstatic.com/mapfiles/place_api/icons/v1/png_71/generic_business-71.png",
      "icon_background_color": "#7B9EB0",
      "icon_mask_base_uri": "https://maps.gstatic.com/mapfiles/place_api/icons/v2/generic_pinlet",
      "name": "Sapphire New York",
      "opening_hours": {
        "open_now": false
      },
      "photos": [
        {
          "height": 3840,
          "html_attributions": [
            "<a href=\"https://maps.google.com/maps/contrib/116443755949116520474\">Sapphire New York</a>"
          ],
          "photo_reference": "AeJbb3fk70HcP2JR_2JbY1L9KICN3mkDbmAkoNf0fmxyD7IPiy2n2oNIAk54AhhWBFy1iyWenRj9AWzHRMmUiOdHbAprOB5vGLXUocDstZW0pmpN6pk1G5QX2tLA-EfsT6lPUar3yti2DGYGLZdh_GN8LHJuRKK0h4eiu4XHm5tUblFb9s18",
          "width": 5760
        }
      ],
      "place_id": "ChIJ15X9N-ZYwokRcbF-sABC4kg",
      "plus_code": {
        "compound_code": "Q26Q+73 \u7f8e\u570b\u7d10\u7d04",
        "global_code": "87G8Q26Q+73"
      },
      "rating": 3.8,
      "reference": "ChIJ15X9N-ZYwokRcbF-sABC4kg",
      "scope": "GOOGLE",
      "types": [
        "night_club",
        "point_of_interest",
        "establishment"
      ],
      "user_ratings_total": 245,
      "vicinity": "333 East 60th Street, New York"
    },
    {
      "geometry": {
        "location": {
          "lat": 40.7549309,
          "lng": -73.9840195
        },
        "viewport": {
          "northeast": {
            "lat": 40.77410688375117,
            "lng": -73.95889871560205
          },
          "southwest": {
            "lat": 40.72686854646897,
            "lng": -74.00894884492357
          }
        }
      },
      "icon": "https://maps.gstatic.com/mapfiles/place_api/icons/v1/png_71/geocode-71.png",
      "icon_background_color": "#7B9EB0",
      "icon_mask_base_uri": "https://maps.gstatic.com/mapfiles/place_api/icons/v2/generic_pinlet",
      "name": "\u66fc\u54c8\u9813\u4e2d\u57ce",
      "photos": [
        {
          "height": 5450,
          "html_attributions": [
            "<a href=\"https://maps.google.com/maps/contrib/110409177493276546551\">Heidi Kirkland</a>"
          ],
          "photo_reference": "AeJbb3e-KfxyNP3_WTqBmb2xdDThBmf7mmdlI8xqpinRZu5OWh8Jq9fshh0lcRCM8cCRIlu2Y49rT1tKNF5AbHrivIcFW8PW0kLOR85VluIkCx4gas5b_Y9H0NPlsc4BG2Fwu1sNuELjQNT3lyv-I5tmkJ8x4bHAzXiS3M-OJ0A9hW2ecgRB",
          "width": 2936
        }
      ],
      "place_id": "ChIJqXwSpAFZwokR28_WgZDMzb4",
      "reference": "ChIJqXwSpAFZwokR28_WgZDMzb4",
      "scope": "GOOGLE",
      "types": [
        "neighborhood",
        "political"
      ],
      "vicinity": "\u66fc\u54c8\u9813"
    },
    {
      "business_status": "OPERATIONAL",
      "geometry": {
        "location": {
          "lat": 40.7611007,
          "lng": -73.9680109
        },
        "viewport": {
          "northeast": {
            "lat": 40.7625478802915,
            "lng": -73.9665915697085
          },
          "southwest": {
            "lat": 40.7598499197085,
            "lng": -73.9692895302915
          }
        }
      },
      "icon": "https://maps.gstatic.com/mapfiles/place_api/icons/v1/png_71/generic_business-71.png",
      "icon_background_color": "#7B9EB0",
      "icon_mask_base_uri": "https://maps.gstatic.com/mapfiles/place_api/icons/v2/generic_pinlet",
      "name": "Lucy Peters",
      "opening_hours": {
        "open_now": true
      },
      "photos": [
        {
          "height": 1152,
          "html_attributions": [
            "<a href=\"https://maps.google.com/maps/contrib/116568804861876940334\">Lucy Peters</a>"
          ],
          "photo_reference": "AeJbb3eZzsN1lD8awGVNqLlBJVLwjoed8YacQw913mDFtthydzZ27OCoUsq__V5SjDaOXpqMvac8UVxgBpnd36dud7GnbRcR3nnSOaWeswAy63X8raPB2vmU0LCuiAXlAacxRDoE3J2PHLvTPj2tDdWVx3VIua8c4PuCwBPJWaE7rwUYzr_r",
          "width": 2048
        }
      ],
      "place_id": "ChIJj2NvpuVYwokRugDf_KF3jVE",
      "plus_code": {
        "compound_code": "Q26J+CQ New York, NY, USA",
        "global_code": "87G8Q26J+CQ"
      },
      "rating": 4.4,
      "reference": "ChIJj2NvpuVYwokRugDf_KF3jVE",
      "scope": "GOOGLE",
      "types": [
        "beauty_salon",
        "spa",
        "hair_care",
        "health",
        "point_of_interest",
        "establishment"
      ],
      "user_ratings_total": 18,
      "vicinity": "150 East 58th Street #2901, New York"
    },
    {
      "business_status": "OPERATIONAL",
      "geometry": {
        "location": {
          "lat": 40.76103330000001,
          "lng": -73.96805309999999
        },
        "viewport": {
          "northeast": {
            "lat": 40.7625131802915,
            "lng": -73.9666103197085
          },
          "southwest": {
            "lat": 40.7598152197085,
            "lng": -73.9693082802915
          }
        }
      },
      "icon": "https://maps.gstatic.com/mapfiles/place_api/icons/v1/png_71/shopping-71.png",
      "icon_background_color": "#4B96F3",
      "icon_mask_base_uri": "https://maps.gstatic.com/mapfiles/place_api/icons/v2/shopping_pinlet",
      "name": "Brown Jordan Furniture Showroom",
      "opening_hours": {
        "open_now": false
      },
      "place_id": "ChIJj2NvpuVYwokR90T7nogZgtU",
      "plus_code": {
        "compound_code": "Q26J+CQ New York, NY, USA",
        "global_code": "87G8Q26J+CQ"
      },
      "rating": 5,
      "reference": "ChIJj2NvpuVYwokR90T7nogZgtU",
      "scope": "GOOGLE",
      "types": [
        "furniture_store",
        "home_goods_store",
        "store",
        "point_of_interest",
        "establishment"
      ],
      "user_ratings_total": 3,
      "vicinity": "979 3rd Avenue #538, New York"
    },
    {
      "business_status": "OPERATIONAL",
      "geometry": {
        "location": {
          "lat": 40.7611177,
          "lng": -73.9681954
        },
        "viewport": {
          "northeast": {
            "lat": 40.7625875802915,
            "lng": -73.9667217197085
          },
          "southwest": {
            "lat": 40.7598896197085,
            "lng": -73.96941968029151
          }
        }
      },
      "icon": "https://maps.gstatic.com/mapfiles/place_api/icons/v1/png_71/shopping-71.png",
      "icon_background_color": "#4B96F3",
      "icon_mask_base_uri": "https://maps.gstatic.com/mapfiles/place_api/icons/v2/shopping_pinlet",
      "name": "SMEG USA",
      "opening_hours": {
        "open_now": false
      },
      "photos": [
        {
          "height": 1365,
          "html_attributions": [
            "<a href=\"https://maps.google.com/maps/contrib/111058958536126921111\">SMEG USA</a>"
          ],
          "photo_reference": "AeJbb3cduwzdIAc76XSIPqiYd63F2PckLCB1vxPQuDx90OpZzWYomhhBYeNzGi6OLcL0uHtVcp-shFCLj6a6AHZvQ69hjis5XQro5VOOgIwP6z7lD4KCPtETPEWCVfznwUNEBc8b_pcuZza8M63AAJnd3cFjTKwnM7LwMLpZ5kphMHQ9bG1f",
          "width": 2048
        }
      ],
      "place_id": "ChIJj2NvpuVYwokRH03TmOnnXX4",
      "plus_code": {
        "compound_code": "Q26J+CP New York, NY, USA",
        "global_code": "87G8Q26J+CP"
      },
      "rating": 1.8,
      "reference": "ChIJj2NvpuVYwokRH03TmOnnXX4",
      "scope": "GOOGLE",
      "types": [
        "home_goods_store",
        "store",
        "point_of_interest",
        "establishment"
      ],
      "user_ratings_total": 17,
      "vicinity": "150 East 58th Street 7th floor, New York"
    },
    {
      "business_status": "OPERATIONAL",
      "geometry": {
        "location": {
          "lat": 40.7610509,
          "lng": -73.968041
        },
        "viewport": {
          "northeast": {
            "lat": 40.7625220802915,
            "lng": -73.9666044697085
          },
          "southwest": {
            "lat": 40.7598241197085,
            "lng": -73.9693024302915
          }
        }
      },
      "icon": "https://maps.gstatic.com/mapfiles/place_api/icons/v1/png_71/generic_business-71.png",
      "icon_background_color": "#7B9EB0",
      "icon_mask_base_uri": "https://maps.gstatic.com/mapfiles/place_api/icons/v2/generic_pinlet",
      "name": "SDNY Dental",
      "opening_hours": {
        "open_now": true
      },
      "photos": [
        {
          "height": 1155,
          "html_attributions": [
            "<a href=\"https://maps.google.com/maps/contrib/101175843489014005077\">Specialized Dentistry of New York</a>"
          ],
          "photo_reference": "AeJbb3d4ozxUKBFfPkxl1igN24uE546iEeEkOxgMCRw3S9Gvwuu8Q15SzUa-Tdmz0Z_Hxsr-mQpB09RkFEDtZrttAYG9CmxzKnvhk8Nx8TuMWH48iTU1t8WS6pjortXFq4BFuRm3DfEJORvm4b5YruNGdVUVZUB754GY1e4HQVIxYl5JYnxv",
          "width": 2470
        }
      ],
      "place_id": "ChIJj2NvpuVYwokRq0aaCk4EPEc",
      "plus_code": {
        "compound_code": "Q26J+CQ New York, NY, USA",
        "global_code": "87G8Q26J+CQ"
      },
      "rating": 4.3,
      "reference": "ChIJj2NvpuVYwokRq0aaCk4EPEc",
      "scope": "GOOGLE",
      "types": [
        "dentist",
        "health",
        "point_of_interest",
        "establishment"
      ],
      "user_ratings_total": 16,
      "vicinity": "150 East 58th Street #3200, New York"
    },
    {
      "business_status": "OPERATIONAL",
      "geometry": {
        "location": {
          "lat": 40.762268,
          "lng": -73.967247
        },
        "viewport": {
          "northeast": {
            "lat": 40.76350528029151,
            "lng": -73.965259
          },
          "southwest": {
            "lat": 40.76080731970851,
            "lng": -73.9689554
          }
        }
      },
      "icon": "https://maps.gstatic.com/mapfiles/place_api/icons/v1/png_71/shopping-71.png",
      "icon_background_color": "#4B96F3",
      "icon_mask_base_uri": "https://maps.gstatic.com/mapfiles/place_api/icons/v2/shopping_pinlet",
      "name": "Bloomingdale's",
      "opening_hours": {
        "open_now": true
      },
      "photos": [
        {
          "height": 3000,
          "html_attributions": [
            "<a href=\"https://maps.google.com/maps/contrib/109858862072212972319\">Sean Grano</a>"
          ],
          "photo_reference": "AeJbb3dlC1zoCg-IssnMvONiCnkO0V-tuAqSqGrNLU19N-iHqWKXZoFa9yfh6JqkAbTfHptJosgtMVx5RXXIv97JavY0m0GtySWn2Uh9961EDjjHo58LhU0jykKLXBheh2T4GZJHjZRhYLzl6TmniSv1Soqyy5dM6-R1s5xgWnIMVUyyjW4",
          "width": 4000
        }
      ],
      "place_id": "ChIJ-RNjg-VYwokRCJTSRaHml6E",
      "plus_code": {
        "compound_code": "Q26M+W4 New York, NY, USA",
        "global_code": "87G8Q26M+W4"
      },
      "price_level": 2,
      "rating": 4.3,
      "reference": "ChIJ-RNjg-VYwokRCJTSRaHml6E",
      "scope": "GOOGLE",
      "types": [
        "department_store",
        "shoe_store",
        "furniture_store",
        "home_goods_store",
        "clothing_store",
        "jewelry_store",
        "store",
        "point_of_interest",
        "establishment"
      ],
      "user_ratings_total": 7709,
      "vicinity": "1000 Third Avenue 59th Street and, Lexington Avenue, New York"
    },
    {
      "business_status": "OPERATIONAL",
      "geometry": {
        "location": {
          "lat": 40.76592660000001,
          "lng": -73.96370519999999
        },
        "viewport": {
          "northeast": {
            "lat": 40.7673160802915,
            "lng": -73.9622747697085
          },
          "southwest": {
            "lat": 40.7646181197085,
            "lng": -73.9649727302915
          }
        }
      },
      "icon": "https://maps.gstatic.com/mapfiles/place_api/icons/v1/png_71/cafe-71.png",
      "icon_background_color": "#FF9E67",
      "icon_mask_base_uri": "https://maps.gstatic.com/mapfiles/place_api/icons/v2/cafe_pinlet",
      "name": "Starbucks",
      "opening_hours": {
        "open_now": true
      },
      "photos": [
        {
          "height": 3024,
          "html_attributions": [
            "<a href=\"https://maps.google.com/maps/contrib/102370878302558942363\">Clarissa Williams</a>"
          ],
          "photo_reference": "AeJbb3fMmNQ_KiiQw1UoIhuu2ZWoC3QiRc_7VIcKqA1E7kjfGz3BxTgXrQX45PmI3Dzq4wwwpmGo5QMDRD3b3ACy5NXZNZKiYXuC2kOX4CNXEfBVm-Rru5Imtr2y-a5rLVbl108pPK49nQHFsBN53ASGXk9tpWlxEOpbpRhCshrdYcFLswY_",
          "width": 4032
        }
      ],
      "place_id": "ChIJvU8kbelYwokREe9PTqdJ7Nk",
      "plus_code": {
        "compound_code": "Q28P+9G New York, NY, USA",
        "global_code": "87G8Q28P+9G"
      },
      "price_level": 2,
      "rating": 3.8,
      "reference": "ChIJvU8kbelYwokREe9PTqdJ7Nk",
      "scope": "GOOGLE",
      "types": [
        "cafe",
        "restaurant",
        "food",
        "store",
        "point_of_interest",
        "establishment"
      ],
      "user_ratings_total": 473,
      "vicinity": "1128 3rd Avenue, New York"
    },
    {
      "business_status": "OPERATIONAL",
      "geometry": {
        "location": {
          "lat": 40.76056,
          "lng": -73.9647469
        },
        "viewport": {
          "northeast": {
            "lat": 40.76194908029149,
            "lng": -73.9632525697085
          },
          "southwest": {
            "lat": 40.75925111970849,
            "lng": -73.96595053029151
          }
        }
      },
      "icon": "https://maps.gstatic.com/mapfiles/place_api/icons/v1/png_71/generic_business-71.png",
      "icon_background_color": "#7B9EB0",
      "icon_mask_base_uri": "https://maps.gstatic.com/mapfiles/place_api/icons/v2/generic_pinlet",
      "name": "Kai-Ming Fu, M.D., Ph.D.",
      "opening_hours": {
        "open_now": false
      },
      "photos": [
        {
          "height": 2336,
          "html_attributions": [
            "<a href=\"https://maps.google.com/maps/contrib/111966650723389054389\">Kai-Ming Fu, M.D., Ph.D.</a>"
          ],
          "photo_reference": "AeJbb3fSX1I5sTDXk6mFWKKVhIILjMLddvwE8pqRPKYw9e0xnBXKrkROEmza817DO5QHnQfh2EMDE_eaCt9qSIjOp0vsN8PROQKmuK7BNZwfy8sMEadR4NeFEkGlg8uTC-7tmbp9_7l1RGNH40V6ZimZF7KSL6353-p4lioMG47WQC9EO-BC",
          "width": 3504
        }
      ],
      "place_id": "ChIJj-4KjsNYwokR_rviUWeN7mI",
      "plus_code": {
        "compound_code": "Q26P+64 New York, NY, USA",
        "global_code": "87G8Q26P+64"
      },
      "rating": 4.7,
      "reference": "ChIJj-4KjsNYwokR_rviUWeN7mI",
      "scope": "GOOGLE",
      "types": [
        "doctor",
        "health",
        "point_of_interest",
        "establishment"
      ],
      "user_ratings_total": 204,
      "vicinity": "240 East 59th Street 2nd floor, New York"
    },
    {
      "business_status": "OPERATIONAL",
      "geometry": {
        "location": {
          "lat": 40.76118,
          "lng": -73.96817
        },
        "viewport": {
          "northeast": {
            "lat": 40.7626217802915,
            "lng": -73.96675451970849
          },
          "southwest": {
            "lat": 40.7599238197085,
            "lng": -73.96945248029151
          }
        }
      },
      "icon": "https://maps.gstatic.com/mapfiles/place_api/icons/v1/png_71/generic_business-71.png",
      "icon_background_color": "#7B9EB0",
      "icon_mask_base_uri": "https://maps.gstatic.com/mapfiles/place_api/icons/v2/generic_pinlet",
      "name": "Dental Specialists of New York",
      "opening_hours": {
        "open_now": false
      },
      "photos": [
        {
          "height": 450,
          "html_attributions": [
            "<a href=\"https://maps.google.com/maps/contrib/114582753413846262896\">Dental Specialists of New York</a>"
          ],
          "photo_reference": "AeJbb3eucnuv8-f_6_aRNYWBw1gpRGAS5fNnv7tdR2eQQxB3gvLPwDBGXOsNF1eVo9JGqvmLeqhWsLGxtJGk1pJ5FZYvDs5pAXPcFqOx-QYEOra1a4w3nEGG3I1VKEhZ8ssaX62YkXbWE5_Y1y-Ni31Rdkp_CZN2L2doreiPkXARxelo7dk4",
          "width": 675
        }
      ],
      "place_id": "ChIJj2NvpuVYwokRqKB5BpMehFk",
      "plus_code": {
        "compound_code": "Q26J+FP New York, NY, USA",
        "global_code": "87G8Q26J+FP"
      },
      "rating": 4.8,
      "reference": "ChIJj2NvpuVYwokRqKB5BpMehFk",
      "scope": "GOOGLE",
      "types": [
        "dentist",
        "health",
        "point_of_interest",
        "establishment"
      ],
      "user_ratings_total": 57,
      "vicinity": "150 East 58th Street, New York"
    },
    {
      "business_status": "OPERATIONAL",
      "geometry": {
        "location": {
          "lat": 40.7601843,
          "lng": -73.963881
        },
        "viewport": {
          "northeast": {
            "lat": 40.7616270302915,
            "lng": -73.96246936970849
          },
          "southwest": {
            "lat": 40.7589290697085,
            "lng": -73.9651673302915
          }
        }
      },
      "icon": "https://maps.gstatic.com/mapfiles/place_api/icons/v1/png_71/generic_business-71.png",
      "icon_background_color": "#7B9EB0",
      "icon_mask_base_uri": "https://maps.gstatic.com/mapfiles/place_api/icons/v2/generic_pinlet",
      "name": "The Humane Society of New York",
      "opening_hours": {
        "open_now": true
      },
      "photos": [
        {
          "height": 1536,
          "html_attributions": [
            "<a href=\"https://maps.google.com/maps/contrib/110975595490805045586\">Alison La Ferlita</a>"
          ],
          "photo_reference": "AeJbb3e84WKNenicCgnDOQgC-vkoDaY6RomN7ek6zVuYhzLD-Hqtte1vX8uIrooReEUVpMNvv5wI4Ease5LMWYc4eKEIDJfgJEf7fk0fsbRT8izuLTQ0_bVHcNojtEXfx9Wt0SBy6JZsnoex4B_AEDxRuSTTVMhtzerinoV6qFEveunDX5WW",
          "width": 2048
        }
      ],
      "place_id": "ChIJ_WhrXeZYwokRzas3JgpKqc4",
      "plus_code": {
        "compound_code": "Q26P+3C New York, NY, USA",
        "global_code": "87G8Q26P+3C"
      },
      "rating": 4.3,
      "reference": "ChIJ_WhrXeZYwokRzas3JgpKqc4",
      "scope": "GOOGLE",
      "types": [
        "veterinary_care",
        "point_of_interest",
        "establishment"
      ],
      "user_ratings_total": 938,
      "vicinity": "306 East 59th Street, New York"
    },
    {
      "business_status": "OPERATIONAL",
      "geometry": {
        "location": {
          "lat": 40.7611007,
          "lng": -73.9680109
        },
        "viewport": {
          "northeast": {
            "lat": 40.7625478802915,
            "lng": -73.9665915697085
          },
          "southwest": {
            "lat": 40.7598499197085,
            "lng": -73.9692895302915
          }
        }
      },
      "icon": "https://maps.gstatic.com/mapfiles/place_api/icons/v1/png_71/generic_business-71.png",
      "icon_background_color": "#7B9EB0",
      "icon_mask_base_uri": "https://maps.gstatic.com/mapfiles/place_api/icons/v2/generic_pinlet",
      "name": "Meed Steven D MD",
      "place_id": "ChIJj2NvpuVYwokRfg8CZ3B9Osw",
      "plus_code": {
        "compound_code": "Q26J+CQ New York, NY, USA",
        "global_code": "87G8Q26J+CQ"
      },
      "rating": 5,
      "reference": "ChIJj2NvpuVYwokRfg8CZ3B9Osw",
      "scope": "GOOGLE",
      "types": [
        "doctor",
        "health",
        "point_of_interest",
        "establishment"
      ],
      "user_ratings_total": 2,
      "vicinity": "150 East 58th Street #18, New York"
    },
    {
      "business_status": "OPERATIONAL",
      "geometry": {
        "location": {
          "lat": 40.762313,
          "lng": -73.96883
        },
        "viewport": {
          "northeast": {
            "lat": 40.7637337802915,
            "lng": -73.96742781970849
          },
          "southwest": {
            "lat": 40.7610358197085,
            "lng": -73.9701257802915
          }
        }
      },
      "icon": "https://maps.gstatic.com/mapfiles/place_api/icons/v1/png_71/generic_business-71.png",
      "icon_background_color": "#7B9EB0",
      "icon_mask_base_uri": "https://maps.gstatic.com/mapfiles/place_api/icons/v2/generic_pinlet",
      "name": "RRE Ventures",
      "opening_hours": {
        "open_now": false
      },
      "photos": [
        {
          "height": 325,
          "html_attributions": [
            "<a href=\"https://maps.google.com/maps/contrib/103872382581510296985\">RRE Ventures</a>"
          ],
          "photo_reference": "AeJbb3fIlycDx_b-TAkdjhcdpMSuQVDxk91XOb5gcYUXXu7hDWCHn2E1ImRDBPFG6xbuUYvknhBLyFC5O5DztHZz9w-lkyRRzD6-OQv3vVeru3E5e22WQ46N9y1Ux41-OWC_uIoLoKvysK-ApEheaLPcP6Q647Fsw1R5kgprWclT5XmpEEl9",
          "width": 752
        }
      ],
      "place_id": "ChIJCSjtcOVYwokRnDna151-uOM",
      "plus_code": {
        "compound_code": "Q26J+WF New York, NY, USA",
        "global_code": "87G8Q26J+WF"
      },
      "rating": 3.5,
      "reference": "ChIJCSjtcOVYwokRnDna151-uOM",
      "scope": "GOOGLE",
      "types": [
        "finance",
        "point_of_interest",
        "establishment"
      ],
      "user_ratings_total": 4,
      "vicinity": "130 East 59th Street #17, New York"
    },
    {
      "business_status": "OPERATIONAL",
      "geometry": {
        "location": {
          "lat": 40.7618628,
          "lng": -73.9660854
        },
        "viewport": {
          "northeast": {
            "lat": 40.7632833802915,
            "lng": -73.9645457197085
          },
          "southwest": {
            "lat": 40.7605854197085,
            "lng": -73.9672436802915
          }
        }
      },
      "icon": "https://maps.gstatic.com/mapfiles/place_api/icons/v1/png_71/movies-71.png",
      "icon_background_color": "#13B5C7",
      "icon_mask_base_uri": "https://maps.gstatic.com/mapfiles/place_api/icons/v2/movie_pinlet",
      "name": "Cinema 123 by Angelika",
      "photos": [
        {
          "height": 2804,
          "html_attributions": [
            "<a href=\"https://maps.google.com/maps/contrib/100884136780610645989\">Cinema 123 by Angelika</a>"
          ],
          "photo_reference": "AeJbb3cLU9JbOhI4uN49J2wfeAWJKa750wv7qAHApYc16HDScuhg4vaa8kncLGJSUIW1LnWDg3N8ENSMpxmZssGJ4g9ebUUIStOL0eZeMzib4phz6lNuWhOuj5AnBWOmZREfkrWWjKs1oUmpORYN31dbU6mauw2VET5jTstXrjQb_m1SNr30",
          "width": 4213
        }
      ],
      "place_id": "ChIJ8zcJ7-VYwokR3HcQfJCpnxA",
      "plus_code": {
        "compound_code": "Q26M+PH New York, NY, USA",
        "global_code": "87G8Q26M+PH"
      },
      "rating": 4.4,
      "reference": "ChIJ8zcJ7-VYwokR3HcQfJCpnxA",
      "scope": "GOOGLE",
      "types": [
        "movie_theater",
        "cafe",
        "food",
        "point_of_interest",
        "establishment"
      ],
      "user_ratings_total": 582,
      "vicinity": "1001 3rd Avenue, New York"
    },
    {
      "business_status": "OPERATIONAL",
      "geometry": {
        "location": {
          "lat": 40.76045,
          "lng": -73.9647447
        },
        "viewport": {
          "northeast": {
            "lat": 40.7618036302915,
            "lng": -73.96328641970848
          },
          "southwest": {
            "lat": 40.7591056697085,
            "lng": -73.9659843802915
          }
        }
      },
      "icon": "https://maps.gstatic.com/mapfiles/place_api/icons/v1/png_71/generic_business-71.png",
      "icon_background_color": "#7B9EB0",
      "icon_mask_base_uri": "https://maps.gstatic.com/mapfiles/place_api/icons/v2/generic_pinlet",
      "name": "Crunch Fitness - 59th Street",
      "opening_hours": {
        "open_now": true
      },
      "photos": [
        {
          "height": 2403,
          "html_attributions": [
            "<a href=\"https://maps.google.com/maps/contrib/107178432328345548056\">Crunch Fitness - 59th Street</a>"
          ],
          "photo_reference": "AeJbb3f8a5KD1R56tU0dZABJ3gD1eRCENL_5tu_fRRuk1ttzHXlWMA7KEzyV31lkkqnqJKdnPRz9-uF60qLSfL9Mhv-YKBsM1ODj7SBuV1FeY8fnWu3XYoDgbas7R4Ap-Ex04ZJpk-eqbnLJ0HVKk-nmZSP1itpHNj32i44Qsada8Yq_wBbY",
          "width": 3600
        }
      ],
      "place_id": "ChIJIa4fe-ZYwokR_PsMGPSu68U",
      "plus_code": {
        "compound_code": "Q26P+54 New York, NY, USA",
        "global_code": "87G8Q26P+54"
      },
      "rating": 4,
      "reference": "ChIJIa4fe-ZYwokR_PsMGPSu68U",
      "scope": "GOOGLE",
      "types": [
        "gym",
        "health",
        "point_of_interest",
        "establishment"
      ],
      "user_ratings_total": 145,
      "vicinity": "1109 2nd Avenue, New York"
    },
    {
      "business_status": "OPERATIONAL",
      "geometry": {
        "location": {
          "lat": 40.7611007,
          "lng": -73.9680109
        },
        "viewport": {
          "northeast": {
            "lat": 40.7625478802915,
            "lng": -73.9665915697085
          },
          "southwest": {
            "lat": 40.7598499197085,
            "lng": -73.9692895302915
          }
        }
      },
      "icon": "https://maps.gstatic.com/mapfiles/place_api/icons/v1/png_71/shopping-71.png",
      "icon_background_color": "#4B96F3",
      "icon_mask_base_uri": "https://maps.gstatic.com/mapfiles/place_api/icons/v2/shopping_pinlet",
      "name": "St Charles of New York",
      "opening_hours": {
        "open_now": false
      },
      "photos": [
        {
          "height": 4008,
          "html_attributions": [
            "<a href=\"https://maps.google.com/maps/contrib/109935674846084954120\">St Charles of New York</a>"
          ],
          "photo_reference": "AeJbb3ewPq37xAoZSRvSPfCvqfYb7MmsZDHk5-XHapumT1DJOGdzBsCIP6aDz3yxyS0pEr3bxaRb4jx54WHFWhNqGmQOpXgncPtPKrYWiRL_8UVjC40tXzBzFK8yqx1jQoJbjuLaN4pkd-lTBzOhAbBhUdtPVo9u4201IuuDwSpFzm8K56Mz",
          "width": 5344
        }
      ],
      "place_id": "ChIJj2NvpuVYwokREgnfl3qAbV8",
      "plus_code": {
        "compound_code": "Q26J+CQ New York, NY, USA",
        "global_code": "87G8Q26J+CQ"
      },
      "rating": 4.1,
      "reference": "ChIJj2NvpuVYwokREgnfl3qAbV8",
      "scope": "GOOGLE",
      "types": [
        "home_goods_store",
        "general_contractor",
        "store",
        "point_of_interest",
        "establishment"
      ],
      "user_ratings_total": 7,
      "vicinity": "Architects & Designers Building, 150 E 58th St #804, New York"
    },
    {
      "business_status": "OPERATIONAL",
      "geometry": {
        "location": {
          "lat": 40.7626903,
          "lng": -73.9682642
        },
        "viewport": {
          "northeast": {
            "lat": 40.7641799302915,
            "lng": -73.96673316970848
          },
          "southwest": {
            "lat": 40.7614819697085,
            "lng": -73.9694311302915
          }
        }
      },
      "icon": "https://maps.gstatic.com/mapfiles/place_api/icons/v1/png_71/shopping-71.png",
      "icon_background_color": "#4B96F3",
      "icon_mask_base_uri": "https://maps.gstatic.com/mapfiles/place_api/icons/v2/shopping_pinlet",
      "name": "SEPHORA",
      "opening_hours": {
        "open_now": true
      },
      "photos": [
        {
          "height": 1523,
          "html_attributions": [
            "<a href=\"https://maps.google.com/maps/contrib/105170431124683218627\">Marc Gonzalez</a>"
          ],
          "photo_reference": "AeJbb3e_YEbC9bsI5-YsFAEArLWC2bE9Yd6jVvMOWo-mWmdn7l5HVwYtdSX3cbhspb_ysKtISUpQo3OxY6Xkf2l-kPXXqQWoU_UbOpjDFliOWEMTeeyGeLC07g-zEZITDlMp_Re-MhLzu0FeQaL1rkwvLfcJaBcDk5VKW4vnbsLkkWzv6l_U",
          "width": 2182
        }
      ],
      "place_id": "ChIJ2UcuCeVYwokRi8LVQ6LR3bQ",
      "plus_code": {
        "compound_code": "Q27J+3M New York, NY, USA",
        "global_code": "87G8Q27J+3M"
      },
      "price_level": 2,
      "rating": 4.1,
      "reference": "ChIJ2UcuCeVYwokRi8LVQ6LR3bQ",
      "scope": "GOOGLE",
      "types": [
        "clothing_store",
        "store",
        "point_of_interest",
        "establishment"
      ],
      "user_ratings_total": 507,
      "vicinity": "750 Lexington Avenue, New York"
    },
    {
      "business_status": "CLOSED_TEMPORARILY",
      "geometry": {
        "location": {
          "lat": 40.7611007,
          "lng": -73.9680109
        },
        "viewport": {
          "northeast": {
            "lat": 40.7625478802915,
            "lng": -73.9665915697085
          },
          "southwest": {
            "lat": 40.7598499197085,
            "lng": -73.9692895302915
          }
        }
      },
      "icon": "https://maps.gstatic.com/mapfiles/place_api/icons/v1/png_71/generic_business-71.png",
      "icon_background_color": "#7B9EB0",
      "icon_mask_base_uri": "https://maps.gstatic.com/mapfiles/place_api/icons/v2/generic_pinlet",
      "name": "Cavendish Grey Inc",
      "permanently_closed": true,
      "place_id": "ChIJj2NvpuVYwokRmBoWvz-J3nk",
      "plus_code": {
        "compound_code": "Q26J+CQ New York, NY, USA",
        "global_code": "87G8Q26J+CQ"
      },
      "reference": "ChIJj2NvpuVYwokRmBoWvz-J3nk",
      "scope": "GOOGLE",
      "types": [
        "general_contractor",
        "point_of_interest",
        "establishment"
      ],
      "vicinity": "150 East 58th Street #703, New York"
    },
    {
      "business_status": "OPERATIONAL",
      "geometry": {
        "location": {
          "lat": 40.761118,
          "lng": -73.968195
        },
        "viewport": {
          "northeast": {
            "lat": 40.7625876802915,
            "lng": -73.96672151970849
          },
          "southwest": {
            "lat": 40.7598897197085,
            "lng": -73.9694194802915
          }
        }
      },
      "icon": "https://maps.gstatic.com/mapfiles/place_api/icons/v1/png_71/generic_business-71.png",
      "icon_background_color": "#7B9EB0",
      "icon_mask_base_uri": "https://maps.gstatic.com/mapfiles/place_api/icons/v2/generic_pinlet",
      "name": "RIPCO Real Estate, LLC",
      "opening_hours": {
        "open_now": false
      },
      "photos": [
        {
          "height": 2294,
          "html_attributions": [
            "<a href=\"https://maps.google.com/maps/contrib/104474571365278351298\">RIPCO Real Estate, LLC</a>"
          ],
          "photo_reference": "AeJbb3c0tEjwdoiV92edGWMe1KSnhbYMRRZCc7NIEuJ3JGM407btPSseRFTMIpozwP7NVpWfn0FJ81LQRov9YCinFft_89clmgJEUFs42yRrQmw0xLIGsCqJ9DJDnYDk2mxTzS53rVa9g16MEJAVk_DJFz6iKEzZx5-r7E0knc3ndZ7R2Hqh",
          "width": 2838
        }
      ],
      "place_id": "ChIJj2NvpuVYwokRoTJGmwBkggo",
      "plus_code": {
        "compound_code": "Q26J+CP New York, NY, USA",
        "global_code": "87G8Q26J+CP"
      },
      "rating": 4.3,
      "reference": "ChIJj2NvpuVYwokRoTJGmwBkggo",
      "scope": "GOOGLE",
      "types": [
        "real_estate_agency",
        "point_of_interest",
        "establishment"
      ],
      "user_ratings_total": 6,
      "vicinity": "150 East 58th Street 15th floor, New York"
    },
    {
      "business_status": "OPERATIONAL",
      "geometry": {
        "location": {
          "lat": 40.7611007,
          "lng": -73.9680109
        },
        "viewport": {
          "northeast": {
            "lat": 40.7625478802915,
            "lng": -73.9665915697085
          },
          "southwest": {
            "lat": 40.7598499197085,
            "lng": -73.9692895302915
          }
        }
      },
      "icon": "https://maps.gstatic.com/mapfiles/place_api/icons/v1/png_71/generic_business-71.png",
      "icon_background_color": "#7B9EB0",
      "icon_mask_base_uri": "https://maps.gstatic.com/mapfiles/place_api/icons/v2/generic_pinlet",
      "name": "Xhema Remodeling Co Inc",
      "place_id": "ChIJj2NvpuVYwokRR4eBhJpnpzI",
      "plus_code": {
        "compound_code": "Q26J+CQ New York, NY, USA",
        "global_code": "87G8Q26J+CQ"
      },
      "reference": "ChIJj2NvpuVYwokRR4eBhJpnpzI",
      "scope": "GOOGLE",
      "types": [
        "general_contractor",
        "point_of_interest",
        "establishment"
      ],
      "vicinity": "150 East 58th Street #23, New York"
    },
    {
      "business_status": "OPERATIONAL",
      "geometry": {
        "location": {
          "lat": 40.7611129,
          "lng": -73.96800019999999
        },
        "viewport": {
          "northeast": {
            "lat": 40.76255363029151,
            "lng": -73.96658546970849
          },
          "southwest": {
            "lat": 40.75985566970851,
            "lng": -73.9692834302915
          }
        }
      },
      "icon": "https://maps.gstatic.com/mapfiles/place_api/icons/v1/png_71/generic_business-71.png",
      "icon_background_color": "#7B9EB0",
      "icon_mask_base_uri": "https://maps.gstatic.com/mapfiles/place_api/icons/v2/generic_pinlet",
      "name": "Manocherian Brothers",
      "opening_hours": {
        "open_now": false
      },
      "place_id": "ChIJj2NvpuVYwokRw3AJssrQeJY",
      "plus_code": {
        "compound_code": "Q26J+CQ New York, NY, USA",
        "global_code": "87G8Q26J+CQ"
      },
      "rating": 3.2,
      "reference": "ChIJj2NvpuVYwokRw3AJssrQeJY",
      "scope": "GOOGLE",
      "types": [
        "real_estate_agency",
        "point_of_interest",
        "establishment"
      ],
      "user_ratings_total": 12,
      "vicinity": "150 East 58th Street #2801, New York"
    },
    {
      "business_status": "OPERATIONAL",
      "geometry": {
        "location": {
          "lat": 40.7610988,
          "lng": -73.9679999
        },
        "viewport": {
          "northeast": {
            "lat": 40.7625449302915,
            "lng": -73.96658131970848
          },
          "southwest": {
            "lat": 40.7598469697085,
            "lng": -73.9692792802915
          }
        }
      },
      "icon": "https://maps.gstatic.com/mapfiles/place_api/icons/v1/png_71/generic_business-71.png",
      "icon_background_color": "#7B9EB0",
      "icon_mask_base_uri": "https://maps.gstatic.com/mapfiles/place_api/icons/v2/generic_pinlet",
      "name": "Morledge Louis MD",
      "photos": [
        {
          "height": 4032,
          "html_attributions": [
            "<a href=\"https://maps.google.com/maps/contrib/117184510049151399323\">Danny Kim</a>"
          ],
          "photo_reference": "AeJbb3fdlxM0aBLf15MBicdQA5RHpUeG9GsUTb2SuRLbPfktInQi7sVkAofAszsRpJKr8u4o75WXge9fwUb5ZwdIvtlDwGF7y4lpOZGwgjPPBQtEdYqBhrLWSoeFZ9NXUNoewVGgodfHvfWMW2pXtzdhxWyJDCJ4CZBZT4ngiUOdEPku2Geh",
          "width": 3024
        }
      ],
      "place_id": "ChIJj2NvpuVYwokRgdjzvZsU3EE",
      "plus_code": {
        "compound_code": "Q26J+CR New York, NY, USA",
        "global_code": "87G8Q26J+CR"
      },
      "rating": 3.1,
      "reference": "ChIJj2NvpuVYwokRgdjzvZsU3EE",
      "scope": "GOOGLE",
      "types": [
        "doctor",
        "health",
        "point_of_interest",
        "establishment"
      ],
      "user_ratings_total": 14,
      "vicinity": "150 East 58th Street #1800, New York"
    },
    {
      "business_status": "OPERATIONAL",
      "geometry": {
        "location": {
          "lat": 40.7643584,
          "lng": -73.96424499999999
        },
        "viewport": {
          "northeast": {
            "lat": 40.7657432802915,
            "lng": -73.9630226697085
          },
          "southwest": {
            "lat": 40.7630453197085,
            "lng": -73.9657206302915
          }
        }
      },
      "icon": "https://maps.gstatic.com/mapfiles/place_api/icons/v1/png_71/restaurant-71.png",
      "icon_background_color": "#FF9E67",
      "icon_mask_base_uri": "https://maps.gstatic.com/mapfiles/place_api/icons/v2/restaurant_pinlet",
      "name": "Tony's Di Napoli",
      "opening_hours": {
        "open_now": true
      },
      "photos": [
        {
          "height": 642,
          "html_attributions": [
            "<a href=\"https://maps.google.com/maps/contrib/111719219215411994893\">Hecatonic</a>"
          ],
          "photo_reference": "AeJbb3evKt-7gPXlxsM-gihXq4E_8SDNNlDuo4Rp5wuCsJSwKfOXDHKR3kppnzR1qrtJjBMWHP4vScRMMpnBlmaQgycN8tudJthJT9zCs8bho3JZGHf_JeCYn_3I097jW1APgTcK2r25uVOJ7NPR3gN2QF9yTNFyZ06aDFtgzfN_4h-rvT3S",
          "width": 1162
        }
      ],
      "place_id": "ChIJ9-ey3ehYwokRWPZl-y_GRBk",
      "plus_code": {
        "compound_code": "Q27P+P8 New York, NY, USA",
        "global_code": "87G8Q27P+P8"
      },
      "price_level": 2,
      "rating": 4.5,
      "reference": "ChIJ9-ey3ehYwokRWPZl-y_GRBk",
      "scope": "GOOGLE",
      "types": [
        "bar",
        "restaurant",
        "point_of_interest",
        "food",
        "establishment"
      ],
      "user_ratings_total": 2011,
      "vicinity": "1081 3rd Avenue, New York"
    },
    {
      "business_status": "CLOSED_TEMPORARILY",
      "geometry": {
        "location": {
          "lat": 40.7611007,
          "lng": -73.9680109
        },
        "viewport": {
          "northeast": {
            "lat": 40.7625478802915,
            "lng": -73.9665915697085
          },
          "southwest": {
            "lat": 40.7598499197085,
            "lng": -73.9692895302915
          }
        }
      },
      "icon": "https://maps.gstatic.com/mapfiles/place_api/icons/v1/png_71/shopping-71.png",
      "icon_background_color": "#4B96F3",
      "icon_mask_base_uri": "https://maps.gstatic.com/mapfiles/place_api/icons/v2/shopping_pinlet",
      "name": "American Classic Kitchens Inc",
      "permanently_closed": true,
      "place_id": "ChIJj2NvpuVYwokRCnehpbeyh4c",
      "plus_code": {
        "compound_code": "Q26J+CQ New York, NY, USA",
        "global_code": "87G8Q26J+CQ"
      },
      "reference": "ChIJj2NvpuVYwokRCnehpbeyh4c",
      "scope": "GOOGLE",
      "types": [
        "furniture_store",
        "home_goods_store",
        "store",
        "point_of_interest",
        "establishment"
      ],
      "vicinity": "150 East 58th Street 9th floor, New York"
    },
    {
      "business_status": "OPERATIONAL",
      "geometry": {
        "location": {
          "lat": 40.7610988,
          "lng": -73.9679999
        },
        "viewport": {
          "northeast": {
            "lat": 40.7625449302915,
            "lng": -73.96658131970848
          },
          "southwest": {
            "lat": 40.7598469697085,
            "lng": -73.9692792802915
          }
        }
      },
      "icon": "https://maps.gstatic.com/mapfiles/place_api/icons/v1/png_71/generic_business-71.png",
      "icon_background_color": "#7B9EB0",
      "icon_mask_base_uri": "https://maps.gstatic.com/mapfiles/place_api/icons/v2/generic_pinlet",
      "name": "Sohee Lee, MD/ Morledge Medical",
      "opening_hours": {
        "open_now": false
      },
      "place_id": "ChIJj2NvpuVYwokRO288pJOM__E",
      "plus_code": {
        "compound_code": "Q26J+CR New York, NY, USA",
        "global_code": "87G8Q26J+CR"
      },
      "rating": 5,
      "reference": "ChIJj2NvpuVYwokRO288pJOM__E",
      "scope": "GOOGLE",
      "types": [
        "doctor",
        "health",
        "point_of_interest",
        "establishment"
      ],
      "user_ratings_total": 1,
      "vicinity": "150 East 58th Street, New York"
    },
    {
      "business_status": "CLOSED_TEMPORARILY",
      "geometry": {
        "location": {
          "lat": 40.7611177,
          "lng": -73.9681954
        },
        "viewport": {
          "northeast": {
            "lat": 40.7625875802915,
            "lng": -73.9667598197085
          },
          "southwest": {
            "lat": 40.7598896197085,
            "lng": -73.9694577802915
          }
        }
      },
      "icon": "https://maps.gstatic.com/mapfiles/place_api/icons/v1/png_71/generic_business-71.png",
      "icon_background_color": "#7B9EB0",
      "icon_mask_base_uri": "https://maps.gstatic.com/mapfiles/place_api/icons/v2/generic_pinlet",
      "name": "Lobo & Petrocine Inc",
      "permanently_closed": true,
      "place_id": "ChIJj2NvpuVYwokROJtYp_zENKU",
      "plus_code": {
        "compound_code": "Q26J+CP New York, NY, USA",
        "global_code": "87G8Q26J+CP"
      },
      "reference": "ChIJj2NvpuVYwokROJtYp_zENKU",
      "scope": "GOOGLE",
      "types": [
        "point_of_interest",
        "establishment"
      ],
      "vicinity": "150 East 58th Street #19, New York"
    },
    {
      "business_status": "OPERATIONAL",
      "geometry": {
        "location": {
          "lat": 40.7610988,
          "lng": -73.9679999
        },
        "viewport": {
          "northeast": {
            "lat": 40.7625449302915,
            "lng": -73.96658131970848
          },
          "southwest": {
            "lat": 40.7598469697085,
            "lng": -73.9692792802915
          }
        }
      },
      "icon": "https://maps.gstatic.com/mapfiles/place_api/icons/v1/png_71/generic_business-71.png",
      "icon_background_color": "#7B9EB0",
      "icon_mask_base_uri": "https://maps.gstatic.com/mapfiles/place_api/icons/v2/generic_pinlet",
      "name": "Alexico Group",
      "place_id": "ChIJj2NvpuVYwokRjiKsVj19Pr4",
      "plus_code": {
        "compound_code": "Q26J+CR New York, NY, USA",
        "global_code": "87G8Q26J+CR"
      },
      "rating": 5,
      "reference": "ChIJj2NvpuVYwokRjiKsVj19Pr4",
      "scope": "GOOGLE",
      "types": [
        "general_contractor",
        "point_of_interest",
        "establishment"
      ],
      "user_ratings_total": 1,
      "vicinity": "150 East 58th Street #33, New York"
    },
    {
      "business_status": "OPERATIONAL",
      "geometry": {
        "location": {
          "lat": 40.7611007,
          "lng": -73.9680109
        },
        "viewport": {
          "northeast": {
            "lat": 40.7625478802915,
            "lng": -73.9665915697085
          },
          "southwest": {
            "lat": 40.7598499197085,
            "lng": -73.9692895302915
          }
        }
      },
      "icon": "https://maps.gstatic.com/mapfiles/place_api/icons/v1/png_71/civic_building-71.png",
      "icon_background_color": "#7B9EB0",
      "icon_mask_base_uri": "https://maps.gstatic.com/mapfiles/place_api/icons/v2/civic-bldg_pinlet",
      "name": "Cadmus International",
      "place_id": "ChIJj2NvpuVYwokR23et_BIDPHw",
      "plus_code": {
        "compound_code": "Q26J+CQ New York, NY, USA",
        "global_code": "87G8Q26J+CQ"
      },
      "reference": "ChIJj2NvpuVYwokR23et_BIDPHw",
      "scope": "GOOGLE",
      "types": [
        "point_of_interest",
        "establishment"
      ],
      "vicinity": "150 East 58th Street #2740, New York"
    },
    {
      "business_status": "OPERATIONAL",
      "geometry": {
        "location": {
          "lat": 40.76113060000001,
          "lng": -73.9679891
        },
        "viewport": {
          "northeast": {
            "lat": 40.7625609802915,
            "lng": -73.9665762697085
          },
          "southwest": {
            "lat": 40.7598630197085,
            "lng": -73.9692742302915
          }
        }
      },
      "icon": "https://maps.gstatic.com/mapfiles/place_api/icons/v1/png_71/shopping-71.png",
      "icon_background_color": "#4B96F3",
      "icon_mask_base_uri": "https://maps.gstatic.com/mapfiles/place_api/icons/v2/shopping_pinlet",
      "name": "MandiCasa New York Flagship Showroom",
      "opening_hours": {
        "open_now": false
      },
      "photos": [
        {
          "height": 1000,
          "html_attributions": [
            "<a href=\"https://maps.google.com/maps/contrib/113870742976667229345\">MandiCasa New York Flagship Showroom</a>"
          ],
          "photo_reference": "AeJbb3eAwzXckOYo2b_qkLQw1C6jaqkRiFSuBgqnqFoLwm5VyPYvyLvKlztkPxR4rIUdDNHSRZufLV9411G0aYCaPyKgYBrROeh9PrgZDR-cTL6qZ0gQ7jKvLRxI5o9cYzmBEtKizLvAQKR5BkXo91dfs3WS75tOTVidUFfPJSF-nHaxy7oy",
          "width": 1500
        }
      ],
      "place_id": "ChIJj2NvpuVYwokRvvTa1AO0MA8",
      "plus_code": {
        "compound_code": "Q26J+FR New York, NY, USA",
        "global_code": "87G8Q26J+FR"
      },
      "rating": 5,
      "reference": "ChIJj2NvpuVYwokRvvTa1AO0MA8",
      "scope": "GOOGLE",
      "types": [
        "furniture_store",
        "home_goods_store",
        "general_contractor",
        "store",
        "point_of_interest",
        "establishment"
      ],
      "user_ratings_total": 3,
      "vicinity": "A&D Building, 150 E 58th St 8th Fl., New York"
    },
    {
      "business_status": "OPERATIONAL",
      "geometry": {
        "location": {
          "lat": 40.7610988,
          "lng": -73.9679999
        },
        "viewport": {
          "northeast": {
            "lat": 40.7625449302915,
            "lng": -73.96658131970848
          },
          "southwest": {
            "lat": 40.7598469697085,
            "lng": -73.9692792802915
          }
        }
      },
      "icon": "https://maps.gstatic.com/mapfiles/place_api/icons/v1/png_71/shopping-71.png",
      "icon_background_color": "#4B96F3",
      "icon_mask_base_uri": "https://maps.gstatic.com/mapfiles/place_api/icons/v2/shopping_pinlet",
      "name": "Nasco Packaging Inc",
      "opening_hours": {
        "open_now": false
      },
      "place_id": "ChIJj2NvpuVYwokRJRG7XYjcgSg",
      "plus_code": {
        "compound_code": "Q26J+CR New York, NY, USA",
        "global_code": "87G8Q26J+CR"
      },
      "reference": "ChIJj2NvpuVYwokRJRG7XYjcgSg",
      "scope": "GOOGLE",
      "types": [
        "store",
        "point_of_interest",
        "establishment"
      ],
      "vicinity": "150 East 58th Street #2310, New York"
    },
    {
      "business_status": "OPERATIONAL",
      "geometry": {
        "location": {
          "lat": 40.7611007,
          "lng": -73.9680109
        },
        "viewport": {
          "northeast": {
            "lat": 40.7625478802915,
            "lng": -73.9665915697085
          },
          "southwest": {
            "lat": 40.7598499197085,
            "lng": -73.9692895302915
          }
        }
      },
      "icon": "https://maps.gstatic.com/mapfiles/place_api/icons/v1/png_71/generic_business-71.png",
      "icon_background_color": "#7B9EB0",
      "icon_mask_base_uri": "https://maps.gstatic.com/mapfiles/place_api/icons/v2/generic_pinlet",
      "name": "Dr. Guido O. Sarnachiaro, DDS",
      "opening_hours": {
        "open_now": true
      },
      "place_id": "ChIJj2NvpuVYwokReAsZL7SKDps",
      "plus_code": {
        "compound_code": "Q26J+CQ New York, NY, USA",
        "global_code": "87G8Q26J+CQ"
      },
      "rating": 5,
      "reference": "ChIJj2NvpuVYwokReAsZL7SKDps",
      "scope": "GOOGLE",
      "types": [
        "dentist",
        "health",
        "point_of_interest",
        "establishment"
      ],
      "user_ratings_total": 1,
      "vicinity": "150 East 58th Street #3200, New York"
    },
    {
      "business_status": "OPERATIONAL",
      "geometry": {
        "location": {
          "lat": 40.76048259999999,
          "lng": -73.9656634
        },
        "viewport": {
          "northeast": {
            "lat": 40.76178098029149,
            "lng": -73.9643523697085
          },
          "southwest": {
            "lat": 40.75908301970849,
            "lng": -73.9670503302915
          }
        }
      },
      "icon": "https://maps.gstatic.com/mapfiles/place_api/icons/v1/png_71/generic_business-71.png",
      "icon_background_color": "#7B9EB0",
      "icon_mask_base_uri": "https://maps.gstatic.com/mapfiles/place_api/icons/v2/generic_pinlet",
      "name": "IBE Trade Corporation",
      "opening_hours": {
        "open_now": false
      },
      "place_id": "ChIJ1cRWVORYwokROwyDPRK7X4o",
      "plus_code": {
        "compound_code": "Q26M+5P New York, NY, USA",
        "global_code": "87G8Q26M+5P"
      },
      "reference": "ChIJ1cRWVORYwokROwyDPRK7X4o",
      "scope": "GOOGLE",
      "types": [
        "finance",
        "point_of_interest",
        "establishment"
      ],
      "vicinity": "227 East 58th Street 3rd floor, New York"
    },
    {
      "business_status": "OPERATIONAL",
      "geometry": {
        "location": {
          "lat": 40.76097099999999,
          "lng": -73.9673919
        },
        "viewport": {
          "northeast": {
            "lat": 40.76225608029149,
            "lng": -73.96590536970848
          },
          "southwest": {
            "lat": 40.75955811970849,
            "lng": -73.9686033302915
          }
        }
      },
      "icon": "https://maps.gstatic.com/mapfiles/place_api/icons/v1/png_71/generic_business-71.png",
      "icon_background_color": "#7B9EB0",
      "icon_mask_base_uri": "https://maps.gstatic.com/mapfiles/place_api/icons/v2/generic_pinlet",
      "name": "New York Spine Specialist",
      "opening_hours": {
        "open_now": false
      },
      "photos": [
        {
          "height": 682,
          "html_attributions": [
            "<a href=\"https://maps.google.com/maps/contrib/103584001781530091132\">New York Spine Specialist</a>"
          ],
          "photo_reference": "AeJbb3dboVaAAZX_jkPD2jmSXMqlU8kSooIt2fiW2znENUZY2JMcBy8PIGM4yECFA3AhM_A6IY6Pgw_j8RwViIRNY-XtX5MP1sJ7yfZXZuMJZ_mjR1ICTvu6cOtcI8D3u1-fRLyziFwi4eFAj-_SsEqFvbbMFSa-WqJ81WwGfut_GViEapE8",
          "width": 1024
        }
      ],
      "place_id": "ChIJj2NvpuVYwokRPdfeDIC2cfI",
      "plus_code": {
        "compound_code": "Q26M+92 New York, NY, USA",
        "global_code": "87G8Q26M+92"
      },
      "rating": 3.5,
      "reference": "ChIJj2NvpuVYwokRPdfeDIC2cfI",
      "scope": "GOOGLE",
      "types": [
        "doctor",
        "health",
        "point_of_interest",
        "establishment"
      ],
      "user_ratings_total": 24,
      "vicinity": "Annex Building, 150 East 58th Street 9th Floor, New York"
    },
    {
      "business_status": "OPERATIONAL",
      "geometry": {
        "location": {
          "lat": 40.7611007,
          "lng": -73.9680109
        },
        "viewport": {
          "northeast": {
            "lat": 40.7625478802915,
            "lng": -73.9665915697085
          },
          "southwest": {
            "lat": 40.7598499197085,
            "lng": -73.9692895302915
          }
        }
      },
      "icon": "https://maps.gstatic.com/mapfiles/place_api/icons/v1/png_71/generic_business-71.png",
      "icon_background_color": "#7B9EB0",
      "icon_mask_base_uri": "https://maps.gstatic.com/mapfiles/place_api/icons/v2/generic_pinlet",
      "name": "Aegean Capital",
      "place_id": "ChIJj2NvpuVYwokRU1nlX4sjQyg",
      "plus_code": {
        "compound_code": "Q26J+CQ New York, NY, USA",
        "global_code": "87G8Q26J+CQ"
      },
      "rating": 5,
      "reference": "ChIJj2NvpuVYwokRU1nlX4sjQyg",
      "scope": "GOOGLE",
      "types": [
        "real_estate_agency",
        "point_of_interest",
        "establishment"
      ],
      "user_ratings_total": 1,
      "vicinity": "150 East 58th Street #2000, New York"
    },
    {
      "business_status": "CLOSED_TEMPORARILY",
      "geometry": {
        "location": {
          "lat": 40.7611408,
          "lng": -73.9679931
        },
        "viewport": {
          "northeast": {
            "lat": 40.7625696302915,
            "lng": -73.96658691970849
          },
          "southwest": {
            "lat": 40.7598716697085,
            "lng": -73.96928488029151
          }
        }
      },
      "icon": "https://maps.gstatic.com/mapfiles/place_api/icons/v1/png_71/generic_business-71.png",
      "icon_background_color": "#7B9EB0",
      "icon_mask_base_uri": "https://maps.gstatic.com/mapfiles/place_api/icons/v2/generic_pinlet",
      "name": "Mark W. Geisler",
      "permanently_closed": true,
      "place_id": "ChIJj2NvpuVYwokRoj5vLEGEst8",
      "plus_code": {
        "compound_code": "Q26J+FR New York, NY, USA",
        "global_code": "87G8Q26J+FR"
      },
      "reference": "ChIJj2NvpuVYwokRoj5vLEGEst8",
      "scope": "GOOGLE",
      "types": [
        "lawyer",
        "point_of_interest",
        "establishment"
      ],
      "vicinity": "150 East 58th Street #16, New York"
    },
    {
      "business_status": "OPERATIONAL",
      "geometry": {
        "location": {
          "lat": 40.7610988,
          "lng": -73.9679999
        },
        "viewport": {
          "northeast": {
            "lat": 40.7625449302915,
            "lng": -73.96658131970848
          },
          "southwest": {
            "lat": 40.7598469697085,
            "lng": -73.9692792802915
          }
        }
      },
      "icon": "https://maps.gstatic.com/mapfiles/place_api/icons/v1/png_71/generic_business-71.png",
      "icon_background_color": "#7B9EB0",
      "icon_mask_base_uri": "https://maps.gstatic.com/mapfiles/place_api/icons/v2/generic_pinlet",
      "name": "Jack S. Hoffinger",
      "place_id": "ChIJj2NvpuVYwokRnx2O_bZrJC8",
      "plus_code": {
        "compound_code": "Q26J+CR New York, NY, USA",
        "global_code": "87G8Q26J+CR"
      },
      "reference": "ChIJj2NvpuVYwokRnx2O_bZrJC8",
      "scope": "GOOGLE",
      "types": [
        "lawyer",
        "point_of_interest",
        "establishment"
      ],
      "vicinity": "150 East 58th Street #1900, New York"
    },
    {
      "business_status": "OPERATIONAL",
      "geometry": {
        "location": {
          "lat": 40.7611007,
          "lng": -73.9680109
        },
        "viewport": {
          "northeast": {
            "lat": 40.7625478802915,
            "lng": -73.9665915697085
          },
          "southwest": {
            "lat": 40.7598499197085,
            "lng": -73.9692895302915
          }
        }
      },
      "icon": "https://maps.gstatic.com/mapfiles/place_api/icons/v1/png_71/generic_business-71.png",
      "icon_background_color": "#7B9EB0",
      "icon_mask_base_uri": "https://maps.gstatic.com/mapfiles/place_api/icons/v2/generic_pinlet",
      "name": "K S Partners Llc",
      "place_id": "ChIJj2NvpuVYwokROn_CYvyHEQM",
      "plus_code": {
        "compound_code": "Q26J+CQ New York, NY, USA",
        "global_code": "87G8Q26J+CQ"
      },
      "reference": "ChIJj2NvpuVYwokROn_CYvyHEQM",
      "scope": "GOOGLE",
      "types": [
        "point_of_interest",
        "establishment"
      ],
      "vicinity": "150 East 58th Street #2000, New York"
    },
    {
      "business_status": "OPERATIONAL",
      "geometry": {
        "location": {
          "lat": 40.7611007,
          "lng": -73.9680109
        },
        "viewport": {
          "northeast": {
            "lat": 40.7625478802915,
            "lng": -73.9665915697085
          },
          "southwest": {
            "lat": 40.7598499197085,
            "lng": -73.9692895302915
          }
        }
      },
      "icon": "https://maps.gstatic.com/mapfiles/place_api/icons/v1/png_71/generic_business-71.png",
      "icon_background_color": "#7B9EB0",
      "icon_mask_base_uri": "https://maps.gstatic.com/mapfiles/place_api/icons/v2/generic_pinlet",
      "name": "Fremack Industries Inc",
      "place_id": "ChIJj2NvpuVYwokRhh3V2BfuNxs",
      "plus_code": {
        "compound_code": "Q26J+CQ New York, NY, USA",
        "global_code": "87G8Q26J+CQ"
      },
      "reference": "ChIJj2NvpuVYwokRhh3V2BfuNxs",
      "scope": "GOOGLE",
      "types": [
        "point_of_interest",
        "establishment"
      ],
      "vicinity": "150 East 58th Street #20, New York"
    },
    {
      "business_status": "OPERATIONAL",
      "geometry": {
        "location": {
          "lat": 40.7611007,
          "lng": -73.9680109
        },
        "viewport": {
          "northeast": {
            "lat": 40.7625478802915,
            "lng": -73.9665915697085
          },
          "southwest": {
            "lat": 40.7598499197085,
            "lng": -73.9692895302915
          }
        }
      },
      "icon": "https://maps.gstatic.com/mapfiles/place_api/icons/v1/png_71/generic_business-71.png",
      "icon_background_color": "#7B9EB0",
      "icon_mask_base_uri": "https://maps.gstatic.com/mapfiles/place_api/icons/v2/generic_pinlet",
      "name": "Tarnow Dennis P DDS",
      "opening_hours": {
        "open_now": true
      },
      "place_id": "ChIJj2NvpuVYwokRHit3TWpwMII",
      "plus_code": {
        "compound_code": "Q26J+CQ New York, NY, USA",
        "global_code": "87G8Q26J+CQ"
      },
      "rating": 4.3,
      "reference": "ChIJj2NvpuVYwokRHit3TWpwMII",
      "scope": "GOOGLE",
      "types": [
        "dentist",
        "health",
        "point_of_interest",
        "establishment"
      ],
      "user_ratings_total": 6,
      "vicinity": "150 East 58th Street #3200, New York"
    },
    {
      "business_status": "OPERATIONAL",
      "geometry": {
        "location": {
          "lat": 40.7611007,
          "lng": -73.9680109
        },
        "viewport": {
          "northeast": {
            "lat": 40.7625478802915,
            "lng": -73.9665915697085
          },
          "southwest": {
            "lat": 40.7598499197085,
            "lng": -73.9692895302915
          }
        }
      },
      "icon": "https://maps.gstatic.com/mapfiles/place_api/icons/v1/png_71/generic_business-71.png",
      "icon_background_color": "#7B9EB0",
      "icon_mask_base_uri": "https://maps.gstatic.com/mapfiles/place_api/icons/v2/generic_pinlet",
      "name": "North Star Property Co",
      "place_id": "ChIJ8b-JpOVYwokRkUlL_9muKJU",
      "plus_code": {
        "compound_code": "Q26J+CQ New York, NY, USA",
        "global_code": "87G8Q26J+CQ"
      },
      "reference": "ChIJ8b-JpOVYwokRkUlL_9muKJU",
      "scope": "GOOGLE",
      "types": [
        "real_estate_agency",
        "point_of_interest",
        "establishment"
      ],
      "vicinity": "150 East 58th Street #2001, New York"
    },
    {
      "business_status": "OPERATIONAL",
      "geometry": {
        "location": {
          "lat": 40.7611007,
          "lng": -73.9680109
        },
        "viewport": {
          "northeast": {
            "lat": 40.7625478802915,
            "lng": -73.9665915697085
          },
          "southwest": {
            "lat": 40.7598499197085,
            "lng": -73.9692895302915
          }
        }
      },
      "icon": "https://maps.gstatic.com/mapfiles/place_api/icons/v1/png_71/generic_business-71.png",
      "icon_background_color": "#7B9EB0",
      "icon_mask_base_uri": "https://maps.gstatic.com/mapfiles/place_api/icons/v2/generic_pinlet",
      "name": "Dr. Rodolfo Sanchez, DDS",
      "place_id": "ChIJj2NvpuVYwokRrFjy51mk-DE",
      "plus_code": {
        "compound_code": "Q26J+CQ New York, NY, USA",
        "global_code": "87G8Q26J+CQ"
      },
      "rating": 5,
      "reference": "ChIJj2NvpuVYwokRrFjy51mk-DE",
      "scope": "GOOGLE",
      "types": [
        "dentist",
        "health",
        "point_of_interest",
        "establishment"
      ],
      "user_ratings_total": 4,
      "vicinity": "150 East 58th Street, New York"
    },
    {
      "business_status": "OPERATIONAL",
      "geometry": {
        "location": {
          "lat": 40.7611007,
          "lng": -73.9680109
        },
        "viewport": {
          "northeast": {
            "lat": 40.7625478802915,
            "lng": -73.9665915697085
          },
          "southwest": {
            "lat": 40.7598499197085,
            "lng": -73.9692895302915
          }
        }
      },
      "icon": "https://maps.gstatic.com/mapfiles/place_api/icons/v1/png_71/generic_business-71.png",
      "icon_background_color": "#7B9EB0",
      "icon_mask_base_uri": "https://maps.gstatic.com/mapfiles/place_api/icons/v2/generic_pinlet",
      "name": "Scorpio USA LLC",
      "place_id": "ChIJj2NvpuVYwokRoTUO4A5tbfQ",
      "plus_code": {
        "compound_code": "Q26J+CQ New York, NY, USA",
        "global_code": "87G8Q26J+CQ"
      },
      "reference": "ChIJj2NvpuVYwokRoTUO4A5tbfQ",
      "scope": "GOOGLE",
      "types": [
        "point_of_interest",
        "establishment"
      ],
      "vicinity": "150 East 58th Street #14, New York"
    }
  ],
  "status": "OK"
}