{
  "html_attributions": [],
  "results": [
    {
      "geometry": {
        "location": {
          "lat": 40.7127753,
          "lng": -74.0059728
        },
        "viewport": {
          "northeast": {
            "lat": 40.91757705070789,
            "lng": -73.70027206817629
          },
          "southwest": {
            "lat": 40.47739906045452,
            "lng": -74.25908991427882
          }
        }
      },
      "icon": "https://maps.gstatic.com/mapfiles/place_api/icons/v1/png_71/geocode-71.png",
      "icon_background_color": "#7B9EB0",
      "icon_mask_base_uri": "https://maps.gstatic.com/mapfiles/place_api/icons/v2/generic_pinlet",
      "name": "\u7d10\u7d04",
      "photos": [
        {
          "height": 600,
          "html_attributions": [
            "<a href=\"https://maps.google.com/maps/contrib/102389334567210814614\">Bukurie</a>"
          ],
          "photo_reference": "AeJbb3dEEAJnM6EqucQ5KSnF2zWD6cvee8AZdVtLgempjmtd4tSRxhWw1G-ybSFcXc_NWhUvpyW_3G8jdvYuC3XM1CkVXjlyYLp7ZEdC_jE7se-Hc6CJ8gTmS7Cv5Ln6Av8AAeUJWLnmWOe509N0cFSes6orBMnxH20nTLtHhNapcaSWIx9g",
          "width": 480
        }
      ],
      "place_id": "ChIJOwg_06VPwokRYv534QaPC8g",
      "reference": "ChIJOwg_06VPwokRYv534QaPC8g",
      "scope": "GOOGLE",
      "types": [
        "locality",
        "political"
      ],
      "vicinity": "\u7d10\u7d04"
    },
    {
      "business_status": "OPERATIONAL",
      "geometry": {
        "location": {
          "lat": 40.76441579999999,
          "lng": -73.96302969999999
        },
        "viewport": {
          "northeast": {
            "lat": 40.76568098029149,
            "lng": -73.96180051970849
          },
          "southwest": {
            "lat": 40.76298301970849,
            "lng": -73.9644984802915
          }
        }
      },
      "icon": "https://maps.gstatic.com/mapfiles/place_api/icons/v1/png_71/lodging-71.png",
      "icon_background_color": "#909CE1",
      "icon_mask_base_uri": "https://maps.gstatic.com/mapfiles/place_api/icons/v2/hotel_pinlet",
      "name": "The Gardens Sonesta ES Suites New York",
      "opening_hours": {
        "open_now": true
      },
      "photos": [
        {
          "height": 720,
          "html_attributions": [
            "<a href=\"https://maps.google.com/maps/contrib/100175719781977698218\">Gardens Suites Hotel by Affinia</a>"
          ],
          "photo_reference": "AeJbb3dWyDv0eHQG3vfr5MZdsfenrlYNJ0y0Bh3QoeAL46r3ec9PQUAB1cW-XpThTJODRlMGGT40mollufS15l6omPbnR4WMvBJb0daZxqQlQTNWY94yBPklDWk5RQr318UQE_HrwAua0HLCC2cQHu6hBqVGiIkYgo6u-hDXi-itM2jxuKVR",
          "width": 1280
        }
      ],
      "place_id": "ChIJ9dPN_OhYwokRRKPwdsxuno8",
      "plus_code": {
        "compound_code": "Q27P+QQ \u7f8e\u570b\u7d10\u7d04",
        "global_code": "87G8Q27P+QQ"
      },
      "rating": 4.2,
      "reference": "ChIJ9dPN_OhYwokRRKPwdsxuno8",
      "scope": "GOOGLE",
      "types": [
        "lodging",
        "point_of_interest",
        "establishment"
      ],
      "user_ratings_total": 404,
      "vicinity": "215 East 64th Street, New York"
    },
    {
      "business_status": "OPERATIONAL",
      "geometry": {
        "location": {
          "lat": 40.76636389999999,
          "lng": -73.9537935
        },
        "viewport": {
          "northeast": {
            "lat": 40.7677772802915,
            "lng": -73.9525562197085
          },
          "southwest": {
            "lat": 40.7650793197085,
            "lng": -73.95525418029152
          }
        }
      },
      "icon": "https://maps.gstatic.com/mapfiles/place_api/icons/v1/png_71/generic_business-71.png",
      "icon_background_color": "#7B9EB0",
      "icon_mask_base_uri": "https://maps.gstatic.com/mapfiles/place_api/icons/v2/generic_pinlet",
      "name": "Sotheby's New York",
      "opening_hours": {
        "open_now": true
      },
      "photos": [
        {
          "height": 342,
          "html_attributions": [
            "<a href=\"https://maps.google.com/maps/contrib/102610619566308513385\">Sotheby&#39;s</a>"
          ],
          "photo_reference": "AeJbb3fpV49cXT8TnbnTfMLfL3x2ZslXDHuAPuupSQxTboy16s4Hwy6rYDOaaakAyyn6XHAhSFHmlX3ThQKtJ4NHKgKqS5j5JD1KWeyLEE1_xBCQacS_ReHiJ-MeT9pteWSsWkGvQK44ayYBKMRMomYoSJ-KvE9SfdyYYTd484YpXtn2EExT",
          "width": 612
        }
      ],
      "place_id": "ChIJ1XG3UcFYwokRLJ7qBsOw3TI",
      "plus_code": {
        "compound_code": "Q28W+GF \u7f8e\u570b\u7d10\u7d04",
        "global_code": "87G8Q28W+GF"
      },
      "rating": 4.4,
      "reference": "ChIJ1XG3UcFYwokRLJ7qBsOw3TI",
      "scope": "GOOGLE",
      "types": [
        "point_of_interest",
        "establishment"
      ],
      "user_ratings_total": 266,
      "vicinity": "1334 York Avenue, New York"
    },
    {
      "business_status": "OPERATIONAL",
      "geometry": {
        "location": {
          "lat": 40.7624872,
          "lng": -73.9556762
        },
        "viewport": {
          "northeast": {
            "lat": 40.76500295,
            "lng": -73.95479435
          },
          "southwest": {
            "lat": 40.76073555,
            "lng": -73.95832175
          }
        }
      },
      "icon": "https://maps.gstatic.com/mapfiles/place_api/icons/v1/png_71/school-71.png",
      "icon_background_color": "#7B9EB0",
      "icon_mask_base_uri": "https://maps.gstatic.com/mapfiles/place_api/icons/v2/school_pinlet",
      "name": "\u6d1b\u514b\u6590\u52d2\u5927\u5b78",
      "photos": [
        {
          "height": 3055,
          "html_attributions": [
            "<a href=\"https://maps.google.com/maps/contrib/109987910796995884219\">Bob Long</a>"
          ],
          "photo_reference": "AeJbb3dF1aoA8ystpiER9C_JLvLm_gzhHBpIF5ZFKcb1RzIlAp9qGB95cZP5_Hxa1yukclb16Glc-S6vx6ZmYVwy1T5khY0AhhwkWcy6sg6E9MzJWZSXI41GhfBTCZz-6yiBUg2cbmfDaTkTDSbYSD5AwXdgP4YTQ5eSKO16klvVn1Eo166W",
          "width": 2292
        }
      ],
      "place_id": "ChIJjSuAGsNYwokRSi5irFmIJBI",
      "plus_code": {
        "compound_code": "Q26V+XP \u7f8e\u570b\u7d10\u7d04",
        "global_code": "87G8Q26V+XP"
      },
      "rating": 4.3,
      "reference": "ChIJjSuAGsNYwokRSi5irFmIJBI",
      "scope": "GOOGLE",
      "types": [
        "university",
        "point_of_interest",
        "establishment"
      ],
      "user_ratings_total": 96,
      "vicinity": "1230 York Avenue, New York"
    },
    {
      "business_status": "OPERATIONAL",
      "geometry": {
        "location": {
          "lat": 40.76317410000001,
          "lng": -73.95972359999999
        },
        "viewport": {
          "northeast": {
            "lat": 40.76464268029149,
            "lng": -73.9582277697085
          },
          "southwest": {
            "lat": 40.7619447197085,
            "lng": -73.9609257302915
          }
        }
      },
      "icon": "https://maps.gstatic.com/mapfiles/place_api/icons/v1/png_71/restaurant-71.png",
      "icon_background_color": "#FF9E67",
      "icon_mask_base_uri": "https://maps.gstatic.com/mapfiles/place_api/icons/v2/restaurant_pinlet",
      "name": "Maya",
      "opening_hours": {
        "open_now": true
      },
      "photos": [
        {
          "height": 2400,
          "html_attributions": [
            "<a href=\"https://maps.google.com/maps/contrib/110359429371411147860\">Maya</a>"
          ],
          "photo_reference": "AeJbb3f1FenLGjT_RR9bdXve6y0UBNpujdj1xd-kMfcnEISWGdWehXfpCw0YWGZVw5SZdytD8VVVHkUlaB_1T6pR8XWwz9_p-y_Ue_WhQp83TSoKc8bpArKaZxl5vAmhVS99BSOmVoVtc7jyyeJvBmIBGdM_c_1mHJ9zu1qlmL9JcKrDDMg2",
          "width": 3600
        }
      ],
      "place_id": "ChIJ474qnsJYwokRnrZMyvOb5XI",
      "plus_code": {
        "compound_code": "Q27R+74 \u7f8e\u570b\u7d10\u7d04",
        "global_code": "87G8Q27R+74"
      },
      "price_level": 2,
      "rating": 4.3,
      "reference": "ChIJ474qnsJYwokRnrZMyvOb5XI",
      "scope": "GOOGLE",
      "types": [
        "restaurant",
        "food",
        "point_of_interest",
        "establishment"
      ],
      "user_ratings_total": 1183,
      "vicinity": "1191 1st Avenue, New York"
    },
    {
      "business_status": "OPERATIONAL",
      "geometry": {
        "location": {
          "lat": 40.7673321,
          "lng": -73.9553123
        },
        "viewport": {
          "northeast": {
            "lat": 40.7687446302915,
            "lng": -73.9539108697085
          },
          "southwest": {
            "lat": 40.7660466697085,
            "lng": -73.9566088302915
          }
        }
      },
      "icon": "https://maps.gstatic.com/mapfiles/place_api/icons/v1/png_71/generic_business-71.png",
      "icon_background_color": "#7B9EB0",
      "icon_mask_base_uri": "https://maps.gstatic.com/mapfiles/place_api/icons/v2/generic_pinlet",
      "name": "Sheldon Fogelman Agency Inc",
      "opening_hours": {
        "open_now": false
      },
      "place_id": "ChIJ0wex8QBZwokRV6EkNrLqkJM",
      "plus_code": {
        "compound_code": "Q28V+WV \u7f8e\u570b\u7d10\u7d04",
        "global_code": "87G8Q28V+WV"
      },
      "reference": "ChIJ0wex8QBZwokRV6EkNrLqkJM",
      "scope": "GOOGLE",
      "types": [
        "lawyer",
        "point_of_interest",
        "establishment"
      ],
      "vicinity": "420 East 72nd Street, New York"
    },
    {
      "business_status": "OPERATIONAL",
      "geometry": {
        "location": {
          "lat": 40.7643668,
          "lng": -73.9552975
        },
        "viewport": {
          "northeast": {
            "lat": 40.7657274302915,
            "lng": -73.95407746970848
          },
          "southwest": {
            "lat": 40.7630294697085,
            "lng": -73.95677543029149
          }
        }
      },
      "icon": "https://maps.gstatic.com/mapfiles/place_api/icons/v1/png_71/generic_business-71.png",
      "icon_background_color": "#7B9EB0",
      "icon_mask_base_uri": "https://maps.gstatic.com/mapfiles/place_api/icons/v2/generic_pinlet",
      "name": "Mark M. Souweidane MD, Weill Cornell Medicine/NewYork-Presbyterian",
      "opening_hours": {
        "open_now": false
      },
      "photos": [
        {
          "height": 422,
          "html_attributions": [
            "<a href=\"https://maps.google.com/maps/contrib/113357079767988772528\">Mark M. Souweidane MD, Weill Cornell Medicine/NewYork-Presbyterian</a>"
          ],
          "photo_reference": "AeJbb3cPLCihqFxhy43agY5AlCdXW2NDa2FOGMCqOKT0kc5vpjUY4HCm_BEREoxHdcgveek9kH3GBNwEiGMSo60-sNoF5iJoP-Z-wIfo0mLxSOjCZAh-OZ5BReUZBXlTKcnSFGBpXgqbLKidD_ILzqJoxo4ZJTp8_vpWc1ZfKka1mLJodcSb",
          "width": 751
        }
      ],
      "place_id": "ChIJu7sYmMNYwokRgdtiHr_eFwU",
      "plus_code": {
        "compound_code": "Q27V+PV \u7f8e\u570b\u7d10\u7d04",
        "global_code": "87G8Q27V+PV"
      },
      "rating": 4.9,
      "reference": "ChIJu7sYmMNYwokRgdtiHr_eFwU",
      "scope": "GOOGLE",
      "types": [
        "doctor",
        "point_of_interest",
        "health",
        "establishment"
      ],
      "user_ratings_total": 138,
      "vicinity": "525 East 68th Street Box 99, New York"
    },
    {
      "business_status": "OPERATIONAL",
      "geometry": {
        "location": {
          "lat": 40.764354,
          "lng": -73.955163
        },
        "viewport": {
          "northeast": {
            "lat": 40.7656478802915,
            "lng": -73.9533651197085
          },
          "southwest": {
            "lat": 40.7629499197085,
            "lng": -73.95606308029151
          }
        }
      },
      "icon": "https://maps.gstatic.com/mapfiles/place_api/icons/v1/png_71/generic_business-71.png",
      "icon_background_color": "#7B9EB0",
      "icon_mask_base_uri": "https://maps.gstatic.com/mapfiles/place_api/icons/v2/generic_pinlet",
      "name": "Kevin Mennitt, M.D.",
      "opening_hours": {
        "open_now": false
      },
      "place_id": "ChIJu7sYmMNYwokR9SvI18yRPw8",
      "plus_code": {
        "compound_code": "Q27V+PW \u7f8e\u570b\u7d10\u7d04",
        "global_code": "87G8Q27V+PW"
      },
      "reference": "ChIJu7sYmMNYwokR9SvI18yRPw8",
      "scope": "GOOGLE",
      "types": [
        "doctor",
        "point_of_interest",
        "health",
        "establishment"
      ],
      "vicinity": "525 East 68th Street, New York"
    },
    {
      "business_status": "OPERATIONAL",
      "geometry": {
        "location": {
          "lat": 40.7644429,
          "lng": -73.9540688
        },
        "viewport": {
          "northeast": {
            "lat": 40.7656427802915,
            "lng": -73.9528452697085
          },
          "southwest": {
            "lat": 40.7629448197085,
            "lng": -73.95554323029151
          }
        }
      },
      "icon": "https://maps.gstatic.com/mapfiles/place_api/icons/v1/png_71/generic_business-71.png",
      "icon_background_color": "#7B9EB0",
      "icon_mask_base_uri": "https://maps.gstatic.com/mapfiles/place_api/icons/v2/generic_pinlet",
      "name": "Gail J. Roboz, M.D",
      "opening_hours": {
        "open_now": false
      },
      "photos": [
        {
          "height": 640,
          "html_attributions": [
            "<a href=\"https://maps.google.com/maps/contrib/104411368745741826295\">Gail J. Roboz, M.D</a>"
          ],
          "photo_reference": "AeJbb3cKda_dKwwFU4111-HEfLr-Xy1EloFi__I8ild55MEVUKpZBnVeMPFcmvWOq_s-pvB0c0Wf_RXKI3oodcsUqDdLG09OLP1PrDFtq6GS38fJ6tk6syhOsTPUu01NTXGQo18DwpQ_dakMzEBLW8aOJrZjAqeC2iKg2wbOcjldSC64sQY",
          "width": 480
        }
      ],
      "place_id": "ChIJE3zg-sNYwokR2iNDuGNH_3Y",
      "plus_code": {
        "compound_code": "Q27W+Q9 \u7f8e\u570b\u7d10\u7d04",
        "global_code": "87G8Q27W+Q9"
      },
      "rating": 5,
      "reference": "ChIJE3zg-sNYwokR2iNDuGNH_3Y",
      "scope": "GOOGLE",
      "types": [
        "doctor",
        "point_of_interest",
        "health",
        "establishment"
      ],
      "user_ratings_total": 61,
      "vicinity": "520 East 70th Street Starr Pavilion, 3rd Floor, New York"
    },
    {
      "business_status": "OPERATIONAL",
      "geometry": {
        "location": {
          "lat": 40.76874189999999,
          "lng": -73.9597198
        },
        "viewport": {
          "northeast": {
            "lat": 40.7700413802915,
            "lng": -73.9585595697085
          },
          "southwest": {
            "lat": 40.7673434197085,
            "lng": -73.9612575302915
          }
        }
      },
      "icon": "https://maps.gstatic.com/mapfiles/place_api/icons/v1/png_71/school-71.png",
      "icon_background_color": "#7B9EB0",
      "icon_mask_base_uri": "https://maps.gstatic.com/mapfiles/place_api/icons/v2/school_pinlet",
      "name": "\u746a\u9e97\u5c71\u66fc\u54c8\u9813\u5b78\u9662",
      "opening_hours": {
        "open_now": false
      },
      "photos": [
        {
          "height": 3456,
          "html_attributions": [
            "<a href=\"https://maps.google.com/maps/contrib/116792146771003824416\">Hussain Haqq</a>"
          ],
          "photo_reference": "AeJbb3f5xc2viJdz6VU0-i77b0Y8oQiWarvCoKoy9YQS2jEHpoj23MghBSNzr9syFAJb-NHDtgszjVBP8j1qLdw_TNtrPx1GvNKRDb7fyLUxoeMDN_8zIjCHmsodS0iGFJbtEdIGrLFVRR1DtK8v0II8VeUhJ7hf2XjpKEDk6e9DDLkxy7bs",
          "width": 4608
        }
      ],
      "place_id": "ChIJmfz3beRYwokR5gA3C0K2r6I",
      "plus_code": {
        "compound_code": "Q29R+F4 \u7f8e\u570b\u7d10\u7d04",
        "global_code": "87G8Q29R+F4"
      },
      "rating": 4.3,
      "reference": "ChIJmfz3beRYwokR5gA3C0K2r6I",
      "scope": "GOOGLE",
      "types": [
        "university",
        "point_of_interest",
        "establishment"
      ],
      "user_ratings_total": 67,
      "vicinity": "221 East 71st Street, New York"
    },
    {
      "business_status": "OPERATIONAL",
      "geometry": {
        "location": {
          "lat": 40.7643007,
          "lng": -73.9542797
        },
        "viewport": {
          "northeast": {
            "lat": 40.7655883802915,
            "lng": -73.9529739697085
          },
          "southwest": {
            "lat": 40.7628904197085,
            "lng": -73.9556719302915
          }
        }
      },
      "icon": "https://maps.gstatic.com/mapfiles/place_api/icons/v1/png_71/generic_business-71.png",
      "icon_background_color": "#7B9EB0",
      "icon_mask_base_uri": "https://maps.gstatic.com/mapfiles/place_api/icons/v2/generic_pinlet",
      "name": "Robin B. Kalish, M.D., FACOG",
      "opening_hours": {
        "open_now": false
      },
      "photos": [
        {
          "height": 560,
          "html_attributions": [
            "<a href=\"https://maps.google.com/maps/contrib/117423925710658820615\">Robin B. Kalish, M.D., FACOG</a>"
          ],
          "photo_reference": "AeJbb3dj4jvthCWCrULI6U3XYM4ZbTbmKVfgkcomQF-TVDaQFj3-rDsHOvzBCTwv3_KCTh3um0YBifr5AEoTRVG_ugz6mzOLA8zgN-4KaQcZiBkt_NVf-R6o94IxDNuVAP7fYEUIOKAjspr1KalYfCO2EixDmq-lRSjmYAjrsLolOvTUX14l",
          "width": 420
        }
      ],
      "place_id": "ChIJu7sYmMNYwokRDdR5vs3GA3I",
      "plus_code": {
        "compound_code": "Q27W+P7 \u7f8e\u570b\u7d10\u7d04",
        "global_code": "87G8Q27W+P7"
      },
      "rating": 4.9,
      "reference": "ChIJu7sYmMNYwokRDdR5vs3GA3I",
      "scope": "GOOGLE",
      "types": [
        "doctor",
        "point_of_interest",
        "health",
        "establishment"
      ],
      "user_ratings_total": 53,
      "vicinity": "525 East 68th Street J-130, New York"
    },
    {
      "business_status": "OPERATIONAL",
      "geometry": {
        "location": {
          "lat": 40.7643316,
          "lng": -73.95425589999999
        },
        "viewport": {
          "northeast": {
            "lat": 40.7656403302915,
            "lng": -73.9530433697085
          },
          "southwest": {
            "lat": 40.7629423697085,
            "lng": -73.9557413302915
          }
        }
      },
      "icon": "https://maps.gstatic.com/mapfiles/place_api/icons/v1/png_71/generic_business-71.png",
      "icon_background_color": "#7B9EB0",
      "icon_mask_base_uri": "https://maps.gstatic.com/mapfiles/place_api/icons/v2/generic_pinlet",
      "name": "Annie Li, M.D.",
      "place_id": "ChIJu7sYmMNYwokR-z2qXGVWSls",
      "plus_code": {
        "compound_code": "Q27W+P7 \u7f8e\u570b\u7d10\u7d04",
        "global_code": "87G8Q27W+P7"
      },
      "reference": "ChIJu7sYmMNYwokR-z2qXGVWSls",
      "scope": "GOOGLE",
      "types": [
        "doctor",
        "point_of_interest",
        "health",
        "establishment"
      ],
      "vicinity": "525 East 68th Street, New York"
    },
    {
      "business_status": "OPERATIONAL",
      "geometry": {
        "location": {
          "lat": 40.764712,
          "lng": -73.954499
        },
        "viewport": {
          "northeast": {
            "lat": 40.7657940302915,
            "lng": -73.95306401970848
          },
          "southwest": {
            "lat": 40.7630960697085,
            "lng": -73.9557619802915
          }
        }
      },
      "icon": "https://maps.gstatic.com/mapfiles/place_api/icons/v1/png_71/generic_business-71.png",
      "icon_background_color": "#7B9EB0",
      "icon_mask_base_uri": "https://maps.gstatic.com/mapfiles/place_api/icons/v2/generic_pinlet",
      "name": "Fun-Sun Frank Yao, M.D.",
      "photos": [
        {
          "height": 560,
          "html_attributions": [
            "<a href=\"https://maps.google.com/maps/contrib/111340585618056773363\">Fun-Sun Frank Yao, M.D.</a>"
          ],
          "photo_reference": "AeJbb3eHrnoWWXDGWhEM0U6fwaJPcnYmM0ccFAt0J7RhJtyYcUIcrfD_DxHlU0sRT73ARqbnT4e9VlifXKrFr7M4OTIn2RKDpc1E-jV8i4Cj5hfM3J9qdvM1M792lXMr7ouHPBoSXFnZEIjn9LboR0-tUfBoHn7bAOexQwUyRHEM-vdR2tm3",
          "width": 420
        }
      ],
      "place_id": "ChIJu7sYmMNYwokRngrjTZG2mSU",
      "plus_code": {
        "compound_code": "Q27W+V6 \u7f8e\u570b\u7d10\u7d04",
        "global_code": "87G8Q27W+V6"
      },
      "reference": "ChIJu7sYmMNYwokRngrjTZG2mSU",
      "scope": "GOOGLE",
      "types": [
        "doctor",
        "point_of_interest",
        "health",
        "establishment"
      ],
      "vicinity": "525 East 68th Street m332, New York"
    },
    {
      "business_status": "OPERATIONAL",
      "geometry": {
        "location": {
          "lat": 40.7644929,
          "lng": -73.9546173
        },
        "viewport": {
          "northeast": {
            "lat": 40.7657238802915,
            "lng": -73.95326176970848
          },
          "southwest": {
            "lat": 40.7630259197085,
            "lng": -73.9559597302915
          }
        }
      },
      "icon": "https://maps.gstatic.com/mapfiles/place_api/icons/v1/png_71/generic_business-71.png",
      "icon_background_color": "#7B9EB0",
      "icon_mask_base_uri": "https://maps.gstatic.com/mapfiles/place_api/icons/v2/generic_pinlet",
      "name": "Dr. Donna L. Skerrett, MD",
      "place_id": "ChIJu7sYmMNYwokRbUbMZqIdSLU",
      "plus_code": {
        "compound_code": "Q27W+Q5 \u7f8e\u570b\u7d10\u7d04",
        "global_code": "87G8Q27W+Q5"
      },
      "reference": "ChIJu7sYmMNYwokRbUbMZqIdSLU",
      "scope": "GOOGLE",
      "types": [
        "doctor",
        "point_of_interest",
        "health",
        "establishment"
      ],
      "vicinity": "525 East 68th Street # 10W, New York"
    },
    {
      "business_status": "OPERATIONAL",
      "geometry": {
        "location": {
          "lat": 40.7659901,
          "lng": -73.9549025
        },
        "viewport": {
          "northeast": {
            "lat": 40.7672025802915,
            "lng": -73.9536539697085
          },
          "southwest": {
            "lat": 40.7645046197085,
            "lng": -73.9563519302915
          }
        }
      },
      "icon": "https://maps.gstatic.com/mapfiles/place_api/icons/v1/png_71/generic_business-71.png",
      "icon_background_color": "#7B9EB0",
      "icon_mask_base_uri": "https://maps.gstatic.com/mapfiles/place_api/icons/v2/generic_pinlet",
      "name": "Dr. Jeffrey W. Milsom, MD",
      "place_id": "ChIJu7sYmMNYwokRp1SOzRlgOhk",
      "plus_code": {
        "compound_code": "Q28W+92 \u7f8e\u570b\u7d10\u7d04",
        "global_code": "87G8Q28W+92"
      },
      "rating": 5,
      "reference": "ChIJu7sYmMNYwokRp1SOzRlgOhk",
      "scope": "GOOGLE",
      "types": [
        "doctor",
        "point_of_interest",
        "health",
        "establishment"
      ],
      "user_ratings_total": 63,
      "vicinity": "1315 York Avenue, New York"
    },
    {
      "business_status": "OPERATIONAL",
      "geometry": {
        "location": {
          "lat": 40.7656066,
          "lng": -73.9553663
        },
        "viewport": {
          "northeast": {
            "lat": 40.7670059802915,
            "lng": -73.9537987697085
          },
          "southwest": {
            "lat": 40.7643080197085,
            "lng": -73.9564967302915
          }
        }
      },
      "icon": "https://maps.gstatic.com/mapfiles/place_api/icons/v1/png_71/generic_business-71.png",
      "icon_background_color": "#7B9EB0",
      "icon_mask_base_uri": "https://maps.gstatic.com/mapfiles/place_api/icons/v2/generic_pinlet",
      "name": "Susan C. Pannullo, M.D.",
      "photos": [
        {
          "height": 560,
          "html_attributions": [
            "<a href=\"https://maps.google.com/maps/contrib/104672960389018058716\">Susan C. Pannullo, M.D.</a>"
          ],
          "photo_reference": "AeJbb3dOlvjsL1WrZuN92YjbxowAZhponiXU-Nf0d00Z025kn5yJ_lW3VQ8G9ylFidWfmObSflojsm3-yniAVb2z6wlvPDw7hYhtm0aOiA0v3tVbrHu6zIdHV7OIZLPHZ0MKFy04QzNOsasah0LZ2RKKcntF63IjZFTgSGySKAbZjtVS4rk6",
          "width": 420
        }
      ],
      "place_id": "ChIJu7sYmMNYwokRGJtZaScVzIc",
      "plus_code": {
        "compound_code": "Q28V+6V \u7f8e\u570b\u7d10\u7d04",
        "global_code": "87G8Q28V+6V"
      },
      "rating": 5,
      "reference": "ChIJu7sYmMNYwokRGJtZaScVzIc",
      "scope": "GOOGLE",
      "types": [
        "doctor",
        "point_of_interest",
        "health",
        "establishment"
      ],
      "user_ratings_total": 75,
      "vicinity": "1305 York Avenue 9th Floor, New York"
    },
    {
      "business_status": "OPERATIONAL",
      "geometry": {
        "location": {
          "lat": 40.7646312,
          "lng": -73.9540559
        },
        "viewport": {
          "northeast": {
            "lat": 40.76575513029149,
            "lng": -73.9528657197085
          },
          "southwest": {
            "lat": 40.76305716970849,
            "lng": -73.9555636802915
          }
        }
      },
      "icon": "https://maps.gstatic.com/mapfiles/place_api/icons/v1/png_71/generic_business-71.png",
      "icon_background_color": "#7B9EB0",
      "icon_mask_base_uri": "https://maps.gstatic.com/mapfiles/place_api/icons/v2/generic_pinlet",
      "name": "Maggio Louis J MD",
      "place_id": "ChIJu7sYmMNYwokRXH0GfzLtkhc",
      "reference": "ChIJu7sYmMNYwokRXH0GfzLtkhc",
      "scope": "GOOGLE",
      "types": [
        "doctor",
        "point_of_interest",
        "health",
        "establishment"
      ],
      "vicinity": "525 East 68th Street M 324, New York"
    },
    {
      "business_status": "OPERATIONAL",
      "geometry": {
        "location": {
          "lat": 40.7643989,
          "lng": -73.9541903
        },
        "viewport": {
          "northeast": {
            "lat": 40.7656343302915,
            "lng": -73.95292146970849
          },
          "southwest": {
            "lat": 40.76293636970851,
            "lng": -73.9556194302915
          }
        }
      },
      "icon": "https://maps.gstatic.com/mapfiles/place_api/icons/v1/png_71/generic_business-71.png",
      "icon_background_color": "#7B9EB0",
      "icon_mask_base_uri": "https://maps.gstatic.com/mapfiles/place_api/icons/v2/generic_pinlet",
      "name": "Leonard Girardi MD : Cardiac Surgeon",
      "opening_hours": {
        "open_now": false
      },
      "photos": [
        {
          "height": 3121,
          "html_attributions": [
            "<a href=\"https://maps.google.com/maps/contrib/100651965165169916207\">Leonard Girardi MD : Cardiac Surgeon</a>"
          ],
          "photo_reference": "AeJbb3dGf4q6SbRbHvC6YWE-XGXWR6kQtMQRlWCxccOzryRMzVFcYcxZlSB4AWX24DXZ3UN95EZWYU6qQFPii4bqaRUGaWeHrL3fOhdQsP2qoQqkPG7PYFbLaiAI0wAB42HNIIB5U5SwQmJ0L2AZFOlOszLhcH7ZnIMkDzyimeOCB9KWqOtC",
          "width": 2675
        }
      ],
      "place_id": "ChIJu7sYmMNYwokRAWA5MZeJEPk",
      "plus_code": {
        "compound_code": "Q27W+Q8 \u7f8e\u570b\u7d10\u7d04",
        "global_code": "87G8Q27W+Q8"
      },
      "rating": 4.9,
      "reference": "ChIJu7sYmMNYwokRAWA5MZeJEPk",
      "scope": "GOOGLE",
      "types": [
        "doctor",
        "point_of_interest",
        "health",
        "establishment"
      ],
      "user_ratings_total": 293,
      "vicinity": "525 East 68th Street M-404, New York"
    },
    {
      "business_status": "OPERATIONAL",
      "geometry": {
        "location": {
          "lat": 40.764285,
          "lng": -73.954258
        },
        "viewport": {
          "northeast": {
            "lat": 40.7655753802915,
            "lng": -73.95295036970849
          },
          "southwest": {
            "lat": 40.76287741970851,
            "lng": -73.95564833029151
          }
        }
      },
      "icon": "https://maps.gstatic.com/mapfiles/place_api/icons/v1/png_71/generic_business-71.png",
      "icon_background_color": "#7B9EB0",
      "icon_mask_base_uri": "https://maps.gstatic.com/mapfiles/place_api/icons/v2/generic_pinlet",
      "name": "Dr. Roger W. Yurt, MD",
      "place_id": "ChIJu7sYmMNYwokRwgQYBsvr8Xs",
      "plus_code": {
        "compound_code": "Q27W+P7 \u7f8e\u570b\u7d10\u7d04",
        "global_code": "87G8Q27W+P7"
      },
      "rating": 5,
      "reference": "ChIJu7sYmMNYwokRwgQYBsvr8Xs",
      "scope": "GOOGLE",
      "types": [
        "doctor",
        "point_of_interest",
        "health",
        "establishment"
      ],
      "user_ratings_total": 1,
      "vicinity": "525 East 68th Street # L706, New York"
    },
    {
      "geometry": {
        "location": {
          "lat": 40.7830603,
          "lng": -73.9712488
        },
        "viewport": {
          "northeast": {
            "lat": 40.820045,
            "lng": -73.90331300000001
          },
          "southwest": {
            "lat": 40.698078,
            "lng": -74.03514899999999
          }
        }
      },
      "icon": "https://maps.gstatic.com/mapfiles/place_api/icons/v1/png_71/geocode-71.png",
      "icon_background_color": "#7B9EB0",
      "icon_mask_base_uri": "https://maps.gstatic.com/mapfiles/place_api/icons/v2/generic_pinlet",
      "name": "\u66fc\u54c8\u9813",
      "photos": [
        {
          "height": 1199,
          "html_attributions": [
            "<a href=\"https://maps.google.com/maps/contrib/108803842220307386999\">Debeli Atleti\u010dar</a>"
          ],
          "photo_reference": "AeJbb3d8VBb0KF0PvGdWfi8dARywoghzYlTjSpUwr0tgrtsiiFj9QiFsXWROzFFiXAvu8FcPPvGlzHtw6i0nfLguizOfvV_dnXVA1YZM-dwYa36bw3khlro7lBkQezvGWWS1Llt5SnplA03Zc9BgCoatOFTKWHzTXxZ6ekWs2xmRG1qdpgoW",
          "width": 1800
        }
      ],
      "place_id": "ChIJYeZuBI9YwokRjMDs_IEyCwo",
      "reference": "ChIJYeZuBI9YwokRjMDs_IEyCwo",
      "scope": "GOOGLE",
      "types": [
        "sublocality_level_1",
        "sublocality",
        "political"
      ],
      "vicinity": "\u66fc\u54c8\u9813"
    },
    {
      "business_status": "OPERATIONAL",
      "geometry": {
        "location": {
          "lat": 40.7653683,
          "lng": -73.9596962
        },
        "viewport": {
          "northeast": {
            "lat": 40.7666511802915,
            "lng": -73.95839521970849
          },
          "southwest": {
            "lat": 40.7639532197085,
            "lng": -73.9610931802915
          }
        }
      },
      "icon": "https://maps.gstatic.com/mapfiles/place_api/icons/v1/png_71/school-71.png",
      "icon_background_color": "#7B9EB0",
      "icon_mask_base_uri": "https://maps.gstatic.com/mapfiles/place_api/icons/v2/school_pinlet",
      "name": "M565 Urban Academy Laboratory High School",
      "place_id": "ChIJy3rG3elYwokR8z7wD5NjlOE",
      "plus_code": {
        "compound_code": "Q28R+44 New York, NY, USA",
        "global_code": "87G8Q28R+44"
      },
      "rating": 5,
      "reference": "ChIJy3rG3elYwokR8z7wD5NjlOE",
      "scope": "GOOGLE",
      "types": [
        "point_of_interest",
        "school",
        "establishment"
      ],
      "user_ratings_total": 13,
      "vicinity": "317 East 67th Street, New York"
    },
    {
      "business_status": "OPERATIONAL",
      "geometry": {
        "location": {
          "lat": 40.7658312,
          "lng": -73.95587019999999
        },
        "viewport": {
          "northeast": {
            "lat": 40.7672602802915,
            "lng": -73.95446216970848
          },
          "southwest": {
            "lat": 40.7645623197085,
            "lng": -73.9571601302915
          }
        }
      },
      "icon": "https://maps.gstatic.com/mapfiles/place_api/icons/v1/png_71/generic_business-71.png",
      "icon_background_color": "#7B9EB0",
      "icon_mask_base_uri": "https://maps.gstatic.com/mapfiles/place_api/icons/v2/generic_pinlet",
      "name": "Manikkam Suthanthiran, M.D.",
      "photos": [
        {
          "height": 640,
          "html_attributions": [
            "<a href=\"https://maps.google.com/maps/contrib/104299492370619683201\">Manikkam Suthanthiran, M.D.</a>"
          ],
          "photo_reference": "AeJbb3fxnKFAcYo_ptiSJLphsIs7YKKRp_t7Q08zglYfbVopzaCvPSKRt5UAIbOBSumNT4DFHcFtTq_7-x1AnMe1ehNKbEOjx8GSTDbFrnNbZYG9RwFT8SZUNTNUF4ohcxq23C_wPb-Q72i355yln9ZXLpQf0986nCFPH4LQjPGK8O0WVGVi",
          "width": 640
        }
      ],
      "place_id": "ChIJu7sYmMNYwokR6P4a7PELVTA",
      "plus_code": {
        "compound_code": "Q28V+8M New York, NY, USA",
        "global_code": "87G8Q28V+8M"
      },
      "reference": "ChIJu7sYmMNYwokR6P4a7PELVTA",
      "scope": "GOOGLE",
      "types": [
        "doctor",
        "point_of_interest",
        "health",
        "establishment"
      ],
      "vicinity": "424 East 70th Street, New York"
    },
    {
      "business_status": "OPERATIONAL",
      "geometry": {
        "location": {
          "lat": 40.7647759,
          "lng": -73.954729
        },
        "viewport": {
          "northeast": {
            "lat": 40.7658320302915,
            "lng": -73.95317536970849
          },
          "southwest": {
            "lat": 40.7631340697085,
            "lng": -73.95587333029151
          }
        }
      },
      "icon": "https://maps.gstatic.com/mapfiles/place_api/icons/v1/png_71/generic_business-71.png",
      "icon_background_color": "#7B9EB0",
      "icon_mask_base_uri": "https://maps.gstatic.com/mapfiles/place_api/icons/v2/generic_pinlet",
      "name": "C. David Lin, M.D.",
      "opening_hours": {
        "open_now": false
      },
      "photos": [
        {
          "height": 560,
          "html_attributions": [
            "<a href=\"https://maps.google.com/maps/contrib/103965880336444828473\">C. David Lin, M.D.</a>"
          ],
          "photo_reference": "AeJbb3fdZK_63ckAjSvPS6z6K-cvQEpM83jiaoIHQKpk1DD-A9VGLJxxZhdeGvya9WoFa3CBeC7RiVwBOw-y5jv27BVY7ZXThIQhLni6EC3g8gcyIMsDlP-0-Y-tM-z69cHx5P89zGsNRRBWbD0o7SxrGlMAQkbhMJSSUiL4MSEPaygwAIF_",
          "width": 420
        }
      ],
      "place_id": "ChIJu7sYmMNYwokRanKtjF9H0Es",
      "plus_code": {
        "compound_code": "Q27W+W4 New York, NY, USA",
        "global_code": "87G8Q27W+W4"
      },
      "rating": 4.9,
      "reference": "ChIJu7sYmMNYwokRanKtjF9H0Es",
      "scope": "GOOGLE",
      "types": [
        "doctor",
        "point_of_interest",
        "health",
        "establishment"
      ],
      "user_ratings_total": 310,
      "vicinity": "525 East 68th Street 16th floor, New York"
    },
    {
      "business_status": "OPERATIONAL",
      "geometry": {
        "location": {
          "lat": 40.7641043,
          "lng": -73.95603109999999
        },
        "viewport": {
          "northeast": {
            "lat": 40.7654125802915,
            "lng": -73.9545771697085
          },
          "southwest": {
            "lat": 40.7627146197085,
            "lng": -73.9572751302915
          }
        }
      },
      "icon": "https://maps.gstatic.com/mapfiles/place_api/icons/v1/png_71/generic_business-71.png",
      "icon_background_color": "#7B9EB0",
      "icon_mask_base_uri": "https://maps.gstatic.com/mapfiles/place_api/icons/v2/generic_pinlet",
      "name": "Vittoria Arslan-Carlon, MD",
      "place_id": "ChIJu7sYmMNYwokRdKn8acoINhg",
      "plus_code": {
        "compound_code": "Q27V+JH New York, NY, USA",
        "global_code": "87G8Q27V+JH"
      },
      "reference": "ChIJu7sYmMNYwokRdKn8acoINhg",
      "scope": "GOOGLE",
      "types": [
        "doctor",
        "point_of_interest",
        "health",
        "establishment"
      ],
      "vicinity": "1275 York Avenue, New York"
    },
    {
      "business_status": "OPERATIONAL",
      "geometry": {
        "location": {
          "lat": 40.76506430000001,
          "lng": -73.9537023
        },
        "viewport": {
          "northeast": {
            "lat": 40.7660030302915,
            "lng": -73.95276656970849
          },
          "southwest": {
            "lat": 40.7633050697085,
            "lng": -73.9554645302915
          }
        }
      },
      "icon": "https://maps.gstatic.com/mapfiles/place_api/icons/v1/png_71/generic_business-71.png",
      "icon_background_color": "#7B9EB0",
      "icon_mask_base_uri": "https://maps.gstatic.com/mapfiles/place_api/icons/v2/generic_pinlet",
      "name": "Nitsana A. Spigland, M.D.",
      "opening_hours": {
        "open_now": false
      },
      "place_id": "ChIJu7sYmMNYwokR0ixLBYI-KO4",
      "rating": 5,
      "reference": "ChIJu7sYmMNYwokR0ixLBYI-KO4",
      "scope": "GOOGLE",
      "types": [
        "doctor",
        "point_of_interest",
        "health",
        "establishment"
      ],
      "user_ratings_total": 36,
      "vicinity": "Pediatric Surgery and Pediatric Trauma, 520 East 70th Street L-718, New York"
    },
    {
      "business_status": "OPERATIONAL",
      "geometry": {
        "location": {
          "lat": 40.7656066,
          "lng": -73.9553663
        },
        "viewport": {
          "northeast": {
            "lat": 40.7670059802915,
            "lng": -73.9537987697085
          },
          "southwest": {
            "lat": 40.7643080197085,
            "lng": -73.9564967302915
          }
        }
      },
      "icon": "https://maps.gstatic.com/mapfiles/place_api/icons/v1/png_71/generic_business-71.png",
      "icon_background_color": "#7B9EB0",
      "icon_mask_base_uri": "https://maps.gstatic.com/mapfiles/place_api/icons/v2/generic_pinlet",
      "name": "Jeffrey P Greenfield MD PhD",
      "opening_hours": {
        "open_now": false
      },
      "photos": [
        {
          "height": 466,
          "html_attributions": [
            "<a href=\"https://maps.google.com/maps/contrib/116532520708824573739\">Jeffrey P Greenfield MD PhD</a>"
          ],
          "photo_reference": "AeJbb3flJ2Ea8UReRDcpG_rAkW13hlkUviPleRyLUVFWsq-65yr9IndoMOxnFY7UwnOcXkAiOcz2GVimf6lDQbHxZzShQxWZnqzHJYOM_9204u3gj-R_Py_p7I6EmZoCe6dRuJOhuycxDDJ2_41P9wr1tT0GQG8hfu_Xa82y9pzTD1so4k6s",
          "width": 646
        }
      ],
      "place_id": "ChIJu7sYmMNYwokRFTxY26Sknnc",
      "plus_code": {
        "compound_code": "Q28V+6V New York, NY, USA",
        "global_code": "87G8Q28V+6V"
      },
      "rating": 4.9,
      "reference": "ChIJu7sYmMNYwokRFTxY26Sknnc",
      "scope": "GOOGLE",
      "types": [
        "doctor",
        "point_of_interest",
        "health",
        "establishment"
      ],
      "user_ratings_total": 236,
      "vicinity": "1305 York Avenue 9th Floor, New York"
    },
    {
      "business_status": "OPERATIONAL",
      "geometry": {
        "location": {
          "lat": 40.7643535,
          "lng": -73.9551627
        },
        "viewport": {
          "northeast": {
            "lat": 40.7656476302915,
            "lng": -73.9533649697085
          },
          "southwest": {
            "lat": 40.7629496697085,
            "lng": -73.95606293029151
          }
        }
      },
      "icon": "https://maps.gstatic.com/mapfiles/place_api/icons/v1/png_71/generic_business-71.png",
      "icon_background_color": "#7B9EB0",
      "icon_mask_base_uri": "https://maps.gstatic.com/mapfiles/place_api/icons/v2/generic_pinlet",
      "name": "Pediatric Endocrinology Department",
      "place_id": "ChIJu7sYmMNYwokRw5En8m51gO4",
      "plus_code": {
        "compound_code": "Q27V+PW New York, NY, USA",
        "global_code": "87G8Q27V+PW"
      },
      "reference": "ChIJu7sYmMNYwokRw5En8m51gO4",
      "scope": "GOOGLE",
      "types": [
        "doctor",
        "point_of_interest",
        "health",
        "establishment"
      ],
      "vicinity": "525 East 68th Street, New York"
    },
    {
      "business_status": "OPERATIONAL",
      "geometry": {
        "location": {
          "lat": 40.7645213,
          "lng": -73.9551547
        },
        "viewport": {
          "northeast": {
            "lat": 40.76564768029149,
            "lng": -73.95338821970849
          },
          "southwest": {
            "lat": 40.7629497197085,
            "lng": -73.95608618029149
          }
        }
      },
      "icon": "https://maps.gstatic.com/mapfiles/place_api/icons/v1/png_71/generic_business-71.png",
      "icon_background_color": "#7B9EB0",
      "icon_mask_base_uri": "https://maps.gstatic.com/mapfiles/place_api/icons/v2/generic_pinlet",
      "name": "Jordan Nicole MD",
      "place_id": "ChIJu7sYmMNYwokRXTTpknin94A",
      "plus_code": {
        "compound_code": "Q27V+RW New York, NY, USA",
        "global_code": "87G8Q27V+RW"
      },
      "reference": "ChIJu7sYmMNYwokRXTTpknin94A",
      "scope": "GOOGLE",
      "types": [
        "doctor",
        "point_of_interest",
        "health",
        "establishment"
      ],
      "vicinity": "525 East 68th Street #214, New York"
    },
    {
      "business_status": "OPERATIONAL",
      "geometry": {
        "location": {
          "lat": 40.7643535,
          "lng": -73.9551627
        },
        "viewport": {
          "northeast": {
            "lat": 40.76556378029149,
            "lng": -73.9533922197085
          },
          "southwest": {
            "lat": 40.76286581970849,
            "lng": -73.95609018029151
          }
        }
      },
      "icon": "https://maps.gstatic.com/mapfiles/place_api/icons/v1/png_71/generic_business-71.png",
      "icon_background_color": "#7B9EB0",
      "icon_mask_base_uri": "https://maps.gstatic.com/mapfiles/place_api/icons/v2/generic_pinlet",
      "name": "Jamieson Dara G MD",
      "place_id": "ChIJu7sYmMNYwokRtoHBd62dD-M",
      "plus_code": {
        "compound_code": "Q27V+PW New York, NY, USA",
        "global_code": "87G8Q27V+PW"
      },
      "reference": "ChIJu7sYmMNYwokRtoHBd62dD-M",
      "scope": "GOOGLE",
      "types": [
        "doctor",
        "point_of_interest",
        "health",
        "establishment"
      ],
      "vicinity": "525 East 68th Street # F, New York"
    },
    {
      "business_status": "OPERATIONAL",
      "geometry": {
        "location": {
          "lat": 40.7659901,
          "lng": -73.9549025
        },
        "viewport": {
          "northeast": {
            "lat": 40.76720263029149,
            "lng": -73.9536541697085
          },
          "southwest": {
            "lat": 40.76450466970849,
            "lng": -73.9563521302915
          }
        }
      },
      "icon": "https://maps.gstatic.com/mapfiles/place_api/icons/v1/png_71/generic_business-71.png",
      "icon_background_color": "#7B9EB0",
      "icon_mask_base_uri": "https://maps.gstatic.com/mapfiles/place_api/icons/v2/generic_pinlet",
      "name": "Kelly A. Garrett, M.D.",
      "place_id": "ChIJu7sYmMNYwokRk8U2W6uSNDg",
      "plus_code": {
        "compound_code": "Q28W+92 New York, NY, USA",
        "global_code": "87G8Q28W+92"
      },
      "rating": 4.8,
      "reference": "ChIJu7sYmMNYwokRk8U2W6uSNDg",
      "scope": "GOOGLE",
      "types": [
        "doctor",
        "point_of_interest",
        "health",
        "establishment"
      ],
      "user_ratings_total": 125,
      "vicinity": "1315 York Avenue, New York"
    },
    {
      "business_status": "OPERATIONAL",
      "geometry": {
        "location": {
          "lat": 40.7644705,
          "lng": -73.954613
        },
        "viewport": {
          "northeast": {
            "lat": 40.76567328029149,
            "lng": -73.95312101970849
          },
          "southwest": {
            "lat": 40.7629753197085,
            "lng": -73.9558189802915
          }
        }
      },
      "icon": "https://maps.gstatic.com/mapfiles/place_api/icons/v1/png_71/generic_business-71.png",
      "icon_background_color": "#7B9EB0",
      "icon_mask_base_uri": "https://maps.gstatic.com/mapfiles/place_api/icons/v2/generic_pinlet",
      "name": "Samuel Thompson Merrick, M.D.",
      "opening_hours": {
        "open_now": false
      },
      "photos": [
        {
          "height": 301,
          "html_attributions": [
            "<a href=\"https://maps.google.com/maps/contrib/100294142309170311401\">Samuel Thompson Merrick, M.D.</a>"
          ],
          "photo_reference": "AeJbb3fcKDZUO12ogD56HpKeY9sAFg2PYN35rNihrIFXkTtaA5-vea_PPoLVR1UoeZiy09D33GAXAENmvk9fFq9yTLdYFsl4W3XQaEKyampZOPOlaPOwQb1Z9iwX0BzMUmB15kIdUQ0RKR4MZgSEXDqOtLDzyN4DcrlF8beBY1CcYgmJqGc",
          "width": 301
        }
      ],
      "place_id": "ChIJu7sYmMNYwokRk4wNMyK3xBg",
      "plus_code": {
        "compound_code": "Q27W+Q5 New York, NY, USA",
        "global_code": "87G8Q27W+Q5"
      },
      "rating": 5,
      "reference": "ChIJu7sYmMNYwokRk4wNMyK3xBg",
      "scope": "GOOGLE",
      "types": [
        "doctor",
        "point_of_interest",
        "health",
        "establishment"
      ],
      "user_ratings_total": 2,
      "vicinity": "525 East 68th Street 24th Floor, New York"
    },
    {
      "business_status": "OPERATIONAL",
      "geometry": {
        "location": {
          "lat": 40.764285,
          "lng": -73.954258
        },
        "viewport": {
          "northeast": {
            "lat": 40.76558053029149,
            "lng": -73.95296311970849
          },
          "southwest": {
            "lat": 40.76288256970849,
            "lng": -73.95566108029149
          }
        }
      },
      "icon": "https://maps.gstatic.com/mapfiles/place_api/icons/v1/png_71/generic_business-71.png",
      "icon_background_color": "#7B9EB0",
      "icon_mask_base_uri": "https://maps.gstatic.com/mapfiles/place_api/icons/v2/generic_pinlet",
      "name": "Kane Pryor, M.B., B.S.",
      "opening_hours": {
        "open_now": false
      },
      "photos": [
        {
          "height": 640,
          "html_attributions": [
            "<a href=\"https://maps.google.com/maps/contrib/108034190544775781077\">Kane Pryor, M.B., B.S.</a>"
          ],
          "photo_reference": "AeJbb3d43iDXDlA-AyMgSjiYJuAGnPslkCZzh7o1wpqvgGyjZaq5GqYKXmolHh36tg_I2rp1l0rYC-CxfeEFvXIIoPc6viPcg2WB58GnjJPTZy3qwzG0fKuLnG3xK-iHBxb058ImpfOpFMna34BlM2e3aOwy3sKz9nFOjxPZdztZllHb6UGn",
          "width": 480
        }
      ],
      "place_id": "ChIJu7sYmMNYwokRmgyDgXymTCU",
      "plus_code": {
        "compound_code": "Q27W+P7 New York, NY, USA",
        "global_code": "87G8Q27W+P7"
      },
      "reference": "ChIJu7sYmMNYwokRmgyDgXymTCU",
      "scope": "GOOGLE",
      "types": [
        "doctor",
        "point_of_interest",
        "health",
        "establishment"
      ],
      "vicinity": "525 East 68th Street # M324, New York"
    },
    {
      "business_status": "OPERATIONAL",
      "geometry": {
        "location": {
          "lat": 40.7644705,
          "lng": -73.954613
        },
        "viewport": {
          "northeast": {
            "lat": 40.76567328029149,
            "lng": -73.95312101970849
          },
          "southwest": {
            "lat": 40.7629753197085,
            "lng": -73.9558189802915
          }
        }
      },
      "icon": "https://maps.gstatic.com/mapfiles/place_api/icons/v1/png_71/generic_business-71.png",
      "icon_background_color": "#7B9EB0",
      "icon_mask_base_uri": "https://maps.gstatic.com/mapfiles/place_api/icons/v2/generic_pinlet",
      "name": "Sian Jones, M.D.",
      "photos": [
        {
          "height": 301,
          "html_attributions": [
            "<a href=\"https://maps.google.com/maps/contrib/101037788320089274416\">Sian Jones, M.D.</a>"
          ],
          "photo_reference": "AeJbb3eNxxoOuFxLbNkfSdN24xAwZEludfXkOq1Bdqaq-zKqeGyNnbnCIrn2ek4xqyeHkYGlh6DoOHUx17jflSVyds3a5rMjYQT0KDQIM9SOA2CWzn6NpWseAoSkGNauVeUMZLvz0gGO-DRhZikCpmniTM4oHoVvJTkV751IXryLVmDzpih1",
          "width": 301
        }
      ],
      "place_id": "ChIJu7sYmMNYwokRacglpkHb_No",
      "plus_code": {
        "compound_code": "Q27W+Q5 New York, NY, USA",
        "global_code": "87G8Q27W+Q5"
      },
      "rating": 5,
      "reference": "ChIJu7sYmMNYwokRacglpkHb_No",
      "scope": "GOOGLE",
      "types": [
        "doctor",
        "point_of_interest",
        "health",
        "establishment"
      ],
      "user_ratings_total": 2,
      "vicinity": "525 East 68th Street 24th Floor, New York"
    },
    {
      "business_status": "OPERATIONAL",
      "geometry": {
        "location": {
          "lat": 40.7645537,
          "lng": -73.9543757
        },
        "viewport": {
          "northeast": {
            "lat": 40.7657148802915,
            "lng": -73.95300236970849
          },
          "southwest": {
            "lat": 40.7630169197085,
            "lng": -73.95570033029149
          }
        }
      },
      "icon": "https://maps.gstatic.com/mapfiles/place_api/icons/v1/png_71/generic_business-71.png",
      "icon_background_color": "#7B9EB0",
      "icon_mask_base_uri": "https://maps.gstatic.com/mapfiles/place_api/icons/v2/generic_pinlet",
      "name": "Michael W. O'Dell, M.D.",
      "opening_hours": {
        "open_now": false
      },
      "photos": [
        {
          "height": 301,
          "html_attributions": [
            "<a href=\"https://maps.google.com/maps/contrib/108364739180149952979\">Michael W. O&#39;Dell, M.D.</a>"
          ],
          "photo_reference": "AeJbb3egDQt3fxDPCvLJwUtnr7J4aHGwWdN1EEcbFvAHgnYov6Rv6Xl1mawBQHDQeMZ7XF5rP4-JrDEWCc_1M5eHT20mFXIrgwC7QKLDDQSmmf5ltF2Cd-hYgk6z9310YHJIx6PiCTEzvUNISUcsHJKGdEZioG8F-JV3cHXcHS0rHH483UyE",
          "width": 301
        }
      ],
      "place_id": "ChIJu7sYmMNYwokRjXfl0M2einM",
      "plus_code": {
        "compound_code": "Q27W+R6 New York, NY, USA",
        "global_code": "87G8Q27W+R6"
      },
      "rating": 4.9,
      "reference": "ChIJu7sYmMNYwokRjXfl0M2einM",
      "scope": "GOOGLE",
      "types": [
        "doctor",
        "point_of_interest",
        "health",
        "establishment"
      ],
      "user_ratings_total": 43,
      "vicinity": "525 East 68th Street 16th floor, New York"
    },
    {
      "business_status": "OPERATIONAL",
      "geometry": {
        "location": {
          "lat": 40.764285,
          "lng": -73.954258
        },
        "viewport": {
          "northeast": {
            "lat": 40.7656403302915,
            "lng": -73.95304441970849
          },
          "southwest": {
            "lat": 40.7629423697085,
            "lng": -73.95574238029151
          }
        }
      },
      "icon": "https://maps.gstatic.com/mapfiles/place_api/icons/v1/png_71/generic_business-71.png",
      "icon_background_color": "#7B9EB0",
      "icon_mask_base_uri": "https://maps.gstatic.com/mapfiles/place_api/icons/v2/generic_pinlet",
      "name": "Gregory F. Dakin, M.D.",
      "opening_hours": {
        "open_now": false
      },
      "photos": [
        {
          "height": 301,
          "html_attributions": [
            "<a href=\"https://maps.google.com/maps/contrib/107453548805844186771\">Gregory F. Dakin, M.D.</a>"
          ],
          "photo_reference": "AeJbb3f24LhwPrcrx1_OtRF0nmPh8TU_0VqHD_bAro0WUq2E5mGKlQWynmGfVTGS4f3ZBsOpAXoFNjPG5DVVXLmB98ALSYTvasqugyagsNgqFz8KXU_0AA3HxkvZSN1IH7UHvzDWs66cLtADjT_uvGMu2c0-H64FRFuTPLBGwxuGNx2em3oK",
          "width": 301
        }
      ],
      "place_id": "ChIJu7sYmMNYwokRQaDFVsmylyQ",
      "plus_code": {
        "compound_code": "Q27W+P7 New York, NY, USA",
        "global_code": "87G8Q27W+P7"
      },
      "rating": 4.7,
      "reference": "ChIJu7sYmMNYwokRQaDFVsmylyQ",
      "scope": "GOOGLE",
      "types": [
        "doctor",
        "point_of_interest",
        "health",
        "establishment"
      ],
      "user_ratings_total": 238,
      "vicinity": "General Surgery, 525 East 68th Street, New York"
    },
    {
      "business_status": "OPERATIONAL",
      "geometry": {
        "location": {
          "lat": 40.764283,
          "lng": -73.954267
        },
        "viewport": {
          "northeast": {
            "lat": 40.7656403302915,
            "lng": -73.95304801970849
          },
          "southwest": {
            "lat": 40.7629423697085,
            "lng": -73.95574598029151
          }
        }
      },
      "icon": "https://maps.gstatic.com/mapfiles/place_api/icons/v1/png_71/generic_business-71.png",
      "icon_background_color": "#7B9EB0",
      "icon_mask_base_uri": "https://maps.gstatic.com/mapfiles/place_api/icons/v2/generic_pinlet",
      "name": "Chloe Nims, M.D.",
      "photos": [
        {
          "height": 301,
          "html_attributions": [
            "<a href=\"https://maps.google.com/maps/contrib/112734834076075513227\">Chloe Nims, M.D.</a>"
          ],
          "photo_reference": "AeJbb3dp5Mwhe2nepCMafTE6JC8WLrz3St9JkZ9F8noBnqkbCHa4yGsKJUVPcndMO7xrUxV_NjkcS7_p83ZR_oZFIjHhxf9bewPaRzYYsYApBd3epvVkDfengoHfnwqiv1MNMDlqWPxPUM_oDhUKD0LBuy_eeQXz190EzmFtt2IEKGHu6Us9",
          "width": 301
        }
      ],
      "place_id": "ChIJu7sYmMNYwokRZSohUTEXIW0",
      "plus_code": {
        "compound_code": "Q27W+P7 New York, NY, USA",
        "global_code": "87G8Q27W+P7"
      },
      "rating": 2,
      "reference": "ChIJu7sYmMNYwokRZSohUTEXIW0",
      "scope": "GOOGLE",
      "types": [
        "doctor",
        "point_of_interest",
        "health",
        "establishment"
      ],
      "user_ratings_total": 1,
      "vicinity": "525 East 68th Street, New York"
    },
    {
      "business_status": "OPERATIONAL",
      "geometry": {
        "location": {
          "lat": 40.764285,
          "lng": -73.954258
        },
        "viewport": {
          "northeast": {
            "lat": 40.76558053029149,
            "lng": -73.95296311970849
          },
          "southwest": {
            "lat": 40.76288256970849,
            "lng": -73.95566108029149
          }
        }
      },
      "icon": "https://maps.gstatic.com/mapfiles/place_api/icons/v1/png_71/generic_business-71.png",
      "icon_background_color": "#7B9EB0",
      "icon_mask_base_uri": "https://maps.gstatic.com/mapfiles/place_api/icons/v2/generic_pinlet",
      "name": "Sharon E. Abramovitz, M.D.",
      "photos": [
        {
          "height": 560,
          "html_attributions": [
            "<a href=\"https://maps.google.com/maps/contrib/105274556058563657455\">Sharon E. Abramovitz, M.D.</a>"
          ],
          "photo_reference": "AeJbb3eBPYgj-Sh5YUIidNNT0-EoUdS-YNLR2ZIyrUPv1Z-cBKBtV1BaewMIeITmoiYtI7L1yHTszIbsnwpkxTYPtepMdfZ9ZFVFfdFL4DFfsrs75A9oIKEsXsiEsw5ODyPtAZKR0ug2q4rwzkJIBtKGTWL4gMT1VWIY2PalF5mZXq3-zxLe",
          "width": 420
        }
      ],
      "place_id": "ChIJu7sYmMNYwokR-UkZYVdf1Wc",
      "plus_code": {
        "compound_code": "Q27W+P7 New York, NY, USA",
        "global_code": "87G8Q27W+P7"
      },
      "reference": "ChIJu7sYmMNYwokR-UkZYVdf1Wc",
      "scope": "GOOGLE",
      "types": [
        "doctor",
        "point_of_interest",
        "health",
        "establishment"
      ],
      "vicinity": "525 East 68th Street # M324, New York"
    },
    {
      "business_status": "OPERATIONAL",
      "geometry": {
        "location": {
          "lat": 40.76439619999999,
          "lng": -73.9539303
        },
        "viewport": {
          "northeast": {
            "lat": 40.76566898029149,
            "lng": -73.95288056970848
          },
          "southwest": {
            "lat": 40.7629710197085,
            "lng": -73.95557853029149
          }
        }
      },
      "icon": "https://maps.gstatic.com/mapfiles/place_api/icons/v1/png_71/generic_business-71.png",
      "icon_background_color": "#7B9EB0",
      "icon_mask_base_uri": "https://maps.gstatic.com/mapfiles/place_api/icons/v2/generic_pinlet",
      "name": "Dziedzic Christina MD",
      "place_id": "ChIJu7sYmMNYwokR6m_puj1SBg0",
      "plus_code": {
        "compound_code": "Q27W+QC New York, NY, USA",
        "global_code": "87G8Q27W+QC"
      },
      "rating": 1,
      "reference": "ChIJu7sYmMNYwokR6m_puj1SBg0",
      "scope": "GOOGLE",
      "types": [
        "doctor",
        "point_of_interest",
        "health",
        "establishment"
      ],
      "user_ratings_total": 1,
      "vicinity": "525 East 68th Street, New York"
    },
    {
      "business_status": "OPERATIONAL",
      "geometry": {
        "location": {
          "lat": 40.76439619999999,
          "lng": -73.9539303
        },
        "viewport": {
          "northeast": {
            "lat": 40.7655979302915,
            "lng": -73.9527760197085
          },
          "southwest": {
            "lat": 40.7628999697085,
            "lng": -73.9554739802915
          }
        }
      },
      "icon": "https://maps.gstatic.com/mapfiles/place_api/icons/v1/png_71/generic_business-71.png",
      "icon_background_color": "#7B9EB0",
      "icon_mask_base_uri": "https://maps.gstatic.com/mapfiles/place_api/icons/v2/generic_pinlet",
      "name": "New York Firefighters Skin Bank",
      "opening_hours": {
        "open_now": true
      },
      "photos": [
        {
          "height": 587,
          "html_attributions": [
            "<a href=\"https://maps.google.com/maps/contrib/113552662326723108932\">Skin Bank</a>"
          ],
          "photo_reference": "AeJbb3cCebM5RaqWaF_X6sTQjRzLJbwd48O8GdViXho7am7FrIRyxTiqK3adfIE2--yiXbZhXmas3_L7JThKQLWAmVmJJohlyIQBFMh-QmMZGj78ccsoSyloC5Bu_Ni33R5YUlPGlnLW2wpkqfyEyzlmwdzaeKZoLF9KCnu7E_yr5s8tG_-5",
          "width": 880
        }
      ],
      "place_id": "ChIJu7sYmMNYwokRGjHVCDry3bU",
      "plus_code": {
        "compound_code": "Q27W+QC New York, NY, USA",
        "global_code": "87G8Q27W+QC"
      },
      "reference": "ChIJu7sYmMNYwokRGjHVCDry3bU",
      "scope": "GOOGLE",
      "types": [
        "point_of_interest",
        "health",
        "establishment"
      ],
      "vicinity": "525 East 68th Street F2318, New York"
    },
    {
      "business_status": "OPERATIONAL",
      "geometry": {
        "location": {
          "lat": 40.764285,
          "lng": -73.954258
        },
        "viewport": {
          "northeast": {
            "lat": 40.7655753802915,
            "lng": -73.95295036970849
          },
          "southwest": {
            "lat": 40.76287741970851,
            "lng": -73.95564833029151
          }
        }
      },
      "icon": "https://maps.gstatic.com/mapfiles/place_api/icons/v1/png_71/generic_business-71.png",
      "icon_background_color": "#7B9EB0",
      "icon_mask_base_uri": "https://maps.gstatic.com/mapfiles/place_api/icons/v2/generic_pinlet",
      "name": "Frosch William A MD",
      "place_id": "ChIJu7sYmMNYwokRAeqTd31-B90",
      "plus_code": {
        "compound_code": "Q27W+P7 New York, NY, USA",
        "global_code": "87G8Q27W+P7"
      },
      "reference": "ChIJu7sYmMNYwokRAeqTd31-B90",
      "scope": "GOOGLE",
      "types": [
        "doctor",
        "point_of_interest",
        "health",
        "establishment"
      ],
      "vicinity": "525 East 68th Street # F1218, New York"
    },
    {
      "business_status": "OPERATIONAL",
      "geometry": {
        "location": {
          "lat": 40.7643007,
          "lng": -73.9542797
        },
        "viewport": {
          "northeast": {
            "lat": 40.7655883802915,
            "lng": -73.9529739697085
          },
          "southwest": {
            "lat": 40.7628904197085,
            "lng": -73.9556719302915
          }
        }
      },
      "icon": "https://maps.gstatic.com/mapfiles/place_api/icons/v1/png_71/generic_business-71.png",
      "icon_background_color": "#7B9EB0",
      "icon_mask_base_uri": "https://maps.gstatic.com/mapfiles/place_api/icons/v2/generic_pinlet",
      "name": "Vinod Malhotra, M.B., B.S., M.D.",
      "photos": [
        {
          "height": 560,
          "html_attributions": [
            "<a href=\"https://maps.google.com/maps/contrib/104591583094581156498\">Vinod Malhotra, M.B., B.S., M.D.</a>"
          ],
          "photo_reference": "AeJbb3fEMfrxwoYWfIeuQ6EGsBajfRmk8M6LCEPSMehvKUCSkNh7PRw0CD953OT8rf9VIzAnm4jFo2XYz2BcD5qAX4P06-rqKYwiBPVA05Jn-NqXxK5RyREMYf--Smc9YlQ-JtqPtRhtQbrieqHyj_OPrzOZhO4H3LWKQE8_WfcxBzfz9K3p",
          "width": 420
        }
      ],
      "place_id": "ChIJu7sYmMNYwokRZUHTHrX_WIk",
      "plus_code": {
        "compound_code": "Q27W+P7 New York, NY, USA",
        "global_code": "87G8Q27W+P7"
      },
      "reference": "ChIJu7sYmMNYwokRZUHTHrX_WIk",
      "scope": "GOOGLE",
      "types": [
        "doctor",
        "health",
        "point_of_interest",
        "establishment"
      ],
      "vicinity": "525 East 68th Street, New York"
    },
    {
      "business_status": "OPERATIONAL",
      "geometry": {
        "location": {
          "lat": 40.764396,
          "lng": -73.954189
        },
        "viewport": {
          "northeast": {
            "lat": 40.7656323302915,
            "lng": -73.95291946970849
          },
          "southwest": {
            "lat": 40.7629343697085,
            "lng": -73.95561743029151
          }
        }
      },
      "icon": "https://maps.gstatic.com/mapfiles/place_api/icons/v1/png_71/generic_business-71.png",
      "icon_background_color": "#7B9EB0",
      "icon_mask_base_uri": "https://maps.gstatic.com/mapfiles/place_api/icons/v2/generic_pinlet",
      "name": "John Joseph Savarese, M.D.",
      "photos": [
        {
          "height": 560,
          "html_attributions": [
            "<a href=\"https://maps.google.com/maps/contrib/109928733990870615692\">John Joseph Savarese, M.D.</a>"
          ],
          "photo_reference": "AeJbb3dhJGryxDHS4yNo9CM3BefNvBCmIr5Fmmoa94rOcL26ilv0ka1iaI5bZMRgeffj3ht-8LHVmHh5GI6oKSgHiIwIWlELIoBhwraGWRzgczuFPOZBmHyLtjqYTTEuWiuzBCP6nGYgmexfFeAgNBpFKHoXkylWVUGNytplVng7PktohqZO",
          "width": 420
        }
      ],
      "place_id": "ChIJu7sYmMNYwokRO-_0SGBAn1w",
      "plus_code": {
        "compound_code": "Q27W+Q8 New York, NY, USA",
        "global_code": "87G8Q27W+Q8"
      },
      "reference": "ChIJu7sYmMNYwokRO-_0SGBAn1w",
      "scope": "GOOGLE",
      "types": [
        "doctor",
        "health",
        "point_of_interest",
        "establishment"
      ],
      "vicinity": "525 East 68th Street m329, New York"
    },
    {
      "business_status": "OPERATIONAL",
      "geometry": {
        "location": {
          "lat": 40.764285,
          "lng": -73.954258
        },
        "viewport": {
          "northeast": {
            "lat": 40.7656403302915,
            "lng": -73.95304441970849
          },
          "southwest": {
            "lat": 40.7629423697085,
            "lng": -73.95574238029151
          }
        }
      },
      "icon": "https://maps.gstatic.com/mapfiles/place_api/icons/v1/png_71/generic_business-71.png",
      "icon_background_color": "#7B9EB0",
      "icon_mask_base_uri": "https://maps.gstatic.com/mapfiles/place_api/icons/v2/generic_pinlet",
      "name": "Swaminathan Rajesh V MD",
      "place_id": "ChIJu7sYmMNYwokRp8q3u18_-tE",
      "plus_code": {
        "compound_code": "Q27W+P7 New York, NY, USA",
        "global_code": "87G8Q27W+P7"
      },
      "reference": "ChIJu7sYmMNYwokRp8q3u18_-tE",
      "scope": "GOOGLE",
      "types": [
        "doctor",
        "health",
        "point_of_interest",
        "establishment"
      ],
      "vicinity": "525 E 68th St # Mb103, New York"
    },
    {
      "business_status": "OPERATIONAL",
      "geometry": {
        "location": {
          "lat": 40.764285,
          "lng": -73.954258
        },
        "viewport": {
          "northeast": {
            "lat": 40.76558053029149,
            "lng": -73.95296311970849
          },
          "southwest": {
            "lat": 40.76288256970849,
            "lng": -73.95566108029149
          }
        }
      },
      "icon": "https://maps.gstatic.com/mapfiles/place_api/icons/v1/png_71/generic_business-71.png",
      "icon_background_color": "#7B9EB0",
      "icon_mask_base_uri": "https://maps.gstatic.com/mapfiles/place_api/icons/v2/generic_pinlet",
      "name": "Peter Goldstein, M.D.",
      "photos": [
        {
          "height": 2856,
          "html_attributions": [
            "<a href=\"https://maps.google.com/maps/contrib/102910146303703285917\">Peter Goldstein, M.D.</a>"
          ],
          "photo_reference": "AeJbb3cRQjkXeG_MM_S0Sl71PS8Rd9n6tBc7FKfCA3dtYlxxbNL-Pqu3ZXV1BolpvCi11NBjDflsYazAAMIBwXCuL3NpCHRa5l4csKcCNG4dtCSkV-Ahd3DlSQ1mNVO3YLOtbjaERtw7ydghd6etEEZexzY7tKLfqjQz4Ft-BPtv4uKzA0Ni",
          "width": 2036
        }
      ],
      "place_id": "ChIJu7sYmMNYwokR6IpT7RRNlFA",
      "plus_code": {
        "compound_code": "Q27W+P7 New York, NY, USA",
        "global_code": "87G8Q27W+P7"
      },
      "reference": "ChIJu7sYmMNYwokR6IpT7RRNlFA",
      "scope": "GOOGLE",
      "types": [
        "doctor",
        "health",
        "point_of_interest",
        "establishment"
      ],
      "vicinity": "525 East 68th Street # M324, New York"
    },
    {
      "business_status": "OPERATIONAL",
      "geometry": {
        "location": {
          "lat": 40.764285,
          "lng": -73.954258
        },
        "viewport": {
          "northeast": {
            "lat": 40.7655802302915,
            "lng": -73.95296231970849
          },
          "southwest": {
            "lat": 40.7628822697085,
            "lng": -73.9556602802915
          }
        }
      },
      "icon": "https://maps.gstatic.com/mapfiles/place_api/icons/v1/png_71/generic_business-71.png",
      "icon_background_color": "#7B9EB0",
      "icon_mask_base_uri": "https://maps.gstatic.com/mapfiles/place_api/icons/v2/generic_pinlet",
      "name": "Farida M.F. Gadalla, M.B., Ch.B.",
      "photos": [
        {
          "height": 640,
          "html_attributions": [
            "<a href=\"https://maps.google.com/maps/contrib/109946179986747471995\">Farida M.F. Gadalla, M.B., Ch.B.</a>"
          ],
          "photo_reference": "AeJbb3cEelsZfFo77r7fVOPFxtbUzX9s-goGEmo1s5vF0Tg6PjX0ui-AkIoKGRAj82fL9nedVqfwBPc4ELdp9Ji3II4en02DvxNbd5gDunOUP1HdD0JsfUNwI4kam8BHlN01hrczm-5vN8cpCMhMo1vWbxoLtil5570AQeKHiqOeVx071DaL",
          "width": 480
        }
      ],
      "place_id": "ChIJu7sYmMNYwokRItyEtsncRQw",
      "plus_code": {
        "compound_code": "Q27W+P7 New York, NY, USA",
        "global_code": "87G8Q27W+P7"
      },
      "rating": 5,
      "reference": "ChIJu7sYmMNYwokRItyEtsncRQw",
      "scope": "GOOGLE",
      "types": [
        "doctor",
        "health",
        "point_of_interest",
        "establishment"
      ],
      "user_ratings_total": 4,
      "vicinity": "525 East 68th Street # M324, New York"
    },
    {
      "business_status": "OPERATIONAL",
      "geometry": {
        "location": {
          "lat": 40.7644429,
          "lng": -73.9540688
        },
        "viewport": {
          "northeast": {
            "lat": 40.7656427802915,
            "lng": -73.9528452697085
          },
          "southwest": {
            "lat": 40.7629448197085,
            "lng": -73.95554323029151
          }
        }
      },
      "icon": "https://maps.gstatic.com/mapfiles/place_api/icons/v1/png_71/generic_business-71.png",
      "icon_background_color": "#7B9EB0",
      "icon_mask_base_uri": "https://maps.gstatic.com/mapfiles/place_api/icons/v2/generic_pinlet",
      "name": "Jeffrey E. Ball, M.D.",
      "photos": [
        {
          "height": 301,
          "html_attributions": [
            "<a href=\"https://maps.google.com/maps/contrib/107190888990464739616\">Jeffrey E. Ball, M.D.</a>"
          ],
          "photo_reference": "AeJbb3f07ltSRgPFihip-H1bfgIUKhx8Cf3gEWOr8Ow0l93RbEwRsquRQNNRY2KIbMugLF5UMyoYh9HQVTmF7CASJnFewKqMYP5rlS8ltdbkIag7NkC1mb-UpshhurUK6xiXlC1rYS5MrBV0VYD3-V767C2iE5IgXNCfhaep9V0B3GGmbLGY",
          "width": 301
        }
      ],
      "place_id": "ChIJk7pgcwNbwokRS7w-zRSpt6c",
      "plus_code": {
        "compound_code": "Q27W+Q9 New York, NY, USA",
        "global_code": "87G8Q27W+Q9"
      },
      "rating": 5,
      "reference": "ChIJk7pgcwNbwokRS7w-zRSpt6c",
      "scope": "GOOGLE",
      "types": [
        "doctor",
        "health",
        "point_of_interest",
        "establishment"
      ],
      "user_ratings_total": 1,
      "vicinity": "520 East 70th Street Starr Pavilion, 3rd Floor, New York"
    },
    {
      "business_status": "OPERATIONAL",
      "geometry": {
        "location": {
          "lat": 40.764285,
          "lng": -73.954258
        },
        "viewport": {
          "northeast": {
            "lat": 40.7655753802915,
            "lng": -73.95295036970849
          },
          "southwest": {
            "lat": 40.76287741970851,
            "lng": -73.95564833029151
          }
        }
      },
      "icon": "https://maps.gstatic.com/mapfiles/place_api/icons/v1/png_71/generic_business-71.png",
      "icon_background_color": "#7B9EB0",
      "icon_mask_base_uri": "https://maps.gstatic.com/mapfiles/place_api/icons/v2/generic_pinlet",
      "name": "Hanna Moneer K MD",
      "place_id": "ChIJu7sYmMNYwokReSNZIqTTCDw",
      "plus_code": {
        "compound_code": "Q27W+P7 New York, NY, USA",
        "global_code": "87G8Q27W+P7"
      },
      "reference": "ChIJu7sYmMNYwokReSNZIqTTCDw",
      "scope": "GOOGLE",
      "types": [
        "doctor",
        "health",
        "point_of_interest",
        "establishment"
      ],
      "vicinity": "525 East 68th Street # F935, New York"
    },
    {
      "business_status": "OPERATIONAL",
      "geometry": {
        "location": {
          "lat": 40.7643316,
          "lng": -73.95425589999999
        },
        "viewport": {
          "northeast": {
            "lat": 40.76560353029149,
            "lng": -73.9529612697085
          },
          "southwest": {
            "lat": 40.76290556970849,
            "lng": -73.9556592302915
          }
        }
      },
      "icon": "https://maps.gstatic.com/mapfiles/place_api/icons/v1/png_71/generic_business-71.png",
      "icon_background_color": "#7B9EB0",
      "icon_mask_base_uri": "https://maps.gstatic.com/mapfiles/place_api/icons/v2/generic_pinlet",
      "name": "Juliet Caldwell, M.D.",
      "photos": [
        {
          "height": 560,
          "html_attributions": [
            "<a href=\"https://maps.google.com/maps/contrib/115313783184468971368\">Juliet Caldwell, M.D.</a>"
          ],
          "photo_reference": "AeJbb3cZETSHC03qiKVPEtrf8zrkXrE7lW874OCJYR53hBIm1RhHCp5M4_15Lt9tRTP0GT2TrS_du3tI4XborYySoa5E05hAs93cvKw0ASbfVYSk-xE1yxBpl3Ja2lRWykf-Ruh8_px49cZv7VVW9aKOwO4nciQzfDhP4o7bETns8gg-bLVd",
          "width": 420
        }
      ],
      "place_id": "ChIJu7sYmMNYwokReKSze2Kk6RA",
      "plus_code": {
        "compound_code": "Q27W+P7 New York, NY, USA",
        "global_code": "87G8Q27W+P7"
      },
      "rating": 5,
      "reference": "ChIJu7sYmMNYwokReKSze2Kk6RA",
      "scope": "GOOGLE",
      "types": [
        "doctor",
        "health",
        "point_of_interest",
        "establishment"
      ],
      "user_ratings_total": 1,
      "vicinity": "525 East 68th Street Room M130, New York"
    },
    {
      "business_status": "OPERATIONAL",
      "geometry": {
        "location": {
          "lat": 40.7643007,
          "lng": -73.9542797
        },
        "viewport": {
          "northeast": {
            "lat": 40.7655883802915,
            "lng": -73.9529739697085
          },
          "southwest": {
            "lat": 40.7628904197085,
            "lng": -73.9556719302915
          }
        }
      },
      "icon": "https://maps.gstatic.com/mapfiles/place_api/icons/v1/png_71/generic_business-71.png",
      "icon_background_color": "#7B9EB0",
      "icon_mask_base_uri": "https://maps.gstatic.com/mapfiles/place_api/icons/v2/generic_pinlet",
      "name": "Joy Deanna Howell, M.D.",
      "photos": [
        {
          "height": 301,
          "html_attributions": [
            "<a href=\"https://maps.google.com/maps/contrib/105890262838921215513\">Joy Deanna Howell, M.D.</a>"
          ],
          "photo_reference": "AeJbb3e7PlOUsj95qtFU6strJK3ABqeCqadFzo4Jip5MlCmAE-S4penApHohQnkc8jpcACFKt6VuYuasjLiP4E6hFytXadICbAr9VJqC6JN_RCfGQbxPtZX4MRcEoeLfbC7pWswiFBsvLPi6w0F_VVrBAKV8a7ooCvlqcDqASd73q606oCLC",
          "width": 301
        }
      ],
      "place_id": "ChIJu7sYmMNYwokRDzk927B9CZI",
      "plus_code": {
        "compound_code": "Q27W+P7 New York, NY, USA",
        "global_code": "87G8Q27W+P7"
      },
      "reference": "ChIJu7sYmMNYwokRDzk927B9CZI",
      "scope": "GOOGLE",
      "types": [
        "doctor",
        "health",
        "point_of_interest",
        "establishment"
      ],
      "vicinity": "525 East 68th Street M-508, New York"
    },
    {
      "business_status": "OPERATIONAL",
      "geometry": {
        "location": {
          "lat": 40.764285,
          "lng": -73.954258
        },
        "viewport": {
          "northeast": {
            "lat": 40.7655753802915,
            "lng": -73.95295036970849
          },
          "southwest": {
            "lat": 40.76287741970851,
            "lng": -73.95564833029151
          }
        }
      },
      "icon": "https://maps.gstatic.com/mapfiles/place_api/icons/v1/png_71/generic_business-71.png",
      "icon_background_color": "#7B9EB0",
      "icon_mask_base_uri": "https://maps.gstatic.com/mapfiles/place_api/icons/v2/generic_pinlet",
      "name": "Perlman Jeffrey M MD",
      "place_id": "ChIJu7sYmMNYwokRV6N_CqKcYw8",
      "plus_code": {
        "compound_code": "Q27W+P7 New York, NY, USA",
        "global_code": "87G8Q27W+P7"
      },
      "reference": "ChIJu7sYmMNYwokRV6N_CqKcYw8",
      "scope": "GOOGLE",
      "types": [
        "doctor",
        "health",
        "point_of_interest",
        "establishment"
      ],
      "vicinity": "525 East 68th Street # N506, New York"
    },
    {
      "business_status": "OPERATIONAL",
      "geometry": {
        "location": {
          "lat": 40.7643007,
          "lng": -73.9542797
        },
        "viewport": {
          "northeast": {
            "lat": 40.7655883802915,
            "lng": -73.9529739697085
          },
          "southwest": {
            "lat": 40.7628904197085,
            "lng": -73.9556719302915
          }
        }
      },
      "icon": "https://maps.gstatic.com/mapfiles/place_api/icons/v1/png_71/generic_business-71.png",
      "icon_background_color": "#7B9EB0",
      "icon_mask_base_uri": "https://maps.gstatic.com/mapfiles/place_api/icons/v2/generic_pinlet",
      "name": "Chani Traube, M.D.",
      "photos": [
        {
          "height": 301,
          "html_attributions": [
            "<a href=\"https://maps.google.com/maps/contrib/109366070624210781858\">Chani Traube, M.D.</a>"
          ],
          "photo_reference": "AeJbb3cty-OScsWtekirlhBgt9wMZPM0R1CkAD5R8qlxQa5uFCfEfxuStltGc3DJhzzJuIySop1gfxow7T9OLQY-R702Q9ZLI4HhKyTzZETDQMUsUXpcI7mHHdKprQOLB19bguuvrMuksazobUtmgfE-2j9EU78V8cJjXpPh-yVvQTUEcRuE",
          "width": 301
        }
      ],
      "place_id": "ChIJu7sYmMNYwokRYpRw2_DNN18",
      "plus_code": {
        "compound_code": "Q27W+P7 New York, NY, USA",
        "global_code": "87G8Q27W+P7"
      },
      "rating": 5,
      "reference": "ChIJu7sYmMNYwokRYpRw2_DNN18",
      "scope": "GOOGLE",
      "types": [
        "doctor",
        "health",
        "point_of_interest",
        "establishment"
      ],
      "user_ratings_total": 3,
      "vicinity": "525 East 68th Street M-508, New York"
    },
    {
      "business_status": "OPERATIONAL",
      "geometry": {
        "location": {
          "lat": 40.764285,
          "lng": -73.954258
        },
        "viewport": {
          "northeast": {
            "lat": 40.7655753802915,
            "lng": -73.95295036970849
          },
          "southwest": {
            "lat": 40.76287741970851,
            "lng": -73.95564833029151
          }
        }
      },
      "icon": "https://maps.gstatic.com/mapfiles/place_api/icons/v1/png_71/generic_business-71.png",
      "icon_background_color": "#7B9EB0",
      "icon_mask_base_uri": "https://maps.gstatic.com/mapfiles/place_api/icons/v2/generic_pinlet",
      "name": "Juluru Krishna MD",
      "place_id": "ChIJu7sYmMNYwokRyBNJcESsxSg",
      "plus_code": {
        "compound_code": "Q27W+P7 New York, NY, USA",
        "global_code": "87G8Q27W+P7"
      },
      "reference": "ChIJu7sYmMNYwokRyBNJcESsxSg",
      "scope": "GOOGLE",
      "types": [
        "doctor",
        "health",
        "point_of_interest",
        "establishment"
      ],
      "vicinity": "525 East 68th Street # F-056, New York"
    },
    {
      "business_status": "OPERATIONAL",
      "geometry": {
        "location": {
          "lat": 40.7643007,
          "lng": -73.9542797
        },
        "viewport": {
          "northeast": {
            "lat": 40.7655883802915,
            "lng": -73.9529739697085
          },
          "southwest": {
            "lat": 40.7628904197085,
            "lng": -73.9556719302915
          }
        }
      },
      "icon": "https://maps.gstatic.com/mapfiles/place_api/icons/v1/png_71/generic_business-71.png",
      "icon_background_color": "#7B9EB0",
      "icon_mask_base_uri": "https://maps.gstatic.com/mapfiles/place_api/icons/v2/generic_pinlet",
      "name": "Georges Sylvestre, M.D.",
      "photos": [
        {
          "height": 560,
          "html_attributions": [
            "<a href=\"https://maps.google.com/maps/contrib/115335904744566965782\">Georges Sylvestre, M.D.</a>"
          ],
          "photo_reference": "AeJbb3fSY_S8UTFLsMEmBcUUhEBv695W6K08zEbrKyqyqhZA3zp2ARnggoXyP1BLLP556f8qlrBhGxzJAAxlNQfGjRH7x_CfvIRYlwkDrZpTH5FOSTUT1XeKj5xOfMcgrjZ73Hy078MuKfyprtfC7FHpatBgWZ8rgSon0sfZZLhUlNJexdLp",
          "width": 420
        }
      ],
      "place_id": "ChIJu7sYmMNYwokR_R-SR-9HIpM",
      "plus_code": {
        "compound_code": "Q27W+P7 New York, NY, USA",
        "global_code": "87G8Q27W+P7"
      },
      "rating": 5,
      "reference": "ChIJu7sYmMNYwokR_R-SR-9HIpM",
      "scope": "GOOGLE",
      "types": [
        "doctor",
        "health",
        "point_of_interest",
        "establishment"
      ],
      "user_ratings_total": 70,
      "vicinity": "525 East 68th Street J-130, New York"
    },
    {
      "business_status": "OPERATIONAL",
      "geometry": {
        "location": {
          "lat": 40.7643007,
          "lng": -73.9542797
        },
        "viewport": {
          "northeast": {
            "lat": 40.7656322302915,
            "lng": -73.95305396970849
          },
          "southwest": {
            "lat": 40.7629342697085,
            "lng": -73.9557519302915
          }
        }
      },
      "icon": "https://maps.gstatic.com/mapfiles/place_api/icons/v1/png_71/generic_business-71.png",
      "icon_background_color": "#7B9EB0",
      "icon_mask_base_uri": "https://maps.gstatic.com/mapfiles/place_api/icons/v2/generic_pinlet",
      "name": "Sheila J. Carroll, M.D.",
      "opening_hours": {
        "open_now": false
      },
      "photos": [
        {
          "height": 560,
          "html_attributions": [
            "<a href=\"https://maps.google.com/maps/contrib/102162816890046073928\">Sheila J. Carroll, M.D.</a>"
          ],
          "photo_reference": "AeJbb3fmPnMXWyeb69c9bxP4ENWkIEx0zIPqZxEi4uHeHmL6HNM4Zs0U9zHdYFh9pYSh5EdTqevBC2eWiDPZBu_M65S4FlZKrqb5uSt8I3dz9jap_mpFvvY611J2zEOK31rRfdjKQiX6G7GJUnOtpJieAZXVf-Xa8HBY7gJX9QkbwI-qwGts",
          "width": 420
        }
      ],
      "place_id": "ChIJu7sYmMNYwokRUmS03UhjopY",
      "plus_code": {
        "compound_code": "Q27W+P7 New York, NY, USA",
        "global_code": "87G8Q27W+P7"
      },
      "rating": 4.9,
      "reference": "ChIJu7sYmMNYwokRUmS03UhjopY",
      "scope": "GOOGLE",
      "types": [
        "doctor",
        "health",
        "point_of_interest",
        "establishment"
      ],
      "user_ratings_total": 27,
      "vicinity": "Pediatric Cardiology, 525 East 68th Street f677, New York"
    },
    {
      "business_status": "OPERATIONAL",
      "geometry": {
        "location": {
          "lat": 40.764393,
          "lng": -73.95419
        },
        "viewport": {
          "northeast": {
            "lat": 40.7656673802915,
            "lng": -73.95301041970849
          },
          "southwest": {
            "lat": 40.7629694197085,
            "lng": -73.9557083802915
          }
        }
      },
      "icon": "https://maps.gstatic.com/mapfiles/place_api/icons/v1/png_71/generic_business-71.png",
      "icon_background_color": "#7B9EB0",
      "icon_mask_base_uri": "https://maps.gstatic.com/mapfiles/place_api/icons/v2/generic_pinlet",
      "name": "Marsha E. Rubin, D.D.S.",
      "photos": [
        {
          "height": 301,
          "html_attributions": [
            "<a href=\"https://maps.google.com/maps/contrib/115498118104826562334\">Marsha E. Rubin, D.D.S.</a>"
          ],
          "photo_reference": "AeJbb3eg6aXKdCVv9j4ctYANqI7ioPfFtyWSjTMoRadf9joYsqoDEWoos8A1woiMbew11c6WXVIXwhU0gX1TNE3Ebsxi7BJLayt0ot21WXQ3AYzaRmeyWks6_NS-KIsJKkZRu_0lSHdDfuKvfozAtJpkQIzn1KoEsNJNrzvvxKSKtbVyihfA",
          "width": 301
        }
      ],
      "place_id": "ChIJu7sYmMNYwokRygxnVDDlYWU",
      "plus_code": {
        "compound_code": "Q27W+Q8 New York, NY, USA",
        "global_code": "87G8Q27W+Q8"
      },
      "rating": 5,
      "reference": "ChIJu7sYmMNYwokRygxnVDDlYWU",
      "scope": "GOOGLE",
      "types": [
        "doctor",
        "health",
        "point_of_interest",
        "establishment"
      ],
      "user_ratings_total": 1,
      "vicinity": "525 East 68th Street Baker 21, New York"
    },
    {
      "business_status": "OPERATIONAL",
      "geometry": {
        "location": {
          "lat": 40.7643007,
          "lng": -73.9542797
        },
        "viewport": {
          "northeast": {
            "lat": 40.7655883802915,
            "lng": -73.9529739697085
          },
          "southwest": {
            "lat": 40.7628904197085,
            "lng": -73.9556719302915
          }
        }
      },
      "icon": "https://maps.gstatic.com/mapfiles/place_api/icons/v1/png_71/generic_business-71.png",
      "icon_background_color": "#7B9EB0",
      "icon_mask_base_uri": "https://maps.gstatic.com/mapfiles/place_api/icons/v2/generic_pinlet",
      "name": "Cynthia Lien, M.D.",
      "photos": [
        {
          "height": 560,
          "html_attributions": [
            "<a href=\"https://maps.google.com/maps/contrib/107827290588468715546\">Cynthia Lien, M.D.</a>"
          ],
          "photo_reference": "AeJbb3cppDe4UmR-PraZuORv1_ykK_mTXbAw4m6Qgtp-1h6EU16vrvYRgqSXAGU4HMKR6ur_qpQm-oSVrUbGjBN6D_N8FXA-PbP2Zk-nRVWqxgElJEvmLS4lF5k-L7SUTGIRqpQU5M6iJIi2FNz7UuapxmrkT-0EkI94zdkRTS67Fr6RjHl6",
          "width": 420
        }
      ],
      "place_id": "ChIJu7sYmMNYwokRkKgLfaQLwzk",
      "plus_code": {
        "compound_code": "Q27W+P7 New York, NY, USA",
        "global_code": "87G8Q27W+P7"
      },
      "reference": "ChIJu7sYmMNYwokRkKgLfaQLwzk",
      "scope": "GOOGLE",
      "types": [
        "doctor",
        "health",
        "point_of_interest",
        "establishment"
      ],
      "vicinity": "525 East 68th Street, Payson Avenue #2, New York"
    },
    {
      "business_status": "OPERATIONAL",
      "geometry": {
        "location": {
          "lat": 40.764285,
          "lng": -73.954258
        },
        "viewport": {
          "northeast": {
            "lat": 40.7655753802915,
            "lng": -73.95295036970849
          },
          "southwest": {
            "lat": 40.76287741970851,
            "lng": -73.95564833029151
          }
        }
      },
      "icon": "https://maps.gstatic.com/mapfiles/place_api/icons/v1/png_71/generic_business-71.png",
      "icon_background_color": "#7B9EB0",
      "icon_mask_base_uri": "https://maps.gstatic.com/mapfiles/place_api/icons/v2/generic_pinlet",
      "name": "Dr. Matthew R. Belmont, MD",
      "place_id": "ChIJu7sYmMNYwokREkzefjOEqHk",
      "plus_code": {
        "compound_code": "Q27W+P7 New York, NY, USA",
        "global_code": "87G8Q27W+P7"
      },
      "reference": "ChIJu7sYmMNYwokREkzefjOEqHk",
      "scope": "GOOGLE",
      "types": [
        "doctor",
        "health",
        "point_of_interest",
        "establishment"
      ],
      "vicinity": "525 East 68th Street # M328, New York"
    },
    {
      "business_status": "OPERATIONAL",
      "geometry": {
        "location": {
          "lat": 40.7643316,
          "lng": -73.95425589999999
        },
        "viewport": {
          "northeast": {
            "lat": 40.76560353029149,
            "lng": -73.9529612697085
          },
          "southwest": {
            "lat": 40.76290556970849,
            "lng": -73.9556592302915
          }
        }
      },
      "icon": "https://maps.gstatic.com/mapfiles/place_api/icons/v1/png_71/generic_business-71.png",
      "icon_background_color": "#7B9EB0",
      "icon_mask_base_uri": "https://maps.gstatic.com/mapfiles/place_api/icons/v2/generic_pinlet",
      "name": "Renu Chawla Mital, M.D.",
      "photos": [
        {
          "height": 560,
          "html_attributions": [
            "<a href=\"https://maps.google.com/maps/contrib/110675405553254655642\">Renu Chawla Mital, M.D.</a>"
          ],
          "photo_reference": "AeJbb3cxyJXcvaiiuGwb4d5YffiEw8HN3SXnWc3Lf8GdtTVZwyIF4bGTkmjgAJEZxdPbvjq_q4PjQwTPnw-39wXkWsqil4xfpffFMQL6fUvtgp7N1IM8kHBPSCa1MMl5ONPnze40up3hZJHVlNVDYJSEWn0LzMwRWSHjn-64JeVoxukSQBAc",
          "width": 420
        }
      ],
      "place_id": "ChIJu7sYmMNYwokRxBaDCkqLxhQ",
      "plus_code": {
        "compound_code": "Q27W+P7 New York, NY, USA",
        "global_code": "87G8Q27W+P7"
      },
      "reference": "ChIJu7sYmMNYwokRxBaDCkqLxhQ",
      "scope": "GOOGLE",
      "types": [
        "doctor",
        "health",
        "point_of_interest",
        "establishment"
      ],
      "vicinity": "525 East 68th Street Room M130, New York"
    },
    {
      "business_status": "OPERATIONAL",
      "geometry": {
        "location": {
          "lat": 40.764285,
          "lng": -73.954258
        },
        "viewport": {
          "northeast": {
            "lat": 40.7655753802915,
            "lng": -73.95295036970849
          },
          "southwest": {
            "lat": 40.76287741970851,
            "lng": -73.95564833029151
          }
        }
      },
      "icon": "https://maps.gstatic.com/mapfiles/place_api/icons/v1/png_71/generic_business-71.png",
      "icon_background_color": "#7B9EB0",
      "icon_mask_base_uri": "https://maps.gstatic.com/mapfiles/place_api/icons/v2/generic_pinlet",
      "name": "Dr. Rhonda A. Press, MD",
      "place_id": "ChIJu7sYmMNYwokRafwbwRhV22w",
      "plus_code": {
        "compound_code": "Q27W+P7 New York, NY, USA",
        "global_code": "87G8Q27W+P7"
      },
      "rating": 4,
      "reference": "ChIJu7sYmMNYwokRafwbwRhV22w",
      "scope": "GOOGLE",
      "types": [
        "doctor",
        "health",
        "point_of_interest",
        "establishment"
      ],
      "user_ratings_total": 1,
      "vicinity": "525 East 68th Street # M328, New York"
    },
    {
      "business_status": "OPERATIONAL",
      "geometry": {
        "location": {
          "lat": 40.764285,
          "lng": -73.954258
        },
        "viewport": {
          "northeast": {
            "lat": 40.7656403302915,
            "lng": -73.95304441970849
          },
          "southwest": {
            "lat": 40.7629423697085,
            "lng": -73.95574238029151
          }
        }
      },
      "icon": "https://maps.gstatic.com/mapfiles/place_api/icons/v1/png_71/generic_business-71.png",
      "icon_background_color": "#7B9EB0",
      "icon_mask_base_uri": "https://maps.gstatic.com/mapfiles/place_api/icons/v2/generic_pinlet",
      "name": "Pediatric Endocrinology Department: Chapin John MD",
      "place_id": "ChIJu7sYmMNYwokRu9Qswc73qz4",
      "plus_code": {
        "compound_code": "Q27W+P7 New York, NY, USA",
        "global_code": "87G8Q27W+P7"
      },
      "reference": "ChIJu7sYmMNYwokRu9Qswc73qz4",
      "scope": "GOOGLE",
      "types": [
        "doctor",
        "health",
        "point_of_interest",
        "establishment"
      ],
      "vicinity": "525 E 68th St # Mb103, New York"
    }
  ],
  "status": "OK"
}