{
  "html_attributions": [],
  "results": [
    {
      "geometry": {
        "location": {
          "lat": 40.7127753,
          "lng": -74.0059728
        },
        "viewport": {
          "northeast": {
            "lat": 40.91757705070789,
            "lng": -73.70027206817629
          },
          "southwest": {
            "lat": 40.47739906045452,
            "lng": -74.25908991427882
          }
        }
      },
      "icon": "https://maps.gstatic.com/mapfiles/place_api/icons/v1/png_71/geocode-71.png",
      "icon_background_color": "#7B9EB0",
      "icon_mask_base_uri": "https://maps.gstatic.com/mapfiles/place_api/icons/v2/generic_pinlet",
      "name": "\u7d10\u7d04",
      "photos": [
        {
          "height": 600,
          "html_attributions": [
            "<a href=\"https://maps.google.com/maps/contrib/102389334567210814614\">Bukurie</a>"
          ],
          "photo_reference": "AeJbb3e5EDcx6c_2yrgxjq2eonzJKgO6_1B8auS09xkD2EnAUpll6i25bFZOso7VvXXmQuq-Dk3VwaZXoIMeh0tIclksda7QH-M4syYPCtaok5iA9QDx8jdudA1z3X56wjxxMb2j0xG2vOUbG8KAcBI_oRFkGPe6dTBWiXkyAQNtpsvK0jXR",
          "width": 480
        }
      ],
      "place_id": "ChIJOwg_06VPwokRYv534QaPC8g",
      "reference": "ChIJOwg_06VPwokRYv534QaPC8g",
      "scope": "GOOGLE",
      "types": [
        "locality",
        "political"
      ],
      "vicinity": "\u7d10\u7d04"
    },
    {
      "business_status": "OPERATIONAL",
      "geometry": {
        "location": {
          "lat": 40.7812199,
          "lng": -73.9665138
        },
        "viewport": {
          "northeast": {
            "lat": 40.83418870000001,
            "lng": -73.93318399999998
          },
          "southwest": {
            "lat": 40.7405211,
            "lng": -73.9986532
          }
        }
      },
      "icon": "https://maps.gstatic.com/mapfiles/place_api/icons/v1/png_71/park-71.png",
      "icon_background_color": "#4DB546",
      "icon_mask_base_uri": "https://maps.gstatic.com/mapfiles/place_api/icons/v2/tree_pinlet",
      "name": "\u4e2d\u592e\u516c\u5712",
      "opening_hours": {
        "open_now": true
      },
      "photos": [
        {
          "height": 3024,
          "html_attributions": [
            "<a href=\"https://maps.google.com/maps/contrib/109892678087628508025\">Mohammad Sakhawat Hussain Sakib</a>"
          ],
          "photo_reference": "AeJbb3eHNvpT_0Bt-qbFzCsEJnICZ0YMYjwwDFq3sykgsjP5TLFMkCsQED7dy4VICq_ixWbX6-FjsgS9Rj_abIpLpznA75NFw8oh1bl5_eJ1qTdQube8QI3C3ABuiTsFpzLXYw8c3Y2Si8-zId2jTz6kNDuFkUKE65wTDeLYezahs-G9Rbmz",
          "width": 4032
        }
      ],
      "place_id": "ChIJ4zGFAZpYwokRGUGph3Mf37k",
      "plus_code": {
        "compound_code": "Q2JM+F9 \u7f8e\u570b\u7d10\u7d04",
        "global_code": "87G8Q2JM+F9"
      },
      "rating": 4.8,
      "reference": "ChIJ4zGFAZpYwokRGUGph3Mf37k",
      "scope": "GOOGLE",
      "types": [
        "park",
        "tourist_attraction",
        "point_of_interest",
        "establishment"
      ],
      "user_ratings_total": 236679,
      "vicinity": "\u7d10\u7d04"
    },
    {
      "business_status": "OPERATIONAL",
      "geometry": {
        "location": {
          "lat": 40.7852428,
          "lng": -73.972764
        },
        "viewport": {
          "northeast": {
            "lat": 40.7866444302915,
            "lng": -73.9715356697085
          },
          "southwest": {
            "lat": 40.7839464697085,
            "lng": -73.97423363029151
          }
        }
      },
      "icon": "https://maps.gstatic.com/mapfiles/place_api/icons/v1/png_71/restaurant-71.png",
      "icon_background_color": "#FF9E67",
      "icon_mask_base_uri": "https://maps.gstatic.com/mapfiles/place_api/icons/v2/restaurant_pinlet",
      "name": "Prohibition",
      "opening_hours": {
        "open_now": false
      },
      "photos": [
        {
          "height": 1512,
          "html_attributions": [
            "<a href=\"https://maps.google.com/maps/contrib/108944351413290593407\">Prohibition</a>"
          ],
          "photo_reference": "AeJbb3fCGntIZk5I31McQsNwlsfV8red8K2Zvo9nztjhPpxqedoUWd1IhibL36ATSl2wel_9J0xmEBGPFpkk4B-hf2vtIlRldFWKaLFyVm7KMJGLoy0S7zt1zqb8F3pQLsHJJfvktwOyzfJ1fccCbCcleQTlV2muitQYh3YS2s1Ks9gBKsbV",
          "width": 2016
        }
      ],
      "place_id": "ChIJSc_3GIVYwokRh6OzVnCnh6g",
      "plus_code": {
        "compound_code": "Q2PG+3V \u7f8e\u570b\u7d10\u7d04",
        "global_code": "87G8Q2PG+3V"
      },
      "price_level": 2,
      "rating": 4.3,
      "reference": "ChIJSc_3GIVYwokRh6OzVnCnh6g",
      "scope": "GOOGLE",
      "types": [
        "restaurant",
        "bar",
        "food",
        "point_of_interest",
        "establishment"
      ],
      "user_ratings_total": 617,
      "vicinity": "503 Columbus Avenue, New York"
    },
    {
      "business_status": "OPERATIONAL",
      "geometry": {
        "location": {
          "lat": 40.7849326,
          "lng": -73.97305949999999
        },
        "viewport": {
          "northeast": {
            "lat": 40.78632633029149,
            "lng": -73.97180151970849
          },
          "southwest": {
            "lat": 40.7836283697085,
            "lng": -73.9744994802915
          }
        }
      },
      "icon": "https://maps.gstatic.com/mapfiles/place_api/icons/v1/png_71/restaurant-71.png",
      "icon_background_color": "#FF9E67",
      "icon_mask_base_uri": "https://maps.gstatic.com/mapfiles/place_api/icons/v2/restaurant_pinlet",
      "name": "Noi Due Cafe",
      "opening_hours": {
        "open_now": false
      },
      "photos": [
        {
          "height": 1150,
          "html_attributions": [
            "<a href=\"https://maps.google.com/maps/contrib/103144344958115928182\">Noi Due Cafe</a>"
          ],
          "photo_reference": "AeJbb3dLHeXQ9BPjqa1WU45B0xibicuz06C--NmdEAPYIU3nlG5hgbprhqHf-UC4kqkJ0sKsQgxfTeBdfDafJNRGETMvaoMKo_NRHRxNDHqp_a_hL81zACCLChpNkgCctaE4EW4p4zJjKTCqSSYWQwGIbOtfcHTO3ZfWaiHZ4N9Kj-0ZKp9A",
          "width": 1725
        }
      ],
      "place_id": "ChIJ35dPk4pYwokRbcEIZeGqtvg",
      "plus_code": {
        "compound_code": "Q2MG+XQ \u7f8e\u570b\u7d10\u7d04",
        "global_code": "87G8Q2MG+XQ"
      },
      "price_level": 3,
      "rating": 4.5,
      "reference": "ChIJ35dPk4pYwokRbcEIZeGqtvg",
      "scope": "GOOGLE",
      "types": [
        "restaurant",
        "food",
        "point_of_interest",
        "establishment"
      ],
      "user_ratings_total": 1100,
      "vicinity": "491 Columbus Avenue, New York"
    },
    {
      "business_status": "OPERATIONAL",
      "geometry": {
        "location": {
          "lat": 40.7855246,
          "lng": -73.9726719
        },
        "viewport": {
          "northeast": {
            "lat": 40.78689223029149,
            "lng": -73.97142621970849
          },
          "southwest": {
            "lat": 40.78419426970849,
            "lng": -73.9741241802915
          }
        }
      },
      "icon": "https://maps.gstatic.com/mapfiles/place_api/icons/v1/png_71/restaurant-71.png",
      "icon_background_color": "#FF9E67",
      "icon_mask_base_uri": "https://maps.gstatic.com/mapfiles/place_api/icons/v2/restaurant_pinlet",
      "name": "Osteria Cotta",
      "opening_hours": {
        "open_now": true
      },
      "photos": [
        {
          "height": 651,
          "html_attributions": [
            "<a href=\"https://maps.google.com/maps/contrib/106694227306476567383\">Osteria Cotta</a>"
          ],
          "photo_reference": "AeJbb3dy5fVlu3FVSrSVkPE2ZEt-WZHveDo6ha1BGuvIMSqA7wnQ1Kd8raaCL9fkmVfvb2oWsx_1RYIFh9r6hoxiaQfs8QPmXnBCPrp91CtK5N_8THJjGVxlac4oc1B3uvOmmMDwULpGpP8q4eJsrgRA4W02oUCda9bsCoZVAkWYAwMjjxQ",
          "width": 986
        }
      ],
      "place_id": "ChIJOb-eH4VYwokRkyzosmvD_sk",
      "plus_code": {
        "compound_code": "Q2PG+6W \u7f8e\u570b\u7d10\u7d04",
        "global_code": "87G8Q2PG+6W"
      },
      "price_level": 2,
      "rating": 4.4,
      "reference": "ChIJOb-eH4VYwokRkyzosmvD_sk",
      "scope": "GOOGLE",
      "types": [
        "bar",
        "restaurant",
        "food",
        "point_of_interest",
        "establishment"
      ],
      "user_ratings_total": 817,
      "vicinity": "513 Columbus Avenue, New York"
    },
    {
      "business_status": "OPERATIONAL",
      "geometry": {
        "location": {
          "lat": 40.7859486,
          "lng": -73.9743866
        },
        "viewport": {
          "northeast": {
            "lat": 40.7871988802915,
            "lng": -73.9731093197085
          },
          "southwest": {
            "lat": 40.7845009197085,
            "lng": -73.9758072802915
          }
        }
      },
      "icon": "https://maps.gstatic.com/mapfiles/place_api/icons/v1/png_71/school-71.png",
      "icon_background_color": "#7B9EB0",
      "icon_mask_base_uri": "https://maps.gstatic.com/mapfiles/place_api/icons/v2/school_pinlet",
      "name": "Success Academy Charter School Upper West",
      "photos": [
        {
          "height": 4032,
          "html_attributions": [
            "<a href=\"https://maps.google.com/maps/contrib/108279291197095193187\">Manuel Gonzalez</a>"
          ],
          "photo_reference": "AeJbb3cZjLpYcCAJGqJkS8RKaHfb-TykqAJS1R6IIvf4Y-1ga16ryhKMHU_KhnedUm6M-aRDkrIl-ASEpoHkMucMD3ZcQMWw1OJdBTzhhs3Wc5zVn-m-HTxG_U4ly8Llleznd67ZtedUOqJ3p04TDzCxkE0EgcF3hEvPn6Cgm9j78YnvvnUQ",
          "width": 3024
        }
      ],
      "place_id": "ChIJK6MaVYRYwokR6jqcjf5KIvA",
      "plus_code": {
        "compound_code": "Q2PG+96 \u7f8e\u570b\u7d10\u7d04",
        "global_code": "87G8Q2PG+96"
      },
      "rating": 3.9,
      "reference": "ChIJK6MaVYRYwokR6jqcjf5KIvA",
      "scope": "GOOGLE",
      "types": [
        "primary_school",
        "school",
        "point_of_interest",
        "establishment"
      ],
      "user_ratings_total": 19,
      "vicinity": "145 West 84th Street, New York"
    },
    {
      "business_status": "OPERATIONAL",
      "geometry": {
        "location": {
          "lat": 40.7856729,
          "lng": -73.9740479
        },
        "viewport": {
          "northeast": {
            "lat": 40.78697483029151,
            "lng": -73.9727331197085
          },
          "southwest": {
            "lat": 40.78427686970851,
            "lng": -73.9754310802915
          }
        }
      },
      "icon": "https://maps.gstatic.com/mapfiles/place_api/icons/v1/png_71/school-71.png",
      "icon_background_color": "#7B9EB0",
      "icon_mask_base_uri": "https://maps.gstatic.com/mapfiles/place_api/icons/v2/school_pinlet",
      "name": "M404 Innovation Diploma Plus High School",
      "place_id": "ChIJKx1mrIVYwokRA0RI9iDcsZU",
      "plus_code": {
        "compound_code": "Q2PG+79 \u7f8e\u570b\u7d10\u7d04",
        "global_code": "87G8Q2PG+79"
      },
      "rating": 3.8,
      "reference": "ChIJKx1mrIVYwokRA0RI9iDcsZU",
      "scope": "GOOGLE",
      "types": [
        "school",
        "point_of_interest",
        "establishment"
      ],
      "user_ratings_total": 5,
      "vicinity": "145 West 84th Street, New York"
    },
    {
      "business_status": "OPERATIONAL",
      "geometry": {
        "location": {
          "lat": 40.78371870000001,
          "lng": -73.973889
        },
        "viewport": {
          "northeast": {
            "lat": 40.78511863029151,
            "lng": -73.9726604697085
          },
          "southwest": {
            "lat": 40.78242066970851,
            "lng": -73.97535843029151
          }
        }
      },
      "icon": "https://maps.gstatic.com/mapfiles/place_api/icons/v1/png_71/generic_business-71.png",
      "icon_background_color": "#7B9EB0",
      "icon_mask_base_uri": "https://maps.gstatic.com/mapfiles/place_api/icons/v2/generic_pinlet",
      "name": "Dumont Insurance Brokers",
      "place_id": "ChIJHyzpeIVYwokR3lRk4HCJFuc",
      "plus_code": {
        "compound_code": "Q2MG+FC \u7f8e\u570b\u7d10\u7d04",
        "global_code": "87G8Q2MG+FC"
      },
      "rating": 5,
      "reference": "ChIJHyzpeIVYwokR3lRk4HCJFuc",
      "scope": "GOOGLE",
      "types": [
        "insurance_agency",
        "point_of_interest",
        "establishment"
      ],
      "user_ratings_total": 1,
      "vicinity": "459 Columbus Avenue # 385, New York"
    },
    {
      "business_status": "OPERATIONAL",
      "geometry": {
        "location": {
          "lat": 40.78687720000001,
          "lng": -73.97151219999999
        },
        "viewport": {
          "northeast": {
            "lat": 40.7883080302915,
            "lng": -73.9700997197085
          },
          "southwest": {
            "lat": 40.7856100697085,
            "lng": -73.9727976802915
          }
        }
      },
      "icon": "https://maps.gstatic.com/mapfiles/place_api/icons/v1/png_71/generic_business-71.png",
      "icon_background_color": "#7B9EB0",
      "icon_mask_base_uri": "https://maps.gstatic.com/mapfiles/place_api/icons/v2/generic_pinlet",
      "name": "Alexei Hay Photography",
      "place_id": "ChIJa5U71MlZwokRQlD0dbgfITg",
      "plus_code": {
        "compound_code": "Q2PH+Q9 \u7f8e\u570b\u7d10\u7d04",
        "global_code": "87G8Q2PH+Q9"
      },
      "rating": 5,
      "reference": "ChIJa5U71MlZwokRQlD0dbgfITg",
      "scope": "GOOGLE",
      "types": [
        "point_of_interest",
        "establishment"
      ],
      "user_ratings_total": 2,
      "vicinity": "70 West 87th Street, New York"
    },
    {
      "business_status": "CLOSED_TEMPORARILY",
      "geometry": {
        "location": {
          "lat": 40.7830603,
          "lng": -73.9712488
        },
        "viewport": {
          "northeast": {
            "lat": 40.7843645302915,
            "lng": -73.9697951197085
          },
          "southwest": {
            "lat": 40.78166656970851,
            "lng": -73.9724930802915
          }
        }
      },
      "icon": "https://maps.gstatic.com/mapfiles/place_api/icons/v1/png_71/generic_business-71.png",
      "icon_background_color": "#7B9EB0",
      "icon_mask_base_uri": "https://maps.gstatic.com/mapfiles/place_api/icons/v2/generic_pinlet",
      "name": "K Studio",
      "permanently_closed": true,
      "place_id": "ChIJCznCGm18wokRo_UkWbIBlZk",
      "plus_code": {
        "compound_code": "Q2MH+6G \u7f8e\u570b\u7d10\u7d04",
        "global_code": "87G8Q2MH+6G"
      },
      "rating": 5,
      "reference": "ChIJCznCGm18wokRo_UkWbIBlZk",
      "scope": "GOOGLE",
      "types": [
        "point_of_interest",
        "establishment"
      ],
      "user_ratings_total": 1,
      "vicinity": "\u7d10\u7d04"
    },
    {
      "business_status": "OPERATIONAL",
      "geometry": {
        "location": {
          "lat": 40.7855306,
          "lng": -73.9730917
        },
        "viewport": {
          "northeast": {
            "lat": 40.7868422302915,
            "lng": -73.9716616197085
          },
          "southwest": {
            "lat": 40.7841442697085,
            "lng": -73.9743595802915
          }
        }
      },
      "icon": "https://maps.gstatic.com/mapfiles/place_api/icons/v1/png_71/atm-71.png",
      "icon_background_color": "#909CE1",
      "icon_mask_base_uri": "https://maps.gstatic.com/mapfiles/place_api/icons/v2/atm_pinlet",
      "name": "Citibank ATM",
      "place_id": "ChIJsT5tGYVYwokRCPD-wMzF37A",
      "plus_code": {
        "compound_code": "Q2PG+6Q \u7f8e\u570b\u7d10\u7d04",
        "global_code": "87G8Q2PG+6Q"
      },
      "rating": 1,
      "reference": "ChIJsT5tGYVYwokRCPD-wMzF37A",
      "scope": "GOOGLE",
      "types": [
        "atm",
        "bank",
        "finance",
        "point_of_interest",
        "establishment"
      ],
      "user_ratings_total": 1,
      "vicinity": "504 Columbus Avenue #84st, New York"
    },
    {
      "business_status": "OPERATIONAL",
      "geometry": {
        "location": {
          "lat": 40.78722399999999,
          "lng": -73.973248
        },
        "viewport": {
          "northeast": {
            "lat": 40.78847118029149,
            "lng": -73.9719884197085
          },
          "southwest": {
            "lat": 40.78577321970849,
            "lng": -73.9746863802915
          }
        }
      },
      "icon": "https://maps.gstatic.com/mapfiles/place_api/icons/v1/png_71/worship_jewish-71.png",
      "icon_background_color": "#7B9EB0",
      "icon_mask_base_uri": "https://maps.gstatic.com/mapfiles/place_api/icons/v2/worship_jewish_pinlet",
      "name": "The Jewish Center",
      "photos": [
        {
          "height": 853,
          "html_attributions": [
            "<a href=\"https://maps.google.com/maps/contrib/109718486962148431918\">The Jewish Center</a>"
          ],
          "photo_reference": "AeJbb3c9pmOL3zKftsv3BuPxkuSd3hwDkTBE1qugFQ-a8Ofblh1JvKEqox4UQQ2QbSoP2myidKKNWMb68SNAHnNPm-04dp7yDMfB7Z1Q7C1-JGrSMFDWBhMbm2WY4YSeDFETyUk0N8gYf04uQDZ4JXcZE5Y0F0jMhL1lL1VI5PY5wkigTiCR",
          "width": 1280
        }
      ],
      "place_id": "ChIJoy_nkoRYwokR1bFDo05OSFM",
      "plus_code": {
        "compound_code": "Q2PG+VP \u7f8e\u570b\u7d10\u7d04",
        "global_code": "87G8Q2PG+VP"
      },
      "rating": 4.7,
      "reference": "ChIJoy_nkoRYwokR1bFDo05OSFM",
      "scope": "GOOGLE",
      "types": [
        "synagogue",
        "place_of_worship",
        "point_of_interest",
        "establishment"
      ],
      "user_ratings_total": 36,
      "vicinity": "131 West 86th Street, New York"
    },
    {
      "business_status": "OPERATIONAL",
      "geometry": {
        "location": {
          "lat": 40.7860105,
          "lng": -73.9740956
        },
        "viewport": {
          "northeast": {
            "lat": 40.78719048029149,
            "lng": -73.9729353697085
          },
          "southwest": {
            "lat": 40.78449251970849,
            "lng": -73.9756333302915
          }
        }
      },
      "icon": "https://maps.gstatic.com/mapfiles/place_api/icons/v1/png_71/school-71.png",
      "icon_background_color": "#7B9EB0",
      "icon_mask_base_uri": "https://maps.gstatic.com/mapfiles/place_api/icons/v2/school_pinlet",
      "name": "Louis D. Brandeis High School",
      "photos": [
        {
          "height": 4032,
          "html_attributions": [
            "<a href=\"https://maps.google.com/maps/contrib/108279291197095193187\">Manuel Gonzalez</a>"
          ],
          "photo_reference": "AeJbb3diD67voUrkNW3kPVsTRdpRHC44FLqBjAZCWZG1NG4MlnwZD8DiMlgTsYmpMiJWmVrhY6edoT1bmou8_4qYUN1pf273zN4ANmL-vziqWNkfeID0bVSe1-KGyJhyzd6VKb3_rSVldw57LnrYCDQ-Rotul3yZgBZXR8Rr9M1Aydgte5zz",
          "width": 3024
        }
      ],
      "place_id": "ChIJKx1mrIVYwokRKte9guFn7Sk",
      "plus_code": {
        "compound_code": "Q2PG+C9 \u7f8e\u570b\u7d10\u7d04",
        "global_code": "87G8Q2PG+C9"
      },
      "rating": 4.7,
      "reference": "ChIJKx1mrIVYwokRKte9guFn7Sk",
      "scope": "GOOGLE",
      "types": [
        "secondary_school",
        "school",
        "point_of_interest",
        "establishment"
      ],
      "user_ratings_total": 6,
      "vicinity": "145 West 84th Street, New York"
    },
    {
      "business_status": "OPERATIONAL",
      "geometry": {
        "location": {
          "lat": 40.7817616,
          "lng": -73.973086
        },
        "viewport": {
          "northeast": {
            "lat": 40.78317163029151,
            "lng": -73.97168091970849
          },
          "southwest": {
            "lat": 40.78047366970851,
            "lng": -73.9743788802915
          }
        }
      },
      "icon": "https://maps.gstatic.com/mapfiles/place_api/icons/v1/png_71/museum-71.png",
      "icon_background_color": "#13B5C7",
      "icon_mask_base_uri": "https://maps.gstatic.com/mapfiles/place_api/icons/v2/museum_pinlet",
      "name": "\u7f85\u65af\u5730\u7403\u548c\u7a7a\u9593\u4e2d\u5fc3",
      "opening_hours": {
        "open_now": true
      },
      "photos": [
        {
          "height": 2268,
          "html_attributions": [
            "<a href=\"https://maps.google.com/maps/contrib/114015510953830713297\">Iv\u00e1n Zaruma Remache</a>"
          ],
          "photo_reference": "AeJbb3d5Jt_xPFb66c97DZUfV4Pn9L7RScn4UV3ELxQ9NMLf3i9cWKiOsrkv8wl5FaviIJCfYRld2vnO1kOsJdAH9MC4mPsY4IXmXfCs-OCczkjZuJztmUsgZ0EeL53ONkn55H0_j9bTMpPKa-9lzKbZx9ouNq-vNrHxQN_b-IaITUN0SM0N",
          "width": 4032
        }
      ],
      "place_id": "ChIJo9DW6I9YwokR8UjIKmzHkrI",
      "plus_code": {
        "compound_code": "Q2JG+PQ \u7f8e\u570b\u7d10\u7d04",
        "global_code": "87G8Q2JG+PQ"
      },
      "rating": 4.6,
      "reference": "ChIJo9DW6I9YwokR8UjIKmzHkrI",
      "scope": "GOOGLE",
      "types": [
        "tourist_attraction",
        "museum",
        "point_of_interest",
        "establishment"
      ],
      "user_ratings_total": 206,
      "vicinity": "81st Street between Central Park West and Columbus Avenue, New York"
    },
    {
      "business_status": "OPERATIONAL",
      "geometry": {
        "location": {
          "lat": 40.78371870000001,
          "lng": -73.973889
        },
        "viewport": {
          "northeast": {
            "lat": 40.78511863029151,
            "lng": -73.9726604697085
          },
          "southwest": {
            "lat": 40.78242066970851,
            "lng": -73.97535843029151
          }
        }
      },
      "icon": "https://maps.gstatic.com/mapfiles/place_api/icons/v1/png_71/generic_business-71.png",
      "icon_background_color": "#7B9EB0",
      "icon_mask_base_uri": "https://maps.gstatic.com/mapfiles/place_api/icons/v2/generic_pinlet",
      "name": "New York Celebrity Assistants",
      "place_id": "ChIJHyzpeIVYwokRG1nRIJIOxSQ",
      "plus_code": {
        "compound_code": "Q2MG+FC \u7f8e\u570b\u7d10\u7d04",
        "global_code": "87G8Q2MG+FC"
      },
      "rating": 5,
      "reference": "ChIJHyzpeIVYwokRG1nRIJIOxSQ",
      "scope": "GOOGLE",
      "types": [
        "point_of_interest",
        "establishment"
      ],
      "user_ratings_total": 2,
      "vicinity": "459 Columbus Avenue, New York"
    },
    {
      "business_status": "OPERATIONAL",
      "geometry": {
        "location": {
          "lat": 40.786479,
          "lng": -73.9687644
        },
        "viewport": {
          "northeast": {
            "lat": 40.78778298029151,
            "lng": -73.96730586970848
          },
          "southwest": {
            "lat": 40.78508501970851,
            "lng": -73.9700038302915
          }
        }
      },
      "icon": "https://maps.gstatic.com/mapfiles/place_api/icons/v1/png_71/generic_business-71.png",
      "icon_background_color": "#7B9EB0",
      "icon_mask_base_uri": "https://maps.gstatic.com/mapfiles/place_api/icons/v2/generic_pinlet",
      "name": "Daphne Simeon M.D.",
      "place_id": "ChIJOcDY3Z1YwokRLnV9BD5tb4E",
      "plus_code": {
        "compound_code": "Q2PJ+HF \u7f8e\u570b\u7d10\u7d04",
        "global_code": "87G8Q2PJ+HF"
      },
      "rating": 2.5,
      "reference": "ChIJOcDY3Z1YwokRLnV9BD5tb4E",
      "scope": "GOOGLE",
      "types": [
        "doctor",
        "health",
        "point_of_interest",
        "establishment"
      ],
      "user_ratings_total": 2,
      "vicinity": "275 Central Park West Suite 1A, New York"
    },
    {
      "business_status": "OPERATIONAL",
      "geometry": {
        "location": {
          "lat": 40.7868554,
          "lng": -73.9684761
        },
        "viewport": {
          "northeast": {
            "lat": 40.7881608302915,
            "lng": -73.96702411970848
          },
          "southwest": {
            "lat": 40.7854628697085,
            "lng": -73.9697220802915
          }
        }
      },
      "icon": "https://maps.gstatic.com/mapfiles/place_api/icons/v1/png_71/generic_business-71.png",
      "icon_background_color": "#7B9EB0",
      "icon_mask_base_uri": "https://maps.gstatic.com/mapfiles/place_api/icons/v2/generic_pinlet",
      "name": "Central Park West Wellness",
      "opening_hours": {
        "open_now": false
      },
      "photos": [
        {
          "height": 460,
          "html_attributions": [
            "<a href=\"https://maps.google.com/maps/contrib/108160200237832776127\">Central Park West Wellness</a>"
          ],
          "photo_reference": "AeJbb3eUcl-t5nZLj-MzJOlMwuDT90gSxBEwsUO28Tm_gMj9sSFODDEAA0-9pQDH1fq2SOATtuXxRBp6s4w9laVoup67Cbj_XW6o_yKd6ffFw4z-chqek3P-UR3__rXqyoYykpPqIvg1SI-UisOuLyQbCcUMBIbHi3sY_QgHxMk7ZQuK3v6e",
          "width": 1200
        }
      ],
      "place_id": "ChIJ24voL4xYwokRDxetqJnjpfA",
      "plus_code": {
        "compound_code": "Q2PJ+PJ \u7f8e\u570b\u7d10\u7d04",
        "global_code": "87G8Q2PJ+PJ"
      },
      "rating": 5,
      "reference": "ChIJ24voL4xYwokRDxetqJnjpfA",
      "scope": "GOOGLE",
      "types": [
        "doctor",
        "health",
        "point_of_interest",
        "establishment"
      ],
      "user_ratings_total": 123,
      "vicinity": "279 Central Park West #1A, New York"
    },
    {
      "business_status": "CLOSED_TEMPORARILY",
      "geometry": {
        "location": {
          "lat": 40.78371870000001,
          "lng": -73.973889
        },
        "viewport": {
          "northeast": {
            "lat": 40.78511863029151,
            "lng": -73.9726604697085
          },
          "southwest": {
            "lat": 40.78242066970851,
            "lng": -73.97535843029151
          }
        }
      },
      "icon": "https://maps.gstatic.com/mapfiles/place_api/icons/v1/png_71/generic_business-71.png",
      "icon_background_color": "#7B9EB0",
      "icon_mask_base_uri": "https://maps.gstatic.com/mapfiles/place_api/icons/v2/generic_pinlet",
      "name": "Oliphant Press",
      "permanently_closed": true,
      "place_id": "ChIJsewAG4VYwokRm8qeRcn_gd0",
      "plus_code": {
        "compound_code": "Q2MG+FC \u7f8e\u570b\u7d10\u7d04",
        "global_code": "87G8Q2MG+FC"
      },
      "reference": "ChIJsewAG4VYwokRm8qeRcn_gd0",
      "scope": "GOOGLE",
      "types": [
        "point_of_interest",
        "establishment"
      ],
      "vicinity": "459 Columbus Avenue, New York"
    },
    {
      "business_status": "CLOSED_TEMPORARILY",
      "geometry": {
        "location": {
          "lat": 40.78371870000001,
          "lng": -73.973889
        },
        "viewport": {
          "northeast": {
            "lat": 40.78511863029151,
            "lng": -73.9726604697085
          },
          "southwest": {
            "lat": 40.78242066970851,
            "lng": -73.97535843029151
          }
        }
      },
      "icon": "https://maps.gstatic.com/mapfiles/place_api/icons/v1/png_71/generic_business-71.png",
      "icon_background_color": "#7B9EB0",
      "icon_mask_base_uri": "https://maps.gstatic.com/mapfiles/place_api/icons/v2/generic_pinlet",
      "name": "Vitruvian Marketing",
      "permanently_closed": true,
      "place_id": "ChIJHyzpeIVYwokRAYSVpdZlGII",
      "plus_code": {
        "compound_code": "Q2MG+FC \u7f8e\u570b\u7d10\u7d04",
        "global_code": "87G8Q2MG+FC"
      },
      "reference": "ChIJHyzpeIVYwokRAYSVpdZlGII",
      "scope": "GOOGLE",
      "types": [
        "point_of_interest",
        "establishment"
      ],
      "vicinity": "459 Columbus Avenue, New York"
    },
    {
      "geometry": {
        "location": {
          "lat": 40.7830603,
          "lng": -73.9712488
        },
        "viewport": {
          "northeast": {
            "lat": 40.820045,
            "lng": -73.90331300000001
          },
          "southwest": {
            "lat": 40.698078,
            "lng": -74.03514899999999
          }
        }
      },
      "icon": "https://maps.gstatic.com/mapfiles/place_api/icons/v1/png_71/geocode-71.png",
      "icon_background_color": "#7B9EB0",
      "icon_mask_base_uri": "https://maps.gstatic.com/mapfiles/place_api/icons/v2/generic_pinlet",
      "name": "\u66fc\u54c8\u9813",
      "photos": [
        {
          "height": 1199,
          "html_attributions": [
            "<a href=\"https://maps.google.com/maps/contrib/108803842220307386999\">Debeli Atleti\u010dar</a>"
          ],
          "photo_reference": "AeJbb3d9si6Ry5awRf06HsKVxJVSxetkQEjUH4rJtEeIfxyd3mZZQyDmNWRSQHs5twvHKsL6f6m3ni7OzEmFZAMj6J9P1p7JqMNwtMXk6SW1tuiKMaNV1XXXRA-f0kOVsQXHQGVLG9FPspu78_LMwUU4gCPtbAOyRC6XnWrVW2QVMaGcJYBe",
          "width": 1800
        }
      ],
      "place_id": "ChIJYeZuBI9YwokRjMDs_IEyCwo",
      "reference": "ChIJYeZuBI9YwokRjMDs_IEyCwo",
      "scope": "GOOGLE",
      "types": [
        "sublocality_level_1",
        "sublocality",
        "political"
      ],
      "vicinity": "\u66fc\u54c8\u9813"
    },
    {
      "business_status": "CLOSED_TEMPORARILY",
      "geometry": {
        "location": {
          "lat": 40.7835704,
          "lng": -73.973889
        },
        "viewport": {
          "northeast": {
            "lat": 40.7850195802915,
            "lng": -73.9724665697085
          },
          "southwest": {
            "lat": 40.7823216197085,
            "lng": -73.97516453029151
          }
        }
      },
      "icon": "https://maps.gstatic.com/mapfiles/place_api/icons/v1/png_71/school-71.png",
      "icon_background_color": "#7B9EB0",
      "icon_mask_base_uri": "https://maps.gstatic.com/mapfiles/place_api/icons/v2/school_pinlet",
      "name": "Smart world sadar road ambikapur",
      "permanently_closed": true,
      "place_id": "ChIJ1Tw0eYVYwokR1UbQK_seh5s",
      "plus_code": {
        "compound_code": "Q2MG+CC New York, NY, USA",
        "global_code": "87G8Q2MG+CC"
      },
      "reference": "ChIJ1Tw0eYVYwokR1UbQK_seh5s",
      "scope": "GOOGLE",
      "types": [
        "school",
        "point_of_interest",
        "establishment"
      ],
      "vicinity": "459 Columbus Avenue #263, New York"
    },
    {
      "business_status": "OPERATIONAL",
      "geometry": {
        "location": {
          "lat": 40.78630630000001,
          "lng": -73.9710192
        },
        "viewport": {
          "northeast": {
            "lat": 40.78752978029151,
            "lng": -73.9697289697085
          },
          "southwest": {
            "lat": 40.78483181970851,
            "lng": -73.9724269302915
          }
        }
      },
      "icon": "https://maps.gstatic.com/mapfiles/place_api/icons/v1/png_71/generic_business-71.png",
      "icon_background_color": "#7B9EB0",
      "icon_mask_base_uri": "https://maps.gstatic.com/mapfiles/place_api/icons/v2/generic_pinlet",
      "name": "Parc Cameron Apartments",
      "opening_hours": {
        "open_now": true
      },
      "photos": [
        {
          "height": 1080,
          "html_attributions": [
            "<a href=\"https://maps.google.com/maps/contrib/109178373030615837101\">Parc Cameron Apartments</a>"
          ],
          "photo_reference": "AeJbb3dgIrg9FGMPxYdJNIOSVIxIWMh5jcyFAZdxUWkFcwRiQ9Nj9dlvlIwYS6OtBFzS0HZiVKIkvZ2o4GzHFwKgvqcOuX6mw7HiFRKa4HPiemA1gWnXDHnIE1pGvMVLqF9lHOF9Qqq4VVnicaB1L6uaHbKDarmXUWyuVAbYjoEoT5MHtjIl",
          "width": 1920
        }
      ],
      "place_id": "ChIJYSBULZtYwokRiHv2JnpCNS4",
      "plus_code": {
        "compound_code": "Q2PH+GH New York, NY, USA",
        "global_code": "87G8Q2PH+GH"
      },
      "rating": 4.5,
      "reference": "ChIJYSBULZtYwokRiHv2JnpCNS4",
      "scope": "GOOGLE",
      "types": [
        "point_of_interest",
        "establishment"
      ],
      "user_ratings_total": 26,
      "vicinity": "41 West 86th Street, New York"
    },
    {
      "business_status": "OPERATIONAL",
      "geometry": {
        "location": {
          "lat": 40.7855172,
          "lng": -73.970608
        },
        "viewport": {
          "northeast": {
            "lat": 40.7869871302915,
            "lng": -73.96916991970849
          },
          "southwest": {
            "lat": 40.7842891697085,
            "lng": -73.9718678802915
          }
        }
      },
      "icon": "https://maps.gstatic.com/mapfiles/place_api/icons/v1/png_71/generic_business-71.png",
      "icon_background_color": "#7B9EB0",
      "icon_mask_base_uri": "https://maps.gstatic.com/mapfiles/place_api/icons/v2/generic_pinlet",
      "name": "Bard Graduate Center Gallery",
      "opening_hours": {
        "open_now": true
      },
      "photos": [
        {
          "height": 3024,
          "html_attributions": [
            "<a href=\"https://maps.google.com/maps/contrib/111051788312563445266\">Darren Ingram</a>"
          ],
          "photo_reference": "AeJbb3cfw8tJ3Vyjyu46laSExX8oPwPRC8Iwh0zOTm5Ma9JWVE6B5noj9sM5uNVo_t27AnF6_M3w9IIiAxTcPQx4ZVcGIDEBLgqarDJXiEYMaEVe55WQwOZz-tWkBRbqwBkTPLYLsUMWnh0ePlonxnxCy4qY-haGS_uWPoSP-cVGgKlIIwUq",
          "width": 4032
        }
      ],
      "place_id": "ChIJEfCY1IRYwokRfw8kJf_VsFg",
      "plus_code": {
        "compound_code": "Q2PH+6Q New York, NY, USA",
        "global_code": "87G8Q2PH+6Q"
      },
      "rating": 4.4,
      "reference": "ChIJEfCY1IRYwokRfw8kJf_VsFg",
      "scope": "GOOGLE",
      "types": [
        "art_gallery",
        "point_of_interest",
        "establishment"
      ],
      "user_ratings_total": 53,
      "vicinity": "18 West 86th Street, New York"
    },
    {
      "business_status": "OPERATIONAL",
      "geometry": {
        "location": {
          "lat": 40.7842811,
          "lng": -73.9702762
        },
        "viewport": {
          "northeast": {
            "lat": 40.78559673029149,
            "lng": -73.96885251970849
          },
          "southwest": {
            "lat": 40.7828987697085,
            "lng": -73.97155048029151
          }
        }
      },
      "icon": "https://maps.gstatic.com/mapfiles/place_api/icons/v1/png_71/generic_business-71.png",
      "icon_background_color": "#7B9EB0",
      "icon_mask_base_uri": "https://maps.gstatic.com/mapfiles/place_api/icons/v2/generic_pinlet",
      "name": "Dr. Suzanne Mallouk, MD",
      "opening_hours": {
        "open_now": false
      },
      "place_id": "ChIJGfMZx5pYwokRfy6qWNBpQqQ",
      "plus_code": {
        "compound_code": "Q2MH+PV New York, NY, USA",
        "global_code": "87G8Q2MH+PV"
      },
      "rating": 3.4,
      "reference": "ChIJGfMZx5pYwokRfy6qWNBpQqQ",
      "scope": "GOOGLE",
      "types": [
        "doctor",
        "health",
        "point_of_interest",
        "establishment"
      ],
      "user_ratings_total": 5,
      "vicinity": "241 Central Park West, New York"
    },
    {
      "business_status": "OPERATIONAL",
      "geometry": {
        "location": {
          "lat": 40.78519790000001,
          "lng": -73.9697336
        },
        "viewport": {
          "northeast": {
            "lat": 40.7866518302915,
            "lng": -73.96830876970849
          },
          "southwest": {
            "lat": 40.7839538697085,
            "lng": -73.97100673029149
          }
        }
      },
      "icon": "https://maps.gstatic.com/mapfiles/place_api/icons/v1/png_71/generic_business-71.png",
      "icon_background_color": "#7B9EB0",
      "icon_mask_base_uri": "https://maps.gstatic.com/mapfiles/place_api/icons/v2/generic_pinlet",
      "name": "Wein Steven J MD",
      "place_id": "ChIJg5mB2JpYwokRE7KND9Mggos",
      "plus_code": {
        "compound_code": "Q2PJ+34 New York, NY, USA",
        "global_code": "87G8Q2PJ+34"
      },
      "reference": "ChIJg5mB2JpYwokRE7KND9Mggos",
      "scope": "GOOGLE",
      "types": [
        "doctor",
        "health",
        "point_of_interest",
        "establishment"
      ],
      "vicinity": "10 West 86th Street # 1B, New York"
    },
    {
      "business_status": "OPERATIONAL",
      "geometry": {
        "location": {
          "lat": 40.78449929999999,
          "lng": -73.97387239999999
        },
        "viewport": {
          "northeast": {
            "lat": 40.7857987802915,
            "lng": -73.97244226970848
          },
          "southwest": {
            "lat": 40.7831008197085,
            "lng": -73.9751402302915
          }
        }
      },
      "icon": "https://maps.gstatic.com/mapfiles/place_api/icons/v1/png_71/restaurant-71.png",
      "icon_background_color": "#FF9E67",
      "icon_mask_base_uri": "https://maps.gstatic.com/mapfiles/place_api/icons/v2/restaurant_pinlet",
      "name": "Thyme & Tonic",
      "opening_hours": {
        "open_now": true
      },
      "photos": [
        {
          "height": 576,
          "html_attributions": [
            "<a href=\"https://maps.google.com/maps/contrib/108901041661551081696\">Thyme &amp; Tonic</a>"
          ],
          "photo_reference": "AeJbb3fTluXmLV4uPMe1XwAxF6dqZXAYZayniwhpELbhQIgEBLBFihPkretquF29sY6ak90-RHpjeBgPCHCJyWQcVxmk5zupS_PnUBrSWkWK0eN8SQOaVv_RifaMK8s0t_O14O-XkKmop-9Nx6IXkp5xWWh7gkdsXVb-IfAlwz76G6a2BFyR",
          "width": 864
        }
      ],
      "place_id": "ChIJQ3mydYVYwokRIdtLmrZ8tM0",
      "plus_code": {
        "compound_code": "Q2MG+QF New York, NY, USA",
        "global_code": "87G8Q2MG+QF"
      },
      "price_level": 2,
      "rating": 4,
      "reference": "ChIJQ3mydYVYwokRIdtLmrZ8tM0",
      "scope": "GOOGLE",
      "types": [
        "bar",
        "restaurant",
        "food",
        "point_of_interest",
        "establishment"
      ],
      "user_ratings_total": 710,
      "vicinity": "474 Columbus Avenue, New York"
    },
    {
      "business_status": "OPERATIONAL",
      "geometry": {
        "location": {
          "lat": 40.78472500000001,
          "lng": -73.9732417
        },
        "viewport": {
          "northeast": {
            "lat": 40.7861152802915,
            "lng": -73.9719937697085
          },
          "southwest": {
            "lat": 40.78341731970851,
            "lng": -73.97469173029151
          }
        }
      },
      "icon": "https://maps.gstatic.com/mapfiles/place_api/icons/v1/png_71/restaurant-71.png",
      "icon_background_color": "#FF9E67",
      "icon_mask_base_uri": "https://maps.gstatic.com/mapfiles/place_api/icons/v2/restaurant_pinlet",
      "name": "Cilantro",
      "opening_hours": {
        "open_now": true
      },
      "photos": [
        {
          "height": 4032,
          "html_attributions": [
            "<a href=\"https://maps.google.com/maps/contrib/101406706751171618960\">Yamen Shehadeh</a>"
          ],
          "photo_reference": "AeJbb3eZQYWMEtD2WX5IWVpW6akCtRQRgYHudihS7nhhByJMbpRlHm3kifALmZ2jeB0RFUGqdo1m8ynpIfBiyrcIs-jnpU3w-qSpoyvrWReShaow2w69x13OJGmQkfIDFwXAoShRbaj_8h9kPahvsZaMeqe_JOq6Wap8xIhzjtQiAxy6cCiA",
          "width": 3024
        }
      ],
      "place_id": "ChIJB2ZeE4VYwokRuSydT6lEsUE",
      "plus_code": {
        "compound_code": "Q2MG+VP New York, NY, USA",
        "global_code": "87G8Q2MG+VP"
      },
      "price_level": 2,
      "rating": 4.3,
      "reference": "ChIJB2ZeE4VYwokRuSydT6lEsUE",
      "scope": "GOOGLE",
      "types": [
        "restaurant",
        "food",
        "point_of_interest",
        "establishment"
      ],
      "user_ratings_total": 770,
      "vicinity": "485 Columbus Avenue, New York"
    },
    {
      "business_status": "OPERATIONAL",
      "geometry": {
        "location": {
          "lat": 40.78371870000001,
          "lng": -73.973889
        },
        "viewport": {
          "northeast": {
            "lat": 40.78511863029151,
            "lng": -73.9726604697085
          },
          "southwest": {
            "lat": 40.78242066970851,
            "lng": -73.97535843029151
          }
        }
      },
      "icon": "https://maps.gstatic.com/mapfiles/place_api/icons/v1/png_71/generic_business-71.png",
      "icon_background_color": "#7B9EB0",
      "icon_mask_base_uri": "https://maps.gstatic.com/mapfiles/place_api/icons/v2/generic_pinlet",
      "name": "Brazilian Travel",
      "place_id": "ChIJ1Tw0eYVYwokRwdgCcUCrk1g",
      "plus_code": {
        "compound_code": "Q2MG+FC New York, NY, USA",
        "global_code": "87G8Q2MG+FC"
      },
      "rating": 5,
      "reference": "ChIJ1Tw0eYVYwokRwdgCcUCrk1g",
      "scope": "GOOGLE",
      "types": [
        "travel_agency",
        "restaurant",
        "food",
        "point_of_interest",
        "establishment"
      ],
      "user_ratings_total": 1,
      "vicinity": "459 Columbus Avenue, New York"
    },
    {
      "business_status": "OPERATIONAL",
      "geometry": {
        "location": {
          "lat": 40.7833952,
          "lng": -73.9723163
        },
        "viewport": {
          "northeast": {
            "lat": 40.7846587302915,
            "lng": -73.97102996970851
          },
          "southwest": {
            "lat": 40.7819607697085,
            "lng": -73.97372793029152
          }
        }
      },
      "icon": "https://maps.gstatic.com/mapfiles/place_api/icons/v1/png_71/generic_business-71.png",
      "icon_background_color": "#7B9EB0",
      "icon_mask_base_uri": "https://maps.gstatic.com/mapfiles/place_api/icons/v2/generic_pinlet",
      "name": "Bernard Raizner Law Office",
      "place_id": "ChIJWz06WYVYwokRnyaO5FmEjfw",
      "plus_code": {
        "compound_code": "Q2MH+93 New York, NY, USA",
        "global_code": "87G8Q2MH+93"
      },
      "reference": "ChIJWz06WYVYwokRnyaO5FmEjfw",
      "scope": "GOOGLE",
      "types": [
        "point_of_interest",
        "establishment"
      ],
      "vicinity": "23 West 82nd Street, New York"
    },
    {
      "business_status": "OPERATIONAL",
      "geometry": {
        "location": {
          "lat": 40.7843129,
          "lng": -73.97040299999999
        },
        "viewport": {
          "northeast": {
            "lat": 40.78560398029149,
            "lng": -73.96891971970848
          },
          "southwest": {
            "lat": 40.7829060197085,
            "lng": -73.9716176802915
          }
        }
      },
      "icon": "https://maps.gstatic.com/mapfiles/place_api/icons/v1/png_71/generic_business-71.png",
      "icon_background_color": "#7B9EB0",
      "icon_mask_base_uri": "https://maps.gstatic.com/mapfiles/place_api/icons/v2/generic_pinlet",
      "name": "Petrik Christine",
      "place_id": "ChIJg_MZx5pYwokRiOQBMASNhHg",
      "plus_code": {
        "compound_code": "Q2MH+PR New York, NY, USA",
        "global_code": "87G8Q2MH+PR"
      },
      "reference": "ChIJg_MZx5pYwokRiOQBMASNhHg",
      "scope": "GOOGLE",
      "types": [
        "doctor",
        "health",
        "point_of_interest",
        "establishment"
      ],
      "vicinity": "241 Central Park West, New York"
    },
    {
      "business_status": "OPERATIONAL",
      "geometry": {
        "location": {
          "lat": 40.785718,
          "lng": -73.969242
        },
        "viewport": {
          "northeast": {
            "lat": 40.7870339802915,
            "lng": -73.96781366970849
          },
          "southwest": {
            "lat": 40.7843360197085,
            "lng": -73.9705116302915
          }
        }
      },
      "icon": "https://maps.gstatic.com/mapfiles/place_api/icons/v1/png_71/generic_business-71.png",
      "icon_background_color": "#7B9EB0",
      "icon_mask_base_uri": "https://maps.gstatic.com/mapfiles/place_api/icons/v2/generic_pinlet",
      "name": "Sacks Alexandra MD",
      "place_id": "ChIJB1FUGptYwokRa74NWWtDvqY",
      "plus_code": {
        "compound_code": "Q2PJ+78 New York, NY, USA",
        "global_code": "87G8Q2PJ+78"
      },
      "reference": "ChIJB1FUGptYwokRa74NWWtDvqY",
      "scope": "GOOGLE",
      "types": [
        "doctor",
        "health",
        "point_of_interest",
        "establishment"
      ],
      "vicinity": "262 Central Park West #1a, New York"
    },
    {
      "business_status": "OPERATIONAL",
      "geometry": {
        "location": {
          "lat": 40.78509509999999,
          "lng": -73.9746687
        },
        "viewport": {
          "northeast": {
            "lat": 40.7864109802915,
            "lng": -73.9733639697085
          },
          "southwest": {
            "lat": 40.7837130197085,
            "lng": -73.97606193029151
          }
        }
      },
      "icon": "https://maps.gstatic.com/mapfiles/place_api/icons/v1/png_71/civic_building-71.png",
      "icon_background_color": "#7B9EB0",
      "icon_mask_base_uri": "https://maps.gstatic.com/mapfiles/place_api/icons/v2/civic-bldg_pinlet",
      "name": "United States Postal Service",
      "opening_hours": {
        "open_now": true
      },
      "photos": [
        {
          "height": 3024,
          "html_attributions": [
            "<a href=\"https://maps.google.com/maps/contrib/104381584763318908284\">Richard Blakeley</a>"
          ],
          "photo_reference": "AeJbb3euNNsuvXDfk1JQEfGREn0iaPJ1iTG9aN5bYEDvc48NVXTpjaIJyTdfHEkdlY1ufzIqZixHZjP-DotfqZqMuk9HvdMX6SC1lK-HgO7XvFiFiZFVqKpckSzL_6fw2JPr4yVsok6uaMWqj5O4VC2SRW6K5gaJwBwVTEGzUYnugBJkddIT",
          "width": 4032
        }
      ],
      "place_id": "ChIJTTUIoYVYwokRtKkz4Qb41wc",
      "plus_code": {
        "compound_code": "Q2PG+24 New York, NY, USA",
        "global_code": "87G8Q2PG+24"
      },
      "rating": 1.9,
      "reference": "ChIJTTUIoYVYwokRtKkz4Qb41wc",
      "scope": "GOOGLE",
      "types": [
        "post_office",
        "finance",
        "local_government_office",
        "point_of_interest",
        "establishment"
      ],
      "user_ratings_total": 225,
      "vicinity": "127 West 83rd Street, New York"
    },
    {
      "business_status": "OPERATIONAL",
      "geometry": {
        "location": {
          "lat": 40.7871769,
          "lng": -73.9714006
        },
        "viewport": {
          "northeast": {
            "lat": 40.78857208029149,
            "lng": -73.97015356970849
          },
          "southwest": {
            "lat": 40.7858741197085,
            "lng": -73.97285153029149
          }
        }
      },
      "icon": "https://maps.gstatic.com/mapfiles/place_api/icons/v1/png_71/shopping-71.png",
      "icon_background_color": "#4B96F3",
      "icon_mask_base_uri": "https://maps.gstatic.com/mapfiles/place_api/icons/v2/shopping_pinlet",
      "name": "Milk Bar Upper West Side",
      "opening_hours": {
        "open_now": true
      },
      "photos": [
        {
          "height": 720,
          "html_attributions": [
            "<a href=\"https://maps.google.com/maps/contrib/117163676972789937856\">Milk Bar Upper West Side</a>"
          ],
          "photo_reference": "AeJbb3fA67wHQtQV5H8Q6UxbElFhH0PPiWr7mY3wNYDiCHVpGl3GTMUYJHYFS_LHwLlAUEk4TsrP6gph1BhdMo-QV5WUPMI_JlhC86gRajph6c2zZbzKV-cH9n6UR-cDXuw6wSyboUA4R1VNoWLJo-POoiVFWxN-6P8qXevsrlE_LVzuT5_J",
          "width": 720
        }
      ],
      "place_id": "ChIJVVTRs4RYwokRgrurAm3M5Hw",
      "plus_code": {
        "compound_code": "Q2PH+VC New York, NY, USA",
        "global_code": "87G8Q2PH+VC"
      },
      "price_level": 2,
      "rating": 3.9,
      "reference": "ChIJVVTRs4RYwokRgrurAm3M5Hw",
      "scope": "GOOGLE",
      "types": [
        "bakery",
        "cafe",
        "food",
        "store",
        "point_of_interest",
        "establishment"
      ],
      "user_ratings_total": 491,
      "vicinity": "561 Columbus Avenue, New York"
    },
    {
      "business_status": "OPERATIONAL",
      "geometry": {
        "location": {
          "lat": 40.7836703,
          "lng": -73.9709274
        },
        "viewport": {
          "northeast": {
            "lat": 40.7849545802915,
            "lng": -73.9694235197085
          },
          "southwest": {
            "lat": 40.7822566197085,
            "lng": -73.9721214802915
          }
        }
      },
      "icon": "https://maps.gstatic.com/mapfiles/place_api/icons/v1/png_71/generic_business-71.png",
      "icon_background_color": "#7B9EB0",
      "icon_mask_base_uri": "https://maps.gstatic.com/mapfiles/place_api/icons/v2/generic_pinlet",
      "name": "Castaneda Ricardo MD",
      "opening_hours": {
        "open_now": false
      },
      "place_id": "ChIJE49wMvBYwokR-mnzR6NIafk",
      "plus_code": {
        "compound_code": "Q2MH+FJ New York, NY, USA",
        "global_code": "87G8Q2MH+FJ"
      },
      "rating": 5,
      "reference": "ChIJE49wMvBYwokR-mnzR6NIafk",
      "scope": "GOOGLE",
      "types": [
        "doctor",
        "health",
        "point_of_interest",
        "establishment"
      ],
      "user_ratings_total": 2,
      "vicinity": "230 Central Park West, New York"
    },
    {
      "business_status": "OPERATIONAL",
      "geometry": {
        "location": {
          "lat": 40.7878119,
          "lng": -73.9707358
        },
        "viewport": {
          "northeast": {
            "lat": 40.78923708029151,
            "lng": -73.96956946970849
          },
          "southwest": {
            "lat": 40.78653911970851,
            "lng": -73.97226743029151
          }
        }
      },
      "icon": "https://maps.gstatic.com/mapfiles/place_api/icons/v1/png_71/generic_business-71.png",
      "icon_background_color": "#7B9EB0",
      "icon_mask_base_uri": "https://maps.gstatic.com/mapfiles/place_api/icons/v2/generic_pinlet",
      "name": "Goddard Riverside Community Center",
      "photos": [
        {
          "height": 5312,
          "html_attributions": [
            "<a href=\"https://maps.google.com/maps/contrib/105004261279576033735\">Margaret Greenspan</a>"
          ],
          "photo_reference": "AeJbb3fQ4CBlwDfGuBKblgpmJ4nhjPvE_5VVLNQBWYsN_5IAmQ7mtAEPiKL7hlzKWQ8ncB-fdzVPkBlqLmKZZpsiQyWAexFLbddHYkCzH26EX0HHAvgzVXV0VH-JgMx7h8rs_TrtrzRiAzOoZ6MoKplHZDhd90uVBndWfYVQF_2qzpvnpQhp",
          "width": 2988
        }
      ],
      "place_id": "ChIJtY1EqpxYwokR37MSZNKNKqE",
      "plus_code": {
        "compound_code": "Q2QH+4P New York, NY, USA",
        "global_code": "87G8Q2QH+4P"
      },
      "rating": 4.5,
      "reference": "ChIJtY1EqpxYwokR37MSZNKNKqE",
      "scope": "GOOGLE",
      "types": [
        "point_of_interest",
        "establishment"
      ],
      "user_ratings_total": 80,
      "vicinity": "593 Columbus Avenue, New York"
    },
    {
      "business_status": "OPERATIONAL",
      "geometry": {
        "location": {
          "lat": 40.78678960000001,
          "lng": -73.97241249999999
        },
        "viewport": {
          "northeast": {
            "lat": 40.7880943802915,
            "lng": -73.97118596970849
          },
          "southwest": {
            "lat": 40.7853964197085,
            "lng": -73.97388393029149
          }
        }
      },
      "icon": "https://maps.gstatic.com/mapfiles/place_api/icons/v1/png_71/generic_business-71.png",
      "icon_background_color": "#7B9EB0",
      "icon_mask_base_uri": "https://maps.gstatic.com/mapfiles/place_api/icons/v2/generic_pinlet",
      "name": "The UPS Store",
      "opening_hours": {
        "open_now": true
      },
      "photos": [
        {
          "height": 4032,
          "html_attributions": [
            "<a href=\"https://maps.google.com/maps/contrib/101371150189225443229\">colie oreilly</a>"
          ],
          "photo_reference": "AeJbb3fZQqAH7_CY7XIcANiCOolbnoCwNgH0T6YadngN6XRUWc9DM8Pef_4qZG04qJdqlOLJ4Nb_f3TWXSraAuHjVn1U9MEp5QIbNHLFnzvEb1gT1gGyIViYXa3jwy_Ek8lEGHPfP998thiBEjO89urSX8SsgR319TH3B-TxBerTUrYH_RSQ",
          "width": 3024
        }
      ],
      "place_id": "ChIJVZHfwIRYwokRCflcaYyByhk",
      "plus_code": {
        "compound_code": "Q2PH+P2 New York, NY, USA",
        "global_code": "87G8Q2PH+P2"
      },
      "rating": 3.8,
      "reference": "ChIJVZHfwIRYwokRCflcaYyByhk",
      "scope": "GOOGLE",
      "types": [
        "finance",
        "store",
        "point_of_interest",
        "establishment"
      ],
      "user_ratings_total": 68,
      "vicinity": "105 West 86th Street, New York"
    },
    {
      "business_status": "OPERATIONAL",
      "geometry": {
        "location": {
          "lat": 40.7860368,
          "lng": -73.9703114
        },
        "viewport": {
          "northeast": {
            "lat": 40.78722243029149,
            "lng": -73.96909491970848
          },
          "southwest": {
            "lat": 40.78452446970849,
            "lng": -73.9717928802915
          }
        }
      },
      "icon": "https://maps.gstatic.com/mapfiles/place_api/icons/v1/png_71/hospital-71.png",
      "icon_background_color": "#F88181",
      "icon_mask_base_uri": "https://maps.gstatic.com/mapfiles/place_api/icons/v2/hospital-H_pinlet",
      "name": "ColumbiaDoctors - West 86th Street",
      "opening_hours": {
        "open_now": false
      },
      "photos": [
        {
          "height": 1000,
          "html_attributions": [
            "<a href=\"https://maps.google.com/maps/contrib/100040313946472650555\">ColumbiaDoctors - West 86th Street</a>"
          ],
          "photo_reference": "AeJbb3fzSwNT3QEe_CR3vzCxT5H2Kdp0718x16OvlGd3DRmQbrV4zlRpDLl0DqVl-eZHyFBuTvCMvpfSg_c3tMVCt7obaCucbjLrv_e8QxeuQTWTy0848lnvP4816cZObXPPtm7aLSXV9wMJR1gQTHUptdWaJw4fce7Q7kYoUQtFutHkLpZ0",
          "width": 1000
        }
      ],
      "place_id": "ChIJFf1VJJtYwokRG9kfdLQ3vyg",
      "plus_code": {
        "compound_code": "Q2PH+CV New York, NY, USA",
        "global_code": "87G8Q2PH+CV"
      },
      "rating": 3.3,
      "reference": "ChIJFf1VJJtYwokRG9kfdLQ3vyg",
      "scope": "GOOGLE",
      "types": [
        "hospital",
        "doctor",
        "health",
        "point_of_interest",
        "establishment"
      ],
      "user_ratings_total": 3,
      "vicinity": "21 West 86th Street, New York"
    },
    {
      "business_status": "OPERATIONAL",
      "geometry": {
        "location": {
          "lat": 40.78777660000001,
          "lng": -73.9714613
        },
        "viewport": {
          "northeast": {
            "lat": 40.7891598802915,
            "lng": -73.9700700697085
          },
          "southwest": {
            "lat": 40.7864619197085,
            "lng": -73.9727680302915
          }
        }
      },
      "icon": "https://maps.gstatic.com/mapfiles/place_api/icons/v1/png_71/restaurant-71.png",
      "icon_background_color": "#FF9E67",
      "icon_mask_base_uri": "https://maps.gstatic.com/mapfiles/place_api/icons/v2/restaurant_pinlet",
      "name": "Bella Luna Restaurant",
      "opening_hours": {
        "open_now": true
      },
      "photos": [
        {
          "height": 3696,
          "html_attributions": [
            "<a href=\"https://maps.google.com/maps/contrib/113153324583004716889\">Bella Luna Restaurant</a>"
          ],
          "photo_reference": "AeJbb3cKk8jHfyjmDMqEYfDTP11G4q7XCemI4yoRljHzfUtpqUgiFnsXnpqAUvyWKchTVrbzBNHTGqlYyw-u4tXbyr0j058K2A47R84TX9PVcmVe9DYq9lDg9qiSMBx1BC7t6_O1t9bCsGKC7gnED8-CyY0yTMtGKkjD9gmLGjaeu5dPDQAR",
          "width": 5422
        }
      ],
      "place_id": "ChIJkf3PqpxYwokRZlk0ie5vk2c",
      "plus_code": {
        "compound_code": "Q2QH+4C New York, NY, USA",
        "global_code": "87G8Q2QH+4C"
      },
      "price_level": 2,
      "rating": 4.3,
      "reference": "ChIJkf3PqpxYwokRZlk0ie5vk2c",
      "scope": "GOOGLE",
      "types": [
        "restaurant",
        "food",
        "point_of_interest",
        "establishment"
      ],
      "user_ratings_total": 515,
      "vicinity": "574 Columbus Avenue, New York"
    },
    {
      "business_status": "OPERATIONAL",
      "geometry": {
        "location": {
          "lat": 40.7833641,
          "lng": -73.9666848
        },
        "viewport": {
          "northeast": {
            "lat": 40.7844232802915,
            "lng": -73.96575376970848
          },
          "southwest": {
            "lat": 40.7817253197085,
            "lng": -73.96845173029149
          }
        }
      },
      "icon": "https://maps.gstatic.com/mapfiles/place_api/icons/v1/png_71/park-71.png",
      "icon_background_color": "#4DB546",
      "icon_mask_base_uri": "https://maps.gstatic.com/mapfiles/place_api/icons/v2/tree_pinlet",
      "name": "Arthur Ross Pinetum",
      "opening_hours": {
        "open_now": true
      },
      "photos": [
        {
          "height": 1598,
          "html_attributions": [
            "<a href=\"https://maps.google.com/maps/contrib/117942037414013502188\">Arthur Ross Pinetum</a>"
          ],
          "photo_reference": "AeJbb3ezi6x6FS4qadKr38b-yFEhk5kfpJNfbtFh80H0cWA-d3y010TDCycQOvp6-lV7VS9e2neWIvNDVoJFWvrnN3TxHfSZkYphSpSpSIGOZl-Z8wb1rYnhZV79Huh8BEfcjSM9SPavgpsoyqTbnGstA-WYztarxmE5CB36mKD0dC8Y279p",
          "width": 2400
        }
      ],
      "place_id": "ChIJsw-uFJpYwokR5x3yq9tDzEM",
      "plus_code": {
        "compound_code": "Q2MM+88 New York, NY, USA",
        "global_code": "87G8Q2MM+88"
      },
      "rating": 4.7,
      "reference": "ChIJsw-uFJpYwokR5x3yq9tDzEM",
      "scope": "GOOGLE",
      "types": [
        "tourist_attraction",
        "park",
        "point_of_interest",
        "establishment"
      ],
      "user_ratings_total": 106,
      "vicinity": "86th Street Transverse, New York"
    },
    {
      "business_status": "OPERATIONAL",
      "geometry": {
        "location": {
          "lat": 40.7830456,
          "lng": -73.9750827
        },
        "viewport": {
          "northeast": {
            "lat": 40.7843349302915,
            "lng": -73.9735918197085
          },
          "southwest": {
            "lat": 40.7816369697085,
            "lng": -73.97628978029151
          }
        }
      },
      "icon": "https://maps.gstatic.com/mapfiles/place_api/icons/v1/png_71/shopping-71.png",
      "icon_background_color": "#4B96F3",
      "icon_mask_base_uri": "https://maps.gstatic.com/mapfiles/place_api/icons/v2/shopping_pinlet",
      "name": "Patagonia",
      "opening_hours": {
        "open_now": true
      },
      "photos": [
        {
          "height": 2048,
          "html_attributions": [
            "<a href=\"https://maps.google.com/maps/contrib/103976539537618550316\">Patagonia</a>"
          ],
          "photo_reference": "AeJbb3eCu23LqydDiJLytvic2gVldM1JHCXGJ1I2TPzE0gwrxdhSUeSofhvZibEG7aS9SXvyM0n6Ql6AC2giEjkGN8XalwnMm5u_LGs1HC-RpSAin7iglFKLxk5cKZo8zSWER1XjeT80ltml0h9pSV0otW5lOrzb6_uKFboZAfMhtie1jGZy",
          "width": 1557
        }
      ],
      "place_id": "ChIJ2X5MZY9YwokRV_T5arNnWbY",
      "plus_code": {
        "compound_code": "Q2MF+6X New York, NY, USA",
        "global_code": "87G8Q2MF+6X"
      },
      "price_level": 3,
      "rating": 4.6,
      "reference": "ChIJ2X5MZY9YwokRV_T5arNnWbY",
      "scope": "GOOGLE",
      "types": [
        "clothing_store",
        "store",
        "point_of_interest",
        "establishment"
      ],
      "user_ratings_total": 308,
      "vicinity": "426 Columbus Avenue, New York"
    },
    {
      "business_status": "OPERATIONAL",
      "geometry": {
        "location": {
          "lat": 40.784156,
          "lng": -73.97116
        },
        "viewport": {
          "northeast": {
            "lat": 40.7855740802915,
            "lng": -73.9697601697085
          },
          "southwest": {
            "lat": 40.7828761197085,
            "lng": -73.9724581302915
          }
        }
      },
      "icon": "https://maps.gstatic.com/mapfiles/place_api/icons/v1/png_71/school-71.png",
      "icon_background_color": "#7B9EB0",
      "icon_mask_base_uri": "https://maps.gstatic.com/mapfiles/place_api/icons/v2/school_pinlet",
      "name": "Rodeph Sholom School",
      "opening_hours": {
        "open_now": false
      },
      "place_id": "ChIJIU93tZpYwokRTcg51YlAiJY",
      "plus_code": {
        "compound_code": "Q2MH+MG New York, NY, USA",
        "global_code": "87G8Q2MH+MG"
      },
      "rating": 4,
      "reference": "ChIJIU93tZpYwokRTcg51YlAiJY",
      "scope": "GOOGLE",
      "types": [
        "school",
        "point_of_interest",
        "establishment"
      ],
      "user_ratings_total": 7,
      "vicinity": "10 West 84th Street, New York"
    },
    {
      "business_status": "OPERATIONAL",
      "geometry": {
        "location": {
          "lat": 40.785861,
          "lng": -73.9745414
        },
        "viewport": {
          "northeast": {
            "lat": 40.78716963029149,
            "lng": -73.9732217197085
          },
          "southwest": {
            "lat": 40.7844716697085,
            "lng": -73.97591968029151
          }
        }
      },
      "icon": "https://maps.gstatic.com/mapfiles/place_api/icons/v1/png_71/school-71.png",
      "icon_background_color": "#7B9EB0",
      "icon_mask_base_uri": "https://maps.gstatic.com/mapfiles/place_api/icons/v2/school_pinlet",
      "name": "M417 Frank McCourt High School",
      "place_id": "ChIJKx1mrIVYwokR8RW_1B4fYic",
      "plus_code": {
        "compound_code": "Q2PG+85 New York, NY, USA",
        "global_code": "87G8Q2PG+85"
      },
      "rating": 3.4,
      "reference": "ChIJKx1mrIVYwokR8RW_1B4fYic",
      "scope": "GOOGLE",
      "types": [
        "school",
        "point_of_interest",
        "establishment"
      ],
      "user_ratings_total": 11,
      "vicinity": "145 West 84th Street, New York"
    },
    {
      "business_status": "OPERATIONAL",
      "geometry": {
        "location": {
          "lat": 40.7884535,
          "lng": -73.96839109999999
        },
        "viewport": {
          "northeast": {
            "lat": 40.7897233802915,
            "lng": -73.96709956970848
          },
          "southwest": {
            "lat": 40.7870254197085,
            "lng": -73.96979753029149
          }
        }
      },
      "icon": "https://maps.gstatic.com/mapfiles/place_api/icons/v1/png_71/generic_business-71.png",
      "icon_background_color": "#7B9EB0",
      "icon_mask_base_uri": "https://maps.gstatic.com/mapfiles/place_api/icons/v2/generic_pinlet",
      "name": "Urban Renewal Area Brownstones",
      "place_id": "ChIJQ9xr05xYwokRwxDi5ssjXgg",
      "plus_code": {
        "compound_code": "Q2QJ+9J New York, NY, USA",
        "global_code": "87G8Q2QJ+9J"
      },
      "rating": 3,
      "reference": "ChIJQ9xr05xYwokRwxDi5ssjXgg",
      "scope": "GOOGLE",
      "types": [
        "point_of_interest",
        "establishment"
      ],
      "user_ratings_total": 2,
      "vicinity": "23 West 90th Street, New York"
    },
    {
      "business_status": "OPERATIONAL",
      "geometry": {
        "location": {
          "lat": 40.7865334,
          "lng": -73.9689003
        },
        "viewport": {
          "northeast": {
            "lat": 40.78780963029151,
            "lng": -73.96737421970849
          },
          "southwest": {
            "lat": 40.78511166970851,
            "lng": -73.97007218029151
          }
        }
      },
      "icon": "https://maps.gstatic.com/mapfiles/place_api/icons/v1/png_71/generic_business-71.png",
      "icon_background_color": "#7B9EB0",
      "icon_mask_base_uri": "https://maps.gstatic.com/mapfiles/place_api/icons/v2/generic_pinlet",
      "name": "Sen Amitav R MD",
      "place_id": "ChIJ32kzc5tYwokRXsI7P4z-Sk4",
      "plus_code": {
        "compound_code": "Q2PJ+JC New York, NY, USA",
        "global_code": "87G8Q2PJ+JC"
      },
      "reference": "ChIJ32kzc5tYwokRXsI7P4z-Sk4",
      "scope": "GOOGLE",
      "types": [
        "doctor",
        "health",
        "point_of_interest",
        "establishment"
      ],
      "vicinity": "275 Central Park West, New York"
    },
    {
      "business_status": "OPERATIONAL",
      "geometry": {
        "location": {
          "lat": 40.7830603,
          "lng": -73.9712488
        },
        "viewport": {
          "northeast": {
            "lat": 40.7843645302915,
            "lng": -73.9697951197085
          },
          "southwest": {
            "lat": 40.78166656970851,
            "lng": -73.9724930802915
          }
        }
      },
      "icon": "https://maps.gstatic.com/mapfiles/place_api/icons/v1/png_71/generic_business-71.png",
      "icon_background_color": "#7B9EB0",
      "icon_mask_base_uri": "https://maps.gstatic.com/mapfiles/place_api/icons/v2/generic_pinlet",
      "name": "Phyllis Chesler Organization",
      "place_id": "ChIJP73xzwBbwokRLxdBIbPZJXM",
      "plus_code": {
        "compound_code": "Q2MH+6G New York, NY, USA",
        "global_code": "87G8Q2MH+6G"
      },
      "reference": "ChIJP73xzwBbwokRLxdBIbPZJXM",
      "scope": "GOOGLE",
      "types": [
        "point_of_interest",
        "establishment"
      ],
      "vicinity": "New York"
    },
    {
      "business_status": "OPERATIONAL",
      "geometry": {
        "location": {
          "lat": 40.7852699,
          "lng": -73.97004679999999
        },
        "viewport": {
          "northeast": {
            "lat": 40.7867460302915,
            "lng": -73.9686059197085
          },
          "southwest": {
            "lat": 40.7840480697085,
            "lng": -73.9713038802915
          }
        }
      },
      "icon": "https://maps.gstatic.com/mapfiles/place_api/icons/v1/png_71/generic_business-71.png",
      "icon_background_color": "#7B9EB0",
      "icon_mask_base_uri": "https://maps.gstatic.com/mapfiles/place_api/icons/v2/generic_pinlet",
      "name": "Dr. Amy Huang, MD",
      "place_id": "ChIJAfRmj1hYwokRkwZDNnXYGUg",
      "plus_code": {
        "compound_code": "Q2PH+4X New York, NY, USA",
        "global_code": "87G8Q2PH+4X"
      },
      "rating": 3,
      "reference": "ChIJAfRmj1hYwokRkwZDNnXYGUg",
      "scope": "GOOGLE",
      "types": [
        "doctor",
        "health",
        "point_of_interest",
        "establishment"
      ],
      "user_ratings_total": 2,
      "vicinity": "2 West 86th Street #3A, New York"
    },
    {
      "business_status": "OPERATIONAL",
      "geometry": {
        "location": {
          "lat": 40.7842012,
          "lng": -73.9742563
        },
        "viewport": {
          "northeast": {
            "lat": 40.78549228029149,
            "lng": -73.9727492697085
          },
          "southwest": {
            "lat": 40.7827943197085,
            "lng": -73.97544723029151
          }
        }
      },
      "icon": "https://maps.gstatic.com/mapfiles/place_api/icons/v1/png_71/restaurant-71.png",
      "icon_background_color": "#FF9E67",
      "icon_mask_base_uri": "https://maps.gstatic.com/mapfiles/place_api/icons/v2/restaurant_pinlet",
      "name": "Famous Original Ray's Pizza",
      "opening_hours": {
        "open_now": true
      },
      "photos": [
        {
          "height": 4032,
          "html_attributions": [
            "<a href=\"https://maps.google.com/maps/contrib/113704357436101823267\">Brittany Bardsley</a>"
          ],
          "photo_reference": "AeJbb3d37tBfqgprCdv_8_0D-ZV5SJnHUwnZPRxHVHsoWxMTrKLP_pcNb91ZwAHDk9Oooh_DNcNHBSdSHoDmdLDQS4rzJFfQX1U2IlMLC696dekME6NcwYjkH7rHL_J1bRqj9Y4ygxuh0yDsFmzoV5OWy06EIzEPnyeeEIn9LfOBJmKONCTn",
          "width": 3024
        }
      ],
      "place_id": "ChIJV83yd4VYwokR7s2k_qchvt4",
      "plus_code": {
        "compound_code": "Q2MG+M7 New York, NY, USA",
        "global_code": "87G8Q2MG+M7"
      },
      "price_level": 1,
      "rating": 4,
      "reference": "ChIJV83yd4VYwokR7s2k_qchvt4",
      "scope": "GOOGLE",
      "types": [
        "meal_takeaway",
        "meal_delivery",
        "restaurant",
        "food",
        "point_of_interest",
        "establishment"
      ],
      "user_ratings_total": 719,
      "vicinity": "462 Columbus Avenue, New York"
    },
    {
      "business_status": "OPERATIONAL",
      "geometry": {
        "location": {
          "lat": 40.7823576,
          "lng": -73.9719018
        },
        "viewport": {
          "northeast": {
            "lat": 40.7837634302915,
            "lng": -73.9703235697085
          },
          "southwest": {
            "lat": 40.7810654697085,
            "lng": -73.9730215302915
          }
        }
      },
      "icon": "https://maps.gstatic.com/mapfiles/place_api/icons/v1/png_71/generic_business-71.png",
      "icon_background_color": "#7B9EB0",
      "icon_mask_base_uri": "https://maps.gstatic.com/mapfiles/place_api/icons/v2/generic_pinlet",
      "name": "Upper Westside Coops and Condos",
      "opening_hours": {
        "open_now": true
      },
      "photos": [
        {
          "height": 683,
          "html_attributions": [
            "<a href=\"https://maps.google.com/maps/contrib/113815392849087130851\">G Aquino</a>"
          ],
          "photo_reference": "AeJbb3d8YLfNoxhSzNXcC6mlyj5-f6LAVwAU9A14WzdVCtdJC2rg_W_1aLi2vveWMz8qCBSBWfdQFT_FZOts_irVXRJXFhNKHdKJ2dR4QSXXkEtK8Hfpw_mQJY-aM8Dj4yzXQTaGxXAIiAfoWMfD0vpxlXIopN8Y-MpAm9ryLfcKlQC1W1jg",
          "width": 1024
        }
      ],
      "place_id": "ChIJh8-k5I9YwokRd27ifyf5C1c",
      "plus_code": {
        "compound_code": "Q2JH+W6 New York, NY, USA",
        "global_code": "87G8Q2JH+W6"
      },
      "rating": 5,
      "reference": "ChIJh8-k5I9YwokRd27ifyf5C1c",
      "scope": "GOOGLE",
      "types": [
        "real_estate_agency",
        "point_of_interest",
        "establishment"
      ],
      "user_ratings_total": 2,
      "vicinity": "211 Central Park West, New York"
    },
    {
      "business_status": "OPERATIONAL",
      "geometry": {
        "location": {
          "lat": 40.788867,
          "lng": -73.970849
        },
        "viewport": {
          "northeast": {
            "lat": 40.7901493802915,
            "lng": -73.96934371970849
          },
          "southwest": {
            "lat": 40.7874514197085,
            "lng": -73.97204168029151
          }
        }
      },
      "icon": "https://maps.gstatic.com/mapfiles/place_api/icons/v1/png_71/generic_business-71.png",
      "icon_background_color": "#7B9EB0",
      "icon_mask_base_uri": "https://maps.gstatic.com/mapfiles/place_api/icons/v2/generic_pinlet",
      "name": "Reuth Womens Social Services-Israel",
      "place_id": "ChIJacKkfgdZwokRqVO64MeqvvE",
      "plus_code": {
        "compound_code": "Q2QH+GM New York, NY, USA",
        "global_code": "87G8Q2QH+GM"
      },
      "reference": "ChIJacKkfgdZwokRqVO64MeqvvE",
      "scope": "GOOGLE",
      "types": [
        "point_of_interest",
        "establishment"
      ],
      "vicinity": "600 Columbus Avenue #9L, New York"
    },
    {
      "business_status": "OPERATIONAL",
      "geometry": {
        "location": {
          "lat": 40.7855859,
          "lng": -73.9708356
        },
        "viewport": {
          "northeast": {
            "lat": 40.7870660802915,
            "lng": -73.96939066970849
          },
          "southwest": {
            "lat": 40.7843681197085,
            "lng": -73.97208863029151
          }
        }
      },
      "icon": "https://maps.gstatic.com/mapfiles/place_api/icons/v1/png_71/generic_business-71.png",
      "icon_background_color": "#7B9EB0",
      "icon_mask_base_uri": "https://maps.gstatic.com/mapfiles/place_api/icons/v2/generic_pinlet",
      "name": "Lyn Paul, PhD, LCSW",
      "place_id": "ChIJodLbKJtYwokRUHu-Vmt_RdI",
      "plus_code": {
        "compound_code": "Q2PH+6M New York, NY, USA",
        "global_code": "87G8Q2PH+6M"
      },
      "reference": "ChIJodLbKJtYwokRUHu-Vmt_RdI",
      "scope": "GOOGLE",
      "types": [
        "doctor",
        "health",
        "point_of_interest",
        "establishment"
      ],
      "vicinity": "20 West 86th Street, New York"
    },
    {
      "business_status": "OPERATIONAL",
      "geometry": {
        "location": {
          "lat": 40.7860127,
          "lng": -73.9716677
        },
        "viewport": {
          "northeast": {
            "lat": 40.7874634802915,
            "lng": -73.97024361970848
          },
          "southwest": {
            "lat": 40.7847655197085,
            "lng": -73.97294158029149
          }
        }
      },
      "icon": "https://maps.gstatic.com/mapfiles/place_api/icons/v1/png_71/generic_business-71.png",
      "icon_background_color": "#7B9EB0",
      "icon_mask_base_uri": "https://maps.gstatic.com/mapfiles/place_api/icons/v2/generic_pinlet",
      "name": "Joseph B Porder, M.D.",
      "place_id": "ChIJkSCK56BYwokRpislC5d52XQ",
      "plus_code": {
        "compound_code": "Q2PH+C8 New York, NY, USA",
        "global_code": "87G8Q2PH+C8"
      },
      "reference": "ChIJkSCK56BYwokRpislC5d52XQ",
      "scope": "GOOGLE",
      "types": [
        "doctor",
        "health",
        "point_of_interest",
        "establishment"
      ],
      "vicinity": "46 West 86th Street #1, New York"
    },
    {
      "business_status": "OPERATIONAL",
      "geometry": {
        "location": {
          "lat": 40.7865334,
          "lng": -73.9689003
        },
        "viewport": {
          "northeast": {
            "lat": 40.78780963029151,
            "lng": -73.96737421970849
          },
          "southwest": {
            "lat": 40.78511166970851,
            "lng": -73.97007218029151
          }
        }
      },
      "icon": "https://maps.gstatic.com/mapfiles/place_api/icons/v1/png_71/generic_business-71.png",
      "icon_background_color": "#7B9EB0",
      "icon_mask_base_uri": "https://maps.gstatic.com/mapfiles/place_api/icons/v2/generic_pinlet",
      "name": "Shelly Rosen LCSW",
      "place_id": "ChIJ32kzc5tYwokR9eBSCB0Z1NM",
      "plus_code": {
        "compound_code": "Q2PJ+JC New York, NY, USA",
        "global_code": "87G8Q2PJ+JC"
      },
      "reference": "ChIJ32kzc5tYwokR9eBSCB0Z1NM",
      "scope": "GOOGLE",
      "types": [
        "doctor",
        "health",
        "point_of_interest",
        "establishment"
      ],
      "vicinity": "275 Central Park West, New York"
    },
    {
      "business_status": "CLOSED_TEMPORARILY",
      "geometry": {
        "location": {
          "lat": 40.786005,
          "lng": -73.970276
        },
        "viewport": {
          "northeast": {
            "lat": 40.7872348302915,
            "lng": -73.96901311970849
          },
          "southwest": {
            "lat": 40.7845368697085,
            "lng": -73.9717110802915
          }
        }
      },
      "icon": "https://maps.gstatic.com/mapfiles/place_api/icons/v1/png_71/generic_business-71.png",
      "icon_background_color": "#7B9EB0",
      "icon_mask_base_uri": "https://maps.gstatic.com/mapfiles/place_api/icons/v2/generic_pinlet",
      "name": "Everynote Corporation",
      "permanently_closed": true,
      "place_id": "ChIJzTrNJJtYwokRKAS08Re9Gi4",
      "plus_code": {
        "compound_code": "Q2PH+CV New York, NY, USA",
        "global_code": "87G8Q2PH+CV"
      },
      "reference": "ChIJzTrNJJtYwokRKAS08Re9Gi4",
      "scope": "GOOGLE",
      "types": [
        "point_of_interest",
        "establishment"
      ],
      "vicinity": "21 West 86th Street #604, New York"
    },
    {
      "business_status": "OPERATIONAL",
      "geometry": {
        "location": {
          "lat": 40.7828904,
          "lng": -73.9730395
        },
        "viewport": {
          "northeast": {
            "lat": 40.7841296802915,
            "lng": -73.9717705197085
          },
          "southwest": {
            "lat": 40.7814317197085,
            "lng": -73.9744684802915
          }
        }
      },
      "icon": "https://maps.gstatic.com/mapfiles/place_api/icons/v1/png_71/generic_business-71.png",
      "icon_background_color": "#7B9EB0",
      "icon_mask_base_uri": "https://maps.gstatic.com/mapfiles/place_api/icons/v2/generic_pinlet",
      "name": "Halperin Jane MD",
      "place_id": "ChIJ2akMjo9YwokRcbc6jZjowgQ",
      "plus_code": {
        "compound_code": "Q2MG+5Q New York, NY, USA",
        "global_code": "87G8Q2MG+5Q"
      },
      "reference": "ChIJ2akMjo9YwokRcbc6jZjowgQ",
      "scope": "GOOGLE",
      "types": [
        "health",
        "point_of_interest",
        "establishment"
      ],
      "vicinity": "25 West 81st Street, New York"
    },
    {
      "business_status": "OPERATIONAL",
      "geometry": {
        "location": {
          "lat": 40.78599379999999,
          "lng": -73.97030339999999
        },
        "viewport": {
          "northeast": {
            "lat": 40.78723228029149,
            "lng": -73.96903426970849
          },
          "southwest": {
            "lat": 40.78453431970849,
            "lng": -73.97173223029151
          }
        }
      },
      "icon": "https://maps.gstatic.com/mapfiles/place_api/icons/v1/png_71/generic_business-71.png",
      "icon_background_color": "#7B9EB0",
      "icon_mask_base_uri": "https://maps.gstatic.com/mapfiles/place_api/icons/v2/generic_pinlet",
      "name": "ColumbiaDoctors - Pediatricians",
      "photos": [
        {
          "height": 584,
          "html_attributions": [
            "<a href=\"https://maps.google.com/maps/contrib/104648585199917079460\">ColumbiaDoctors - Pediatricians</a>"
          ],
          "photo_reference": "AeJbb3fKhDjiZaRirWWwwM_33Om_7TTj1hcXGl_JZWoNSNE25438DaoFdHMDit9K18F-s7WThcI8DNPSMmy-CmFslUMXhuR2w_bo2JDZvRV8qVTUSZ92oytdtyE01DpgwqAYEO_8VDQHrwkDE7F26CO82aeiMJVJEySfjPJfAzmbVB-GPz75",
          "width": 1180
        }
      ],
      "place_id": "ChIJFf1VJJtYwokREO3y2XzJEkg",
      "plus_code": {
        "compound_code": "Q2PH+9V New York, NY, USA",
        "global_code": "87G8Q2PH+9V"
      },
      "rating": 4.4,
      "reference": "ChIJFf1VJJtYwokREO3y2XzJEkg",
      "scope": "GOOGLE",
      "types": [
        "doctor",
        "health",
        "point_of_interest",
        "establishment"
      ],
      "user_ratings_total": 11,
      "vicinity": "21 West 86th Street, New York"
    },
    {
      "business_status": "OPERATIONAL",
      "geometry": {
        "location": {
          "lat": 40.7840383,
          "lng": -73.97082
        },
        "viewport": {
          "northeast": {
            "lat": 40.7854465302915,
            "lng": -73.9694274197085
          },
          "southwest": {
            "lat": 40.7827485697085,
            "lng": -73.9721253802915
          }
        }
      },
      "icon": "https://maps.gstatic.com/mapfiles/place_api/icons/v1/png_71/generic_business-71.png",
      "icon_background_color": "#7B9EB0",
      "icon_mask_base_uri": "https://maps.gstatic.com/mapfiles/place_api/icons/v2/generic_pinlet",
      "name": "Harris Deena R MD",
      "place_id": "ChIJOcmxtppYwokRLM-X7v7PlME",
      "plus_code": {
        "compound_code": "Q2MH+JM New York, NY, USA",
        "global_code": "87G8Q2MH+JM"
      },
      "reference": "ChIJOcmxtppYwokRLM-X7v7PlME",
      "scope": "GOOGLE",
      "types": [
        "doctor",
        "health",
        "point_of_interest",
        "establishment"
      ],
      "vicinity": "239 Central Park West, New York"
    },
    {
      "business_status": "OPERATIONAL",
      "geometry": {
        "location": {
          "lat": 40.78878599999999,
          "lng": -73.970916
        },
        "viewport": {
          "northeast": {
            "lat": 40.79002153029149,
            "lng": -73.96965021970848
          },
          "southwest": {
            "lat": 40.78732356970849,
            "lng": -73.9723481802915
          }
        }
      },
      "icon": "https://maps.gstatic.com/mapfiles/place_api/icons/v1/png_71/generic_business-71.png",
      "icon_background_color": "#7B9EB0",
      "icon_mask_base_uri": "https://maps.gstatic.com/mapfiles/place_api/icons/v2/generic_pinlet",
      "name": "Super Soccer Stars",
      "opening_hours": {
        "open_now": true
      },
      "photos": [
        {
          "height": 3424,
          "html_attributions": [
            "<a href=\"https://maps.google.com/maps/contrib/118416153410663874706\">Super Soccer Stars</a>"
          ],
          "photo_reference": "AeJbb3cVAUXtXnCs40sWOGo9seXZ7XTU3qb1OfP7NRLIvxmbcOLCjuMsGqoUJdoFL9xBCtZ3Kr17veL_D-inmX87f6vRbF0mJHCIdaWOCZuEMBFpmBQCjXC26GM_qSKruDd20o9vj6YXOwGbA6Jns4jOFjsBn81JfQXgHykgiRx8NWsk0zZR",
          "width": 5161
        }
      ],
      "place_id": "ChIJL4JqXINYwokROzLZti4Q2b0",
      "plus_code": {
        "compound_code": "Q2QH+GJ New York, NY, USA",
        "global_code": "87G8Q2QH+GJ"
      },
      "rating": 4.2,
      "reference": "ChIJL4JqXINYwokROzLZti4Q2b0",
      "scope": "GOOGLE",
      "types": [
        "point_of_interest",
        "establishment"
      ],
      "user_ratings_total": 33,
      "vicinity": "606 Columbus Avenue, New York"
    },
    {
      "business_status": "OPERATIONAL",
      "geometry": {
        "location": {
          "lat": 40.786005,
          "lng": -73.970276
        },
        "viewport": {
          "northeast": {
            "lat": 40.7872348302915,
            "lng": -73.96901311970849
          },
          "southwest": {
            "lat": 40.7845368697085,
            "lng": -73.9717110802915
          }
        }
      },
      "icon": "https://maps.gstatic.com/mapfiles/place_api/icons/v1/png_71/generic_business-71.png",
      "icon_background_color": "#7B9EB0",
      "icon_mask_base_uri": "https://maps.gstatic.com/mapfiles/place_api/icons/v2/generic_pinlet",
      "name": "Wintec",
      "place_id": "ChIJzTrNJJtYwokRKmobj9Cn-Iw",
      "plus_code": {
        "compound_code": "Q2PH+CV New York, NY, USA",
        "global_code": "87G8Q2PH+CV"
      },
      "reference": "ChIJzTrNJJtYwokRKmobj9Cn-Iw",
      "scope": "GOOGLE",
      "types": [
        "point_of_interest",
        "establishment"
      ],
      "vicinity": "21 West 86th Street #212, New York"
    },
    {
      "business_status": "OPERATIONAL",
      "geometry": {
        "location": {
          "lat": 40.785992,
          "lng": -73.9743724
        },
        "viewport": {
          "northeast": {
            "lat": 40.7872233302915,
            "lng": -73.9731089197085
          },
          "southwest": {
            "lat": 40.7845253697085,
            "lng": -73.9758068802915
          }
        }
      },
      "icon": "https://maps.gstatic.com/mapfiles/place_api/icons/v1/png_71/school-71.png",
      "icon_background_color": "#7B9EB0",
      "icon_mask_base_uri": "https://maps.gstatic.com/mapfiles/place_api/icons/v2/school_pinlet",
      "name": "The Global Learning Collaborative",
      "place_id": "ChIJKx1mrIVYwokRMFMjN_Q8hP4",
      "plus_code": {
        "compound_code": "Q2PG+97 New York, NY, USA",
        "global_code": "87G8Q2PG+97"
      },
      "rating": 3.7,
      "reference": "ChIJKx1mrIVYwokRMFMjN_Q8hP4",
      "scope": "GOOGLE",
      "types": [
        "school",
        "point_of_interest",
        "establishment"
      ],
      "user_ratings_total": 10,
      "vicinity": "145 West 84th Street, New York"
    },
    {
      "business_status": "OPERATIONAL",
      "geometry": {
        "location": {
          "lat": 40.78233769999999,
          "lng": -73.97183
        },
        "viewport": {
          "northeast": {
            "lat": 40.7837534802915,
            "lng": -73.9702876697085
          },
          "southwest": {
            "lat": 40.7810555197085,
            "lng": -73.9729856302915
          }
        }
      },
      "icon": "https://maps.gstatic.com/mapfiles/place_api/icons/v1/png_71/generic_business-71.png",
      "icon_background_color": "#7B9EB0",
      "icon_mask_base_uri": "https://maps.gstatic.com/mapfiles/place_api/icons/v2/generic_pinlet",
      "name": "Museum Medical Institute",
      "place_id": "ChIJLyqh5I9YwokRHn7R4PJxjZI",
      "plus_code": {
        "compound_code": "Q2JH+W7 New York, NY, USA",
        "global_code": "87G8Q2JH+W7"
      },
      "reference": "ChIJLyqh5I9YwokRHn7R4PJxjZI",
      "scope": "GOOGLE",
      "types": [
        "health",
        "point_of_interest",
        "establishment"
      ],
      "vicinity": "211 Central Park West, New York"
    }
  ],
  "status": "OK"
}