{
  "html_attributions": [],
  "results": [
    {
      "geometry": {
        "location": {
          "lat": 40.7127753,
          "lng": -74.0059728
        },
        "viewport": {
          "northeast": {
            "lat": 40.91757705070789,
            "lng": -73.70027206817629
          },
          "southwest": {
            "lat": 40.47739906045452,
            "lng": -74.25908991427882
          }
        }
      },
      "icon": "https://maps.gstatic.com/mapfiles/place_api/icons/v1/png_71/geocode-71.png",
      "icon_background_color": "#7B9EB0",
      "icon_mask_base_uri": "https://maps.gstatic.com/mapfiles/place_api/icons/v2/generic_pinlet",
      "name": "\u7d10\u7d04",
      "photos": [
        {
          "height": 600,
          "html_attributions": [
            "<a href=\"https://maps.google.com/maps/contrib/102389334567210814614\">Bukurie</a>"
          ],
          "photo_reference": "AeJbb3c2u_0e-mdZ-yTfovPwakOjKBc_3cOZZo5thZnopQuEdNEsCWu4q7oqOEPx5Oq0VShZWImJkViRhFmICWtOfCz6306SVXcQQibZozfCoFD09DouSTVZcn4N5XpvkWKRI4AeqAHAPLcJpKyj3iShGGArVcoIAbXVApuSwI8TfFlCWeij",
          "width": 480
        }
      ],
      "place_id": "ChIJOwg_06VPwokRYv534QaPC8g",
      "reference": "ChIJOwg_06VPwokRYv534QaPC8g",
      "scope": "GOOGLE",
      "types": [
        "locality",
        "political"
      ],
      "vicinity": "\u7d10\u7d04"
    },
    {
      "business_status": "OPERATIONAL",
      "geometry": {
        "location": {
          "lat": 40.7030993,
          "lng": -73.98899779999999
        },
        "viewport": {
          "northeast": {
            "lat": 40.7045043302915,
            "lng": -73.98777486970849
          },
          "southwest": {
            "lat": 40.7018063697085,
            "lng": -73.9904728302915
          }
        }
      },
      "icon": "https://maps.gstatic.com/mapfiles/place_api/icons/v1/png_71/school-71.png",
      "icon_background_color": "#7B9EB0",
      "icon_mask_base_uri": "https://maps.gstatic.com/mapfiles/place_api/icons/v2/school_pinlet",
      "name": "Gleason's Gym",
      "opening_hours": {
        "open_now": true
      },
      "photos": [
        {
          "height": 1438,
          "html_attributions": [
            "<a href=\"https://maps.google.com/maps/contrib/116782684156345709927\">Gleason&#39;s Gym</a>"
          ],
          "photo_reference": "AeJbb3f6YUz3VlY8Sfaycw0xgDk7PgypExi1TnguC7d1zKKCWh3qa-TXuHUD1-ts_XEZ8czFYk9ve8SwP2FhBnHexw9bCrno_BS8YpSWUwn36LozRhMq4xjk8Y0UP3RAf10H2a7Lo4AVAEDDlOCDaC8Pp38CImr9ykjyLUjVIsrCquMshjLd",
          "width": 2560
        }
      ],
      "place_id": "ChIJ3b8HRzFawokRWVmcm6a0SKM",
      "plus_code": {
        "compound_code": "P236+6C \u7f8e\u570b\u7d10\u7d04",
        "global_code": "87G8P236+6C"
      },
      "rating": 4.5,
      "reference": "ChIJ3b8HRzFawokRWVmcm6a0SKM",
      "scope": "GOOGLE",
      "types": [
        "gym",
        "point_of_interest",
        "health",
        "establishment"
      ],
      "user_ratings_total": 133,
      "vicinity": "130 Water Street, Brooklyn"
    },
    {
      "business_status": "OPERATIONAL",
      "geometry": {
        "location": {
          "lat": 40.70383419999999,
          "lng": -73.9947936
        },
        "viewport": {
          "northeast": {
            "lat": 40.7051564802915,
            "lng": -73.99337341970849
          },
          "southwest": {
            "lat": 40.7024585197085,
            "lng": -73.99607138029151
          }
        }
      },
      "icon": "https://maps.gstatic.com/mapfiles/place_api/icons/v1/png_71/restaurant-71.png",
      "icon_background_color": "#FF9E67",
      "icon_mask_base_uri": "https://maps.gstatic.com/mapfiles/place_api/icons/v2/restaurant_pinlet",
      "name": "The River Caf\u00e9",
      "opening_hours": {
        "open_now": false
      },
      "photos": [
        {
          "height": 4032,
          "html_attributions": [
            "<a href=\"https://maps.google.com/maps/contrib/110287755892943639196\">The River Caf\u00e9</a>"
          ],
          "photo_reference": "AeJbb3e3gQMjHvWYEbwMhkNEdZqfBKrhjVI4fyNXtljsJhXNGw6EN17FPi2JjBgEqnEozsetuyS43M8P8R5esIsHV0g61b2rK38_S37Z-qnAbfr2YVDw15iyrPR1d_281X1oxW6MWB0kEEF2MdKoB21_f7RgXM2L5QtP5YJYUVMTjbUnyGd9",
          "width": 3024
        }
      ],
      "place_id": "ChIJ2QZOdTpawokRU_eN_EPJaX8",
      "plus_code": {
        "compound_code": "P234+G3 \u7f8e\u570b\u7d10\u7d04",
        "global_code": "87G8P234+G3"
      },
      "price_level": 4,
      "rating": 4.5,
      "reference": "ChIJ2QZOdTpawokRU_eN_EPJaX8",
      "scope": "GOOGLE",
      "types": [
        "bar",
        "restaurant",
        "point_of_interest",
        "food",
        "establishment"
      ],
      "user_ratings_total": 1835,
      "vicinity": "1 Water Street, Brooklyn"
    },
    {
      "business_status": "OPERATIONAL",
      "geometry": {
        "location": {
          "lat": 40.7013482,
          "lng": -73.98660009999999
        },
        "viewport": {
          "northeast": {
            "lat": 40.7026948302915,
            "lng": -73.9853289697085
          },
          "southwest": {
            "lat": 40.6999968697085,
            "lng": -73.98802693029151
          }
        }
      },
      "icon": "https://maps.gstatic.com/mapfiles/place_api/icons/v1/png_71/generic_business-71.png",
      "icon_background_color": "#7B9EB0",
      "icon_mask_base_uri": "https://maps.gstatic.com/mapfiles/place_api/icons/v2/generic_pinlet",
      "name": "\u7d04\u514b\u8857",
      "photos": [
        {
          "height": 3024,
          "html_attributions": [
            "<a href=\"https://maps.google.com/maps/contrib/114270489405509687393\">Maureen Weicher</a>"
          ],
          "photo_reference": "AeJbb3diTXoA8nIxia7wZ1z0YIdpHmpCvbHagRpptHXv8b77-llI6PmUbXHbIAyjiCnn-biFya3JV18PXn0T0yKrJZ1zUTJqiO81v6DKeGmiGAGyumxakzvNd6PZ9qsyYHFBimMhuCuaUHa5kW2uA5gavPJVCGbWNUYMCnenmw3NcC31SZq9",
          "width": 4032
        }
      ],
      "place_id": "ChIJlzQUiTNawokR2Xw3BLuSO2c",
      "plus_code": {
        "compound_code": "P227+G9 \u7f8e\u570b\u7d10\u7d04\u5e03\u9c81\u514b\u6797",
        "global_code": "87G8P227+G9"
      },
      "rating": 3.7,
      "reference": "ChIJlzQUiTNawokR2Xw3BLuSO2c",
      "scope": "GOOGLE",
      "types": [
        "subway_station",
        "transit_station",
        "point_of_interest",
        "establishment"
      ],
      "user_ratings_total": 111,
      "vicinity": "York Street &, Jay Street, Brooklyn"
    },
    {
      "business_status": "OPERATIONAL",
      "geometry": {
        "location": {
          "lat": 40.70377049999999,
          "lng": -73.9928308
        },
        "viewport": {
          "northeast": {
            "lat": 40.70522473029149,
            "lng": -73.99177116970849
          },
          "southwest": {
            "lat": 40.7025267697085,
            "lng": -73.9944691302915
          }
        }
      },
      "icon": "https://maps.gstatic.com/mapfiles/place_api/icons/v1/png_71/generic_business-71.png",
      "icon_background_color": "#13B5C7",
      "icon_mask_base_uri": "https://maps.gstatic.com/mapfiles/place_api/icons/v2/generic_pinlet",
      "name": "St. Ann's Warehouse",
      "opening_hours": {
        "open_now": false
      },
      "photos": [
        {
          "height": 1531,
          "html_attributions": [
            "<a href=\"https://maps.google.com/maps/contrib/102670838729751730255\">St. Ann&#39;s Warehouse</a>"
          ],
          "photo_reference": "AeJbb3cAf_o8SdfJ5BZGfBOAHkGQrSyVjLGC4HevFqjXpbNIsrZvMcQxjoV-5cm0RoV8UWm9UqVrpC35Wcdfe8VnvdprCIAklS4jXzBiSEMWEmL2jVNwVZQBzJ4eyMlHaXNM_m_oUU2Do-F5OXzcsWf_HOsU5R8PfVUc8ezME7T62xGmQ3gn",
          "width": 2048
        }
      ],
      "place_id": "ChIJH36g4DBawokRaR-nQ4NPRJM",
      "plus_code": {
        "compound_code": "P234+GV \u7f8e\u570b\u7d10\u7d04\u5e03\u9c81\u514b\u6797",
        "global_code": "87G8P234+GV"
      },
      "rating": 4.7,
      "reference": "ChIJH36g4DBawokRaR-nQ4NPRJM",
      "scope": "GOOGLE",
      "types": [
        "point_of_interest",
        "establishment"
      ],
      "user_ratings_total": 462,
      "vicinity": "45 Water Street, Brooklyn"
    },
    {
      "business_status": "OPERATIONAL",
      "geometry": {
        "location": {
          "lat": 40.7043802,
          "lng": -73.99239229999999
        },
        "viewport": {
          "northeast": {
            "lat": 40.7055134802915,
            "lng": -73.99155561970849
          },
          "southwest": {
            "lat": 40.70281551970851,
            "lng": -73.9942535802915
          }
        }
      },
      "icon": "https://maps.gstatic.com/mapfiles/place_api/icons/v1/png_71/generic_business-71.png",
      "icon_background_color": "#7B9EB0",
      "icon_mask_base_uri": "https://maps.gstatic.com/mapfiles/place_api/icons/v2/generic_pinlet",
      "name": "Jane's Carousel",
      "opening_hours": {
        "open_now": true
      },
      "photos": [
        {
          "height": 9000,
          "html_attributions": [
            "<a href=\"https://maps.google.com/maps/contrib/106614016412241410843\">Jeffrey Zampitella</a>"
          ],
          "photo_reference": "AeJbb3dclOGE4GQfnSIPidMVpzsocxaLh1dWCqwU6dnpK0z-wgX4bZFxmuRRO6hG3YLP-uVCUQgN--gzhZbF0bVgA0InR2MtiMn3SXpJPfZMi1rVWLw36_b9ncyCiDv3U5fcrCrajqbyOwDSNev_V_AZ073SPTggoIasaA9RU0yPIQfnWJMT",
          "width": 12000
        }
      ],
      "place_id": "ChIJU9mVHzFawokRcNNO_Su8zGM",
      "plus_code": {
        "compound_code": "P235+Q2 \u7f8e\u570b\u7d10\u7d04",
        "global_code": "87G8P235+Q2"
      },
      "rating": 4.7,
      "reference": "ChIJU9mVHzFawokRcNNO_Su8zGM",
      "scope": "GOOGLE",
      "types": [
        "tourist_attraction",
        "point_of_interest",
        "establishment"
      ],
      "user_ratings_total": 2359,
      "vicinity": "New Dock Street, Brooklyn"
    },
    {
      "business_status": "CLOSED_TEMPORARILY",
      "geometry": {
        "location": {
          "lat": 40.70402970000001,
          "lng": -73.9867893
        },
        "viewport": {
          "northeast": {
            "lat": 40.7053756802915,
            "lng": -73.9853447197085
          },
          "southwest": {
            "lat": 40.70267771970851,
            "lng": -73.98804268029151
          }
        }
      },
      "icon": "https://maps.gstatic.com/mapfiles/place_api/icons/v1/png_71/school-71.png",
      "icon_background_color": "#7B9EB0",
      "icon_mask_base_uri": "https://maps.gstatic.com/mapfiles/place_api/icons/v2/school_pinlet",
      "name": "AICAD/New York Studio Residency Program",
      "permanently_closed": true,
      "place_id": "ChIJE3mLTTJawokRndXbxagnkjs",
      "plus_code": {
        "compound_code": "P237+J7 \u7f8e\u570b\u7d10\u7d04",
        "global_code": "87G8P237+J7"
      },
      "reference": "ChIJE3mLTTJawokRndXbxagnkjs",
      "scope": "GOOGLE",
      "types": [
        "point_of_interest",
        "establishment"
      ],
      "vicinity": "20 Jay Street, Brooklyn"
    },
    {
      "business_status": "OPERATIONAL",
      "geometry": {
        "location": {
          "lat": 40.7007351,
          "lng": -73.98764659999999
        },
        "viewport": {
          "northeast": {
            "lat": 40.70200983029149,
            "lng": -73.9861618197085
          },
          "southwest": {
            "lat": 40.6993118697085,
            "lng": -73.9888597802915
          }
        }
      },
      "icon": "https://maps.gstatic.com/mapfiles/place_api/icons/v1/png_71/generic_business-71.png",
      "icon_background_color": "#7B9EB0",
      "icon_mask_base_uri": "https://maps.gstatic.com/mapfiles/place_api/icons/v2/generic_pinlet",
      "name": "Hand Law, PC",
      "opening_hours": {
        "open_now": false
      },
      "place_id": "ChIJIVm7PjFawokROwyz2nv7paw",
      "plus_code": {
        "compound_code": "P226+7W \u7f8e\u570b\u7d10\u7d04",
        "global_code": "87G8P226+7W"
      },
      "rating": 4.7,
      "reference": "ChIJIVm7PjFawokROwyz2nv7paw",
      "scope": "GOOGLE",
      "types": [
        "lawyer",
        "point_of_interest",
        "establishment"
      ],
      "user_ratings_total": 15,
      "vicinity": "81 Prospect Street, Brooklyn"
    },
    {
      "business_status": "OPERATIONAL",
      "geometry": {
        "location": {
          "lat": 40.7028816,
          "lng": -73.9904334
        },
        "viewport": {
          "northeast": {
            "lat": 40.7041577302915,
            "lng": -73.9892052197085
          },
          "southwest": {
            "lat": 40.7014597697085,
            "lng": -73.9919031802915
          }
        }
      },
      "icon": "https://maps.gstatic.com/mapfiles/place_api/icons/v1/png_71/generic_business-71.png",
      "icon_background_color": "#7B9EB0",
      "icon_mask_base_uri": "https://maps.gstatic.com/mapfiles/place_api/icons/v2/generic_pinlet",
      "name": "Anthony R Orgera - Aflac Insurance Agent",
      "place_id": "ChIJJXcIPzFawokRpA0htY8880Q",
      "plus_code": {
        "compound_code": "P235+5R \u7f8e\u570b\u7d10\u7d04",
        "global_code": "87G8P235+5R"
      },
      "rating": 5,
      "reference": "ChIJJXcIPzFawokRpA0htY8880Q",
      "scope": "GOOGLE",
      "types": [
        "insurance_agency",
        "point_of_interest",
        "establishment"
      ],
      "user_ratings_total": 1,
      "vicinity": "14 Wall Street suite 8C"
    },
    {
      "business_status": "OPERATIONAL",
      "geometry": {
        "location": {
          "lat": 40.7028816,
          "lng": -73.9904334
        },
        "viewport": {
          "northeast": {
            "lat": 40.7041577302915,
            "lng": -73.9892052197085
          },
          "southwest": {
            "lat": 40.7014597697085,
            "lng": -73.9919031802915
          }
        }
      },
      "icon": "https://maps.gstatic.com/mapfiles/place_api/icons/v1/png_71/generic_business-71.png",
      "icon_background_color": "#7B9EB0",
      "icon_mask_base_uri": "https://maps.gstatic.com/mapfiles/place_api/icons/v2/generic_pinlet",
      "name": "MPS",
      "opening_hours": {
        "open_now": false
      },
      "place_id": "ChIJIVm7PjFawokRBhaKxbD5oFk",
      "plus_code": {
        "compound_code": "P235+5R \u7f8e\u570b\u7d10\u7d04\u5e03\u9c81\u514b\u6797",
        "global_code": "87G8P235+5R"
      },
      "reference": "ChIJIVm7PjFawokRBhaKxbD5oFk",
      "scope": "GOOGLE",
      "types": [
        "finance",
        "point_of_interest",
        "establishment"
      ],
      "vicinity": "45 Main Street, Brooklyn"
    },
    {
      "business_status": "OPERATIONAL",
      "geometry": {
        "location": {
          "lat": 40.7032083,
          "lng": -73.99142499999999
        },
        "viewport": {
          "northeast": {
            "lat": 40.7045968302915,
            "lng": -73.9900736697085
          },
          "southwest": {
            "lat": 40.7018988697085,
            "lng": -73.9927716302915
          }
        }
      },
      "icon": "https://maps.gstatic.com/mapfiles/place_api/icons/v1/png_71/shopping-71.png",
      "icon_background_color": "#4B96F3",
      "icon_mask_base_uri": "https://maps.gstatic.com/mapfiles/place_api/icons/v2/shopping_pinlet",
      "name": "Jacques Torres Chocolate - Dumbo",
      "opening_hours": {
        "open_now": true
      },
      "photos": [
        {
          "height": 2048,
          "html_attributions": [
            "<a href=\"https://maps.google.com/maps/contrib/109727148333413044932\">Rutger van Faassen</a>"
          ],
          "photo_reference": "AeJbb3eGoR1Tt4WTLdJgav75O6Ztx8o4gmOSaITsKe3UsXfy8FyszD7wdsnTOqbkHo2m2yABBuZrlM_Vo9qqls2h5SwqfAoYNTvTU6Bhibr02IbjJ07IcJ_fbVKLzAqSlXYShCvEdmLSfPR39N1pv5cZy9OGBOMtNtd6I93K60rsvh0JcXo",
          "width": 1369
        }
      ],
      "place_id": "ChIJxZbAGDFawokRQMOlMAjumQk",
      "plus_code": {
        "compound_code": "P235+7C \u7f8e\u570b\u7d10\u7d04",
        "global_code": "87G8P235+7C"
      },
      "price_level": 2,
      "rating": 4.4,
      "reference": "ChIJxZbAGDFawokRQMOlMAjumQk",
      "scope": "GOOGLE",
      "types": [
        "point_of_interest",
        "food",
        "store",
        "establishment"
      ],
      "user_ratings_total": 786,
      "vicinity": "66 Water Street, Brooklyn"
    },
    {
      "business_status": "OPERATIONAL",
      "geometry": {
        "location": {
          "lat": 40.7027217,
          "lng": -73.98688779999999
        },
        "viewport": {
          "northeast": {
            "lat": 40.7040671302915,
            "lng": -73.98543521970849
          },
          "southwest": {
            "lat": 40.7013691697085,
            "lng": -73.9881331802915
          }
        }
      },
      "icon": "https://maps.gstatic.com/mapfiles/place_api/icons/v1/png_71/shopping-71.png",
      "icon_background_color": "#4B96F3",
      "icon_mask_base_uri": "https://maps.gstatic.com/mapfiles/place_api/icons/v2/shopping_pinlet",
      "name": "Saltlands Studio",
      "place_id": "ChIJhVjDujNawokRDrcQQ4ru3Ss",
      "reference": "ChIJhVjDujNawokRDrcQQ4ru3Ss",
      "scope": "GOOGLE",
      "types": [
        "electronics_store",
        "home_goods_store",
        "point_of_interest",
        "store",
        "establishment"
      ],
      "vicinity": "68 Jay Street, Brooklyn"
    },
    {
      "business_status": "CLOSED_TEMPORARILY",
      "geometry": {
        "location": {
          "lat": 40.7026896,
          "lng": -73.9905891
        },
        "viewport": {
          "northeast": {
            "lat": 40.7040355802915,
            "lng": -73.98928846970848
          },
          "southwest": {
            "lat": 40.7013376197085,
            "lng": -73.9919864302915
          }
        }
      },
      "icon": "https://maps.gstatic.com/mapfiles/place_api/icons/v1/png_71/generic_business-71.png",
      "icon_background_color": "#7B9EB0",
      "icon_mask_base_uri": "https://maps.gstatic.com/mapfiles/place_api/icons/v2/generic_pinlet",
      "name": "Ferreira Construction Co Inc",
      "permanently_closed": true,
      "place_id": "ChIJUcyOPjFawokRncbdf0gr60o",
      "plus_code": {
        "compound_code": "P235+3Q \u7f8e\u570b\u7d10\u7d04\u5e03\u9c81\u514b\u6797",
        "global_code": "87G8P235+3Q"
      },
      "reference": "ChIJUcyOPjFawokRncbdf0gr60o",
      "scope": "GOOGLE",
      "types": [
        "general_contractor",
        "point_of_interest",
        "establishment"
      ],
      "vicinity": "45 Main Street #613, Brooklyn"
    },
    {
      "business_status": "OPERATIONAL",
      "geometry": {
        "location": {
          "lat": 40.7027467,
          "lng": -73.9934349
        },
        "viewport": {
          "northeast": {
            "lat": 40.70401893029149,
            "lng": -73.99216131970849
          },
          "southwest": {
            "lat": 40.70132096970849,
            "lng": -73.99485928029151
          }
        }
      },
      "icon": "https://maps.gstatic.com/mapfiles/place_api/icons/v1/png_71/restaurant-71.png",
      "icon_background_color": "#FF9E67",
      "icon_mask_base_uri": "https://maps.gstatic.com/mapfiles/place_api/icons/v2/restaurant_pinlet",
      "name": "Juliana's",
      "opening_hours": {
        "open_now": true
      },
      "photos": [
        {
          "height": 667,
          "html_attributions": [
            "<a href=\"https://maps.google.com/maps/contrib/115599262880008137921\">Juliana&#39;s</a>"
          ],
          "photo_reference": "AeJbb3ewpCW-43mFlWf6L2R5erdEXyK036_TWMZpkrguImoER5gFSCr4TL0ZWitfnTdmV67ljxZ9mjjhJEggNOCuIiSdMa8P3UEwbHr2xu8pa4MKqBwR6GLzx5UgKf_uNOkG7H5r4oJmgCDPeg29ZC_iI5VpdMOnp5tg7Y2F9ryYrfSxQNPH",
          "width": 1000
        }
      ],
      "place_id": "ChIJAQr5tjBawokRBBESUv8Tw5I",
      "plus_code": {
        "compound_code": "P234+3J \u7f8e\u570b\u7d10\u7d04",
        "global_code": "87G8P234+3J"
      },
      "price_level": 2,
      "rating": 4.6,
      "reference": "ChIJAQr5tjBawokRBBESUv8Tw5I",
      "scope": "GOOGLE",
      "types": [
        "restaurant",
        "point_of_interest",
        "food",
        "establishment"
      ],
      "user_ratings_total": 4515,
      "vicinity": "19 Old Fulton Street, Brooklyn"
    },
    {
      "business_status": "OPERATIONAL",
      "geometry": {
        "location": {
          "lat": 40.70402970000001,
          "lng": -73.9867893
        },
        "viewport": {
          "northeast": {
            "lat": 40.7053756802915,
            "lng": -73.9853447197085
          },
          "southwest": {
            "lat": 40.70267771970851,
            "lng": -73.98804268029151
          }
        }
      },
      "icon": "https://maps.gstatic.com/mapfiles/place_api/icons/v1/png_71/generic_business-71.png",
      "icon_background_color": "#7B9EB0",
      "icon_mask_base_uri": "https://maps.gstatic.com/mapfiles/place_api/icons/v2/generic_pinlet",
      "name": "Hugo & Marie",
      "opening_hours": {
        "open_now": false
      },
      "photos": [
        {
          "height": 1443,
          "html_attributions": [
            "<a href=\"https://maps.google.com/maps/contrib/114122880406389835234\">Hugo &amp; Marie</a>"
          ],
          "photo_reference": "AeJbb3fx5VKqZUNO0-bO_La8sUcVr8gG8RYmoh9nDorMd-wkOljGlNOsLVFkgzMVObD7Q0zHbJxZdmohdS08QttDQ-FeetrvUOFdyyDD77SdD_5GXBYw1BFt7_7E24dZneHWyW5cbq6z6EoKdt2SHPKqNTBKiZRQBgMyWCvlQQnthEhz1D-y",
          "width": 2048
        }
      ],
      "place_id": "ChIJs5Cx1KVZwokRoH9zmV99tLE",
      "plus_code": {
        "compound_code": "P237+J7 \u7f8e\u570b\u7d10\u7d04\u5e03\u9c81\u514b\u6797",
        "global_code": "87G8P237+J7"
      },
      "reference": "ChIJs5Cx1KVZwokRoH9zmV99tLE",
      "scope": "GOOGLE",
      "types": [
        "point_of_interest",
        "establishment"
      ],
      "vicinity": "20 Jay Street Suite 355, Brooklyn"
    },
    {
      "business_status": "CLOSED_TEMPORARILY",
      "geometry": {
        "location": {
          "lat": 40.7030752,
          "lng": -73.9902571
        },
        "viewport": {
          "northeast": {
            "lat": 40.70450318029149,
            "lng": -73.9887778697085
          },
          "southwest": {
            "lat": 40.7018052197085,
            "lng": -73.9914758302915
          }
        }
      },
      "icon": "https://maps.gstatic.com/mapfiles/place_api/icons/v1/png_71/generic_business-71.png",
      "icon_background_color": "#7B9EB0",
      "icon_mask_base_uri": "https://maps.gstatic.com/mapfiles/place_api/icons/v2/generic_pinlet",
      "name": "Savid Technologies Inc",
      "permanently_closed": true,
      "place_id": "ChIJUcyOPjFawokRYbZuE8gx11Y",
      "plus_code": {
        "compound_code": "P235+6V \u7f8e\u570b\u7d10\u7d04\u5e03\u9c81\u514b\u6797",
        "global_code": "87G8P235+6V"
      },
      "reference": "ChIJUcyOPjFawokRYbZuE8gx11Y",
      "scope": "GOOGLE",
      "types": [
        "point_of_interest",
        "establishment"
      ],
      "vicinity": "45 Main Street #520, Brooklyn"
    },
    {
      "business_status": "CLOSED_TEMPORARILY",
      "geometry": {
        "location": {
          "lat": 40.7030752,
          "lng": -73.9902571
        },
        "viewport": {
          "northeast": {
            "lat": 40.70450318029149,
            "lng": -73.9887778697085
          },
          "southwest": {
            "lat": 40.7018052197085,
            "lng": -73.9914758302915
          }
        }
      },
      "icon": "https://maps.gstatic.com/mapfiles/place_api/icons/v1/png_71/generic_business-71.png",
      "icon_background_color": "#7B9EB0",
      "icon_mask_base_uri": "https://maps.gstatic.com/mapfiles/place_api/icons/v2/generic_pinlet",
      "name": "Strauss Consultants",
      "permanently_closed": true,
      "place_id": "ChIJUcyOPjFawokR_NJDj4qAPQ4",
      "plus_code": {
        "compound_code": "P235+6V \u7f8e\u570b\u7d10\u7d04\u5e03\u9c81\u514b\u6797",
        "global_code": "87G8P235+6V"
      },
      "reference": "ChIJUcyOPjFawokR_NJDj4qAPQ4",
      "scope": "GOOGLE",
      "types": [
        "point_of_interest",
        "establishment"
      ],
      "vicinity": "45 Main Street #611, Brooklyn"
    },
    {
      "business_status": "OPERATIONAL",
      "geometry": {
        "location": {
          "lat": 40.7028139,
          "lng": -73.9868145
        },
        "viewport": {
          "northeast": {
            "lat": 40.7041604802915,
            "lng": -73.98539571970849
          },
          "southwest": {
            "lat": 40.7014625197085,
            "lng": -73.98809368029151
          }
        }
      },
      "icon": "https://maps.gstatic.com/mapfiles/place_api/icons/v1/png_71/generic_business-71.png",
      "icon_background_color": "#7B9EB0",
      "icon_mask_base_uri": "https://maps.gstatic.com/mapfiles/place_api/icons/v2/generic_pinlet",
      "name": "EnviroMed Services, INC.",
      "opening_hours": {
        "open_now": true
      },
      "place_id": "ChIJUcyOPjFawokRxAjl0Y5bXvg",
      "plus_code": {
        "compound_code": "P237+47 \u7f8e\u570b\u7d10\u7d04\u5e03\u9c81\u514b\u6797",
        "global_code": "87G8P237+47"
      },
      "reference": "ChIJUcyOPjFawokRxAjl0Y5bXvg",
      "scope": "GOOGLE",
      "types": [
        "point_of_interest",
        "establishment"
      ],
      "vicinity": "68 Jay Street #203, Brooklyn"
    },
    {
      "business_status": "OPERATIONAL",
      "geometry": {
        "location": {
          "lat": 40.7023735,
          "lng": -73.98750299999999
        },
        "viewport": {
          "northeast": {
            "lat": 40.70376048029151,
            "lng": -73.98612931970848
          },
          "southwest": {
            "lat": 40.70106251970851,
            "lng": -73.98882728029149
          }
        }
      },
      "icon": "https://maps.gstatic.com/mapfiles/place_api/icons/v1/png_71/restaurant-71.png",
      "icon_background_color": "#FF9E67",
      "icon_mask_base_uri": "https://maps.gstatic.com/mapfiles/place_api/icons/v2/restaurant_pinlet",
      "name": "Superfine",
      "opening_hours": {
        "open_now": true
      },
      "photos": [
        {
          "height": 720,
          "html_attributions": [
            "<a href=\"https://maps.google.com/maps/contrib/100943994162160384374\">Superfine</a>"
          ],
          "photo_reference": "AeJbb3dB1kFx1oChOsqEvc1gfO7Rc2P8-T8WgX7RcHb9wflcXclZVqn-vyFaXEVYLXtuLFoF55LUgdT5E1HsmDUjmTa9eq6NCivzw9Q9Dgq43hiHx6iualghWgCNnD5YLvm7rdZ9zZcc222hK-yh-0Kopj-F6vQSv7yR3oenHHR5SoqAFScU",
          "width": 960
        }
      ],
      "place_id": "ChIJYSFd6zNawokRpLteYhPEu_A",
      "plus_code": {
        "compound_code": "P226+WX \u7f8e\u570b\u7d10\u7d04",
        "global_code": "87G8P226+WX"
      },
      "price_level": 2,
      "rating": 4.3,
      "reference": "ChIJYSFd6zNawokRpLteYhPEu_A",
      "scope": "GOOGLE",
      "types": [
        "restaurant",
        "bar",
        "point_of_interest",
        "food",
        "establishment"
      ],
      "user_ratings_total": 920,
      "vicinity": "126 Front Street, Brooklyn"
    },
    {
      "geometry": {
        "location": {
          "lat": 40.7830603,
          "lng": -73.9712488
        },
        "viewport": {
          "northeast": {
            "lat": 40.820045,
            "lng": -73.90331300000001
          },
          "southwest": {
            "lat": 40.698078,
            "lng": -74.03514899999999
          }
        }
      },
      "icon": "https://maps.gstatic.com/mapfiles/place_api/icons/v1/png_71/geocode-71.png",
      "icon_background_color": "#7B9EB0",
      "icon_mask_base_uri": "https://maps.gstatic.com/mapfiles/place_api/icons/v2/generic_pinlet",
      "name": "\u66fc\u54c8\u9813",
      "photos": [
        {
          "height": 1199,
          "html_attributions": [
            "<a href=\"https://maps.google.com/maps/contrib/108803842220307386999\">Debeli Atleti\u010dar</a>"
          ],
          "photo_reference": "AeJbb3dJlg5gP0AEA2mAOE9FVuVdxQxKDuZFNLkd0en5DpD8B3MP6TqNLgFJXuXdyUQKZUFggthEdA7Sg7mWf3AeiPf2nNH6SDxp-pO9o9jx8pKJOohNXQiGdO38VXlSsGqVWphv8XG1yaf8RyHnrwr9TSt9oJf0qOcbYu8YNlaaRHBXeI7E",
          "width": 1800
        }
      ],
      "place_id": "ChIJYeZuBI9YwokRjMDs_IEyCwo",
      "reference": "ChIJYeZuBI9YwokRjMDs_IEyCwo",
      "scope": "GOOGLE",
      "types": [
        "sublocality_level_1",
        "sublocality",
        "political"
      ],
      "vicinity": "\u66fc\u54c8\u9813"
    },
    {
      "business_status": "OPERATIONAL",
      "geometry": {
        "location": {
          "lat": 40.7042545,
          "lng": -73.9932122
        },
        "viewport": {
          "northeast": {
            "lat": 40.7054386802915,
            "lng": -73.9919587697085
          },
          "southwest": {
            "lat": 40.7027407197085,
            "lng": -73.99465673029151
          }
        }
      },
      "icon": "https://maps.gstatic.com/mapfiles/place_api/icons/v1/png_71/park-71.png",
      "icon_background_color": "#4DB546",
      "icon_mask_base_uri": "https://maps.gstatic.com/mapfiles/place_api/icons/v2/tree_pinlet",
      "name": "Empire Fulton Ferry",
      "opening_hours": {
        "open_now": true
      },
      "photos": [
        {
          "height": 2268,
          "html_attributions": [
            "<a href=\"https://maps.google.com/maps/contrib/116317340731293953994\">Marco W</a>"
          ],
          "photo_reference": "AeJbb3eJyxRTt3eA6b2J5TpLjbKscezo9CWCJLyhOCYdBQhDSRVAum1VaDx6T-Str-7HksMesV3FE0Q5pzL5N_OHZ3kpDHLBzU0N2TeF7O3Y-svFqVAvxFj3JqRMtZiCHfWOqMcEnEanIR5VV0uqK3IRNbD6z1CpjigtozJTeM-CpGqG32dY",
          "width": 4032
        }
      ],
      "place_id": "ChIJgd20_jBawokRVhO1eBK6QgM",
      "plus_code": {
        "compound_code": "P234+PP Brooklyn, NY, USA",
        "global_code": "87G8P234+PP"
      },
      "rating": 4.7,
      "reference": "ChIJgd20_jBawokRVhO1eBK6QgM",
      "scope": "GOOGLE",
      "types": [
        "park",
        "tourist_attraction",
        "point_of_interest",
        "establishment"
      ],
      "user_ratings_total": 485,
      "vicinity": "1 Water Street, Brooklyn"
    },
    {
      "business_status": "OPERATIONAL",
      "geometry": {
        "location": {
          "lat": 40.69938999999999,
          "lng": -73.98770259999999
        },
        "viewport": {
          "northeast": {
            "lat": 40.70083493029149,
            "lng": -73.98641306970849
          },
          "southwest": {
            "lat": 40.69813696970849,
            "lng": -73.9891110302915
          }
        }
      },
      "icon": "https://maps.gstatic.com/mapfiles/place_api/icons/v1/png_71/school-71.png",
      "icon_background_color": "#7B9EB0",
      "icon_mask_base_uri": "https://maps.gstatic.com/mapfiles/place_api/icons/v2/school_pinlet",
      "name": "Brooklyn School of Languages",
      "opening_hours": {
        "open_now": false
      },
      "photos": [
        {
          "height": 810,
          "html_attributions": [
            "<a href=\"https://maps.google.com/maps/contrib/113028206121126204676\">Brooklyn School of Languages</a>"
          ],
          "photo_reference": "AeJbb3dw9ifBvicJFsXVwqcan9zcVmpdQNqJ8ZH2eo0WMoAf8dqm6Dob12INwtPbvMBY6ScXDhF_QyJ-VlVLysg2mOPdfk7PpwTgtllJR_EsyRQn6BM5hCJ7y5itrZDL5WE8YvMG4mYIEnMRxYyt7WPbIyVHGj6zFrHgUA8pM6MfGD5gPzDU",
          "width": 1440
        }
      ],
      "place_id": "ChIJNZRVEUlawokRqUw-claKin8",
      "plus_code": {
        "compound_code": "M2X6+QW New York, NY, USA",
        "global_code": "87G8M2X6+QW"
      },
      "rating": 4.6,
      "reference": "ChIJNZRVEUlawokRqUw-claKin8",
      "scope": "GOOGLE",
      "types": [
        "school",
        "point_of_interest",
        "establishment"
      ],
      "user_ratings_total": 49,
      "vicinity": "175 Pearl Street, Brooklyn"
    },
    {
      "business_status": "OPERATIONAL",
      "geometry": {
        "location": {
          "lat": 40.7028129,
          "lng": -73.9873187
        },
        "viewport": {
          "northeast": {
            "lat": 40.7041891802915,
            "lng": -73.9861166197085
          },
          "southwest": {
            "lat": 40.7014912197085,
            "lng": -73.9888145802915
          }
        }
      },
      "icon": "https://maps.gstatic.com/mapfiles/place_api/icons/v1/png_71/generic_business-71.png",
      "icon_background_color": "#7B9EB0",
      "icon_mask_base_uri": "https://maps.gstatic.com/mapfiles/place_api/icons/v2/generic_pinlet",
      "name": "Kindred Development",
      "opening_hours": {
        "open_now": false
      },
      "photos": [
        {
          "height": 1536,
          "html_attributions": [
            "<a href=\"https://maps.google.com/maps/contrib/106933889786228584942\">Kindred Development</a>"
          ],
          "photo_reference": "AeJbb3eLUXH4xGGhdwGultJQqygzgQf89PcbzB8FXZ5bjGN0Ag8RfDJPgo6rfRhzgxTEJne6XelwfWAyKn5F2BRv_JhxdARLk2uKI3pilCKLTWZjInpK0XbO0vC3um0Xc-kW1gH87mbMzQKw4e10mC75lJLIaydmhh0lMsWE0F_7nT9zhlmX",
          "width": 2048
        }
      ],
      "place_id": "ChIJ6V6WvDNawokRoBv9CjbgaAo",
      "reference": "ChIJ6V6WvDNawokRoBv9CjbgaAo",
      "scope": "GOOGLE",
      "types": [
        "point_of_interest",
        "establishment"
      ],
      "vicinity": "68 Jay Street #201, Brooklyn"
    },
    {
      "business_status": "OPERATIONAL",
      "geometry": {
        "location": {
          "lat": 40.7042892,
          "lng": -73.9866945
        },
        "viewport": {
          "northeast": {
            "lat": 40.70563643029149,
            "lng": -73.98529016970849
          },
          "southwest": {
            "lat": 40.7029384697085,
            "lng": -73.9879881302915
          }
        }
      },
      "icon": "https://maps.gstatic.com/mapfiles/place_api/icons/v1/png_71/generic_business-71.png",
      "icon_background_color": "#7B9EB0",
      "icon_mask_base_uri": "https://maps.gstatic.com/mapfiles/place_api/icons/v2/generic_pinlet",
      "name": "Creative Business Inc",
      "opening_hours": {
        "open_now": false
      },
      "place_id": "ChIJZaiaZzFawokR24_K85fMDyU",
      "plus_code": {
        "compound_code": "P237+P8 Brooklyn, NY, USA",
        "global_code": "87G8P237+P8"
      },
      "rating": 3.9,
      "reference": "ChIJZaiaZzFawokR24_K85fMDyU",
      "scope": "GOOGLE",
      "types": [
        "accounting",
        "finance",
        "point_of_interest",
        "establishment"
      ],
      "user_ratings_total": 7,
      "vicinity": "20 Jay Street #1016, Brooklyn"
    },
    {
      "business_status": "OPERATIONAL",
      "geometry": {
        "location": {
          "lat": 40.7027571,
          "lng": -73.98683419999999
        },
        "viewport": {
          "northeast": {
            "lat": 40.7041034302915,
            "lng": -73.98540731970849
          },
          "southwest": {
            "lat": 40.7014054697085,
            "lng": -73.98810528029149
          }
        }
      },
      "icon": "https://maps.gstatic.com/mapfiles/place_api/icons/v1/png_71/generic_business-71.png",
      "icon_background_color": "#7B9EB0",
      "icon_mask_base_uri": "https://maps.gstatic.com/mapfiles/place_api/icons/v2/generic_pinlet",
      "name": "Jens Mortensen Photography",
      "place_id": "ChIJbSHDjq1ZwokRTtnPPCu0Oxg",
      "plus_code": {
        "compound_code": "P237+47 New York, NY, USA",
        "global_code": "87G8P237+47"
      },
      "reference": "ChIJbSHDjq1ZwokRTtnPPCu0Oxg",
      "scope": "GOOGLE",
      "types": [
        "point_of_interest",
        "establishment"
      ],
      "vicinity": "68 Jay Street, Brooklyn"
    },
    {
      "business_status": "OPERATIONAL",
      "geometry": {
        "location": {
          "lat": 40.7027217,
          "lng": -73.98688779999999
        },
        "viewport": {
          "northeast": {
            "lat": 40.7040671302915,
            "lng": -73.98543521970849
          },
          "southwest": {
            "lat": 40.7013691697085,
            "lng": -73.9881331802915
          }
        }
      },
      "icon": "https://maps.gstatic.com/mapfiles/place_api/icons/v1/png_71/generic_business-71.png",
      "icon_background_color": "#7B9EB0",
      "icon_mask_base_uri": "https://maps.gstatic.com/mapfiles/place_api/icons/v2/generic_pinlet",
      "name": "Delirium",
      "photos": [
        {
          "height": 3024,
          "html_attributions": [
            "<a href=\"https://maps.google.com/maps/contrib/107101651209508065359\">Jaysen Hortenstine</a>"
          ],
          "photo_reference": "AeJbb3f-JpRqRlqNBt4mdD8Grct26ycuO9U7qsaGKDXwsebgDDSZn_RVHMnhpHilexk6K585XKolrs_TMrdtEbIKpldl7zJBj7_RQNdt4p3H43nt8UB4cNf_wrI2J5bRRD_SCMwH62JmcmfW6DwBIfztwDvUgfTndQmlnseVQJrAmpO1Leoy",
          "width": 4032
        }
      ],
      "place_id": "ChIJhVjDujNawokRBhNYr28226s",
      "reference": "ChIJhVjDujNawokRBhNYr28226s",
      "scope": "GOOGLE",
      "types": [
        "point_of_interest",
        "establishment"
      ],
      "vicinity": "68 Jay Street, Brooklyn"
    },
    {
      "business_status": "OPERATIONAL",
      "geometry": {
        "location": {
          "lat": 40.7026493,
          "lng": -73.98932409999999
        },
        "viewport": {
          "northeast": {
            "lat": 40.7039333302915,
            "lng": -73.98797961970848
          },
          "southwest": {
            "lat": 40.7012353697085,
            "lng": -73.9906775802915
          }
        }
      },
      "icon": "https://maps.gstatic.com/mapfiles/place_api/icons/v1/png_71/generic_business-71.png",
      "icon_background_color": "#7B9EB0",
      "icon_mask_base_uri": "https://maps.gstatic.com/mapfiles/place_api/icons/v2/generic_pinlet",
      "name": "CBL Consulting LLC",
      "place_id": "ChIJZaiaZzFawokRytfQAH39Mms",
      "plus_code": {
        "compound_code": "P236+37 Brooklyn, NY, USA",
        "global_code": "87G8P236+37"
      },
      "reference": "ChIJZaiaZzFawokRytfQAH39Mms",
      "scope": "GOOGLE",
      "types": [
        "point_of_interest",
        "establishment"
      ],
      "vicinity": "55 Washington Street # 321, Brooklyn"
    },
    {
      "business_status": "OPERATIONAL",
      "geometry": {
        "location": {
          "lat": 40.7028816,
          "lng": -73.9904334
        },
        "viewport": {
          "northeast": {
            "lat": 40.7041577302915,
            "lng": -73.9892052197085
          },
          "southwest": {
            "lat": 40.7014597697085,
            "lng": -73.9919031802915
          }
        }
      },
      "icon": "https://maps.gstatic.com/mapfiles/place_api/icons/v1/png_71/generic_business-71.png",
      "icon_background_color": "#7B9EB0",
      "icon_mask_base_uri": "https://maps.gstatic.com/mapfiles/place_api/icons/v2/generic_pinlet",
      "name": "National Student Nurse's Association",
      "opening_hours": {
        "open_now": false
      },
      "place_id": "ChIJIVm7PjFawokRY9g3-NzTJVY",
      "plus_code": {
        "compound_code": "P235+5R Brooklyn, NY, USA",
        "global_code": "87G8P235+5R"
      },
      "reference": "ChIJIVm7PjFawokRY9g3-NzTJVY",
      "scope": "GOOGLE",
      "types": [
        "point_of_interest",
        "establishment"
      ],
      "vicinity": "45 Main Street #606, Brooklyn"
    },
    {
      "business_status": "OPERATIONAL",
      "geometry": {
        "location": {
          "lat": 40.7027571,
          "lng": -73.98683419999999
        },
        "viewport": {
          "northeast": {
            "lat": 40.7041034302915,
            "lng": -73.98540731970849
          },
          "southwest": {
            "lat": 40.7014054697085,
            "lng": -73.98810528029149
          }
        }
      },
      "icon": "https://maps.gstatic.com/mapfiles/place_api/icons/v1/png_71/generic_business-71.png",
      "icon_background_color": "#7B9EB0",
      "icon_mask_base_uri": "https://maps.gstatic.com/mapfiles/place_api/icons/v2/generic_pinlet",
      "name": "Canino Lcsw Psychotherapy PC",
      "opening_hours": {
        "open_now": true
      },
      "photos": [
        {
          "height": 450,
          "html_attributions": [
            "<a href=\"https://maps.google.com/maps/contrib/107396207624704458255\">Canino Lcsw Psychotherapy PC</a>"
          ],
          "photo_reference": "AeJbb3czgHuKABBVazg3mcEggrnDPtihHj3wuZlHAAG7In5i2vTLzu3FzNa_xZ5PFj_NiuvA0IGE8FO_KbzyhpI_tIAqvhUlaSJI2SpSG019cjzkjxNO3_9hqZ0sQZxffCLKvcQ0qvzIU3owR9AWtylebutimwQXX5tjdjvr6dozeICIQTvc",
          "width": 674
        }
      ],
      "place_id": "ChIJgRMMljNawokRwzu4NUbjT20",
      "plus_code": {
        "compound_code": "P237+47 Brooklyn, NY, USA",
        "global_code": "87G8P237+47"
      },
      "rating": 5,
      "reference": "ChIJgRMMljNawokRwzu4NUbjT20",
      "scope": "GOOGLE",
      "types": [
        "health",
        "point_of_interest",
        "establishment"
      ],
      "user_ratings_total": 14,
      "vicinity": "68 Jay Street Suite 212, 311, 620, Brooklyn"
    },
    {
      "business_status": "OPERATIONAL",
      "geometry": {
        "location": {
          "lat": 40.7028278,
          "lng": -73.9893866
        },
        "viewport": {
          "northeast": {
            "lat": 40.7041682302915,
            "lng": -73.98815021970849
          },
          "southwest": {
            "lat": 40.7014702697085,
            "lng": -73.9908481802915
          }
        }
      },
      "icon": "https://maps.gstatic.com/mapfiles/place_api/icons/v1/png_71/generic_business-71.png",
      "icon_background_color": "#7B9EB0",
      "icon_mask_base_uri": "https://maps.gstatic.com/mapfiles/place_api/icons/v2/generic_pinlet",
      "name": "Mc Mahon Martine & Gallagher",
      "place_id": "ChIJZaiaZzFawokRT_BYHb9xQ40",
      "plus_code": {
        "compound_code": "P236+46 New York, NY, USA",
        "global_code": "87G8P236+46"
      },
      "rating": 2.8,
      "reference": "ChIJZaiaZzFawokRT_BYHb9xQ40",
      "scope": "GOOGLE",
      "types": [
        "lawyer",
        "point_of_interest",
        "establishment"
      ],
      "user_ratings_total": 4,
      "vicinity": "55 Washington Street Suite 720, Brooklyn"
    },
    {
      "business_status": "OPERATIONAL",
      "geometry": {
        "location": {
          "lat": 40.7033301,
          "lng": -73.9877822
        },
        "viewport": {
          "northeast": {
            "lat": 40.7045903302915,
            "lng": -73.98650696970849
          },
          "southwest": {
            "lat": 40.7018923697085,
            "lng": -73.98920493029149
          }
        }
      },
      "icon": "https://maps.gstatic.com/mapfiles/place_api/icons/v1/png_71/generic_business-71.png",
      "icon_background_color": "#7B9EB0",
      "icon_mask_base_uri": "https://maps.gstatic.com/mapfiles/place_api/icons/v2/generic_pinlet",
      "name": "The Dumbo Loft",
      "photos": [
        {
          "height": 1033,
          "html_attributions": [
            "<a href=\"https://maps.google.com/maps/contrib/117936328040939466530\">T P</a>"
          ],
          "photo_reference": "AeJbb3ez274YWATOd6AkaGNC8BIdX-vba7hzSy_3kFcWODdkMvm422v0bUmEkQ6Xh_Cpl5BB_dLiMwOFeRMBHOczFf0AI6YOKi-LtMHpRImBo4dh6NJ1WguipdJdG1h2M1eX6hsCfyyGDhhA0oBXlK-7dTeTxY5XL8JOTWJ4rAICr_vU4i7T",
          "width": 828
        }
      ],
      "place_id": "ChIJSZq1sjZawokRxwogbYlwP3E",
      "plus_code": {
        "compound_code": "P236+8V Brooklyn, NY, USA",
        "global_code": "87G8P236+8V"
      },
      "rating": 4.6,
      "reference": "ChIJSZq1sjZawokRxwogbYlwP3E",
      "scope": "GOOGLE",
      "types": [
        "point_of_interest",
        "establishment"
      ],
      "user_ratings_total": 199,
      "vicinity": "155 Water Street, Brooklyn"
    },
    {
      "business_status": "OPERATIONAL",
      "geometry": {
        "location": {
          "lat": 40.7028278,
          "lng": -73.9893866
        },
        "viewport": {
          "northeast": {
            "lat": 40.7041682302915,
            "lng": -73.98815021970849
          },
          "southwest": {
            "lat": 40.7014702697085,
            "lng": -73.9908481802915
          }
        }
      },
      "icon": "https://maps.gstatic.com/mapfiles/place_api/icons/v1/png_71/generic_business-71.png",
      "icon_background_color": "#7B9EB0",
      "icon_mask_base_uri": "https://maps.gstatic.com/mapfiles/place_api/icons/v2/generic_pinlet",
      "name": "Compassionate Care",
      "place_id": "ChIJZaiaZzFawokRSIrv21URfaY",
      "plus_code": {
        "compound_code": "P236+46 Brooklyn, NY, USA",
        "global_code": "87G8P236+46"
      },
      "reference": "ChIJZaiaZzFawokRSIrv21URfaY",
      "scope": "GOOGLE",
      "types": [
        "health",
        "point_of_interest",
        "establishment"
      ],
      "vicinity": "55 Washington Street # 331, Brooklyn"
    },
    {
      "business_status": "OPERATIONAL",
      "geometry": {
        "location": {
          "lat": 40.7026493,
          "lng": -73.98932409999999
        },
        "viewport": {
          "northeast": {
            "lat": 40.7039333302915,
            "lng": -73.98797961970848
          },
          "southwest": {
            "lat": 40.7012353697085,
            "lng": -73.9906775802915
          }
        }
      },
      "icon": "https://maps.gstatic.com/mapfiles/place_api/icons/v1/png_71/generic_business-71.png",
      "icon_background_color": "#7B9EB0",
      "icon_mask_base_uri": "https://maps.gstatic.com/mapfiles/place_api/icons/v2/generic_pinlet",
      "name": "Robinson + Grisaru Architecture PC",
      "place_id": "ChIJZaiaZzFawokRRLfOEuTrk4s",
      "plus_code": {
        "compound_code": "P236+37 New York, NY, USA",
        "global_code": "87G8P236+37"
      },
      "reference": "ChIJZaiaZzFawokRRLfOEuTrk4s",
      "scope": "GOOGLE",
      "types": [
        "point_of_interest",
        "establishment"
      ],
      "vicinity": "55 Washington Street Suite 711, Brooklyn"
    },
    {
      "business_status": "CLOSED_TEMPORARILY",
      "geometry": {
        "location": {
          "lat": 40.7028278,
          "lng": -73.9893866
        },
        "viewport": {
          "northeast": {
            "lat": 40.7041682302915,
            "lng": -73.98815021970849
          },
          "southwest": {
            "lat": 40.7014702697085,
            "lng": -73.9908481802915
          }
        }
      },
      "icon": "https://maps.gstatic.com/mapfiles/place_api/icons/v1/png_71/generic_business-71.png",
      "icon_background_color": "#7B9EB0",
      "icon_mask_base_uri": "https://maps.gstatic.com/mapfiles/place_api/icons/v2/generic_pinlet",
      "name": "Morgan Carper Designs LLC",
      "permanently_closed": true,
      "place_id": "ChIJZaiaZzFawokR_K_B2UH-gfg",
      "plus_code": {
        "compound_code": "P236+46 Brooklyn, NY, USA",
        "global_code": "87G8P236+46"
      },
      "reference": "ChIJZaiaZzFawokR_K_B2UH-gfg",
      "scope": "GOOGLE",
      "types": [
        "general_contractor",
        "point_of_interest",
        "establishment"
      ],
      "vicinity": "55 Washington Street, Brooklyn"
    },
    {
      "business_status": "OPERATIONAL",
      "geometry": {
        "location": {
          "lat": 40.7028278,
          "lng": -73.9893866
        },
        "viewport": {
          "northeast": {
            "lat": 40.7041682302915,
            "lng": -73.98815021970849
          },
          "southwest": {
            "lat": 40.7014702697085,
            "lng": -73.9908481802915
          }
        }
      },
      "icon": "https://maps.gstatic.com/mapfiles/place_api/icons/v1/png_71/generic_business-71.png",
      "icon_background_color": "#7B9EB0",
      "icon_mask_base_uri": "https://maps.gstatic.com/mapfiles/place_api/icons/v2/generic_pinlet",
      "name": "Martine Anthony D",
      "place_id": "ChIJZaiaZzFawokRiJrtoR0_f-U",
      "plus_code": {
        "compound_code": "P236+46 Brooklyn, NY, USA",
        "global_code": "87G8P236+46"
      },
      "reference": "ChIJZaiaZzFawokRiJrtoR0_f-U",
      "scope": "GOOGLE",
      "types": [
        "lawyer",
        "point_of_interest",
        "establishment"
      ],
      "vicinity": "55 Washington Street, Brooklyn"
    },
    {
      "business_status": "CLOSED_TEMPORARILY",
      "geometry": {
        "location": {
          "lat": 40.7028278,
          "lng": -73.9893866
        },
        "viewport": {
          "northeast": {
            "lat": 40.7041682302915,
            "lng": -73.98815021970849
          },
          "southwest": {
            "lat": 40.7014702697085,
            "lng": -73.9908481802915
          }
        }
      },
      "icon": "https://maps.gstatic.com/mapfiles/place_api/icons/v1/png_71/generic_business-71.png",
      "icon_background_color": "#7B9EB0",
      "icon_mask_base_uri": "https://maps.gstatic.com/mapfiles/place_api/icons/v2/generic_pinlet",
      "name": "P Pohl Productions",
      "permanently_closed": true,
      "place_id": "ChIJZaiaZzFawokRDJmI2qja-Mk",
      "plus_code": {
        "compound_code": "P236+46 Brooklyn, NY, USA",
        "global_code": "87G8P236+46"
      },
      "reference": "ChIJZaiaZzFawokRDJmI2qja-Mk",
      "scope": "GOOGLE",
      "types": [
        "point_of_interest",
        "establishment"
      ],
      "vicinity": "55 Washington Street # 709, Brooklyn"
    },
    {
      "business_status": "OPERATIONAL",
      "geometry": {
        "location": {
          "lat": 40.7028278,
          "lng": -73.9893866
        },
        "viewport": {
          "northeast": {
            "lat": 40.7041682302915,
            "lng": -73.98815021970849
          },
          "southwest": {
            "lat": 40.7014702697085,
            "lng": -73.9908481802915
          }
        }
      },
      "icon": "https://maps.gstatic.com/mapfiles/place_api/icons/v1/png_71/generic_business-71.png",
      "icon_background_color": "#7B9EB0",
      "icon_mask_base_uri": "https://maps.gstatic.com/mapfiles/place_api/icons/v2/generic_pinlet",
      "name": "FutureNow, Inc.",
      "place_id": "ChIJZaiaZzFawokRkD5GwodEMRQ",
      "plus_code": {
        "compound_code": "P236+46 Brooklyn, NY, USA",
        "global_code": "87G8P236+46"
      },
      "reference": "ChIJZaiaZzFawokRkD5GwodEMRQ",
      "scope": "GOOGLE",
      "types": [
        "point_of_interest",
        "establishment"
      ],
      "vicinity": "55 Washington Street, Brooklyn"
    },
    {
      "business_status": "CLOSED_TEMPORARILY",
      "geometry": {
        "location": {
          "lat": 40.70285829999999,
          "lng": -73.9893922
        },
        "viewport": {
          "northeast": {
            "lat": 40.7041833802915,
            "lng": -73.9881522697085
          },
          "southwest": {
            "lat": 40.70148541970851,
            "lng": -73.9908502302915
          }
        }
      },
      "icon": "https://maps.gstatic.com/mapfiles/place_api/icons/v1/png_71/shopping-71.png",
      "icon_background_color": "#4B96F3",
      "icon_mask_base_uri": "https://maps.gstatic.com/mapfiles/place_api/icons/v2/shopping_pinlet",
      "name": "Dabney Lee Stationery",
      "permanently_closed": true,
      "place_id": "ChIJZaiaZzFawokRgXBtkM1Gs7Q",
      "plus_code": {
        "compound_code": "P236+46 Brooklyn, NY, USA",
        "global_code": "87G8P236+46"
      },
      "reference": "ChIJZaiaZzFawokRgXBtkM1Gs7Q",
      "scope": "GOOGLE",
      "types": [
        "store",
        "point_of_interest",
        "establishment"
      ],
      "vicinity": "55 Washington Street # 736, Brooklyn"
    },
    {
      "business_status": "CLOSED_TEMPORARILY",
      "geometry": {
        "location": {
          "lat": 40.70330939999999,
          "lng": -73.9878238
        },
        "viewport": {
          "northeast": {
            "lat": 40.7045799802915,
            "lng": -73.98652211970848
          },
          "southwest": {
            "lat": 40.7018820197085,
            "lng": -73.9892200802915
          }
        }
      },
      "icon": "https://maps.gstatic.com/mapfiles/place_api/icons/v1/png_71/generic_business-71.png",
      "icon_background_color": "#7B9EB0",
      "icon_mask_base_uri": "https://maps.gstatic.com/mapfiles/place_api/icons/v2/generic_pinlet",
      "name": "Global Wealth Foundation",
      "permanently_closed": true,
      "place_id": "ChIJVXjvyDNawokRP9LPHUyxcTo",
      "plus_code": {
        "compound_code": "P236+8V Brooklyn, NY, USA",
        "global_code": "87G8P236+8V"
      },
      "reference": "ChIJVXjvyDNawokRP9LPHUyxcTo",
      "scope": "GOOGLE",
      "types": [
        "university",
        "point_of_interest",
        "establishment"
      ],
      "vicinity": "155 Water Street, Brooklyn"
    },
    {
      "business_status": "OPERATIONAL",
      "geometry": {
        "location": {
          "lat": 40.70268720000001,
          "lng": -73.9946422
        },
        "viewport": {
          "northeast": {
            "lat": 40.7041280302915,
            "lng": -73.9932335697085
          },
          "southwest": {
            "lat": 40.7014300697085,
            "lng": -73.99593153029151
          }
        }
      },
      "icon": "https://maps.gstatic.com/mapfiles/place_api/icons/v1/png_71/restaurant-71.png",
      "icon_background_color": "#FF9E67",
      "icon_mask_base_uri": "https://maps.gstatic.com/mapfiles/place_api/icons/v2/restaurant_pinlet",
      "name": "Brooklyn Ice Cream Factory",
      "opening_hours": {
        "open_now": false
      },
      "photos": [
        {
          "height": 3024,
          "html_attributions": [
            "<a href=\"https://maps.google.com/maps/contrib/113529914369651757516\">Brooklyn Ice Cream Factory</a>"
          ],
          "photo_reference": "AeJbb3fhYk4lLaqYWq5sDqQlFvsPawfKPw6rN7akvlhLiRQoPCIrQzmU0MtEXvQ8bgkn9q86qcTbGD1SWZKMCIw_R6Qzy_HXW15cpTuuqBCehOHFjILLwAHy4cS1-6zjW3l41MsFrbst_zlSqqd26DybBmUxH-PF2PLbq7kQyzxokQfCGE5y",
          "width": 4032
        }
      ],
      "place_id": "ChIJ2QZOdTpawokRv1Is1NxDiSg",
      "plus_code": {
        "compound_code": "P234+34 New York, NY, USA",
        "global_code": "87G8P234+34"
      },
      "price_level": 2,
      "rating": 4.4,
      "reference": "ChIJ2QZOdTpawokRv1Is1NxDiSg",
      "scope": "GOOGLE",
      "types": [
        "store",
        "point_of_interest",
        "food",
        "establishment"
      ],
      "user_ratings_total": 1628,
      "vicinity": "14 Old Fulton Street, Brooklyn"
    },
    {
      "business_status": "OPERATIONAL",
      "geometry": {
        "location": {
          "lat": 40.7028278,
          "lng": -73.9893866
        },
        "viewport": {
          "northeast": {
            "lat": 40.7041682302915,
            "lng": -73.98815021970849
          },
          "southwest": {
            "lat": 40.7014702697085,
            "lng": -73.9908481802915
          }
        }
      },
      "icon": "https://maps.gstatic.com/mapfiles/place_api/icons/v1/png_71/generic_business-71.png",
      "icon_background_color": "#7B9EB0",
      "icon_mask_base_uri": "https://maps.gstatic.com/mapfiles/place_api/icons/v2/generic_pinlet",
      "name": "Martinez Group Pllc",
      "place_id": "ChIJZaiaZzFawokRwYss5HjAAx4",
      "plus_code": {
        "compound_code": "P236+46 Brooklyn, NY, USA",
        "global_code": "87G8P236+46"
      },
      "reference": "ChIJZaiaZzFawokRwYss5HjAAx4",
      "scope": "GOOGLE",
      "types": [
        "point_of_interest",
        "establishment"
      ],
      "vicinity": "55 Washington Street # 316, Brooklyn"
    },
    {
      "business_status": "OPERATIONAL",
      "geometry": {
        "location": {
          "lat": 40.7022837,
          "lng": -73.986935
        },
        "viewport": {
          "northeast": {
            "lat": 40.7037071302915,
            "lng": -73.9855818697085
          },
          "southwest": {
            "lat": 40.7010091697085,
            "lng": -73.9882798302915
          }
        }
      },
      "icon": "https://maps.gstatic.com/mapfiles/place_api/icons/v1/png_71/generic_business-71.png",
      "icon_background_color": "#7B9EB0",
      "icon_mask_base_uri": "https://maps.gstatic.com/mapfiles/place_api/icons/v2/generic_pinlet",
      "name": "Colin Kelly - Digital Media",
      "place_id": "ChIJA0rIjzNawokRFm_l07h6-X0",
      "plus_code": {
        "compound_code": "P227+W6 New York, NY, USA",
        "global_code": "87G8P227+W6"
      },
      "reference": "ChIJA0rIjzNawokRFm_l07h6-X0",
      "scope": "GOOGLE",
      "types": [
        "point_of_interest",
        "establishment"
      ],
      "vicinity": "100 Jay Street, Brooklyn"
    },
    {
      "business_status": "OPERATIONAL",
      "geometry": {
        "location": {
          "lat": 40.703037,
          "lng": -73.9888723
        },
        "viewport": {
          "northeast": {
            "lat": 40.7044708302915,
            "lng": -73.9877103197085
          },
          "southwest": {
            "lat": 40.7017728697085,
            "lng": -73.9904082802915
          }
        }
      },
      "icon": "https://maps.gstatic.com/mapfiles/place_api/icons/v1/png_71/generic_business-71.png",
      "icon_background_color": "#7B9EB0",
      "icon_mask_base_uri": "https://maps.gstatic.com/mapfiles/place_api/icons/v2/generic_pinlet",
      "name": "powerHouse Books",
      "opening_hours": {
        "open_now": true
      },
      "photos": [
        {
          "height": 3000,
          "html_attributions": [
            "<a href=\"https://maps.google.com/maps/contrib/118263448868940008128\">Phillip Pastore</a>"
          ],
          "photo_reference": "AeJbb3fPkibD9SlxNdYoObTYT4whk657tkTok_oUJBvFKbtCkvfESFPi7D1kzLamjmYLqbDJbHKiVnNLTc0A46MlREQHNbq0irC4tnJMxS8pevnJj94v1ZTNzqT8NWN6jtVK5EkppnhjiTiBaBWWmpFbOcs5Nq2164yy5QmGLVkoUS3tvVPo",
          "width": 4000
        }
      ],
      "place_id": "ChIJi-GsFTFawokRXHiJIV3rhLk",
      "plus_code": {
        "compound_code": "P236+6F New York, NY, USA",
        "global_code": "87G8P236+6F"
      },
      "rating": 4.6,
      "reference": "ChIJi-GsFTFawokRXHiJIV3rhLk",
      "scope": "GOOGLE",
      "types": [
        "point_of_interest",
        "establishment"
      ],
      "user_ratings_total": 28,
      "vicinity": "32 Adams Street, Brooklyn"
    },
    {
      "business_status": "OPERATIONAL",
      "geometry": {
        "location": {
          "lat": 40.70330939999999,
          "lng": -73.9878238
        },
        "viewport": {
          "northeast": {
            "lat": 40.7045799802915,
            "lng": -73.98652211970848
          },
          "southwest": {
            "lat": 40.7018820197085,
            "lng": -73.9892200802915
          }
        }
      },
      "icon": "https://maps.gstatic.com/mapfiles/place_api/icons/v1/png_71/generic_business-71.png",
      "icon_background_color": "#7B9EB0",
      "icon_mask_base_uri": "https://maps.gstatic.com/mapfiles/place_api/icons/v2/generic_pinlet",
      "name": "Jacob Arthur Photographer",
      "opening_hours": {
        "open_now": true
      },
      "photos": [
        {
          "height": 562,
          "html_attributions": [
            "<a href=\"https://maps.google.com/maps/contrib/109635281465351556198\">Jacob Arthur Photographer</a>"
          ],
          "photo_reference": "AeJbb3edLniWibzqvX8OVZAegwupNHfhEBnwbzZfruetTH0Kn3eBbHVL5hCN-UbvPWLwSy1TiWCkpI8J6868xD2UA1cPPy4n0IVNvgJphDtDUenh2YoGdDC3fckbouy4eOAaZWLq_-K7CvG8ZFZXnBwHYATr5Jfi8jSLdZtLCthWkqSG6W5y",
          "width": 1000
        }
      ],
      "place_id": "ChIJFZh0GzNawokRK3EAkbBOZPI",
      "plus_code": {
        "compound_code": "P236+8V Brooklyn, NY, USA",
        "global_code": "87G8P236+8V"
      },
      "rating": 5,
      "reference": "ChIJFZh0GzNawokRK3EAkbBOZPI",
      "scope": "GOOGLE",
      "types": [
        "point_of_interest",
        "establishment"
      ],
      "user_ratings_total": 3,
      "vicinity": "155 Water Street, Brooklyn"
    },
    {
      "business_status": "OPERATIONAL",
      "geometry": {
        "location": {
          "lat": 40.70330939999999,
          "lng": -73.9878238
        },
        "viewport": {
          "northeast": {
            "lat": 40.7045799802915,
            "lng": -73.98652211970848
          },
          "southwest": {
            "lat": 40.7018820197085,
            "lng": -73.9892200802915
          }
        }
      },
      "icon": "https://maps.gstatic.com/mapfiles/place_api/icons/v1/png_71/generic_business-71.png",
      "icon_background_color": "#7B9EB0",
      "icon_mask_base_uri": "https://maps.gstatic.com/mapfiles/place_api/icons/v2/generic_pinlet",
      "name": "KLAD Creative",
      "opening_hours": {
        "open_now": false
      },
      "place_id": "ChIJVXjvyDNawokRn9BuBDhY6W8",
      "plus_code": {
        "compound_code": "P236+8V Brooklyn, NY, USA",
        "global_code": "87G8P236+8V"
      },
      "reference": "ChIJVXjvyDNawokRn9BuBDhY6W8",
      "scope": "GOOGLE",
      "types": [
        "point_of_interest",
        "establishment"
      ],
      "vicinity": "155 Water Street, Brooklyn"
    },
    {
      "business_status": "OPERATIONAL",
      "geometry": {
        "location": {
          "lat": 40.7029769,
          "lng": -73.9887652
        },
        "viewport": {
          "northeast": {
            "lat": 40.70444043029151,
            "lng": -73.98765856970849
          },
          "southwest": {
            "lat": 40.70174246970851,
            "lng": -73.9903565302915
          }
        }
      },
      "icon": "https://maps.gstatic.com/mapfiles/place_api/icons/v1/png_71/shopping-71.png",
      "icon_background_color": "#4B96F3",
      "icon_mask_base_uri": "https://maps.gstatic.com/mapfiles/place_api/icons/v2/shopping_pinlet",
      "name": "POWERHOUSE Arena",
      "opening_hours": {
        "open_now": true
      },
      "photos": [
        {
          "height": 2268,
          "html_attributions": [
            "<a href=\"https://maps.google.com/maps/contrib/102683979011523736903\">Sergio Rub\u00e9n Geller</a>"
          ],
          "photo_reference": "AeJbb3e_OOrhIqNxHkfFZBC5hLpUWNGzFH-cJc7WJBZjK0Ef1iLDQ-mUNK3xkcG6xDEJmrSNVmnD6PfUCK-zlWoRV0RApK8RkkV48XU36pvvkXXT5bSHGBWPXHiowvBbIdAdArAqS_7Y6u07VmVTsTsDvAw7TL7K38Yf3j587p6gXo_eJ82G",
          "width": 4032
        }
      ],
      "place_id": "ChIJi-GsFTFawokRE9iJoKgcOM0",
      "plus_code": {
        "compound_code": "P236+5F New York, NY, USA",
        "global_code": "87G8P236+5F"
      },
      "rating": 4.5,
      "reference": "ChIJi-GsFTFawokRE9iJoKgcOM0",
      "scope": "GOOGLE",
      "types": [
        "book_store",
        "store",
        "point_of_interest",
        "establishment"
      ],
      "user_ratings_total": 202,
      "vicinity": "28 Adams Street, Brooklyn"
    },
    {
      "business_status": "CLOSED_TEMPORARILY",
      "geometry": {
        "location": {
          "lat": 40.7028278,
          "lng": -73.9893866
        },
        "viewport": {
          "northeast": {
            "lat": 40.7041682302915,
            "lng": -73.98815021970849
          },
          "southwest": {
            "lat": 40.7014702697085,
            "lng": -73.9908481802915
          }
        }
      },
      "icon": "https://maps.gstatic.com/mapfiles/place_api/icons/v1/png_71/generic_business-71.png",
      "icon_background_color": "#7B9EB0",
      "icon_mask_base_uri": "https://maps.gstatic.com/mapfiles/place_api/icons/v2/generic_pinlet",
      "name": "National Elevator Inspection",
      "permanently_closed": true,
      "place_id": "ChIJZaiaZzFawokRep5W8OMUi44",
      "plus_code": {
        "compound_code": "P236+46 New York, NY, USA",
        "global_code": "87G8P236+46"
      },
      "reference": "ChIJZaiaZzFawokRep5W8OMUi44",
      "scope": "GOOGLE",
      "types": [
        "point_of_interest",
        "establishment"
      ],
      "vicinity": "247 West 37th Street"
    },
    {
      "business_status": "OPERATIONAL",
      "geometry": {
        "location": {
          "lat": 40.7028816,
          "lng": -73.9904334
        },
        "viewport": {
          "northeast": {
            "lat": 40.7041577302915,
            "lng": -73.9892052197085
          },
          "southwest": {
            "lat": 40.7014597697085,
            "lng": -73.9919031802915
          }
        }
      },
      "icon": "https://maps.gstatic.com/mapfiles/place_api/icons/v1/png_71/generic_business-71.png",
      "icon_background_color": "#7B9EB0",
      "icon_mask_base_uri": "https://maps.gstatic.com/mapfiles/place_api/icons/v2/generic_pinlet",
      "name": "MGMT. design",
      "opening_hours": {
        "open_now": false
      },
      "photos": [
        {
          "height": 588,
          "html_attributions": [
            "<a href=\"https://maps.google.com/maps/contrib/107431716328699921323\">MGMT. design</a>"
          ],
          "photo_reference": "AeJbb3fm9wzjSZ0bhD6NYNo__2VWcxh9fMQZGMXlaoIXK1PK6MxxXn2WIuyMRvt5VgcyuNbzVYSY8TjcLQ71CyyqVLPGOKHaCD65ROXxXbIIsqiEphTrvMgJuG_NQbopK1LEAK_RpMwGR0V-2AtBezGkgdTYwpcUpqoqaorQMm7TNI2Kfshv",
          "width": 828
        }
      ],
      "place_id": "ChIJZaiaZzFawokRbXHQXZ5Y-zk",
      "plus_code": {
        "compound_code": "P235+5R New York, NY, USA",
        "global_code": "87G8P235+5R"
      },
      "rating": 5,
      "reference": "ChIJZaiaZzFawokRbXHQXZ5Y-zk",
      "scope": "GOOGLE",
      "types": [
        "point_of_interest",
        "establishment"
      ],
      "user_ratings_total": 1,
      "vicinity": "45 Main Street #500, Brooklyn"
    },
    {
      "business_status": "OPERATIONAL",
      "geometry": {
        "location": {
          "lat": 40.7030629,
          "lng": -73.9904597
        },
        "viewport": {
          "northeast": {
            "lat": 40.70443248029149,
            "lng": -73.98921471970851
          },
          "southwest": {
            "lat": 40.7017345197085,
            "lng": -73.99191268029152
          }
        }
      },
      "icon": "https://maps.gstatic.com/mapfiles/place_api/icons/v1/png_71/generic_business-71.png",
      "icon_background_color": "#7B9EB0",
      "icon_mask_base_uri": "https://maps.gstatic.com/mapfiles/place_api/icons/v2/generic_pinlet",
      "name": "Garrison Architects",
      "opening_hours": {
        "open_now": false
      },
      "place_id": "ChIJIVm7PjFawokRdG9bjttdFNU",
      "plus_code": {
        "compound_code": "P235+6R Brooklyn, NY, USA",
        "global_code": "87G8P235+6R"
      },
      "rating": 4,
      "reference": "ChIJIVm7PjFawokRdG9bjttdFNU",
      "scope": "GOOGLE",
      "types": [
        "point_of_interest",
        "establishment"
      ],
      "user_ratings_total": 4,
      "vicinity": "45 Main Street, Brooklyn"
    },
    {
      "business_status": "OPERATIONAL",
      "geometry": {
        "location": {
          "lat": 40.70406789999999,
          "lng": -73.98670589999999
        },
        "viewport": {
          "northeast": {
            "lat": 40.7055181302915,
            "lng": -73.98530191970849
          },
          "southwest": {
            "lat": 40.7028201697085,
            "lng": -73.9879998802915
          }
        }
      },
      "icon": "https://maps.gstatic.com/mapfiles/place_api/icons/v1/png_71/shopping-71.png",
      "icon_background_color": "#4B96F3",
      "icon_mask_base_uri": "https://maps.gstatic.com/mapfiles/place_api/icons/v2/shopping_pinlet",
      "name": "Trove",
      "opening_hours": {
        "open_now": false
      },
      "place_id": "ChIJfQd-fKNZwokRFbRtpjRhQqw",
      "plus_code": {
        "compound_code": "P237+J8 Brooklyn, NY, USA",
        "global_code": "87G8P237+J8"
      },
      "rating": 3,
      "reference": "ChIJfQd-fKNZwokRFbRtpjRhQqw",
      "scope": "GOOGLE",
      "types": [
        "home_goods_store",
        "store",
        "point_of_interest",
        "establishment"
      ],
      "user_ratings_total": 1,
      "vicinity": "20 Jay Street #846, Brooklyn"
    },
    {
      "business_status": "OPERATIONAL",
      "geometry": {
        "location": {
          "lat": 40.7028278,
          "lng": -73.9893866
        },
        "viewport": {
          "northeast": {
            "lat": 40.7041682302915,
            "lng": -73.98815021970849
          },
          "southwest": {
            "lat": 40.7014702697085,
            "lng": -73.9908481802915
          }
        }
      },
      "icon": "https://maps.gstatic.com/mapfiles/place_api/icons/v1/png_71/generic_business-71.png",
      "icon_background_color": "#7B9EB0",
      "icon_mask_base_uri": "https://maps.gstatic.com/mapfiles/place_api/icons/v2/generic_pinlet",
      "name": "Carrot Creative",
      "photos": [
        {
          "height": 4160,
          "html_attributions": [
            "<a href=\"https://maps.google.com/maps/contrib/102905008875203762364\">Josefina Flores</a>"
          ],
          "photo_reference": "AeJbb3dReK_wNL841FuyniGRfmYCBGS1_3C8nF74d_5F_9cMPXoSWgdyNmLkcseLiAix0IHYU67MLkXn4tzHPqB28_aITRuE7CiNSkmI2oUwsG-Kp2YYcJmBbvmYdFfZYkLYBZS3_FrZubfIfgDeOnnlNmVrKXwJ7S_fHifkOVpmeFonlWN7",
          "width": 2340
        }
      ],
      "place_id": "ChIJIVm7PjFawokR5EoR92YnHaU",
      "plus_code": {
        "compound_code": "P236+46 Brooklyn, NY, USA",
        "global_code": "87G8P236+46"
      },
      "rating": 4.2,
      "reference": "ChIJIVm7PjFawokR5EoR92YnHaU",
      "scope": "GOOGLE",
      "types": [
        "point_of_interest",
        "establishment"
      ],
      "user_ratings_total": 5,
      "vicinity": "55 Washington Street #900, Brooklyn"
    },
    {
      "business_status": "OPERATIONAL",
      "geometry": {
        "location": {
          "lat": 40.7028796,
          "lng": -73.9904226
        },
        "viewport": {
          "northeast": {
            "lat": 40.7041568802915,
            "lng": -73.9891998697085
          },
          "southwest": {
            "lat": 40.7014589197085,
            "lng": -73.9918978302915
          }
        }
      },
      "icon": "https://maps.gstatic.com/mapfiles/place_api/icons/v1/png_71/generic_business-71.png",
      "icon_background_color": "#7B9EB0",
      "icon_mask_base_uri": "https://maps.gstatic.com/mapfiles/place_api/icons/v2/generic_pinlet",
      "name": "Huge",
      "photos": [
        {
          "height": 3365,
          "html_attributions": [
            "<a href=\"https://maps.google.com/maps/contrib/103861138891972266208\">Huge</a>"
          ],
          "photo_reference": "AeJbb3fKXHvKTzUlDiBb0NHl8jMUwV-KO3zptVtG112atrabyM-cjCJpoTM4ntL-Hn_eAXAXiMLD0yIiY7kzJQMxFpkDNACtw83X54u0rD7SECdDrftwJK8kMeVJ2hK1e2OI_v8DBHfljjCBXHV5ea9nV6ESW6OXQKrCsfE0nmAIPLRt9DTK",
          "width": 5049
        }
      ],
      "place_id": "ChIJIVm7PjFawokR1wPmdSIg9Uc",
      "plus_code": {
        "compound_code": "P235+5R New York, NY, USA",
        "global_code": "87G8P235+5R"
      },
      "rating": 4.5,
      "reference": "ChIJIVm7PjFawokR1wPmdSIg9Uc",
      "scope": "GOOGLE",
      "types": [
        "point_of_interest",
        "establishment"
      ],
      "user_ratings_total": 36,
      "vicinity": "45 Main Street 3rd floor, Brooklyn"
    },
    {
      "business_status": "OPERATIONAL",
      "geometry": {
        "location": {
          "lat": 40.699094,
          "lng": -73.9924662
        },
        "viewport": {
          "northeast": {
            "lat": 40.7004210302915,
            "lng": -73.99100596970848
          },
          "southwest": {
            "lat": 40.6977230697085,
            "lng": -73.9937039302915
          }
        }
      },
      "icon": "https://maps.gstatic.com/mapfiles/place_api/icons/v1/png_71/restaurant-71.png",
      "icon_background_color": "#FF9E67",
      "icon_mask_base_uri": "https://maps.gstatic.com/mapfiles/place_api/icons/v2/restaurant_pinlet",
      "name": "Henry Street Ale House",
      "opening_hours": {
        "open_now": false
      },
      "photos": [
        {
          "height": 2304,
          "html_attributions": [
            "<a href=\"https://maps.google.com/maps/contrib/108270237022017977706\">Nelson Aguirre Google Business View</a>"
          ],
          "photo_reference": "AeJbb3eG7PrXRzRV7N54Im7kGiH1J1q4JL2fLvc86nKY8R8mYY6nn2cUWeM-eDdt-kJvcO_kPoF0JvoGY0vwV_dGdi47gE_4SkdTu12kSFSPrSHleim9RFFqjytwg7rrV6bd9Y1YRWj3jIAMGLOxvFchS4aH366dyID9TmvZGKGPgHrtgsC8",
          "width": 4096
        }
      ],
      "place_id": "ChIJ3wxUrjdawokRCvceYKTpXFU",
      "plus_code": {
        "compound_code": "M2X5+J2 Brooklyn, NY, USA",
        "global_code": "87G8M2X5+J2"
      },
      "price_level": 2,
      "rating": 4.3,
      "reference": "ChIJ3wxUrjdawokRCvceYKTpXFU",
      "scope": "GOOGLE",
      "types": [
        "restaurant",
        "bar",
        "food",
        "point_of_interest",
        "establishment"
      ],
      "user_ratings_total": 523,
      "vicinity": "62 Henry Street, Brooklyn"
    },
    {
      "business_status": "OPERATIONAL",
      "geometry": {
        "location": {
          "lat": 40.6984595,
          "lng": -73.99067029999999
        },
        "viewport": {
          "northeast": {
            "lat": 40.6998986802915,
            "lng": -73.98931876970849
          },
          "southwest": {
            "lat": 40.6972007197085,
            "lng": -73.9920167302915
          }
        }
      },
      "icon": "https://maps.gstatic.com/mapfiles/place_api/icons/v1/png_71/generic_business-71.png",
      "icon_background_color": "#13B5C7",
      "icon_mask_base_uri": "https://maps.gstatic.com/mapfiles/place_api/icons/v2/generic_pinlet",
      "name": "Brooklyn War Memorial",
      "opening_hours": {
        "open_now": true
      },
      "photos": [
        {
          "height": 1674,
          "html_attributions": [
            "<a href=\"https://maps.google.com/maps/contrib/105312556147372607006\">Jason Peter</a>"
          ],
          "photo_reference": "AeJbb3f_4NnamWqlFGcYFrU4QW_O1sXfEaDiz-QHbv8QHzCiAnxBjbj70ykrvOEiDWrNjmoEQpkMZbxXTLRbVO4cWuqSokROZl0KqVjCkth5TlAvMOXgUAmsfwXjIZfQJupGDdoZCO8MiHuasv8jFmYXZSqdxMRDkz4OFjJXtutWj_w55gPR",
          "width": 2232
        }
      ],
      "place_id": "ChIJVXMEQzZawokRsbjWS6ekTwc",
      "plus_code": {
        "compound_code": "M2X5+9P Brooklyn, NY, USA",
        "global_code": "87G8M2X5+9P"
      },
      "rating": 4.3,
      "reference": "ChIJVXMEQzZawokRsbjWS6ekTwc",
      "scope": "GOOGLE",
      "types": [
        "tourist_attraction",
        "park",
        "point_of_interest",
        "establishment"
      ],
      "user_ratings_total": 208,
      "vicinity": "195 Cadman Plaza West, Brooklyn"
    },
    {
      "business_status": "OPERATIONAL",
      "geometry": {
        "location": {
          "lat": 40.7028602,
          "lng": -73.9904359
        },
        "viewport": {
          "northeast": {
            "lat": 40.7041470302915,
            "lng": -73.9892070697085
          },
          "southwest": {
            "lat": 40.7014490697085,
            "lng": -73.9919050302915
          }
        }
      },
      "icon": "https://maps.gstatic.com/mapfiles/place_api/icons/v1/png_71/generic_business-71.png",
      "icon_background_color": "#7B9EB0",
      "icon_mask_base_uri": "https://maps.gstatic.com/mapfiles/place_api/icons/v2/generic_pinlet",
      "name": "City Elevator Co",
      "photos": [
        {
          "height": 4032,
          "html_attributions": [
            "<a href=\"https://maps.google.com/maps/contrib/111503254489812690415\">Andreas Thomson</a>"
          ],
          "photo_reference": "AeJbb3fT_Zd2CXTYWN8kT2GBEc2ljsjrwtHyl8pMBdbslmPf43dzNkgujZBFuw9oY1QaG1-BIjLuaFC_M4A_E5hGT8FsTcrassOfSfpfeLOxwtc7vRgowd_0gwXZqElCLTZujrRfyf15BcYWrMeWlYhV7gwNT9sepvbN7VXTqEOfzGYl5t6p",
          "width": 3024
        }
      ],
      "place_id": "ChIJIVm7PjFawokRkMZLIh--Y40",
      "plus_code": {
        "compound_code": "P235+4R Brooklyn, NY, USA",
        "global_code": "87G8P235+4R"
      },
      "reference": "ChIJIVm7PjFawokRkMZLIh--Y40",
      "scope": "GOOGLE",
      "types": [
        "point_of_interest",
        "establishment"
      ],
      "vicinity": "45 Main Street #844, Brooklyn"
    },
    {
      "business_status": "OPERATIONAL",
      "geometry": {
        "location": {
          "lat": 40.7041895,
          "lng": -73.9867797
        },
        "viewport": {
          "northeast": {
            "lat": 40.7055355302915,
            "lng": -73.9853355697085
          },
          "southwest": {
            "lat": 40.7028375697085,
            "lng": -73.9880335302915
          }
        }
      },
      "icon": "https://maps.gstatic.com/mapfiles/place_api/icons/v1/png_71/generic_business-71.png",
      "icon_background_color": "#7B9EB0",
      "icon_mask_base_uri": "https://maps.gstatic.com/mapfiles/place_api/icons/v2/generic_pinlet",
      "name": "Marquis Studios",
      "place_id": "ChIJIVm7PjFawokReskXX20MF2I",
      "plus_code": {
        "compound_code": "P237+M7 Brooklyn, NY, USA",
        "global_code": "87G8P237+M7"
      },
      "rating": 5,
      "reference": "ChIJIVm7PjFawokReskXX20MF2I",
      "scope": "GOOGLE",
      "types": [
        "point_of_interest",
        "establishment"
      ],
      "user_ratings_total": 3,
      "vicinity": "20 Jay Street, Brooklyn"
    },
    {
      "business_status": "OPERATIONAL",
      "geometry": {
        "location": {
          "lat": 40.7028602,
          "lng": -73.9904359
        },
        "viewport": {
          "northeast": {
            "lat": 40.7041470302915,
            "lng": -73.9892070697085
          },
          "southwest": {
            "lat": 40.7014490697085,
            "lng": -73.9919050302915
          }
        }
      },
      "icon": "https://maps.gstatic.com/mapfiles/place_api/icons/v1/png_71/school-71.png",
      "icon_background_color": "#7B9EB0",
      "icon_mask_base_uri": "https://maps.gstatic.com/mapfiles/place_api/icons/v2/school_pinlet",
      "name": "Headstart Sponsoring Board",
      "place_id": "ChIJIVm7PjFawokRzqWsJFE_vmY",
      "plus_code": {
        "compound_code": "P235+4R Brooklyn, NY, USA",
        "global_code": "87G8P235+4R"
      },
      "reference": "ChIJIVm7PjFawokRzqWsJFE_vmY",
      "scope": "GOOGLE",
      "types": [
        "school",
        "point_of_interest",
        "establishment"
      ],
      "vicinity": "45 Main Street #712, Brooklyn"
    },
    {
      "business_status": "OPERATIONAL",
      "geometry": {
        "location": {
          "lat": 40.7027497,
          "lng": -73.9870991
        },
        "viewport": {
          "northeast": {
            "lat": 40.7039425302915,
            "lng": -73.98573661970849
          },
          "southwest": {
            "lat": 40.7012445697085,
            "lng": -73.9884345802915
          }
        }
      },
      "icon": "https://maps.gstatic.com/mapfiles/place_api/icons/v1/png_71/generic_business-71.png",
      "icon_background_color": "#7B9EB0",
      "icon_mask_base_uri": "https://maps.gstatic.com/mapfiles/place_api/icons/v2/generic_pinlet",
      "name": "Michael F. Canino, LCSW",
      "opening_hours": {
        "open_now": true
      },
      "place_id": "ChIJy3hVTDFawokReIuAeW2CExQ",
      "plus_code": {
        "compound_code": "P237+35 Brooklyn, NY, USA",
        "global_code": "87G8P237+35"
      },
      "rating": 5,
      "reference": "ChIJy3hVTDFawokReIuAeW2CExQ",
      "scope": "GOOGLE",
      "types": [
        "doctor",
        "health",
        "point_of_interest",
        "establishment"
      ],
      "user_ratings_total": 1,
      "vicinity": "147 Front Street #212, Brooklyn"
    },
    {
      "business_status": "OPERATIONAL",
      "geometry": {
        "location": {
          "lat": 40.7041895,
          "lng": -73.9867797
        },
        "viewport": {
          "northeast": {
            "lat": 40.7055355302915,
            "lng": -73.9853355697085
          },
          "southwest": {
            "lat": 40.7028375697085,
            "lng": -73.9880335302915
          }
        }
      },
      "icon": "https://maps.gstatic.com/mapfiles/place_api/icons/v1/png_71/generic_business-71.png",
      "icon_background_color": "#7B9EB0",
      "icon_mask_base_uri": "https://maps.gstatic.com/mapfiles/place_api/icons/v2/generic_pinlet",
      "name": "Center For Cuban Studies",
      "opening_hours": {
        "open_now": true
      },
      "photos": [
        {
          "height": 4032,
          "html_attributions": [
            "<a href=\"https://maps.google.com/maps/contrib/111050517104542244149\">ALEJANDRO PINZON ART</a>"
          ],
          "photo_reference": "AeJbb3cdooj-N5mFxE2IATK23efYWFKY0dxyXGuzR3invDn02xVHfwBJfBeDbijMDdJb3c4nsGKmO5cVYCLBpYidQRq1v8UWJ_zJRMblOtmSP-BYVWR85suDZU_SO9XIwvbbKO7nZWDcbaUaMqFYU1pwl5bNp5PTtzLOwYkZnJxOMBQl1qjT",
          "width": 3024
        }
      ],
      "place_id": "ChIJ99Rh2a9ZwokRtwUiw8rBBL8",
      "plus_code": {
        "compound_code": "P237+M7 Brooklyn, NY, USA",
        "global_code": "87G8P237+M7"
      },
      "rating": 5,
      "reference": "ChIJ99Rh2a9ZwokRtwUiw8rBBL8",
      "scope": "GOOGLE",
      "types": [
        "art_gallery",
        "point_of_interest",
        "establishment"
      ],
      "user_ratings_total": 16,
      "vicinity": "20 Jay Street #301, Brooklyn"
    },
    {
      "business_status": "OPERATIONAL",
      "geometry": {
        "location": {
          "lat": 40.703073,
          "lng": -73.990332
        },
        "viewport": {
          "northeast": {
            "lat": 40.7045030802915,
            "lng": -73.98910311970849
          },
          "southwest": {
            "lat": 40.7018051197085,
            "lng": -73.9918010802915
          }
        }
      },
      "icon": "https://maps.gstatic.com/mapfiles/place_api/icons/v1/png_71/generic_business-71.png",
      "icon_background_color": "#7B9EB0",
      "icon_mask_base_uri": "https://maps.gstatic.com/mapfiles/place_api/icons/v2/generic_pinlet",
      "name": "The Brooklyn Studio",
      "opening_hours": {
        "open_now": false
      },
      "photos": [
        {
          "height": 2172,
          "html_attributions": [
            "<a href=\"https://maps.google.com/maps/contrib/118352887689174575029\">The Brooklyn Studio</a>"
          ],
          "photo_reference": "AeJbb3eqh7-MrFYyyDRmRBH9Z2hijbPDlM6eORDl5VgY7tsJyHg3oyJ7--0iOF939YRUCv2t1xSYx1x6ywEMwiwFMSNeWMa5TKPg_sA99p-77I2M7_p-mmf8sSqKk-BhXdvOivSv6Xf9RYSmEb5yiJ2vNU4jT1Rb86r-7z4qe1ejMV7q-8c",
          "width": 1630
        }
      ],
      "place_id": "ChIJIVm7PjFawokRsXHC_SXFHcc",
      "plus_code": {
        "compound_code": "P235+6V Brooklyn, NY, USA",
        "global_code": "87G8P235+6V"
      },
      "rating": 5,
      "reference": "ChIJIVm7PjFawokRsXHC_SXFHcc",
      "scope": "GOOGLE",
      "types": [
        "point_of_interest",
        "establishment"
      ],
      "user_ratings_total": 3,
      "vicinity": "45 Main Street #824, Brooklyn"
    }
  ],
  "status": "OK"
}