{
  "html_attributions": [],
  "results": [
    {
      "geometry": {
        "location": {
          "lat": 40.7177545,
          "lng": -74.0431435
        },
        "viewport": {
          "northeast": {
            "lat": 40.76886696556042,
            "lng": -74.02040497604364
          },
          "southwest": {
            "lat": 40.66162203954202,
            "lng": -74.11705692034361
          }
        }
      },
      "icon": "https://maps.gstatic.com/mapfiles/place_api/icons/v1/png_71/geocode-71.png",
      "icon_background_color": "#7B9EB0",
      "icon_mask_base_uri": "https://maps.gstatic.com/mapfiles/place_api/icons/v2/generic_pinlet",
      "name": "\u6fa4\u897f\u5e02",
      "photos": [
        {
          "height": 3024,
          "html_attributions": [
            "<a href=\"https://maps.google.com/maps/contrib/110214719387408653852\">Husam Attalla</a>"
          ],
          "photo_reference": "AeJbb3ewMN-2Od6b3-a0XBVS6RV4fru6VdZixi2VkrIxcDCIVOSOL7hqvzmOYOOmbPUrBRKm7K0dY2WxalXecZb0caSVDfNP91Y3bFFywzMsisMtq_SCMgfPu943EvrEksjOC6NPfz2Yp77_Xr_Q5opMKj7Ssy7V5DPPUBeEo-D6ezihzD5G",
          "width": 4032
        }
      ],
      "place_id": "ChIJ3a-_JdJQwokR2SXNohPwSQI",
      "reference": "ChIJ3a-_JdJQwokR2SXNohPwSQI",
      "scope": "GOOGLE",
      "types": [
        "locality",
        "political"
      ],
      "vicinity": "\u6fa4\u897f\u5e02"
    },
    {
      "business_status": "OPERATIONAL",
      "geometry": {
        "location": {
          "lat": 40.74189080000001,
          "lng": -74.0400672
        },
        "viewport": {
          "northeast": {
            "lat": 40.7433175302915,
            "lng": -74.0387730197085
          },
          "southwest": {
            "lat": 40.7406195697085,
            "lng": -74.0414709802915
          }
        }
      },
      "icon": "https://maps.gstatic.com/mapfiles/place_api/icons/v1/png_71/restaurant-71.png",
      "icon_background_color": "#FF9E67",
      "icon_mask_base_uri": "https://maps.gstatic.com/mapfiles/place_api/icons/v2/restaurant_pinlet",
      "name": "Old Lorenzos Pizza",
      "opening_hours": {
        "open_now": true
      },
      "photos": [
        {
          "height": 3500,
          "html_attributions": [
            "<a href=\"https://maps.google.com/maps/contrib/108752141725281390240\">Old Lorenzos Pizza</a>"
          ],
          "photo_reference": "AeJbb3fGknC_DbNxG-bkgjVPezEO7QFEkNTKalFHroCnRZDKjrUMuQUSzQz7cQ0_lP9wwuFaRjbIR8MutuZDr-kk343Jo7ZwBD1U9aKi9dpXZPRximSSp5vevGgsgpslgPNOfamKNIpggim6I0jN6tWmCC1xPYE6c65q8X_i9bpL78LgJWFR",
          "width": 5250
        }
      ],
      "place_id": "ChIJSSfAE11XwokRN229y7DBojY",
      "plus_code": {
        "compound_code": "PXR5+QX \u7f8e\u570b\u65b0\u6fa4\u897f\u970d\u535a\u80af",
        "global_code": "87G7PXR5+QX"
      },
      "price_level": 2,
      "rating": 3.7,
      "reference": "ChIJSSfAE11XwokRN229y7DBojY",
      "scope": "GOOGLE",
      "types": [
        "meal_delivery",
        "meal_takeaway",
        "store",
        "restaurant",
        "food",
        "point_of_interest",
        "establishment"
      ],
      "user_ratings_total": 129,
      "vicinity": "301 Jackson Street, Hoboken"
    },
    {
      "business_status": "OPERATIONAL",
      "geometry": {
        "location": {
          "lat": 40.7469893,
          "lng": -74.0468216
        },
        "viewport": {
          "northeast": {
            "lat": 40.7482645802915,
            "lng": -74.0455173697085
          },
          "southwest": {
            "lat": 40.74556661970851,
            "lng": -74.04821533029151
          }
        }
      },
      "icon": "https://maps.gstatic.com/mapfiles/place_api/icons/v1/png_71/generic_business-71.png",
      "icon_background_color": "#7B9EB0",
      "icon_mask_base_uri": "https://maps.gstatic.com/mapfiles/place_api/icons/v2/generic_pinlet",
      "name": "96 Bowers ST Condominium Association",
      "opening_hours": {
        "open_now": true
      },
      "place_id": "ChIJ62Lzd2lXwokRNaNSgPEHvE0",
      "plus_code": {
        "compound_code": "PXW3+Q7 \u7f8e\u570b\u65b0\u6fa4\u897f\u6fa4\u897f\u5e02",
        "global_code": "87G7PXW3+Q7"
      },
      "reference": "ChIJ62Lzd2lXwokRNaNSgPEHvE0",
      "scope": "GOOGLE",
      "types": [
        "real_estate_agency",
        "point_of_interest",
        "establishment"
      ],
      "vicinity": "96 Bowers Street, Jersey City"
    },
    {
      "business_status": "OPERATIONAL",
      "geometry": {
        "location": {
          "lat": 40.7405558,
          "lng": -74.04236499999999
        },
        "viewport": {
          "northeast": {
            "lat": 40.74187203029151,
            "lng": -74.04114786970848
          },
          "southwest": {
            "lat": 40.73917406970851,
            "lng": -74.0438458302915
          }
        }
      },
      "icon": "https://maps.gstatic.com/mapfiles/place_api/icons/v1/png_71/generic_business-71.png",
      "icon_background_color": "#7B9EB0",
      "icon_mask_base_uri": "https://maps.gstatic.com/mapfiles/place_api/icons/v2/generic_pinlet",
      "name": "Skyclub Fitness & Spa",
      "opening_hours": {
        "open_now": true
      },
      "photos": [
        {
          "height": 480,
          "html_attributions": [
            "<a href=\"https://maps.google.com/maps/contrib/111139526834168113059\">Skyclub Fitness &amp; Spa</a>"
          ],
          "photo_reference": "AeJbb3cD_iVTY17U3jOQCNqH2wMP6NDI5AOlixs7c9Zubqc8lmAYoLVhwF7g05MQIY2uLjKNd0catmSXQKLBmksDLb2hGp6HMa96Qsai7dS7AlCn3ph2gB2cBfstqCziNs13lRpm-JJxs1yrje2TUqL9hsGcKNl7WIB71sU5ClYP_zn3bfQ",
          "width": 640
        }
      ],
      "place_id": "ChIJg4VyMENXwokR6x9od9UKNBA",
      "plus_code": {
        "compound_code": "PXR5+63 \u7f8e\u570b\u65b0\u6fa4\u897f\u970d\u535a\u80af",
        "global_code": "87G7PXR5+63"
      },
      "rating": 3.7,
      "reference": "ChIJg4VyMENXwokR6x9od9UKNBA",
      "scope": "GOOGLE",
      "types": [
        "gym",
        "health",
        "point_of_interest",
        "establishment"
      ],
      "user_ratings_total": 68,
      "vicinity": "125 Marshall Street 7th floor, Hoboken"
    },
    {
      "business_status": "OPERATIONAL",
      "geometry": {
        "location": {
          "lat": 40.7459606,
          "lng": -74.0394601
        },
        "viewport": {
          "northeast": {
            "lat": 40.7472705802915,
            "lng": -74.03788961970848
          },
          "southwest": {
            "lat": 40.7445726197085,
            "lng": -74.0405875802915
          }
        }
      },
      "icon": "https://maps.gstatic.com/mapfiles/place_api/icons/v1/png_71/generic_business-71.png",
      "icon_background_color": "#7B9EB0",
      "icon_mask_base_uri": "https://maps.gstatic.com/mapfiles/place_api/icons/v2/generic_pinlet",
      "name": "Juliana Apartments",
      "opening_hours": {
        "open_now": true
      },
      "photos": [
        {
          "height": 801,
          "html_attributions": [
            "<a href=\"https://maps.google.com/maps/contrib/106051005870104857631\">Juliana Apartments</a>"
          ],
          "photo_reference": "AeJbb3ePh-onHowwybRjImcjntsYZ4uB1Cl4u7gO29to6XEcRDA5un7rZwJctuq_6cbk4FHFqJJBMNAhSIu9OnVw6UZmJNMK_aPmMM6vsNwye_kITYJKcGOkvUvz8ZNVySQtRvbfmuwa2Tbs35E92j3Ty-ScEgFL--oXkKhuhLTslemmlZKc",
          "width": 1424
        }
      ],
      "place_id": "ChIJNUzHVGZXwokR7px8RF-_eAw",
      "plus_code": {
        "compound_code": "PXW6+96 \u7f8e\u570b\u65b0\u6fa4\u897f\u970d\u535a\u80af",
        "global_code": "87G7PXW6+96"
      },
      "rating": 4.1,
      "reference": "ChIJNUzHVGZXwokR7px8RF-_eAw",
      "scope": "GOOGLE",
      "types": [
        "real_estate_agency",
        "point_of_interest",
        "establishment"
      ],
      "user_ratings_total": 27,
      "vicinity": "600 Jackson Street, Hoboken"
    },
    {
      "business_status": "OPERATIONAL",
      "geometry": {
        "location": {
          "lat": 40.7465204,
          "lng": -74.045391
        },
        "viewport": {
          "northeast": {
            "lat": 40.7477749802915,
            "lng": -74.0441050197085
          },
          "southwest": {
            "lat": 40.7450770197085,
            "lng": -74.0468029802915
          }
        }
      },
      "icon": "https://maps.gstatic.com/mapfiles/place_api/icons/v1/png_71/generic_business-71.png",
      "icon_background_color": "#7B9EB0",
      "icon_mask_base_uri": "https://maps.gstatic.com/mapfiles/place_api/icons/v2/generic_pinlet",
      "name": "Bowers Luxury Condos",
      "opening_hours": {
        "open_now": true
      },
      "place_id": "ChIJrc96qGlXwokRrrxkCkOqvYc",
      "plus_code": {
        "compound_code": "PXW3+JR \u7f8e\u570b\u65b0\u6fa4\u897f\u6fa4\u897f\u5e02",
        "global_code": "87G7PXW3+JR"
      },
      "rating": 3,
      "reference": "ChIJrc96qGlXwokRrrxkCkOqvYc",
      "scope": "GOOGLE",
      "types": [
        "real_estate_agency",
        "lodging",
        "point_of_interest",
        "establishment"
      ],
      "user_ratings_total": 2,
      "vicinity": "70 Bowers Street, Jersey City"
    },
    {
      "business_status": "OPERATIONAL",
      "geometry": {
        "location": {
          "lat": 40.74647059999999,
          "lng": -74.0487678
        },
        "viewport": {
          "northeast": {
            "lat": 40.7478425802915,
            "lng": -74.04753866970849
          },
          "southwest": {
            "lat": 40.7451446197085,
            "lng": -74.05023663029151
          }
        }
      },
      "icon": "https://maps.gstatic.com/mapfiles/place_api/icons/v1/png_71/restaurant-71.png",
      "icon_background_color": "#FF9E67",
      "icon_mask_base_uri": "https://maps.gstatic.com/mapfiles/place_api/icons/v2/restaurant_pinlet",
      "name": "Papa Johns Pizza",
      "opening_hours": {
        "open_now": true
      },
      "photos": [
        {
          "height": 3024,
          "html_attributions": [
            "<a href=\"https://maps.google.com/maps/contrib/103417144664466599234\">Ed Wiegner</a>"
          ],
          "photo_reference": "AeJbb3dPW2coOl4WOvRmz9lddin7AIcu0WUtiGbkR6cwn6tCC5WQRdVPiT3PF0vS0NH6m5m6h6F_ScD2gONNadkgTvqo9L6jTWwKd0HJxa-a_eSxAJwqQcCl91WfPH_fJ5kpHTVmuFafgH7-N_C3yZsaWk9H9-FKWqNOnsa_EZSze_mQ3o4K",
          "width": 4032
        }
      ],
      "place_id": "ChIJu9nXOWpXwokRxIcpk_YvAw4",
      "plus_code": {
        "compound_code": "PXW2+HF \u7f8e\u570b\u65b0\u6fa4\u897f\u6fa4\u897f\u5e02",
        "global_code": "87G7PXW2+HF"
      },
      "price_level": 1,
      "rating": 3.3,
      "reference": "ChIJu9nXOWpXwokRxIcpk_YvAw4",
      "scope": "GOOGLE",
      "types": [
        "restaurant",
        "food",
        "point_of_interest",
        "establishment"
      ],
      "user_ratings_total": 342,
      "vicinity": "340 Central Avenue, Jersey City"
    },
    {
      "business_status": "CLOSED_TEMPORARILY",
      "geometry": {
        "location": {
          "lat": 40.74539590000001,
          "lng": -74.0495425
        },
        "viewport": {
          "northeast": {
            "lat": 40.7467818802915,
            "lng": -74.04828846970848
          },
          "southwest": {
            "lat": 40.7440839197085,
            "lng": -74.0509864302915
          }
        }
      },
      "icon": "https://maps.gstatic.com/mapfiles/place_api/icons/v1/png_71/shopping-71.png",
      "icon_background_color": "#4B96F3",
      "icon_mask_base_uri": "https://maps.gstatic.com/mapfiles/place_api/icons/v2/shopping_pinlet",
      "name": "SignFacility, Inc.",
      "permanently_closed": true,
      "photos": [
        {
          "height": 499,
          "html_attributions": [
            "<a href=\"https://maps.google.com/maps/contrib/112780518100573531710\">SignFacility, Inc.</a>"
          ],
          "photo_reference": "AeJbb3fPoDcVz7Zzn9OJODb1TA-NhUJ3hmmPdJkuRFZwKnFBwJrv4AGYBCv3EYDCz4T87spQTusNgCxRu1UzLHAYNpxehOgME7So6ELl-DhHM_nlsmb10sJLe5-eBl4JDvFSbe9urKLWaHTjz92vgIdl0W6I2XW5J7vDmjFo4aYcCEuGguAy",
          "width": 1108
        }
      ],
      "place_id": "ChIJs0-eV0VXwokRp5Ds6ob6aLg",
      "plus_code": {
        "compound_code": "PXW2+55 \u7f8e\u570b\u65b0\u6fa4\u897f\u6fa4\u897f\u5e02",
        "global_code": "87G7PXW2+55"
      },
      "rating": 5,
      "reference": "ChIJs0-eV0VXwokRp5Ds6ob6aLg",
      "scope": "GOOGLE",
      "types": [
        "store",
        "point_of_interest",
        "establishment"
      ],
      "user_ratings_total": 1,
      "vicinity": "310 Central Avenue, Jersey City"
    },
    {
      "business_status": "OPERATIONAL",
      "geometry": {
        "location": {
          "lat": 40.7451587,
          "lng": -74.0464393
        },
        "viewport": {
          "northeast": {
            "lat": 40.74653233029149,
            "lng": -74.0451587197085
          },
          "southwest": {
            "lat": 40.74383436970849,
            "lng": -74.0478566802915
          }
        }
      },
      "icon": "https://maps.gstatic.com/mapfiles/place_api/icons/v1/png_71/worship_jewish-71.png",
      "icon_background_color": "#7B9EB0",
      "icon_mask_base_uri": "https://maps.gstatic.com/mapfiles/place_api/icons/v2/worship_jewish_pinlet",
      "name": "Congregation Mt Sinai",
      "photos": [
        {
          "height": 500,
          "html_attributions": [
            "<a href=\"https://maps.google.com/maps/contrib/111367871434153897200\">Congregation Mt Sinai</a>"
          ],
          "photo_reference": "AeJbb3fbxGG5YhjwJEJQH1mTn7aP78nAd_NFL5Mh_UI6pN3sVAqLTSqL3YK1T1Lr_Z_-uaKz9QX_it_mr6vzSlB63jytVppoJn85GzBOPUSBlYxtXqCC9T2IRvoDNgZe0_OBsvmr2UsBIdtT29gr2V7oD-zH6hgnVJtYZ9V70qd7bvgTXsNu",
          "width": 375
        }
      ],
      "place_id": "ChIJOd_e7mlXwokRpiaAopi2vn8",
      "plus_code": {
        "compound_code": "PXW3+3C \u7f8e\u570b\u65b0\u6fa4\u897f\u6fa4\u897f\u5e02",
        "global_code": "87G7PXW3+3C"
      },
      "rating": 5,
      "reference": "ChIJOd_e7mlXwokRpiaAopi2vn8",
      "scope": "GOOGLE",
      "types": [
        "synagogue",
        "place_of_worship",
        "point_of_interest",
        "establishment"
      ],
      "user_ratings_total": 3,
      "vicinity": "128 Sherman Avenue, Jersey City"
    },
    {
      "business_status": "OPERATIONAL",
      "geometry": {
        "location": {
          "lat": 40.74640099999999,
          "lng": -74.04309599999999
        },
        "viewport": {
          "northeast": {
            "lat": 40.74770478029149,
            "lng": -74.04161311970849
          },
          "southwest": {
            "lat": 40.74500681970849,
            "lng": -74.0443110802915
          }
        }
      },
      "icon": "https://maps.gstatic.com/mapfiles/place_api/icons/v1/png_71/generic_business-71.png",
      "icon_background_color": "#7B9EB0",
      "icon_mask_base_uri": "https://maps.gstatic.com/mapfiles/place_api/icons/v2/generic_pinlet",
      "name": "EnterpriseCC",
      "opening_hours": {
        "open_now": false
      },
      "photos": [
        {
          "height": 2269,
          "html_attributions": [
            "<a href=\"https://maps.google.com/maps/contrib/117333445944740150039\">EnterpriseCC</a>"
          ],
          "photo_reference": "AeJbb3d5RYDkKNGmC6lqJmOyTL29liaoNq6yh-Lf8fp2eOIs0HxWKzh4D9X6g9hDPTqO0S7CoeExfvcLtZnELSas06OVsIt_uYBf7CD3ff7mFwvz77G9EiP2Ei30acZlaud6wGdXGSieU_QQe0iWXe6WnL7YF3EVbsV7Yhs3QZPuKQJr1ARj",
          "width": 4032
        }
      ],
      "place_id": "ChIJQUsJ12NXwokREbrgZKFxFhM",
      "plus_code": {
        "compound_code": "PXW4+HQ \u7f8e\u570b\u65b0\u6fa4\u897f\u6fa4\u897f\u5e02",
        "global_code": "87G7PXW4+HQ"
      },
      "rating": 4.4,
      "reference": "ChIJQUsJ12NXwokREbrgZKFxFhM",
      "scope": "GOOGLE",
      "types": [
        "electronics_store",
        "home_goods_store",
        "store",
        "point_of_interest",
        "establishment"
      ],
      "user_ratings_total": 7,
      "vicinity": "521 Palisade Avenue, Jersey City"
    },
    {
      "business_status": "OPERATIONAL",
      "geometry": {
        "location": {
          "lat": 40.7452747,
          "lng": -74.04441349999999
        },
        "viewport": {
          "northeast": {
            "lat": 40.7466279302915,
            "lng": -74.0431171697085
          },
          "southwest": {
            "lat": 40.7439299697085,
            "lng": -74.0458151302915
          }
        }
      },
      "icon": "https://maps.gstatic.com/mapfiles/place_api/icons/v1/png_71/generic_business-71.png",
      "icon_background_color": "#7B9EB0",
      "icon_mask_base_uri": "https://maps.gstatic.com/mapfiles/place_api/icons/v2/generic_pinlet",
      "name": "Jetco Unlimited Exterior Building",
      "place_id": "ChIJY3c7SmhXwokRYC3YQ3ZJhGo",
      "plus_code": {
        "compound_code": "PXW4+46 \u7f8e\u570b\u65b0\u6fa4\u897f\u6fa4\u897f\u5e02",
        "global_code": "87G7PXW4+46"
      },
      "rating": 2,
      "reference": "ChIJY3c7SmhXwokRYC3YQ3ZJhGo",
      "scope": "GOOGLE",
      "types": [
        "general_contractor",
        "point_of_interest",
        "establishment"
      ],
      "user_ratings_total": 4,
      "vicinity": "268 New York Avenue, Jersey City"
    },
    {
      "business_status": "OPERATIONAL",
      "geometry": {
        "location": {
          "lat": 40.74461,
          "lng": -74.047652
        },
        "viewport": {
          "northeast": {
            "lat": 40.74601003029149,
            "lng": -74.0464394697085
          },
          "southwest": {
            "lat": 40.7433120697085,
            "lng": -74.04913743029151
          }
        }
      },
      "icon": "https://maps.gstatic.com/mapfiles/place_api/icons/v1/png_71/generic_business-71.png",
      "icon_background_color": "#7B9EB0",
      "icon_mask_base_uri": "https://maps.gstatic.com/mapfiles/place_api/icons/v2/generic_pinlet",
      "name": "Lil Johns Snow Plowing",
      "photos": [
        {
          "height": 416,
          "html_attributions": [
            "<a href=\"https://maps.google.com/maps/contrib/111988925754455834050\">AA/Lil Johns Snow Plowing</a>"
          ],
          "photo_reference": "AeJbb3fOzFr53pDS_e8ryqC8bAjNEN7Czzx1UbhpIhyyPEEpHUhXFrGtiVlDPl7wAqX2GsHzF_502Rz8bCaYGpQq-uy0CyQcQ82HePhi8RbaKgEtqM8RXtMFmllvkjfamgX6vOpbjBSlQOqfTvIWuvNvI-ccDQPqQC5pJ1h17yI4MLwzsK6-",
          "width": 738
        }
      ],
      "place_id": "ChIJd6LEAGpXwokRloNOolecKyE",
      "plus_code": {
        "compound_code": "PXV2+RW \u7f8e\u570b\u65b0\u6fa4\u897f\u6fa4\u897f\u5e02",
        "global_code": "87G7PXV2+RW"
      },
      "rating": 4.9,
      "reference": "ChIJd6LEAGpXwokRloNOolecKyE",
      "scope": "GOOGLE",
      "types": [
        "point_of_interest",
        "establishment"
      ],
      "user_ratings_total": 30,
      "vicinity": "62 Hancock Avenue #2218, Jersey City"
    },
    {
      "business_status": "CLOSED_TEMPORARILY",
      "geometry": {
        "location": {
          "lat": 40.7425247,
          "lng": -74.0439762
        },
        "viewport": {
          "northeast": {
            "lat": 40.74391213029149,
            "lng": -74.04273056970851
          },
          "southwest": {
            "lat": 40.7412141697085,
            "lng": -74.04542853029152
          }
        }
      },
      "icon": "https://maps.gstatic.com/mapfiles/place_api/icons/v1/png_71/generic_business-71.png",
      "icon_background_color": "#7B9EB0",
      "icon_mask_base_uri": "https://maps.gstatic.com/mapfiles/place_api/icons/v2/generic_pinlet",
      "name": "Sixsmith Mosaic",
      "permanently_closed": true,
      "place_id": "ChIJ9Q_b-EJXwokRxtf5bCWsckE",
      "plus_code": {
        "compound_code": "PXV4+2C \u7f8e\u570b\u65b0\u6fa4\u897f\u6fa4\u897f\u5e02",
        "global_code": "87G7PXV4+2C"
      },
      "reference": "ChIJ9Q_b-EJXwokRxtf5bCWsckE",
      "scope": "GOOGLE",
      "types": [
        "general_contractor",
        "home_goods_store",
        "store",
        "point_of_interest",
        "establishment"
      ],
      "vicinity": "252 Ogden Avenue, Jersey City"
    },
    {
      "business_status": "OPERATIONAL",
      "geometry": {
        "location": {
          "lat": 40.7423397,
          "lng": -74.0456068
        },
        "viewport": {
          "northeast": {
            "lat": 40.7436538302915,
            "lng": -74.04416261970849
          },
          "southwest": {
            "lat": 40.7409558697085,
            "lng": -74.04686058029151
          }
        }
      },
      "icon": "https://maps.gstatic.com/mapfiles/place_api/icons/v1/png_71/generic_business-71.png",
      "icon_background_color": "#7B9EB0",
      "icon_mask_base_uri": "https://maps.gstatic.com/mapfiles/place_api/icons/v2/generic_pinlet",
      "name": "AARC Garbage Removal",
      "opening_hours": {
        "open_now": false
      },
      "place_id": "ChIJUZqUT0JXwokRugK6mechw-U",
      "plus_code": {
        "compound_code": "PXR3+WQ \u7f8e\u570b\u65b0\u6fa4\u897f\u6fa4\u897f\u5e02",
        "global_code": "87G7PXR3+WQ"
      },
      "reference": "ChIJUZqUT0JXwokRugK6mechw-U",
      "scope": "GOOGLE",
      "types": [
        "point_of_interest",
        "establishment"
      ],
      "vicinity": "397 Palisade Avenue, Jersey City"
    },
    {
      "business_status": "OPERATIONAL",
      "geometry": {
        "location": {
          "lat": 40.742318,
          "lng": -74.046708
        },
        "viewport": {
          "northeast": {
            "lat": 40.74362278029149,
            "lng": -74.04523956970849
          },
          "southwest": {
            "lat": 40.7409248197085,
            "lng": -74.0479375302915
          }
        }
      },
      "icon": "https://maps.gstatic.com/mapfiles/place_api/icons/v1/png_71/generic_business-71.png",
      "icon_background_color": "#7B9EB0",
      "icon_mask_base_uri": "https://maps.gstatic.com/mapfiles/place_api/icons/v2/generic_pinlet",
      "name": "Calabria Builders Inc",
      "place_id": "ChIJue3GNkJXwokRZZ262HyDXFY",
      "plus_code": {
        "compound_code": "PXR3+W8 \u7f8e\u570b\u65b0\u6fa4\u897f\u6fa4\u897f\u5e02",
        "global_code": "87G7PXR3+W8"
      },
      "reference": "ChIJue3GNkJXwokRZZ262HyDXFY",
      "scope": "GOOGLE",
      "types": [
        "general_contractor",
        "point_of_interest",
        "establishment"
      ],
      "vicinity": "177 New York Avenue, Jersey City"
    },
    {
      "business_status": "OPERATIONAL",
      "geometry": {
        "location": {
          "lat": 40.7460666,
          "lng": -74.04455519999999
        },
        "viewport": {
          "northeast": {
            "lat": 40.7473870802915,
            "lng": -74.04324236970848
          },
          "southwest": {
            "lat": 40.7446891197085,
            "lng": -74.0459403302915
          }
        }
      },
      "icon": "https://maps.gstatic.com/mapfiles/place_api/icons/v1/png_71/restaurant-71.png",
      "icon_background_color": "#FF9E67",
      "icon_mask_base_uri": "https://maps.gstatic.com/mapfiles/place_api/icons/v2/restaurant_pinlet",
      "name": "Dark Side Of The Moo",
      "opening_hours": {
        "open_now": true
      },
      "photos": [
        {
          "height": 810,
          "html_attributions": [
            "<a href=\"https://maps.google.com/maps/contrib/100196187994580356573\">Dark Side Of The Moo</a>"
          ],
          "photo_reference": "AeJbb3c31FgZVR7sVKUSyj1Pvq3ND8MCr2mcOmjtKotQ0WhcGV_0si_wn2xYemMn3Z3ISdFPCrMfjtK6-yxgjrkUMhDXgKAimV9YpqFHrke22ykTZcab02rIfIBdRbarl8Umczp_yigIHKAcBAViAYmzjkpfQYLPtPC5RVZd9LlazSEnuTqv",
          "width": 1440
        }
      ],
      "place_id": "ChIJffnUi2FXwokR_ahl_agZbBM",
      "plus_code": {
        "compound_code": "PXW4+C5 \u7f8e\u570b\u65b0\u6fa4\u897f\u6fa4\u897f\u5e02",
        "global_code": "87G7PXW4+C5"
      },
      "price_level": 2,
      "rating": 4.5,
      "reference": "ChIJffnUi2FXwokR_ahl_agZbBM",
      "scope": "GOOGLE",
      "types": [
        "restaurant",
        "food",
        "point_of_interest",
        "establishment"
      ],
      "user_ratings_total": 414,
      "vicinity": "52 Bowers Street, Jersey City"
    },
    {
      "business_status": "OPERATIONAL",
      "geometry": {
        "location": {
          "lat": 40.7443187,
          "lng": -74.0439909
        },
        "viewport": {
          "northeast": {
            "lat": 40.7456676802915,
            "lng": -74.04264191970849
          },
          "southwest": {
            "lat": 40.7429697197085,
            "lng": -74.0453398802915
          }
        }
      },
      "icon": "https://maps.gstatic.com/mapfiles/place_api/icons/v1/png_71/generic_business-71.png",
      "icon_background_color": "#7B9EB0",
      "icon_mask_base_uri": "https://maps.gstatic.com/mapfiles/place_api/icons/v2/generic_pinlet",
      "name": "Citi Bike: Riverview Park",
      "photos": [
        {
          "height": 3024,
          "html_attributions": [
            "<a href=\"https://maps.google.com/maps/contrib/104642081810171566885\">Pawel Kurnik</a>"
          ],
          "photo_reference": "AeJbb3ceYhnpdlufFwZMigv-y6HkgNdyujWsBme72pudbPhzrqflQWmCR4fkEKS8ikIGqwfOPMv6ECkddcp86MW5LHorvf_AOJnYQu96nzOzuqzHPogx6bYq5wX9H9ywlvRXqbjvUfaravhxvmJ8jX__jK9bCHmL3NVvnOYbXaffI3KdKFYO",
          "width": 4032
        }
      ],
      "place_id": "ChIJr7FQL2hXwokRmydFOZ0MnbY",
      "plus_code": {
        "compound_code": "PXV4+PC \u7f8e\u570b\u65b0\u6fa4\u897f\u6fa4\u897f\u5e02",
        "global_code": "87G7PXV4+PC"
      },
      "rating": 3,
      "reference": "ChIJr7FQL2hXwokRmydFOZ0MnbY",
      "scope": "GOOGLE",
      "types": [
        "point_of_interest",
        "establishment"
      ],
      "user_ratings_total": 1,
      "vicinity": "\u6fa4\u897f\u5e02"
    },
    {
      "business_status": "OPERATIONAL",
      "geometry": {
        "location": {
          "lat": 40.7450467,
          "lng": -74.0439494
        },
        "viewport": {
          "northeast": {
            "lat": 40.7463604302915,
            "lng": -74.0424659697085
          },
          "southwest": {
            "lat": 40.7436624697085,
            "lng": -74.04516393029151
          }
        }
      },
      "icon": "https://maps.gstatic.com/mapfiles/place_api/icons/v1/png_71/cafe-71.png",
      "icon_background_color": "#FF9E67",
      "icon_mask_base_uri": "https://maps.gstatic.com/mapfiles/place_api/icons/v2/cafe_pinlet",
      "name": "modcup coffee company",
      "opening_hours": {
        "open_now": true
      },
      "photos": [
        {
          "height": 1536,
          "html_attributions": [
            "<a href=\"https://maps.google.com/maps/contrib/117795483375896453127\">modcup coffee company</a>"
          ],
          "photo_reference": "AeJbb3fMHFH7QSRIUiiJeWv01KOIpsdQrg3eYxl9Ts-Qj3bT_FurSUWe24UpvJnWrLAj-MYELcvgnrsW7kOemWnPVjKymUfYbPk1mqqscOArhdTTTBl24ejXr1DHuRlbofLIKZJmJsjWnRRHRvtEw12-rn_EFotyDUo4ZXL9YaMTwn3l6bVY",
          "width": 2048
        }
      ],
      "place_id": "ChIJ2XvVOWhXwokRS8wp1F99Fkc",
      "plus_code": {
        "compound_code": "PXW4+2C \u7f8e\u570b\u65b0\u6fa4\u897f\u6fa4\u897f\u5e02",
        "global_code": "87G7PXW4+2C"
      },
      "price_level": 2,
      "rating": 4.7,
      "reference": "ChIJ2XvVOWhXwokRS8wp1F99Fkc",
      "scope": "GOOGLE",
      "types": [
        "cafe",
        "store",
        "food",
        "point_of_interest",
        "establishment"
      ],
      "user_ratings_total": 293,
      "vicinity": "479 Palisade Avenue, Jersey City"
    },
    {
      "business_status": "CLOSED_TEMPORARILY",
      "geometry": {
        "location": {
          "lat": 40.7433093,
          "lng": -74.0437077
        },
        "viewport": {
          "northeast": {
            "lat": 40.7446495302915,
            "lng": -74.0423346697085
          },
          "southwest": {
            "lat": 40.7419515697085,
            "lng": -74.04503263029152
          }
        }
      },
      "icon": "https://maps.gstatic.com/mapfiles/place_api/icons/v1/png_71/generic_business-71.png",
      "icon_background_color": "#7B9EB0",
      "icon_mask_base_uri": "https://maps.gstatic.com/mapfiles/place_api/icons/v2/generic_pinlet",
      "name": "Coaching with Kathleen",
      "permanently_closed": true,
      "place_id": "ChIJp0KekEJXwokR9BNUF4mtkcw",
      "plus_code": {
        "compound_code": "PXV4+8G \u7f8e\u570b\u65b0\u6fa4\u897f\u6fa4\u897f\u5e02",
        "global_code": "87G7PXV4+8G"
      },
      "reference": "ChIJp0KekEJXwokR9BNUF4mtkcw",
      "scope": "GOOGLE",
      "types": [
        "health",
        "point_of_interest",
        "establishment"
      ],
      "vicinity": "Ogden Avenue, Jersey City"
    },
    {
      "geometry": {
        "location": {
          "lat": 40.7439905,
          "lng": -74.0323626
        },
        "viewport": {
          "northeast": {
            "lat": 40.75909893238509,
            "lng": -74.01378407702452
          },
          "southwest": {
            "lat": 40.73032092563522,
            "lng": -74.04411696425521
          }
        }
      },
      "icon": "https://maps.gstatic.com/mapfiles/place_api/icons/v1/png_71/geocode-71.png",
      "icon_background_color": "#7B9EB0",
      "icon_mask_base_uri": "https://maps.gstatic.com/mapfiles/place_api/icons/v2/generic_pinlet",
      "name": "\u970d\u535a\u80af",
      "photos": [
        {
          "height": 3472,
          "html_attributions": [
            "<a href=\"https://maps.google.com/maps/contrib/104999743698063776611\">Peacock</a>"
          ],
          "photo_reference": "AeJbb3ftJ-CPkniUjLi9rTk8cuJ3QJkOZLsIpPqlUYLQ1blPw1mxumt87HLdJQO72mt2Y7oW25DwmtlYtg0EPr-r29IeRY4B1RlfeDekZQC60-M73FkxxlMJ22o1mPSwqY403Y4m8gJrPRU7TMtOtO-4zVSgFO7SjNVYHRdICTuENMUfuO3F",
          "width": 4640
        }
      ],
      "place_id": "ChIJ0TMVjWBXwokRh783EWrKtkQ",
      "reference": "ChIJ0TMVjWBXwokRh783EWrKtkQ",
      "scope": "GOOGLE",
      "types": [
        "locality",
        "political"
      ],
      "vicinity": "\u970d\u535a\u80af"
    },
    {
      "business_status": "OPERATIONAL",
      "geometry": {
        "location": {
          "lat": 40.7453185,
          "lng": -74.0438053
        },
        "viewport": {
          "northeast": {
            "lat": 40.7466091302915,
            "lng": -74.04232216970848
          },
          "southwest": {
            "lat": 40.7439111697085,
            "lng": -74.0450201302915
          }
        }
      },
      "icon": "https://maps.gstatic.com/mapfiles/place_api/icons/v1/png_71/shopping-71.png",
      "icon_background_color": "#4B96F3",
      "icon_mask_base_uri": "https://maps.gstatic.com/mapfiles/place_api/icons/v2/shopping_pinlet",
      "name": "The Lucky Honeybee Goods + Gifts",
      "opening_hours": {
        "open_now": true
      },
      "photos": [
        {
          "height": 4032,
          "html_attributions": [
            "<a href=\"https://maps.google.com/maps/contrib/104635840534298014803\">Logan Porter</a>"
          ],
          "photo_reference": "AeJbb3fbTTkx-TkpV8D6xQ11m2hQ1dMmiraGz_unDDNbV4cvPmenqud_xacxDWwdHauxis9BO9K9sLUmnzB1jaAQjv4pe-Q1en5kN1PE-DjBErj3fDnxwciq0oCWK1E0CZbl0Y2Q69-l1qQNxE4qj7p-mw2_hBCJ9bHnCZ29dpDmlFQDEtTN",
          "width": 3024
        }
      ],
      "place_id": "ChIJvV3doThXwokRJRykAxM_TLk",
      "plus_code": {
        "compound_code": "PXW4+4F Jersey City, NJ, USA",
        "global_code": "87G7PXW4+4F"
      },
      "rating": 5,
      "reference": "ChIJvV3doThXwokRJRykAxM_TLk",
      "scope": "GOOGLE",
      "types": [
        "home_goods_store",
        "point_of_interest",
        "store",
        "establishment"
      ],
      "user_ratings_total": 11,
      "vicinity": "487 Palisade Ave lower level, 487 Palisade Avenue, Jersey City"
    },
    {
      "business_status": "OPERATIONAL",
      "geometry": {
        "location": {
          "lat": 40.7455228,
          "lng": -74.0445936
        },
        "viewport": {
          "northeast": {
            "lat": 40.74683923029149,
            "lng": -74.0431553697085
          },
          "southwest": {
            "lat": 40.74414126970849,
            "lng": -74.04585333029151
          }
        }
      },
      "icon": "https://maps.gstatic.com/mapfiles/place_api/icons/v1/png_71/generic_business-71.png",
      "icon_background_color": "#7B9EB0",
      "icon_mask_base_uri": "https://maps.gstatic.com/mapfiles/place_api/icons/v2/generic_pinlet",
      "name": "Hartz Studio",
      "opening_hours": {
        "open_now": true
      },
      "photos": [
        {
          "height": 4717,
          "html_attributions": [
            "<a href=\"https://maps.google.com/maps/contrib/117252365636175855945\">Hartz Studio</a>"
          ],
          "photo_reference": "AeJbb3f9uPwgyayc7xxJolfNPBOo4OlqBVxBgX-3ggu5axlHNrn22yYQ_ypqj2aL6zTKnzlEmQSO1m9HImQa9AstAu8KqPsesCMY42WLP4ZYTA76u0KaPr0zzZ7cqm_eHwv469xWRoZfJsS4N26PhIuNJVeNz119pZjGBw-CAUNmEAleAuXp",
          "width": 6291
        }
      ],
      "place_id": "ChIJo06KGdXrw4kRJg6YdvRM6Zs",
      "plus_code": {
        "compound_code": "PXW4+65 Jersey City, NJ, USA",
        "global_code": "87G7PXW4+65"
      },
      "rating": 5,
      "reference": "ChIJo06KGdXrw4kRJg6YdvRM6Zs",
      "scope": "GOOGLE",
      "types": [
        "point_of_interest",
        "establishment"
      ],
      "user_ratings_total": 7,
      "vicinity": "273 New York Avenue, Jersey City"
    },
    {
      "business_status": "OPERATIONAL",
      "geometry": {
        "location": {
          "lat": 40.7456688,
          "lng": -74.0430466
        },
        "viewport": {
          "northeast": {
            "lat": 40.7470177802915,
            "lng": -74.04177561970849
          },
          "southwest": {
            "lat": 40.7443198197085,
            "lng": -74.04447358029151
          }
        }
      },
      "icon": "https://maps.gstatic.com/mapfiles/place_api/icons/v1/png_71/generic_business-71.png",
      "icon_background_color": "#7B9EB0",
      "icon_mask_base_uri": "https://maps.gstatic.com/mapfiles/place_api/icons/v2/generic_pinlet",
      "name": "SHREEMON",
      "opening_hours": {
        "open_now": false
      },
      "photos": [
        {
          "height": 1024,
          "html_attributions": [
            "<a href=\"https://maps.google.com/maps/contrib/108439148668430602837\">SHREEMON</a>"
          ],
          "photo_reference": "AeJbb3duWDigllU1htIKSNplSYe4HbpNIteThnVv5syXREXxXhSRUzc53E5VfgmQuDdqSn9vxjyb5BHL-bp8-sm9_fB_L_GQEBueE3cQgqPddR1-l9av8QPMzjsjIS24R-EUrx1tJu9uJM9vkw1m1fl9dgoIFv5FKC25x4VkJy2Bpn4N96vW",
          "width": 768
        }
      ],
      "place_id": "ChIJdRoD2sNQwokR8CUWTwwWg9k",
      "plus_code": {
        "compound_code": "PXW4+7Q Jersey City, NJ, USA",
        "global_code": "87G7PXW4+7Q"
      },
      "rating": 4.9,
      "reference": "ChIJdRoD2sNQwokR8CUWTwwWg9k",
      "scope": "GOOGLE",
      "types": [
        "point_of_interest",
        "establishment"
      ],
      "user_ratings_total": 9,
      "vicinity": "502 Palisade Avenue Ste 206, Jersey City"
    },
    {
      "business_status": "OPERATIONAL",
      "geometry": {
        "location": {
          "lat": 40.7452987,
          "lng": -74.0422564
        },
        "viewport": {
          "northeast": {
            "lat": 40.7466761802915,
            "lng": -74.0409852697085
          },
          "southwest": {
            "lat": 40.7439782197085,
            "lng": -74.0436832302915
          }
        }
      },
      "icon": "https://maps.gstatic.com/mapfiles/place_api/icons/v1/png_71/generic_business-71.png",
      "icon_background_color": "#7B9EB0",
      "icon_mask_base_uri": "https://maps.gstatic.com/mapfiles/place_api/icons/v2/generic_pinlet",
      "name": "Crazy Nation Films",
      "opening_hours": {
        "open_now": true
      },
      "place_id": "ChIJk7MMGWhXwokR2gzRJ5gFCDM",
      "plus_code": {
        "compound_code": "PXW5+43 Jersey City, NJ, USA",
        "global_code": "87G7PXW5+43"
      },
      "reference": "ChIJk7MMGWhXwokR2gzRJ5gFCDM",
      "scope": "GOOGLE",
      "types": [
        "point_of_interest",
        "establishment"
      ],
      "vicinity": "334 Ogden Avenue, Jersey City"
    },
    {
      "business_status": "OPERATIONAL",
      "geometry": {
        "location": {
          "lat": 40.7437929,
          "lng": -74.0461669
        },
        "viewport": {
          "northeast": {
            "lat": 40.7451881302915,
            "lng": -74.04494171970849
          },
          "southwest": {
            "lat": 40.7424901697085,
            "lng": -74.0476396802915
          }
        }
      },
      "icon": "https://maps.gstatic.com/mapfiles/place_api/icons/v1/png_71/generic_business-71.png",
      "icon_background_color": "#7B9EB0",
      "icon_mask_base_uri": "https://maps.gstatic.com/mapfiles/place_api/icons/v2/generic_pinlet",
      "name": "Shadiyah Ironwork",
      "place_id": "ChIJITHTckJXwokRtu1styOSOx4",
      "plus_code": {
        "compound_code": "PXV3+GG Jersey City, NJ, USA",
        "global_code": "87G7PXV3+GG"
      },
      "reference": "ChIJITHTckJXwokRtu1styOSOx4",
      "scope": "GOOGLE",
      "types": [
        "point_of_interest",
        "establishment"
      ],
      "vicinity": "158 Webster Avenue, Jersey City"
    },
    {
      "business_status": "OPERATIONAL",
      "geometry": {
        "location": {
          "lat": 40.7428355,
          "lng": -74.04527519999999
        },
        "viewport": {
          "northeast": {
            "lat": 40.7441546802915,
            "lng": -74.0438340197085
          },
          "southwest": {
            "lat": 40.7414567197085,
            "lng": -74.0465319802915
          }
        }
      },
      "icon": "https://maps.gstatic.com/mapfiles/place_api/icons/v1/png_71/generic_business-71.png",
      "icon_background_color": "#7B9EB0",
      "icon_mask_base_uri": "https://maps.gstatic.com/mapfiles/place_api/icons/v2/generic_pinlet",
      "name": "State Senator Brian P. Stack",
      "photos": [
        {
          "height": 3024,
          "html_attributions": [
            "<a href=\"https://maps.google.com/maps/contrib/103417144664466599234\">Ed Wiegner</a>"
          ],
          "photo_reference": "AeJbb3fO6zZaEC00V59fLt1I7s8Pa51drGlfjxpEjajOi86ELCqz4ERjKmYZH0Qo8VrtjxRq7G3dbW93RPq-jLp3xOFjOFDuIM5NYxgc7w7ixXXiWvA6QNqCDKeXEqEj308gTdnTBdfK7xealYxKmBVxo24RWL5semyqNXHkZzst49yxp0js",
          "width": 4032
        }
      ],
      "place_id": "ChIJWU8_XUJXwokRImclpYKElPA",
      "plus_code": {
        "compound_code": "PXV3+4V Jersey City, NJ, USA",
        "global_code": "87G7PXV3+4V"
      },
      "rating": 4.1,
      "reference": "ChIJWU8_XUJXwokRImclpYKElPA",
      "scope": "GOOGLE",
      "types": [
        "point_of_interest",
        "establishment"
      ],
      "user_ratings_total": 11,
      "vicinity": "411 Palisade Avenue, Jersey City"
    },
    {
      "business_status": "OPERATIONAL",
      "geometry": {
        "location": {
          "lat": 40.7458134,
          "lng": -74.046352
        },
        "viewport": {
          "northeast": {
            "lat": 40.7471377302915,
            "lng": -74.04493901970848
          },
          "southwest": {
            "lat": 40.7444397697085,
            "lng": -74.0476369802915
          }
        }
      },
      "icon": "https://maps.gstatic.com/mapfiles/place_api/icons/v1/png_71/generic_business-71.png",
      "icon_background_color": "#7B9EB0",
      "icon_mask_base_uri": "https://maps.gstatic.com/mapfiles/place_api/icons/v2/generic_pinlet",
      "name": "KPMedia Photography Incorporated",
      "opening_hours": {
        "open_now": true
      },
      "photos": [
        {
          "height": 1533,
          "html_attributions": [
            "<a href=\"https://maps.google.com/maps/contrib/115273750379660387947\">KPMedia Photography Incorporated</a>"
          ],
          "photo_reference": "AeJbb3eeNIciZELhMPPcXwDPqXXfREx0nBSoPxYqfCkdFvfFd9iHb-nFcGxACYCekRRze__784ZJDKwkbav7kVNLp7KBL1_CRipnb4AflQaxylFeG8vapAbYMO7sMGsgnvxzqi_BV_0wCXrs5xZt41Lr_t0Ko2ktkfv-8IB8RFwzufCyn7tz",
          "width": 2048
        }
      ],
      "place_id": "ChIJc1XNlWlXwokReLpKXnQZxKM",
      "plus_code": {
        "compound_code": "PXW3+8F Jersey City, NJ, USA",
        "global_code": "87G7PXW3+8F"
      },
      "reference": "ChIJc1XNlWlXwokReLpKXnQZxKM",
      "scope": "GOOGLE",
      "types": [
        "point_of_interest",
        "establishment"
      ],
      "vicinity": "145 Sherman Avenue, Jersey City"
    },
    {
      "business_status": "CLOSED_TEMPORARILY",
      "geometry": {
        "location": {
          "lat": 40.7413508,
          "lng": -74.04352779999999
        },
        "viewport": {
          "northeast": {
            "lat": 40.74261853029149,
            "lng": -74.04210181970849
          },
          "southwest": {
            "lat": 40.7399205697085,
            "lng": -74.0447997802915
          }
        }
      },
      "icon": "https://maps.gstatic.com/mapfiles/place_api/icons/v1/png_71/generic_business-71.png",
      "icon_background_color": "#7B9EB0",
      "icon_mask_base_uri": "https://maps.gstatic.com/mapfiles/place_api/icons/v2/generic_pinlet",
      "name": "Denby Design",
      "permanently_closed": true,
      "place_id": "ChIJWeAvH0NXwokReY_BngQn3iU",
      "plus_code": {
        "compound_code": "PXR4+GH Jersey City, NJ, USA",
        "global_code": "87G7PXR4+GH"
      },
      "reference": "ChIJWeAvH0NXwokReY_BngQn3iU",
      "scope": "GOOGLE",
      "types": [
        "point_of_interest",
        "establishment"
      ],
      "vicinity": "100 Paterson Plank Road #506, Jersey City"
    },
    {
      "business_status": "CLOSED_TEMPORARILY",
      "geometry": {
        "location": {
          "lat": 40.7456572,
          "lng": -74.0460479
        },
        "viewport": {
          "northeast": {
            "lat": 40.7470426302915,
            "lng": -74.04479786970849
          },
          "southwest": {
            "lat": 40.7443446697085,
            "lng": -74.0474958302915
          }
        }
      },
      "icon": "https://maps.gstatic.com/mapfiles/place_api/icons/v1/png_71/generic_business-71.png",
      "icon_background_color": "#7B9EB0",
      "icon_mask_base_uri": "https://maps.gstatic.com/mapfiles/place_api/icons/v2/generic_pinlet",
      "name": "Luminate Social",
      "permanently_closed": true,
      "place_id": "ChIJf8hMvmlXwokREixs5lYqo2g",
      "plus_code": {
        "compound_code": "PXW3+7H Jersey City, NJ, USA",
        "global_code": "87G7PXW3+7H"
      },
      "reference": "ChIJf8hMvmlXwokREixs5lYqo2g",
      "scope": "GOOGLE",
      "types": [
        "point_of_interest",
        "establishment"
      ],
      "vicinity": "146 Sherman Avenue, Jersey City"
    },
    {
      "business_status": "CLOSED_TEMPORARILY",
      "geometry": {
        "location": {
          "lat": 40.74638099999999,
          "lng": -74.0441129
        },
        "viewport": {
          "northeast": {
            "lat": 40.7476880302915,
            "lng": -74.0426486697085
          },
          "southwest": {
            "lat": 40.7449900697085,
            "lng": -74.0453466302915
          }
        }
      },
      "icon": "https://maps.gstatic.com/mapfiles/place_api/icons/v1/png_71/generic_business-71.png",
      "icon_background_color": "#7B9EB0",
      "icon_mask_base_uri": "https://maps.gstatic.com/mapfiles/place_api/icons/v2/generic_pinlet",
      "name": "JoLoCity, LLC",
      "permanently_closed": true,
      "place_id": "ChIJ48i3V2hXwokRlomlt_YKFFc",
      "plus_code": {
        "compound_code": "PXW4+H9 Jersey City, NJ, USA",
        "global_code": "87G7PXW4+H9"
      },
      "reference": "ChIJ48i3V2hXwokRlomlt_YKFFc",
      "scope": "GOOGLE",
      "types": [
        "point_of_interest",
        "establishment"
      ],
      "vicinity": "297 New York Avenue, Jersey City"
    },
    {
      "business_status": "OPERATIONAL",
      "geometry": {
        "location": {
          "lat": 40.74256330000001,
          "lng": -74.0456743
        },
        "viewport": {
          "northeast": {
            "lat": 40.7438459802915,
            "lng": -74.0441450697085
          },
          "southwest": {
            "lat": 40.7411480197085,
            "lng": -74.04684303029151
          }
        }
      },
      "icon": "https://maps.gstatic.com/mapfiles/place_api/icons/v1/png_71/generic_business-71.png",
      "icon_background_color": "#7B9EB0",
      "icon_mask_base_uri": "https://maps.gstatic.com/mapfiles/place_api/icons/v2/generic_pinlet",
      "name": "Erin Kumpf Acupuncture & Herbs, LLC",
      "opening_hours": {
        "open_now": true
      },
      "photos": [
        {
          "height": 1365,
          "html_attributions": [
            "<a href=\"https://maps.google.com/maps/contrib/111850426641694868208\">Erin Kumpf Acupuncture &amp; Herbs, LLC</a>"
          ],
          "photo_reference": "AeJbb3em0zQZmKqD1yNUWU42JJu86GPHXYGtiXdcbEALIy2hWu3aT-Y7gDUjsEvJ0GP5C2TT0Lh1dhYS0KrCOu6v01BzwlGrQvBtgGLmneGmdd-bBvC7_rrg21as6x74JxuqZbzo0O4U2MtUAJG-ZXYlcge42nKmQIRIV7Hg5qR1rm4JA8Yg",
          "width": 2048
        }
      ],
      "place_id": "ChIJ3eHJaWpXwokR1fbKRaXWkF4",
      "plus_code": {
        "compound_code": "PXV3+2P Jersey City, NJ, USA",
        "global_code": "87G7PXV3+2P"
      },
      "rating": 5,
      "reference": "ChIJ3eHJaWpXwokR1fbKRaXWkF4",
      "scope": "GOOGLE",
      "types": [
        "health",
        "point_of_interest",
        "establishment"
      ],
      "user_ratings_total": 63,
      "vicinity": "7 Hutton Street, Jersey City"
    },
    {
      "business_status": "OPERATIONAL",
      "geometry": {
        "location": {
          "lat": 40.74214569999999,
          "lng": -74.04368339999999
        },
        "viewport": {
          "northeast": {
            "lat": 40.7435881302915,
            "lng": -74.0422346197085
          },
          "southwest": {
            "lat": 40.7408901697085,
            "lng": -74.0449325802915
          }
        }
      },
      "icon": "https://maps.gstatic.com/mapfiles/place_api/icons/v1/png_71/generic_business-71.png",
      "icon_background_color": "#7B9EB0",
      "icon_mask_base_uri": "https://maps.gstatic.com/mapfiles/place_api/icons/v2/generic_pinlet",
      "name": "Aaron Epstein Law, LLC",
      "opening_hours": {
        "open_now": false
      },
      "photos": [
        {
          "height": 740,
          "html_attributions": [
            "<a href=\"https://maps.google.com/maps/contrib/109876567752579017825\">Aaron Epstein Law, LLC</a>"
          ],
          "photo_reference": "AeJbb3cGINpIptNkDhks53xaZsNns2UNLhrI3bHJNuCRGU8zCn_3RtkglH3TRNK_9zjlzmEh3FkSjbSljR5lU4eCym3F_f5n7TdIrOSJMlhBFQ2ypGrIAstZSVYMtTKSVawuONq_4Mx6bXb-RhjBZHL_24-ZjfraFrjmIYk5gvHg_C4jy5vj",
          "width": 1486
        }
      ],
      "place_id": "ChIJiV1Q6UJXwokRXUySAuim4xs",
      "plus_code": {
        "compound_code": "PXR4+VG Jersey City, NJ, USA",
        "global_code": "87G7PXR4+VG"
      },
      "reference": "ChIJiV1Q6UJXwokRXUySAuim4xs",
      "scope": "GOOGLE",
      "types": [
        "lawyer",
        "point_of_interest",
        "establishment"
      ],
      "vicinity": "127 Mountain Road #2, Jersey City"
    },
    {
      "business_status": "CLOSED_TEMPORARILY",
      "geometry": {
        "location": {
          "lat": 40.742816,
          "lng": -74.0463834
        },
        "viewport": {
          "northeast": {
            "lat": 40.74422698029149,
            "lng": -74.0449954697085
          },
          "southwest": {
            "lat": 40.7415290197085,
            "lng": -74.0476934302915
          }
        }
      },
      "icon": "https://maps.gstatic.com/mapfiles/place_api/icons/v1/png_71/generic_business-71.png",
      "icon_background_color": "#7B9EB0",
      "icon_mask_base_uri": "https://maps.gstatic.com/mapfiles/place_api/icons/v2/generic_pinlet",
      "name": "Towhee Co.",
      "permanently_closed": true,
      "place_id": "ChIJ30zaPkJXwokR5HSs_pUFJmk",
      "plus_code": {
        "compound_code": "PXV3+4C Jersey City, NJ, USA",
        "global_code": "87G7PXV3+4C"
      },
      "reference": "ChIJ30zaPkJXwokR5HSs_pUFJmk",
      "scope": "GOOGLE",
      "types": [
        "point_of_interest",
        "establishment"
      ],
      "vicinity": "888 Newark Avenue #224, Jersey City"
    },
    {
      "business_status": "OPERATIONAL",
      "geometry": {
        "location": {
          "lat": 40.7434896,
          "lng": -74.04102619999999
        },
        "viewport": {
          "northeast": {
            "lat": 40.7447394802915,
            "lng": -74.03971251970849
          },
          "southwest": {
            "lat": 40.7420415197085,
            "lng": -74.04241048029151
          }
        }
      },
      "icon": "https://maps.gstatic.com/mapfiles/place_api/icons/v1/png_71/civic_building-71.png",
      "icon_background_color": "#7B9EB0",
      "icon_mask_base_uri": "https://maps.gstatic.com/mapfiles/place_api/icons/v2/civic-bldg_pinlet",
      "name": "Hoboken Housing Authority Central Office",
      "place_id": "ChIJJ0aBWV1XwokRU3Ydyu-5oc8",
      "plus_code": {
        "compound_code": "PXV5+9H Hoboken, NJ, USA",
        "global_code": "87G7PXV5+9H"
      },
      "reference": "ChIJJ0aBWV1XwokRU3Ydyu-5oc8",
      "scope": "GOOGLE",
      "types": [
        "point_of_interest",
        "establishment"
      ],
      "vicinity": "400 Harrison Street, Hoboken"
    },
    {
      "business_status": "CLOSED_TEMPORARILY",
      "geometry": {
        "location": {
          "lat": 40.746952,
          "lng": -74.043768
        },
        "viewport": {
          "northeast": {
            "lat": 40.7482565302915,
            "lng": -74.0422968197085
          },
          "southwest": {
            "lat": 40.7455585697085,
            "lng": -74.04499478029152
          }
        }
      },
      "icon": "https://maps.gstatic.com/mapfiles/place_api/icons/v1/png_71/generic_business-71.png",
      "icon_background_color": "#7B9EB0",
      "icon_mask_base_uri": "https://maps.gstatic.com/mapfiles/place_api/icons/v2/generic_pinlet",
      "name": "Sentinela",
      "permanently_closed": true,
      "place_id": "ChIJY4W18WhXwokRFyiIolRQ4Z4",
      "plus_code": {
        "compound_code": "PXW4+QF Jersey City, NJ, USA",
        "global_code": "87G7PXW4+QF"
      },
      "rating": 5,
      "reference": "ChIJY4W18WhXwokRFyiIolRQ4Z4",
      "scope": "GOOGLE",
      "types": [
        "point_of_interest",
        "establishment"
      ],
      "user_ratings_total": 1,
      "vicinity": "315 New York Avenue, Jersey City"
    },
    {
      "business_status": "CLOSED_TEMPORARILY",
      "geometry": {
        "location": {
          "lat": 40.7473958,
          "lng": -74.0429332
        },
        "viewport": {
          "northeast": {
            "lat": 40.74878143029149,
            "lng": -74.0416861197085
          },
          "southwest": {
            "lat": 40.74608346970849,
            "lng": -74.04438408029151
          }
        }
      },
      "icon": "https://maps.gstatic.com/mapfiles/place_api/icons/v1/png_71/generic_business-71.png",
      "icon_background_color": "#7B9EB0",
      "icon_mask_base_uri": "https://maps.gstatic.com/mapfiles/place_api/icons/v2/generic_pinlet",
      "name": "Fit Esteem, LLC",
      "permanently_closed": true,
      "photos": [
        {
          "height": 480,
          "html_attributions": [
            "<a href=\"https://maps.google.com/maps/contrib/118426428971085648565\">Sandra Pavon</a>"
          ],
          "photo_reference": "AeJbb3etXoc32p9QWk_rHQZg3c6vZQczdc2gOBHtCiS3gppvHR_W9yHWqnsARFnkNumT6IDMbTyWR9WCtqSCdCJs2e8HDV9jZLlcBBgr8ZLxpg9kCA-qTXAyv1PjzO0KFQ6GWM_thXpLhTwTu4fBskS7xW9Eo_bWtuzET1IyJGgTfmSCaWip",
          "width": 640
        }
      ],
      "place_id": "ChIJeSktvmhXwokRFYhr_G2DE2Y",
      "plus_code": {
        "compound_code": "PXW4+XR Jersey City, NJ, USA",
        "global_code": "87G7PXW4+XR"
      },
      "reference": "ChIJeSktvmhXwokRFYhr_G2DE2Y",
      "scope": "GOOGLE",
      "types": [
        "health",
        "point_of_interest",
        "establishment"
      ],
      "vicinity": "336 New York Avenue, Jersey City"
    },
    {
      "business_status": "CLOSED_TEMPORARILY",
      "geometry": {
        "location": {
          "lat": 40.7422892,
          "lng": -74.0410505
        },
        "viewport": {
          "northeast": {
            "lat": 40.7436362802915,
            "lng": -74.0396911197085
          },
          "southwest": {
            "lat": 40.7409383197085,
            "lng": -74.0423890802915
          }
        }
      },
      "icon": "https://maps.gstatic.com/mapfiles/place_api/icons/v1/png_71/generic_business-71.png",
      "icon_background_color": "#7B9EB0",
      "icon_mask_base_uri": "https://maps.gstatic.com/mapfiles/place_api/icons/v2/generic_pinlet",
      "name": "code-it.tech",
      "permanently_closed": true,
      "place_id": "ChIJO8D6N11XwokRf1AwHEYxgP4",
      "plus_code": {
        "compound_code": "PXR5+WH Hoboken, NJ, USA",
        "global_code": "87G7PXR5+WH"
      },
      "rating": 5,
      "reference": "ChIJO8D6N11XwokRf1AwHEYxgP4",
      "scope": "GOOGLE",
      "types": [
        "point_of_interest",
        "establishment"
      ],
      "user_ratings_total": 1,
      "vicinity": "311 Harrison Street, Hoboken"
    },
    {
      "business_status": "OPERATIONAL",
      "geometry": {
        "location": {
          "lat": 40.7452147,
          "lng": -74.0396751
        },
        "viewport": {
          "northeast": {
            "lat": 40.7466258302915,
            "lng": -74.0383069697085
          },
          "southwest": {
            "lat": 40.7439278697085,
            "lng": -74.0410049302915
          }
        }
      },
      "icon": "https://maps.gstatic.com/mapfiles/place_api/icons/v1/png_71/generic_business-71.png",
      "icon_background_color": "#7B9EB0",
      "icon_mask_base_uri": "https://maps.gstatic.com/mapfiles/place_api/icons/v2/generic_pinlet",
      "name": "HOPES CAP, Inc. Family Resource Center",
      "opening_hours": {
        "open_now": false
      },
      "photos": [
        {
          "height": 2048,
          "html_attributions": [
            "<a href=\"https://maps.google.com/maps/contrib/113466130636400469229\">HOPES CAP, Inc. Family Resource Center</a>"
          ],
          "photo_reference": "AeJbb3dPTa5Xr_22zXJPsjRmCTeJ4qwOmjH9F5jLhXi9kKMRQ-c7TSPMz0djgJPcPVJNll6FioDPkxfkKmEF575srYJGI1HZls79AI19343F4izWJzb0rnoPVkBqlC2Xka2yDsoxYlIafrnRn5gvdN5rTcUfud_ZDTWbkvazCRngND_sSq45",
          "width": 1365
        }
      ],
      "place_id": "ChIJ1x3LmWdXwokRTgCWk5mVmS8",
      "plus_code": {
        "compound_code": "PXW6+34 Hoboken, NJ, USA",
        "global_code": "87G7PXW6+34"
      },
      "rating": 4.4,
      "reference": "ChIJ1x3LmWdXwokRTgCWk5mVmS8",
      "scope": "GOOGLE",
      "types": [
        "point_of_interest",
        "establishment"
      ],
      "user_ratings_total": 14,
      "vicinity": "532 Jackson Street #1B, Hoboken"
    },
    {
      "business_status": "OPERATIONAL",
      "geometry": {
        "location": {
          "lat": 40.7455937,
          "lng": -74.0402197
        },
        "viewport": {
          "northeast": {
            "lat": 40.7470792302915,
            "lng": -74.0387690197085
          },
          "southwest": {
            "lat": 40.7443812697085,
            "lng": -74.0414669802915
          }
        }
      },
      "icon": "https://maps.gstatic.com/mapfiles/place_api/icons/v1/png_71/generic_business-71.png",
      "icon_background_color": "#7B9EB0",
      "icon_mask_base_uri": "https://maps.gstatic.com/mapfiles/place_api/icons/v2/generic_pinlet",
      "name": "600 Harrison Apartments",
      "opening_hours": {
        "open_now": true
      },
      "photos": [
        {
          "height": 3542,
          "html_attributions": [
            "<a href=\"https://maps.google.com/maps/contrib/116822522016528039569\">600 Harrison Apartments</a>"
          ],
          "photo_reference": "AeJbb3dEuEWFPJjxrv2LOzSv9Q8RhekeMNtvpmmXV3bsVlIt3wluEHxNL8vFzSY7Xjnesp37K23WsaGtq0myrrRbvoUyz4ZPWBnjebAvJQahjN_tXIECY69jfZeu1iweRIjPJnQTSR6sKLdDrCgy3uv9uykcFTSFxjNY2cbraQ7aNhJTeQp4",
          "width": 5001
        }
      ],
      "place_id": "ChIJ8wIquGdXwokRcyhfnTSF2oM",
      "plus_code": {
        "compound_code": "PXW5+6W Hoboken, NJ, USA",
        "global_code": "87G7PXW5+6W"
      },
      "rating": 2.6,
      "reference": "ChIJ8wIquGdXwokRcyhfnTSF2oM",
      "scope": "GOOGLE",
      "types": [
        "real_estate_agency",
        "point_of_interest",
        "establishment"
      ],
      "user_ratings_total": 15,
      "vicinity": "600 Harrison Street, Hoboken"
    },
    {
      "business_status": "OPERATIONAL",
      "geometry": {
        "location": {
          "lat": 40.7465182,
          "lng": -74.0474435
        },
        "viewport": {
          "northeast": {
            "lat": 40.7479135302915,
            "lng": -74.0462171697085
          },
          "southwest": {
            "lat": 40.7452155697085,
            "lng": -74.0489151302915
          }
        }
      },
      "icon": "https://maps.gstatic.com/mapfiles/place_api/icons/v1/png_71/generic_business-71.png",
      "icon_background_color": "#7B9EB0",
      "icon_mask_base_uri": "https://maps.gstatic.com/mapfiles/place_api/icons/v2/generic_pinlet",
      "name": "One Element",
      "opening_hours": {
        "open_now": false
      },
      "place_id": "ChIJgyPdKWpXwokR3VPR_LPP8oU",
      "plus_code": {
        "compound_code": "PXW3+J2 Jersey City, NJ, USA",
        "global_code": "87G7PXW3+J2"
      },
      "reference": "ChIJgyPdKWpXwokR3VPR_LPP8oU",
      "scope": "GOOGLE",
      "types": [
        "point_of_interest",
        "establishment"
      ],
      "vicinity": "110 Cambridge Avenue, Jersey City"
    },
    {
      "business_status": "OPERATIONAL",
      "geometry": {
        "location": {
          "lat": 40.746471,
          "lng": -74.04525699999999
        },
        "viewport": {
          "northeast": {
            "lat": 40.7477248302915,
            "lng": -74.04397151970849
          },
          "southwest": {
            "lat": 40.7450268697085,
            "lng": -74.0466694802915
          }
        }
      },
      "icon": "https://maps.gstatic.com/mapfiles/place_api/icons/v1/png_71/worship_general-71.png",
      "icon_background_color": "#7B9EB0",
      "icon_mask_base_uri": "https://maps.gstatic.com/mapfiles/place_api/icons/v2/worship_christian_pinlet",
      "name": "Jersey City Heights Spanish Seventh-day Adventist Church",
      "photos": [
        {
          "height": 1200,
          "html_attributions": [
            "<a href=\"https://maps.google.com/maps/contrib/108605778596958236375\">Igor Ostrovsky</a>"
          ],
          "photo_reference": "AeJbb3ed3pcasMPS2pvrso6zEUfcbeBrhevgxwqn_IY1NyM_ThjQbIRJHrEIwMtK0Ngw5IpY9j1F0MjZUoWPobra-m6EXa5pIg5N4NgkKgWgjgSINOqSjlaVmffzvo1sKGd9CcUkQ4wBoa63lrK_tUdR0wKL9yITI1SpCH2_v6nEBuhs0lh7",
          "width": 900
        }
      ],
      "place_id": "ChIJSepZr2lXwokRm2QsV6YBU2g",
      "plus_code": {
        "compound_code": "PXW3+HV Jersey City, NJ, USA",
        "global_code": "87G7PXW3+HV"
      },
      "rating": 4.6,
      "reference": "ChIJSepZr2lXwokRm2QsV6YBU2g",
      "scope": "GOOGLE",
      "types": [
        "church",
        "place_of_worship",
        "point_of_interest",
        "establishment"
      ],
      "user_ratings_total": 10,
      "vicinity": "66 Bowers Street, Jersey City"
    },
    {
      "business_status": "OPERATIONAL",
      "geometry": {
        "location": {
          "lat": 40.7469099,
          "lng": -74.0466788
        },
        "viewport": {
          "northeast": {
            "lat": 40.7481973802915,
            "lng": -74.0453671697085
          },
          "southwest": {
            "lat": 40.7454994197085,
            "lng": -74.0480651302915
          }
        }
      },
      "icon": "https://maps.gstatic.com/mapfiles/place_api/icons/v1/png_71/generic_business-71.png",
      "icon_background_color": "#7B9EB0",
      "icon_mask_base_uri": "https://maps.gstatic.com/mapfiles/place_api/icons/v2/generic_pinlet",
      "name": "Vijay Sammy CPA LLC",
      "opening_hours": {
        "open_now": false
      },
      "photos": [
        {
          "height": 2280,
          "html_attributions": [
            "<a href=\"https://maps.google.com/maps/contrib/100604823301470321458\">Vijay Sammy CPA LLC</a>"
          ],
          "photo_reference": "AeJbb3df4YExcDM9rzfbPvXlFBU_Qrt4rAnkAkYp8GKqrv4Yz_aSeaTcreMEGPuCBTgRzPX2-ZPk4hqprPBeC5jK5wF7k1wSW5DL0dc7q9HfyAiLNhzNncXiWLsmDILvsVgozbI17jXTdU4cDwG_hKwFogOzkgXl13-OQY4_qOiQL8JkcO18",
          "width": 1080
        }
      ],
      "place_id": "ChIJQTPBd2lXwokRvnSD_oTaUkM",
      "plus_code": {
        "compound_code": "PXW3+Q8 Jersey City, NJ, USA",
        "global_code": "87G7PXW3+Q8"
      },
      "rating": 4.4,
      "reference": "ChIJQTPBd2lXwokRvnSD_oTaUkM",
      "scope": "GOOGLE",
      "types": [
        "accounting",
        "finance",
        "point_of_interest",
        "establishment"
      ],
      "user_ratings_total": 13,
      "vicinity": "94 Bowers Street, Jersey City"
    },
    {
      "business_status": "OPERATIONAL",
      "geometry": {
        "location": {
          "lat": 40.7424663,
          "lng": -74.0398
        },
        "viewport": {
          "northeast": {
            "lat": 40.7438355302915,
            "lng": -74.0385732197085
          },
          "southwest": {
            "lat": 40.7411375697085,
            "lng": -74.04127118029152
          }
        }
      },
      "icon": "https://maps.gstatic.com/mapfiles/place_api/icons/v1/png_71/worship_general-71.png",
      "icon_background_color": "#7B9EB0",
      "icon_mask_base_uri": "https://maps.gstatic.com/mapfiles/place_api/icons/v2/worship_christian_pinlet",
      "name": "Church of God of Prophecy",
      "photos": [
        {
          "height": 2208,
          "html_attributions": [
            "<a href=\"https://maps.google.com/maps/contrib/100953464850471626067\">Alejandro Bautista</a>"
          ],
          "photo_reference": "AeJbb3ffLqwSxn0nGQTGv1cKYZ6Z76WtVKRt31gHvgykpMp5N0bjxb5367ML6NKRfx4iIuQRZxuybZ3MfuHSl0EnvVBDLrDlZadF9wlpfQbJsu1mmXLF-h3yeGFDmiV0DX7yoWp79wfi_O5j1RmDoMuW6b7qlZugOfVk-C4q0carrFsgw0e9",
          "width": 2944
        }
      ],
      "place_id": "ChIJbacsbF1XwokRxkECU4tLKVM",
      "plus_code": {
        "compound_code": "PXR6+X3 Hoboken, NJ, USA",
        "global_code": "87G7PXR6+X3"
      },
      "rating": 5,
      "reference": "ChIJbacsbF1XwokRxkECU4tLKVM",
      "scope": "GOOGLE",
      "types": [
        "church",
        "place_of_worship",
        "point_of_interest",
        "establishment"
      ],
      "user_ratings_total": 8,
      "vicinity": "319 Jackson Street, Hoboken"
    },
    {
      "business_status": "OPERATIONAL",
      "geometry": {
        "location": {
          "lat": 40.7465655,
          "lng": -74.0475483
        },
        "viewport": {
          "northeast": {
            "lat": 40.7479524302915,
            "lng": -74.04626751970848
          },
          "southwest": {
            "lat": 40.7452544697085,
            "lng": -74.0489654802915
          }
        }
      },
      "icon": "https://maps.gstatic.com/mapfiles/place_api/icons/v1/png_71/generic_business-71.png",
      "icon_background_color": "#7B9EB0",
      "icon_mask_base_uri": "https://maps.gstatic.com/mapfiles/place_api/icons/v2/generic_pinlet",
      "name": "Davis Law Group, LLC",
      "opening_hours": {
        "open_now": false
      },
      "place_id": "ChIJeVXihmlXwokR8k4F7YkcvH0",
      "plus_code": {
        "compound_code": "PXW2+JX Jersey City, NJ, USA",
        "global_code": "87G7PXW2+JX"
      },
      "rating": 4.7,
      "reference": "ChIJeVXihmlXwokR8k4F7YkcvH0",
      "scope": "GOOGLE",
      "types": [
        "point_of_interest",
        "establishment"
      ],
      "user_ratings_total": 3,
      "vicinity": "110 Cambridge Avenue, Jersey City"
    },
    {
      "business_status": "OPERATIONAL",
      "geometry": {
        "location": {
          "lat": 40.747635,
          "lng": -74.0456246
        },
        "viewport": {
          "northeast": {
            "lat": 40.7490480802915,
            "lng": -74.0444485197085
          },
          "southwest": {
            "lat": 40.7463501197085,
            "lng": -74.0471464802915
          }
        }
      },
      "icon": "https://maps.gstatic.com/mapfiles/place_api/icons/v1/png_71/worship_general-71.png",
      "icon_background_color": "#7B9EB0",
      "icon_mask_base_uri": "https://maps.gstatic.com/mapfiles/place_api/icons/v2/worship_christian_pinlet",
      "name": "St Paul of the Cross Church",
      "photos": [
        {
          "height": 2560,
          "html_attributions": [
            "<a href=\"https://maps.google.com/maps/contrib/105265453413121576999\">Italia alvear</a>"
          ],
          "photo_reference": "AeJbb3ckKT3UnjAc36jrQSK-hhPBgZXcGOrrFZlFrzaZyKu5HkQkMtpook4js-QK7wLJrEJPjB7X93ub5G3LWeey43UZpgcWAsHh_c-WX6E3w0jL7tfpiI2kGY6XvbtBmSDfF3-E5GUQAsY0zF7qGHQGj9ri7owEqAuSkqAQpAWCRWl7oeik",
          "width": 1440
        }
      ],
      "place_id": "ChIJC57TF2lXwokRYTWEc5XuNaw",
      "plus_code": {
        "compound_code": "PXX3+3Q Jersey City, NJ, USA",
        "global_code": "87G7PXX3+3Q"
      },
      "rating": 4.7,
      "reference": "ChIJC57TF2lXwokRYTWEc5XuNaw",
      "scope": "GOOGLE",
      "types": [
        "church",
        "place_of_worship",
        "point_of_interest",
        "establishment"
      ],
      "user_ratings_total": 35,
      "vicinity": "156 Hancock Avenue, Jersey City"
    },
    {
      "business_status": "OPERATIONAL",
      "geometry": {
        "location": {
          "lat": 40.7446006,
          "lng": -74.0392566
        },
        "viewport": {
          "northeast": {
            "lat": 40.7459625802915,
            "lng": -74.0379809697085
          },
          "southwest": {
            "lat": 40.7432646197085,
            "lng": -74.0406789302915
          }
        }
      },
      "icon": "https://maps.gstatic.com/mapfiles/place_api/icons/v1/png_71/generic_business-71.png",
      "icon_background_color": "#7B9EB0",
      "icon_mask_base_uri": "https://maps.gstatic.com/mapfiles/place_api/icons/v2/generic_pinlet",
      "name": "Jackson Art Apartments LLC",
      "place_id": "ChIJ4w3CoWdXwokR67g2NNKazcY",
      "plus_code": {
        "compound_code": "PXV6+R7 Hoboken, NJ, USA",
        "global_code": "87G7PXV6+R7"
      },
      "reference": "ChIJ4w3CoWdXwokR67g2NNKazcY",
      "scope": "GOOGLE",
      "types": [
        "point_of_interest",
        "establishment"
      ],
      "vicinity": "517 Jackson Street, Hoboken"
    },
    {
      "business_status": "CLOSED_TEMPORARILY",
      "geometry": {
        "location": {
          "lat": 40.7425839,
          "lng": -74.0397669
        },
        "viewport": {
          "northeast": {
            "lat": 40.7439554802915,
            "lng": -74.0385365197085
          },
          "southwest": {
            "lat": 40.7412575197085,
            "lng": -74.04123448029151
          }
        }
      },
      "icon": "https://maps.gstatic.com/mapfiles/place_api/icons/v1/png_71/generic_business-71.png",
      "icon_background_color": "#7B9EB0",
      "icon_mask_base_uri": "https://maps.gstatic.com/mapfiles/place_api/icons/v2/generic_pinlet",
      "name": "Sextant Group Inc",
      "permanently_closed": true,
      "place_id": "ChIJPexfaV1XwokRjiv9xQHcdo0",
      "plus_code": {
        "compound_code": "PXV6+23 Hoboken, NJ, USA",
        "global_code": "87G7PXV6+23"
      },
      "reference": "ChIJPexfaV1XwokRjiv9xQHcdo0",
      "scope": "GOOGLE",
      "types": [
        "point_of_interest",
        "establishment"
      ],
      "vicinity": "323 Jackson Street, Hoboken"
    },
    {
      "business_status": "OPERATIONAL",
      "geometry": {
        "location": {
          "lat": 40.7409843,
          "lng": -74.0460612
        },
        "viewport": {
          "northeast": {
            "lat": 40.7423626302915,
            "lng": -74.04478181970849
          },
          "southwest": {
            "lat": 40.7396646697085,
            "lng": -74.0474797802915
          }
        }
      },
      "icon": "https://maps.gstatic.com/mapfiles/place_api/icons/v1/png_71/shopping-71.png",
      "icon_background_color": "#4B96F3",
      "icon_mask_base_uri": "https://maps.gstatic.com/mapfiles/place_api/icons/v2/shopping_pinlet",
      "name": "Guitar Bar Jersey City",
      "opening_hours": {
        "open_now": true
      },
      "photos": [
        {
          "height": 810,
          "html_attributions": [
            "<a href=\"https://maps.google.com/maps/contrib/111313680991663612488\">Guitar Bar Jersey City</a>"
          ],
          "photo_reference": "AeJbb3dGUkTyRQaNrYShvC4UkvfHpQJy_IVTeWFDlaskZKDJLuCMagHt3sBFg-5bUPJw2kteJU45p845t267oIFsvX5bEjBn78MGZPR4fwJxPVhe9eoSeP4LifvcO96WLILj0ORjR9mb-d7qPmAvF8vpMNTAk1CWGsX44Ug1pAg30Nrmvcnw",
          "width": 1080
        }
      ],
      "place_id": "ChIJz4vtuENXwokR-87FzxS0epo",
      "plus_code": {
        "compound_code": "PXR3+9H Jersey City, NJ, USA",
        "global_code": "87G7PXR3+9H"
      },
      "rating": 5,
      "reference": "ChIJz4vtuENXwokR-87FzxS0epo",
      "scope": "GOOGLE",
      "types": [
        "electronics_store",
        "school",
        "home_goods_store",
        "store",
        "point_of_interest",
        "establishment"
      ],
      "user_ratings_total": 20,
      "vicinity": "362 Palisade Avenue, Jersey City"
    },
    {
      "business_status": "OPERATIONAL",
      "geometry": {
        "location": {
          "lat": 40.7421962,
          "lng": -74.0400086
        },
        "viewport": {
          "northeast": {
            "lat": 40.7435076302915,
            "lng": -74.03873056970849
          },
          "southwest": {
            "lat": 40.7408096697085,
            "lng": -74.0414285302915
          }
        }
      },
      "icon": "https://maps.gstatic.com/mapfiles/place_api/icons/v1/png_71/generic_business-71.png",
      "icon_background_color": "#7B9EB0",
      "icon_mask_base_uri": "https://maps.gstatic.com/mapfiles/place_api/icons/v2/generic_pinlet",
      "name": "Orange Wash and Fold",
      "opening_hours": {
        "open_now": true
      },
      "photos": [
        {
          "height": 1192,
          "html_attributions": [
            "<a href=\"https://maps.google.com/maps/contrib/104175174374261071485\">Orange Wash Laundromat</a>"
          ],
          "photo_reference": "AeJbb3dfZodngrydPbV7l69bff_aY2vXNm3JT076wnsUo9awrCLPL_lDNboLieSyEHfVP7SYmQAJuUmAI-zWAHf3CzN_T-SEW-qsJffEAZXMNENqIT7BYEtfKUY-4qAmsGg3PUg2j7SLHz1CcmHY0-dY_7N2Bdo8UUoQ68zFx5Uhq2eEbbue",
          "width": 2120
        }
      ],
      "place_id": "ChIJSSfAE11XwokRLBswSb1YUE4",
      "plus_code": {
        "compound_code": "PXR5+VX Hoboken, NJ, USA",
        "global_code": "87G7PXR5+VX"
      },
      "rating": 3.4,
      "reference": "ChIJSSfAE11XwokRLBswSb1YUE4",
      "scope": "GOOGLE",
      "types": [
        "laundry",
        "point_of_interest",
        "establishment"
      ],
      "user_ratings_total": 29,
      "vicinity": "301 Jackson Street, Hoboken"
    },
    {
      "business_status": "OPERATIONAL",
      "geometry": {
        "location": {
          "lat": 40.7406087,
          "lng": -74.04402940000001
        },
        "viewport": {
          "northeast": {
            "lat": 40.74186623029151,
            "lng": -74.04269416970848
          },
          "southwest": {
            "lat": 40.73916826970851,
            "lng": -74.0453921302915
          }
        }
      },
      "icon": "https://maps.gstatic.com/mapfiles/place_api/icons/v1/png_71/generic_business-71.png",
      "icon_background_color": "#7B9EB0",
      "icon_mask_base_uri": "https://maps.gstatic.com/mapfiles/place_api/icons/v2/generic_pinlet",
      "name": "Diane Mileson",
      "photos": [
        {
          "height": 4806,
          "html_attributions": [
            "<a href=\"https://maps.google.com/maps/contrib/118204614136827933564\">Diane Mileson</a>"
          ],
          "photo_reference": "AeJbb3cgnDnai-4pwTy39FIUCYQ14h7UDlc_UffdPXb7tPnyxwBXNpPXT_Ij7fX-jYVW3Lt8X_jT2vYIJuDEuuUPD40Fdm4zlEca2_luA0otxRVZ9oYVpRtwp3eMorSaTD9nN70n7aNvq5LIPXjpZkVJyNVq36MUJOYDC_H57WmEhFZajpSt",
          "width": 3845
        }
      ],
      "place_id": "ChIJaY0ODkNXwokRhrnsG1G_yhk",
      "plus_code": {
        "compound_code": "PXR4+69 Jersey City, NJ, USA",
        "global_code": "87G7PXR4+69"
      },
      "reference": "ChIJaY0ODkNXwokRhrnsG1G_yhk",
      "scope": "GOOGLE",
      "types": [
        "point_of_interest",
        "establishment"
      ],
      "vicinity": "100 Paterson Plank Road #406, Jersey City"
    },
    {
      "business_status": "OPERATIONAL",
      "geometry": {
        "location": {
          "lat": 40.741406,
          "lng": -74.040673
        },
        "viewport": {
          "northeast": {
            "lat": 40.74273643029149,
            "lng": -74.03918321970849
          },
          "southwest": {
            "lat": 40.74003846970849,
            "lng": -74.04188118029151
          }
        }
      },
      "icon": "https://maps.gstatic.com/mapfiles/place_api/icons/v1/png_71/pharmacy-71.png",
      "icon_background_color": "#F88181",
      "icon_mask_base_uri": "https://maps.gstatic.com/mapfiles/place_api/icons/v2/pharmacy_pinlet",
      "name": "Avon Pharmacy",
      "opening_hours": {
        "open_now": true
      },
      "photos": [
        {
          "height": 4032,
          "html_attributions": [
            "<a href=\"https://maps.google.com/maps/contrib/105170431124683218627\">Marc Gonzalez</a>"
          ],
          "photo_reference": "AeJbb3c3e9uKarqbGwG1MhYwdE5Rf9V0kjh-nuL3qtbBebaGPriHlD5dUjBpuDvvCC3Jzrj04O66Hme83Khu0LtEwtLOgoblrD24FYKmwFpfbYbEwbtJHlkvtjUDtAvEXnyfEcq9gtprPw2Jv8d-2-7dvEkv0vMi7a_yaO7ZAWaTR5ou8RO3",
          "width": 3024
        }
      ],
      "place_id": "ChIJP7ULJF1XwokRyLnmPZqGrW4",
      "plus_code": {
        "compound_code": "PXR5+HP Hoboken, NJ, USA",
        "global_code": "87G7PXR5+HP"
      },
      "rating": 4.7,
      "reference": "ChIJP7ULJF1XwokRyLnmPZqGrW4",
      "scope": "GOOGLE",
      "types": [
        "pharmacy",
        "store",
        "health",
        "point_of_interest",
        "establishment"
      ],
      "user_ratings_total": 16,
      "vicinity": "222 Jackson Street, Hoboken"
    },
    {
      "business_status": "OPERATIONAL",
      "geometry": {
        "location": {
          "lat": 40.7405583,
          "lng": -74.043893
        },
        "viewport": {
          "northeast": {
            "lat": 40.7422360302915,
            "lng": -74.0422844197085
          },
          "southwest": {
            "lat": 40.7395380697085,
            "lng": -74.0449823802915
          }
        }
      },
      "icon": "https://maps.gstatic.com/mapfiles/place_api/icons/v1/png_71/generic_business-71.png",
      "icon_background_color": "#7B9EB0",
      "icon_mask_base_uri": "https://maps.gstatic.com/mapfiles/place_api/icons/v2/generic_pinlet",
      "name": "The Cliffs Lofts",
      "photos": [
        {
          "height": 1453,
          "html_attributions": [
            "<a href=\"https://maps.google.com/maps/contrib/101564579330238493232\">The Cliffs Collection</a>"
          ],
          "photo_reference": "AeJbb3ftfp0bDg3ldFwrVuzdCcoNGIaVlcbvXjidlJe1WWWEj5tWqnrv1dyB0jBd9qN2DKs30sfvhrbnAa-VIywYes9pWHxzmacXkAunWLVWuUpxfU2ZS1ZQe_TiIf8S0YkH-8SKiXQUTuIXZlL4WA-ENCz_blaECRaaW52wkKAqZrpOB68f",
          "width": 2000
        }
      ],
      "place_id": "ChIJYwEyDENXwokRBh7SF-bM0hw",
      "plus_code": {
        "compound_code": "PXR4+6C Jersey City, NJ, USA",
        "global_code": "87G7PXR4+6C"
      },
      "rating": 4.3,
      "reference": "ChIJYwEyDENXwokRBh7SF-bM0hw",
      "scope": "GOOGLE",
      "types": [
        "point_of_interest",
        "establishment"
      ],
      "user_ratings_total": 32,
      "vicinity": "100 Paterson Plank Road, Jersey City"
    },
    {
      "business_status": "OPERATIONAL",
      "geometry": {
        "location": {
          "lat": 40.743712,
          "lng": -74.048913
        },
        "viewport": {
          "northeast": {
            "lat": 40.74501358029149,
            "lng": -74.0474370697085
          },
          "southwest": {
            "lat": 40.74231561970849,
            "lng": -74.0501350302915
          }
        }
      },
      "icon": "https://maps.gstatic.com/mapfiles/place_api/icons/v1/png_71/generic_business-71.png",
      "icon_background_color": "#7B9EB0",
      "icon_mask_base_uri": "https://maps.gstatic.com/mapfiles/place_api/icons/v2/generic_pinlet",
      "name": "uvidstudio",
      "opening_hours": {
        "open_now": false
      },
      "photos": [
        {
          "height": 3300,
          "html_attributions": [
            "<a href=\"https://maps.google.com/maps/contrib/104761917275503623318\">uvidstudio</a>"
          ],
          "photo_reference": "AeJbb3ftlmr3382_-1yl7zhBOPHTZ9JZpS9s2paZoYEqGvlAbGwtDQMcRMsHJYo_e9znX7r2-2g0iDMbWGXFYEI88HN0kBav5H75-YFdSfAZmsrvt2XxA9KFm5f-FeITEvQZTC871wj_ajblcU3uKdUcokKbSlGiZHhNyOw5yza8HhhaCP9T",
          "width": 5100
        }
      ],
      "place_id": "ChIJB_rS60FXwokR_QWYPJ3tDns",
      "plus_code": {
        "compound_code": "PXV2+FC Jersey City, NJ, USA",
        "global_code": "87G7PXV2+FC"
      },
      "reference": "ChIJB_rS60FXwokR_QWYPJ3tDns",
      "scope": "GOOGLE",
      "types": [
        "point_of_interest",
        "establishment"
      ],
      "vicinity": "33 Hancock Avenue #4, Jersey City"
    },
    {
      "business_status": "OPERATIONAL",
      "geometry": {
        "location": {
          "lat": 40.7437864,
          "lng": -74.0389407
        },
        "viewport": {
          "northeast": {
            "lat": 40.74516963029149,
            "lng": -74.0375282197085
          },
          "southwest": {
            "lat": 40.74247166970849,
            "lng": -74.04022618029151
          }
        }
      },
      "icon": "https://maps.gstatic.com/mapfiles/place_api/icons/v1/png_71/generic_business-71.png",
      "icon_background_color": "#7B9EB0",
      "icon_mask_base_uri": "https://maps.gstatic.com/mapfiles/place_api/icons/v2/generic_pinlet",
      "name": "Western Union",
      "opening_hours": {
        "open_now": true
      },
      "photos": [
        {
          "height": 1920,
          "html_attributions": [
            "<a href=\"https://maps.google.com/maps/contrib/110541303375578380710\">Pete</a>"
          ],
          "photo_reference": "AeJbb3ccMNZIwQHuVj00OYoaI75_3Sv87Jpy5F3w-2A1CJldz2aOCYd-Pcrrotuz2tEAch1ep36C_iyh9aIbKWF5nBo3OqyucX9z6EjA9A9QiqP31xRvFgtXz5zBVgY9bjVJ56hmD1tWAHjQ65DGTepCLA6_FKWwgqmM_P_6AcGBpjt0Y97d",
          "width": 1080
        }
      ],
      "place_id": "ChIJicwfg2dXwokRVyEaWxctTSg",
      "plus_code": {
        "compound_code": "PXV6+GC Hoboken, NJ, USA",
        "global_code": "87G7PXV6+GC"
      },
      "rating": 2.5,
      "reference": "ChIJicwfg2dXwokRVyEaWxctTSg",
      "scope": "GOOGLE",
      "types": [
        "finance",
        "point_of_interest",
        "establishment"
      ],
      "user_ratings_total": 2,
      "vicinity": "Liquor & Deli, 422 Monroe St Ottomanelis, Hoboken"
    },
    {
      "business_status": "OPERATIONAL",
      "geometry": {
        "location": {
          "lat": 40.7439859,
          "lng": -74.0389007
        },
        "viewport": {
          "northeast": {
            "lat": 40.7453102802915,
            "lng": -74.03741121970849
          },
          "southwest": {
            "lat": 40.7426123197085,
            "lng": -74.0401091802915
          }
        }
      },
      "icon": "https://maps.gstatic.com/mapfiles/place_api/icons/v1/png_71/generic_business-71.png",
      "icon_background_color": "#7B9EB0",
      "icon_mask_base_uri": "https://maps.gstatic.com/mapfiles/place_api/icons/v2/generic_pinlet",
      "name": "Arguello Construction LLC",
      "opening_hours": {
        "open_now": true
      },
      "photos": [
        {
          "height": 1512,
          "html_attributions": [
            "<a href=\"https://maps.google.com/maps/contrib/101756895474054107929\">Xavier Arguello</a>"
          ],
          "photo_reference": "AeJbb3fgMDDUF0zqG8uwPSPHTogQuQse80qIcFRUMy0-bUPsAxYAw3Sj2tWMpKGHvv2xBDcszlHosi4cmOYFyIQ89EtzqkvvzpjOBKTbQtwry0VifMGkYukNErfju-fpsJY8S8SYVkkN5KPR4gKlEdZlJpp4mf4BCEFXGaNqJ1to4Y_8LEw3",
          "width": 2016
        }
      ],
      "place_id": "ChIJh7-K-yFYwokR63e3x4P5eDA",
      "plus_code": {
        "compound_code": "PXV6+HC Hoboken, NJ, USA",
        "global_code": "87G7PXV6+HC"
      },
      "reference": "ChIJh7-K-yFYwokR63e3x4P5eDA",
      "scope": "GOOGLE",
      "types": [
        "general_contractor",
        "point_of_interest",
        "establishment"
      ],
      "vicinity": "500 Monroe Street APT8, Hoboken"
    },
    {
      "business_status": "OPERATIONAL",
      "geometry": {
        "location": {
          "lat": 40.74486479999999,
          "lng": -74.0440347
        },
        "viewport": {
          "northeast": {
            "lat": 40.7461714802915,
            "lng": -74.04257206970848
          },
          "southwest": {
            "lat": 40.7434735197085,
            "lng": -74.0452700302915
          }
        }
      },
      "icon": "https://maps.gstatic.com/mapfiles/place_api/icons/v1/png_71/generic_business-71.png",
      "icon_background_color": "#7B9EB0",
      "icon_mask_base_uri": "https://maps.gstatic.com/mapfiles/place_api/icons/v2/generic_pinlet",
      "name": "Downtown Car and Limousine Service",
      "place_id": "ChIJW0QOOmhXwokRQvjKDWVwTKg",
      "plus_code": {
        "compound_code": "PXV4+W9 Jersey City, NJ, USA",
        "global_code": "87G7PXV4+W9"
      },
      "rating": 2.4,
      "reference": "ChIJW0QOOmhXwokRQvjKDWVwTKg",
      "scope": "GOOGLE",
      "types": [
        "point_of_interest",
        "establishment"
      ],
      "user_ratings_total": 23,
      "vicinity": "473 Palisade Avenue, Jersey City"
    },
    {
      "business_status": "OPERATIONAL",
      "geometry": {
        "location": {
          "lat": 40.7482111,
          "lng": -74.04355559999999
        },
        "viewport": {
          "northeast": {
            "lat": 40.7494961302915,
            "lng": -74.0422595197085
          },
          "southwest": {
            "lat": 40.7467981697085,
            "lng": -74.0449574802915
          }
        }
      },
      "icon": "https://maps.gstatic.com/mapfiles/place_api/icons/v1/png_71/shopping-71.png",
      "icon_background_color": "#4B96F3",
      "icon_mask_base_uri": "https://maps.gstatic.com/mapfiles/place_api/icons/v2/shopping_pinlet",
      "name": "Peter's Grocery & Deil",
      "opening_hours": {
        "open_now": true
      },
      "photos": [
        {
          "height": 4000,
          "html_attributions": [
            "<a href=\"https://maps.google.com/maps/contrib/109740664752579739370\">Timothy Bassett</a>"
          ],
          "photo_reference": "AeJbb3fN_Xy9Vcxl4ctXpL1DoGm0Dl6dTJITMfI4QaiTXkm21FRaWXVphro31drCNXFktyBH5kPYo7inZ58nUzgpxzmeE_PDz69me4xTAoS1Mvvrl4TM0DslN5lXa-z6Gi3MnXw8aoBoJaNZ85u1RGdPmdVe8jdlQWqfd6mx_-HFnDm-5MZc",
          "width": 6000
        }
      ],
      "place_id": "ChIJA5B1xmhXwokRuVAzzbX7Ve8",
      "plus_code": {
        "compound_code": "PXX4+7H Jersey City, NJ, USA",
        "global_code": "87G7PXX4+7H"
      },
      "price_level": 1,
      "rating": 4.6,
      "reference": "ChIJA5B1xmhXwokRuVAzzbX7Ve8",
      "scope": "GOOGLE",
      "types": [
        "grocery_or_supermarket",
        "store",
        "food",
        "point_of_interest",
        "establishment"
      ],
      "user_ratings_total": 65,
      "vicinity": "50 South Street, Jersey City"
    },
    {
      "business_status": "CLOSED_TEMPORARILY",
      "geometry": {
        "location": {
          "lat": 40.740876,
          "lng": -74.046624
        },
        "viewport": {
          "northeast": {
            "lat": 40.74217778029151,
            "lng": -74.04514751970851
          },
          "southwest": {
            "lat": 40.73947981970851,
            "lng": -74.04784548029151
          }
        }
      },
      "icon": "https://maps.gstatic.com/mapfiles/place_api/icons/v1/png_71/generic_business-71.png",
      "icon_background_color": "#7B9EB0",
      "icon_mask_base_uri": "https://maps.gstatic.com/mapfiles/place_api/icons/v2/generic_pinlet",
      "name": "First Line Tactical",
      "permanently_closed": true,
      "place_id": "ChIJo4xlwUNXwokR3BhHDYvHHVs",
      "plus_code": {
        "compound_code": "PXR3+99 Jersey City, NJ, USA",
        "global_code": "87G7PXR3+99"
      },
      "reference": "ChIJo4xlwUNXwokR3BhHDYvHHVs",
      "scope": "GOOGLE",
      "types": [
        "point_of_interest",
        "establishment"
      ],
      "vicinity": "353 Palisade Avenue, Jersey City"
    },
    {
      "business_status": "OPERATIONAL",
      "geometry": {
        "location": {
          "lat": 40.7433806,
          "lng": -74.0448389
        },
        "viewport": {
          "northeast": {
            "lat": 40.7447082302915,
            "lng": -74.04343281970849
          },
          "southwest": {
            "lat": 40.7420102697085,
            "lng": -74.0461307802915
          }
        }
      },
      "icon": "https://maps.gstatic.com/mapfiles/place_api/icons/v1/png_71/generic_business-71.png",
      "icon_background_color": "#7B9EB0",
      "icon_mask_base_uri": "https://maps.gstatic.com/mapfiles/place_api/icons/v2/generic_pinlet",
      "name": "Palisade Dry Cleaners",
      "opening_hours": {
        "open_now": true
      },
      "photos": [
        {
          "height": 4032,
          "html_attributions": [
            "<a href=\"https://maps.google.com/maps/contrib/110310523067841730759\">Andrew Thompson</a>"
          ],
          "photo_reference": "AeJbb3c0YCZ6NZk95FQXK7z-S4KFtWSrym0puFDkAUqkgMnqv40yhxUMNw9_uFXKJhv9LLYo6d_iUojsfCB7cqlkED8EZF9vves3nLuJQXTkMfnwgtxoD7NE2qBMk2jGyGjFURAcd5L1nMk-TqWvdM4OPt3f0gj6AnWIjluZ2i_bgWNOnRPn",
          "width": 3024
        }
      ],
      "place_id": "ChIJJYjiYkJXwokRXWhEXqgpZTk",
      "plus_code": {
        "compound_code": "PXV4+93 Jersey City, NJ, USA",
        "global_code": "87G7PXV4+93"
      },
      "rating": 4.1,
      "reference": "ChIJJYjiYkJXwokRXWhEXqgpZTk",
      "scope": "GOOGLE",
      "types": [
        "laundry",
        "point_of_interest",
        "establishment"
      ],
      "user_ratings_total": 17,
      "vicinity": "429 Palisade Avenue #1, Jersey City"
    },
    {
      "business_status": "OPERATIONAL",
      "geometry": {
        "location": {
          "lat": 40.7453848,
          "lng": -74.0389556
        },
        "viewport": {
          "northeast": {
            "lat": 40.7467516302915,
            "lng": -74.0377081697085
          },
          "southwest": {
            "lat": 40.7440536697085,
            "lng": -74.0404061302915
          }
        }
      },
      "icon": "https://maps.gstatic.com/mapfiles/place_api/icons/v1/png_71/generic_business-71.png",
      "icon_background_color": "#7B9EB0",
      "icon_mask_base_uri": "https://maps.gstatic.com/mapfiles/place_api/icons/v2/generic_pinlet",
      "name": "TRUE Mentors",
      "opening_hours": {
        "open_now": false
      },
      "photos": [
        {
          "height": 382,
          "html_attributions": [
            "<a href=\"https://maps.google.com/maps/contrib/110138150463575830312\">TRUE Mentors</a>"
          ],
          "photo_reference": "AeJbb3erv8rbZWLu4_O28wRnYnjaI-KfWHJEEvs7z3-rGfiT3KGtPp8vCtDST3b5gdREOYJb_nFhvyqY93egEHKI8DbprQnvvfniAN1tt5lV-rTMR09T84BAJxkQc8dVvBweMCKopZGEZICF9Hq1i77Gjo9OGro4pM3ViZ7j-595P3RwLwsA",
          "width": 680
        }
      ],
      "place_id": "ChIJgxrPQlxXwokRU5nXrcaDZHI",
      "plus_code": {
        "compound_code": "PXW6+5C Hoboken, NJ, USA",
        "global_code": "87G7PXW6+5C"
      },
      "reference": "ChIJgxrPQlxXwokRU5nXrcaDZHI",
      "scope": "GOOGLE",
      "types": [
        "point_of_interest",
        "establishment"
      ],
      "vicinity": "601 Jackson Street 4th Floor, Ring Apt. #2, Hoboken"
    }
  ],
  "status": "OK"
}