{
  "html_attributions": [],
  "results": [
    {
      "geometry": {
        "location": {
          "lat": 40.7127753,
          "lng": -74.0059728
        },
        "viewport": {
          "northeast": {
            "lat": 40.91757705070789,
            "lng": -73.70027206817629
          },
          "southwest": {
            "lat": 40.47739906045452,
            "lng": -74.25908991427882
          }
        }
      },
      "icon": "https://maps.gstatic.com/mapfiles/place_api/icons/v1/png_71/geocode-71.png",
      "icon_background_color": "#7B9EB0",
      "icon_mask_base_uri": "https://maps.gstatic.com/mapfiles/place_api/icons/v2/generic_pinlet",
      "name": "\u7d10\u7d04",
      "photos": [
        {
          "height": 600,
          "html_attributions": [
            "<a href=\"https://maps.google.com/maps/contrib/102389334567210814614\">Bukurie</a>"
          ],
          "photo_reference": "AeJbb3c8WSNsQhO-uHHF7SPuGcbiiPQVbxTQLfQKbnsZ08I5UtbaI-9fuQldN-Jru29YEpuGDGN5_itH0Vm-NVqEiodVP8NRWvbucjtfhoAj5_XHNH25l-aBAV_85u5imEuGjqB6xEmNuxgir0sxB8kKYnJ8WA4xByML9qPSslA31M7jTFJ7",
          "width": 480
        }
      ],
      "place_id": "ChIJOwg_06VPwokRYv534QaPC8g",
      "reference": "ChIJOwg_06VPwokRYv534QaPC8g",
      "scope": "GOOGLE",
      "types": [
        "locality",
        "political"
      ],
      "vicinity": "\u7d10\u7d04"
    },
    {
      "business_status": "OPERATIONAL",
      "geometry": {
        "location": {
          "lat": 40.7030993,
          "lng": -73.98899779999999
        },
        "viewport": {
          "northeast": {
            "lat": 40.7045043302915,
            "lng": -73.98777486970849
          },
          "southwest": {
            "lat": 40.7018063697085,
            "lng": -73.9904728302915
          }
        }
      },
      "icon": "https://maps.gstatic.com/mapfiles/place_api/icons/v1/png_71/school-71.png",
      "icon_background_color": "#7B9EB0",
      "icon_mask_base_uri": "https://maps.gstatic.com/mapfiles/place_api/icons/v2/school_pinlet",
      "name": "Gleason's Gym",
      "opening_hours": {
        "open_now": true
      },
      "photos": [
        {
          "height": 1438,
          "html_attributions": [
            "<a href=\"https://maps.google.com/maps/contrib/116782684156345709927\">Gleason&#39;s Gym</a>"
          ],
          "photo_reference": "AeJbb3cnwLYXDw030ZbzTFQAofz6qYKd1bBP7V-EaNMBKh1NB8OjWST4rue17BMBthml6OSHgIOzIrbpfbsOSJIe-urVUmlQu2XSoqUhHB1xO-xptzi3m-jlzrR-m11h5s7T1Dy9oHr1Y6zKygPQAJRr-I2LgFSlBOtZlrMAIqFPyDKVrTtn",
          "width": 2560
        }
      ],
      "place_id": "ChIJ3b8HRzFawokRWVmcm6a0SKM",
      "plus_code": {
        "compound_code": "P236+6C \u7f8e\u570b\u7d10\u7d04",
        "global_code": "87G8P236+6C"
      },
      "rating": 4.5,
      "reference": "ChIJ3b8HRzFawokRWVmcm6a0SKM",
      "scope": "GOOGLE",
      "types": [
        "gym",
        "health",
        "point_of_interest",
        "establishment"
      ],
      "user_ratings_total": 133,
      "vicinity": "130 Water Street, Brooklyn"
    },
    {
      "business_status": "OPERATIONAL",
      "geometry": {
        "location": {
          "lat": 40.7013482,
          "lng": -73.98660009999999
        },
        "viewport": {
          "northeast": {
            "lat": 40.7026948302915,
            "lng": -73.9853289697085
          },
          "southwest": {
            "lat": 40.6999968697085,
            "lng": -73.98802693029151
          }
        }
      },
      "icon": "https://maps.gstatic.com/mapfiles/place_api/icons/v1/png_71/generic_business-71.png",
      "icon_background_color": "#7B9EB0",
      "icon_mask_base_uri": "https://maps.gstatic.com/mapfiles/place_api/icons/v2/generic_pinlet",
      "name": "\u7d04\u514b\u8857",
      "photos": [
        {
          "height": 3024,
          "html_attributions": [
            "<a href=\"https://maps.google.com/maps/contrib/114270489405509687393\">Maureen Weicher</a>"
          ],
          "photo_reference": "AeJbb3eGkxNq2XKtGFc5jFL9TNzdm6c0fEN6SO4KVw3Yy4KGyHRzEpF6QVkk_DxyjuHprS4qDZjSQB2zt3llXCLPWrXfMPIddoIUfrCCyzlvYlMO9hk6xC-eeeqDw9FGHi9bgv9MjMO0cg2OkndRhhy7G1cLrALmJ6MudwxxKkxrRFTUrZsp",
          "width": 4032
        }
      ],
      "place_id": "ChIJlzQUiTNawokR2Xw3BLuSO2c",
      "plus_code": {
        "compound_code": "P227+G9 \u7f8e\u570b\u7d10\u7d04\u5e03\u9c81\u514b\u6797",
        "global_code": "87G8P227+G9"
      },
      "rating": 3.7,
      "reference": "ChIJlzQUiTNawokR2Xw3BLuSO2c",
      "scope": "GOOGLE",
      "types": [
        "subway_station",
        "transit_station",
        "point_of_interest",
        "establishment"
      ],
      "user_ratings_total": 111,
      "vicinity": "York Street &, Jay Street, Brooklyn"
    },
    {
      "business_status": "OPERATIONAL",
      "geometry": {
        "location": {
          "lat": 40.69917110000001,
          "lng": -73.99314559999999
        },
        "viewport": {
          "northeast": {
            "lat": 40.7004252802915,
            "lng": -73.99184221970849
          },
          "southwest": {
            "lat": 40.6977273197085,
            "lng": -73.9945401802915
          }
        }
      },
      "icon": "https://maps.gstatic.com/mapfiles/place_api/icons/v1/png_71/worship_general-71.png",
      "icon_background_color": "#7B9EB0",
      "icon_mask_base_uri": "https://maps.gstatic.com/mapfiles/place_api/icons/v2/worship_christian_pinlet",
      "name": "\u666e\u5229\u8305\u65af\u6559\u5802",
      "photos": [
        {
          "height": 3024,
          "html_attributions": [
            "<a href=\"https://maps.google.com/maps/contrib/109415363621183907891\">Anthony C</a>"
          ],
          "photo_reference": "AeJbb3dXma9Hv7SXMWJOam_KarCQPz-PdGjSauczwjwlsGkS-gQgrnLJdpWq6w0xl5XzwwUl06Xd3GHd8Kn0Px_4pK3In44AnLKtF4FIwekd41xAhF760KPboOcKj9Il0IAfnT7oUT70wyUTQ-uanLAqUJRTT9COT4KoImtuhtGMh2ZEcyJ6",
          "width": 4032
        }
      ],
      "place_id": "ChIJ4QQvoDdawokRzRqQHNt01pU",
      "plus_code": {
        "compound_code": "M2X4+MP \u7f8e\u570b\u7d10\u7d04\u5e03\u9c81\u514b\u6797",
        "global_code": "87G8M2X4+MP"
      },
      "rating": 4.6,
      "reference": "ChIJ4QQvoDdawokRzRqQHNt01pU",
      "scope": "GOOGLE",
      "types": [
        "church",
        "tourist_attraction",
        "place_of_worship",
        "point_of_interest",
        "establishment"
      ],
      "user_ratings_total": 59,
      "vicinity": "57 Orange Street, Brooklyn"
    },
    {
      "business_status": "OPERATIONAL",
      "geometry": {
        "location": {
          "lat": 40.6974208,
          "lng": -73.9933581
        },
        "viewport": {
          "northeast": {
            "lat": 40.6988270802915,
            "lng": -73.99198176970849
          },
          "southwest": {
            "lat": 40.6961291197085,
            "lng": -73.99467973029151
          }
        }
      },
      "icon": "https://maps.gstatic.com/mapfiles/place_api/icons/v1/png_71/restaurant-71.png",
      "icon_background_color": "#FF9E67",
      "icon_mask_base_uri": "https://maps.gstatic.com/mapfiles/place_api/icons/v2/restaurant_pinlet",
      "name": "Ozu Japanese Cuisine & Lounge",
      "opening_hours": {
        "open_now": true
      },
      "photos": [
        {
          "height": 1836,
          "html_attributions": [
            "<a href=\"https://maps.google.com/maps/contrib/117133658997710700434\">Diego Orofino</a>"
          ],
          "photo_reference": "AeJbb3druGcfOCPckM6wwURPDTWDxMHBtvBLew5cCTi2t0mLuUiWHvu_xFq-s_709GFShy0Tf9f-06pDxT_nA0Sk5BX8Ey0eSzYFV8Kc9rXlriFFYF2yfkhxg14zkb5jk8l57JgGP7WDP59hd1pitJcFKjUWXSSxBRkcC2Izp8SQG0s_OuDO",
          "width": 3264
        }
      ],
      "place_id": "ChIJ9fFq3jdawokR8pqmPGytDE4",
      "plus_code": {
        "compound_code": "M2W4+XM \u7f8e\u570b\u7d10\u7d04",
        "global_code": "87G8M2W4+XM"
      },
      "price_level": 2,
      "rating": 3.9,
      "reference": "ChIJ9fFq3jdawokR8pqmPGytDE4",
      "scope": "GOOGLE",
      "types": [
        "meal_delivery",
        "bar",
        "restaurant",
        "food",
        "point_of_interest",
        "establishment"
      ],
      "user_ratings_total": 186,
      "vicinity": "78 Clark Street #2402, Brooklyn"
    },
    {
      "business_status": "OPERATIONAL",
      "geometry": {
        "location": {
          "lat": 40.7007351,
          "lng": -73.98764659999999
        },
        "viewport": {
          "northeast": {
            "lat": 40.70200983029149,
            "lng": -73.9861618197085
          },
          "southwest": {
            "lat": 40.6993118697085,
            "lng": -73.9888597802915
          }
        }
      },
      "icon": "https://maps.gstatic.com/mapfiles/place_api/icons/v1/png_71/generic_business-71.png",
      "icon_background_color": "#7B9EB0",
      "icon_mask_base_uri": "https://maps.gstatic.com/mapfiles/place_api/icons/v2/generic_pinlet",
      "name": "Hand Law, PC",
      "opening_hours": {
        "open_now": false
      },
      "place_id": "ChIJIVm7PjFawokROwyz2nv7paw",
      "plus_code": {
        "compound_code": "P226+7W \u7f8e\u570b\u7d10\u7d04",
        "global_code": "87G8P226+7W"
      },
      "rating": 4.7,
      "reference": "ChIJIVm7PjFawokROwyz2nv7paw",
      "scope": "GOOGLE",
      "types": [
        "lawyer",
        "point_of_interest",
        "establishment"
      ],
      "user_ratings_total": 15,
      "vicinity": "81 Prospect Street, Brooklyn"
    },
    {
      "business_status": "OPERATIONAL",
      "geometry": {
        "location": {
          "lat": 40.6984595,
          "lng": -73.99067029999999
        },
        "viewport": {
          "northeast": {
            "lat": 40.6998986802915,
            "lng": -73.98931876970849
          },
          "southwest": {
            "lat": 40.6972007197085,
            "lng": -73.9920167302915
          }
        }
      },
      "icon": "https://maps.gstatic.com/mapfiles/place_api/icons/v1/png_71/generic_business-71.png",
      "icon_background_color": "#13B5C7",
      "icon_mask_base_uri": "https://maps.gstatic.com/mapfiles/place_api/icons/v2/generic_pinlet",
      "name": "Brooklyn War Memorial",
      "opening_hours": {
        "open_now": true
      },
      "photos": [
        {
          "height": 1674,
          "html_attributions": [
            "<a href=\"https://maps.google.com/maps/contrib/105312556147372607006\">Jason Peter</a>"
          ],
          "photo_reference": "AeJbb3cH5ugnaYSqOb3_Qhx16mMXDwwafB-MmRXFL8kjceKAAXDjZ-78Au5xH3nuFmmSpctal_ypJupWq9tOP72N5QjM5f1A_MtdHRMH35mDi6jgRxXoFgfBJ-T-AAGMxmtrGwZBeCMdK6x11nFEwd-dJap1twa_JoU-VyAUA5qojaCzsBzY",
          "width": 2232
        }
      ],
      "place_id": "ChIJVXMEQzZawokRsbjWS6ekTwc",
      "plus_code": {
        "compound_code": "M2X5+9P \u7f8e\u570b\u7d10\u7d04\u5e03\u9c81\u514b\u6797",
        "global_code": "87G8M2X5+9P"
      },
      "rating": 4.3,
      "reference": "ChIJVXMEQzZawokRsbjWS6ekTwc",
      "scope": "GOOGLE",
      "types": [
        "tourist_attraction",
        "park",
        "point_of_interest",
        "establishment"
      ],
      "user_ratings_total": 208,
      "vicinity": "195 Cadman Plaza West, Brooklyn"
    },
    {
      "business_status": "OPERATIONAL",
      "geometry": {
        "location": {
          "lat": 40.7028816,
          "lng": -73.9904334
        },
        "viewport": {
          "northeast": {
            "lat": 40.7041577302915,
            "lng": -73.9892052197085
          },
          "southwest": {
            "lat": 40.7014597697085,
            "lng": -73.9919031802915
          }
        }
      },
      "icon": "https://maps.gstatic.com/mapfiles/place_api/icons/v1/png_71/generic_business-71.png",
      "icon_background_color": "#7B9EB0",
      "icon_mask_base_uri": "https://maps.gstatic.com/mapfiles/place_api/icons/v2/generic_pinlet",
      "name": "Anthony R Orgera - Aflac Insurance Agent",
      "place_id": "ChIJJXcIPzFawokRpA0htY8880Q",
      "plus_code": {
        "compound_code": "P235+5R \u7f8e\u570b\u7d10\u7d04",
        "global_code": "87G8P235+5R"
      },
      "rating": 5,
      "reference": "ChIJJXcIPzFawokRpA0htY8880Q",
      "scope": "GOOGLE",
      "types": [
        "insurance_agency",
        "point_of_interest",
        "establishment"
      ],
      "user_ratings_total": 1,
      "vicinity": "14 Wall Street suite 8C"
    },
    {
      "business_status": "OPERATIONAL",
      "geometry": {
        "location": {
          "lat": 40.699094,
          "lng": -73.9924662
        },
        "viewport": {
          "northeast": {
            "lat": 40.7004210302915,
            "lng": -73.99100596970848
          },
          "southwest": {
            "lat": 40.6977230697085,
            "lng": -73.9937039302915
          }
        }
      },
      "icon": "https://maps.gstatic.com/mapfiles/place_api/icons/v1/png_71/restaurant-71.png",
      "icon_background_color": "#FF9E67",
      "icon_mask_base_uri": "https://maps.gstatic.com/mapfiles/place_api/icons/v2/restaurant_pinlet",
      "name": "Henry Street Ale House",
      "opening_hours": {
        "open_now": true
      },
      "photos": [
        {
          "height": 2304,
          "html_attributions": [
            "<a href=\"https://maps.google.com/maps/contrib/108270237022017977706\">Nelson Aguirre Google Business View</a>"
          ],
          "photo_reference": "AeJbb3dgCu9NzTD6qCUb5YBbiVQrFJz-I2uPmYBjlTKYF8Opjvbk6fIaSDlNS3CJav13gK2UrvFu5o8uQ9K2v9kNF2JB_6koDMLIXnwNWFyc5B5IUcJrvFNS8jgU5Mw52k9vMQ9tSIcEU1Ad-oDg-3Mp7vvtfbLPc50K7OoYePfsVe3QE3zV",
          "width": 4096
        }
      ],
      "place_id": "ChIJ3wxUrjdawokRCvceYKTpXFU",
      "plus_code": {
        "compound_code": "M2X5+J2 \u7f8e\u570b\u7d10\u7d04\u5e03\u9c81\u514b\u6797",
        "global_code": "87G8M2X5+J2"
      },
      "price_level": 2,
      "rating": 4.3,
      "reference": "ChIJ3wxUrjdawokRCvceYKTpXFU",
      "scope": "GOOGLE",
      "types": [
        "restaurant",
        "bar",
        "food",
        "point_of_interest",
        "establishment"
      ],
      "user_ratings_total": 523,
      "vicinity": "62 Henry Street, Brooklyn"
    },
    {
      "business_status": "OPERATIONAL",
      "geometry": {
        "location": {
          "lat": 40.7028816,
          "lng": -73.9904334
        },
        "viewport": {
          "northeast": {
            "lat": 40.7041577302915,
            "lng": -73.9892052197085
          },
          "southwest": {
            "lat": 40.7014597697085,
            "lng": -73.9919031802915
          }
        }
      },
      "icon": "https://maps.gstatic.com/mapfiles/place_api/icons/v1/png_71/generic_business-71.png",
      "icon_background_color": "#7B9EB0",
      "icon_mask_base_uri": "https://maps.gstatic.com/mapfiles/place_api/icons/v2/generic_pinlet",
      "name": "MPS",
      "opening_hours": {
        "open_now": false
      },
      "place_id": "ChIJIVm7PjFawokRBhaKxbD5oFk",
      "plus_code": {
        "compound_code": "P235+5R \u7f8e\u570b\u7d10\u7d04\u5e03\u9c81\u514b\u6797",
        "global_code": "87G8P235+5R"
      },
      "reference": "ChIJIVm7PjFawokRBhaKxbD5oFk",
      "scope": "GOOGLE",
      "types": [
        "finance",
        "point_of_interest",
        "establishment"
      ],
      "vicinity": "45 Main Street, Brooklyn"
    },
    {
      "business_status": "OPERATIONAL",
      "geometry": {
        "location": {
          "lat": 40.69938999999999,
          "lng": -73.98770259999999
        },
        "viewport": {
          "northeast": {
            "lat": 40.70083493029149,
            "lng": -73.98641306970849
          },
          "southwest": {
            "lat": 40.69813696970849,
            "lng": -73.9891110302915
          }
        }
      },
      "icon": "https://maps.gstatic.com/mapfiles/place_api/icons/v1/png_71/school-71.png",
      "icon_background_color": "#7B9EB0",
      "icon_mask_base_uri": "https://maps.gstatic.com/mapfiles/place_api/icons/v2/school_pinlet",
      "name": "Brooklyn School of Languages",
      "opening_hours": {
        "open_now": false
      },
      "photos": [
        {
          "height": 810,
          "html_attributions": [
            "<a href=\"https://maps.google.com/maps/contrib/113028206121126204676\">Brooklyn School of Languages</a>"
          ],
          "photo_reference": "AeJbb3evGQ2rB36JdyiQ4O2DEpekSdkEJbgew0A5I48vneHkchgf1ZpGA-e0mJcjv9KVaAtl9GjtWhKHQ2krf4mp4brPULlhBxhuseIb2H5il6oFEgJm6k_RcxzHojzuDoEGjlNC6-7Wop5gZeS3hw7Gyllq_iKdPCcumAYP6y9k0XpiibzR",
          "width": 1440
        }
      ],
      "place_id": "ChIJNZRVEUlawokRqUw-claKin8",
      "plus_code": {
        "compound_code": "M2X6+QW \u7f8e\u570b\u7d10\u7d04",
        "global_code": "87G8M2X6+QW"
      },
      "rating": 4.6,
      "reference": "ChIJNZRVEUlawokRqUw-claKin8",
      "scope": "GOOGLE",
      "types": [
        "school",
        "point_of_interest",
        "establishment"
      ],
      "user_ratings_total": 49,
      "vicinity": "175 Pearl Street, Brooklyn"
    },
    {
      "business_status": "CLOSED_TEMPORARILY",
      "geometry": {
        "location": {
          "lat": 40.7026896,
          "lng": -73.9905891
        },
        "viewport": {
          "northeast": {
            "lat": 40.7040355802915,
            "lng": -73.98928846970848
          },
          "southwest": {
            "lat": 40.7013376197085,
            "lng": -73.9919864302915
          }
        }
      },
      "icon": "https://maps.gstatic.com/mapfiles/place_api/icons/v1/png_71/generic_business-71.png",
      "icon_background_color": "#7B9EB0",
      "icon_mask_base_uri": "https://maps.gstatic.com/mapfiles/place_api/icons/v2/generic_pinlet",
      "name": "Ferreira Construction Co Inc",
      "permanently_closed": true,
      "place_id": "ChIJUcyOPjFawokRncbdf0gr60o",
      "plus_code": {
        "compound_code": "P235+3Q \u7f8e\u570b\u7d10\u7d04\u5e03\u9c81\u514b\u6797",
        "global_code": "87G8P235+3Q"
      },
      "reference": "ChIJUcyOPjFawokRncbdf0gr60o",
      "scope": "GOOGLE",
      "types": [
        "general_contractor",
        "point_of_interest",
        "establishment"
      ],
      "vicinity": "45 Main Street #613, Brooklyn"
    },
    {
      "business_status": "OPERATIONAL",
      "geometry": {
        "location": {
          "lat": 40.7023735,
          "lng": -73.98750299999999
        },
        "viewport": {
          "northeast": {
            "lat": 40.70376048029151,
            "lng": -73.98612931970848
          },
          "southwest": {
            "lat": 40.70106251970851,
            "lng": -73.98882728029149
          }
        }
      },
      "icon": "https://maps.gstatic.com/mapfiles/place_api/icons/v1/png_71/restaurant-71.png",
      "icon_background_color": "#FF9E67",
      "icon_mask_base_uri": "https://maps.gstatic.com/mapfiles/place_api/icons/v2/restaurant_pinlet",
      "name": "Superfine",
      "opening_hours": {
        "open_now": true
      },
      "photos": [
        {
          "height": 720,
          "html_attributions": [
            "<a href=\"https://maps.google.com/maps/contrib/100943994162160384374\">Superfine</a>"
          ],
          "photo_reference": "AeJbb3dJPv96Uw7pYf0fHKPv2mXbi65ZpWNkxO50WotGrlUvJ-dEX2MCWINC_7OJYSTq1FmJgFu2r35PxYEvJm6Fwp8BQNvGgIYZgPENVd-59Eptpewjj4aD6_6t8f_jMQY0Nj0GPVlUN3tqtJx1Ps2w3u8yprhj-wl3Ohb8zQb6PX_eQ4n0",
          "width": 960
        }
      ],
      "place_id": "ChIJYSFd6zNawokRpLteYhPEu_A",
      "plus_code": {
        "compound_code": "P226+WX \u7f8e\u570b\u7d10\u7d04",
        "global_code": "87G8P226+WX"
      },
      "price_level": 2,
      "rating": 4.3,
      "reference": "ChIJYSFd6zNawokRpLteYhPEu_A",
      "scope": "GOOGLE",
      "types": [
        "restaurant",
        "bar",
        "food",
        "point_of_interest",
        "establishment"
      ],
      "user_ratings_total": 920,
      "vicinity": "126 Front Street, Brooklyn"
    },
    {
      "business_status": "CLOSED_TEMPORARILY",
      "geometry": {
        "location": {
          "lat": 40.7030752,
          "lng": -73.9902571
        },
        "viewport": {
          "northeast": {
            "lat": 40.70450318029149,
            "lng": -73.9887778697085
          },
          "southwest": {
            "lat": 40.7018052197085,
            "lng": -73.9914758302915
          }
        }
      },
      "icon": "https://maps.gstatic.com/mapfiles/place_api/icons/v1/png_71/generic_business-71.png",
      "icon_background_color": "#7B9EB0",
      "icon_mask_base_uri": "https://maps.gstatic.com/mapfiles/place_api/icons/v2/generic_pinlet",
      "name": "Savid Technologies Inc",
      "permanently_closed": true,
      "place_id": "ChIJUcyOPjFawokRYbZuE8gx11Y",
      "plus_code": {
        "compound_code": "P235+6V \u7f8e\u570b\u7d10\u7d04\u5e03\u9c81\u514b\u6797",
        "global_code": "87G8P235+6V"
      },
      "reference": "ChIJUcyOPjFawokRYbZuE8gx11Y",
      "scope": "GOOGLE",
      "types": [
        "point_of_interest",
        "establishment"
      ],
      "vicinity": "45 Main Street #520, Brooklyn"
    },
    {
      "business_status": "CLOSED_TEMPORARILY",
      "geometry": {
        "location": {
          "lat": 40.7030752,
          "lng": -73.9902571
        },
        "viewport": {
          "northeast": {
            "lat": 40.70450318029149,
            "lng": -73.9887778697085
          },
          "southwest": {
            "lat": 40.7018052197085,
            "lng": -73.9914758302915
          }
        }
      },
      "icon": "https://maps.gstatic.com/mapfiles/place_api/icons/v1/png_71/generic_business-71.png",
      "icon_background_color": "#7B9EB0",
      "icon_mask_base_uri": "https://maps.gstatic.com/mapfiles/place_api/icons/v2/generic_pinlet",
      "name": "Strauss Consultants",
      "permanently_closed": true,
      "place_id": "ChIJUcyOPjFawokR_NJDj4qAPQ4",
      "plus_code": {
        "compound_code": "P235+6V \u7f8e\u570b\u7d10\u7d04\u5e03\u9c81\u514b\u6797",
        "global_code": "87G8P235+6V"
      },
      "reference": "ChIJUcyOPjFawokR_NJDj4qAPQ4",
      "scope": "GOOGLE",
      "types": [
        "point_of_interest",
        "establishment"
      ],
      "vicinity": "45 Main Street #611, Brooklyn"
    },
    {
      "business_status": "OPERATIONAL",
      "geometry": {
        "location": {
          "lat": 40.7032083,
          "lng": -73.99142499999999
        },
        "viewport": {
          "northeast": {
            "lat": 40.7045968302915,
            "lng": -73.9900736697085
          },
          "southwest": {
            "lat": 40.7018988697085,
            "lng": -73.9927716302915
          }
        }
      },
      "icon": "https://maps.gstatic.com/mapfiles/place_api/icons/v1/png_71/shopping-71.png",
      "icon_background_color": "#4B96F3",
      "icon_mask_base_uri": "https://maps.gstatic.com/mapfiles/place_api/icons/v2/shopping_pinlet",
      "name": "Jacques Torres Chocolate - Dumbo",
      "opening_hours": {
        "open_now": true
      },
      "photos": [
        {
          "height": 2048,
          "html_attributions": [
            "<a href=\"https://maps.google.com/maps/contrib/109727148333413044932\">Rutger van Faassen</a>"
          ],
          "photo_reference": "AeJbb3dlY265X0QmCclDSfrd2Vax3-jEmyLjnOIz2dun4rWg8qpBP7q5-fSiHCn7a6mNuG0qaL-2wBRz9pMeWZPjQ6g3N8fmXjnppdmdze81gFvn4qUXNiZU6besNLX876JlrneqzmdZxst0giJJFQXdL5QhKvCTyQcPMYIvTUUd1s9NRs0",
          "width": 1369
        }
      ],
      "place_id": "ChIJxZbAGDFawokRQMOlMAjumQk",
      "plus_code": {
        "compound_code": "P235+7C \u7f8e\u570b\u7d10\u7d04",
        "global_code": "87G8P235+7C"
      },
      "price_level": 2,
      "rating": 4.4,
      "reference": "ChIJxZbAGDFawokRQMOlMAjumQk",
      "scope": "GOOGLE",
      "types": [
        "store",
        "food",
        "point_of_interest",
        "establishment"
      ],
      "user_ratings_total": 786,
      "vicinity": "66 Water Street, Brooklyn"
    },
    {
      "business_status": "OPERATIONAL",
      "geometry": {
        "location": {
          "lat": 40.7027217,
          "lng": -73.98688779999999
        },
        "viewport": {
          "northeast": {
            "lat": 40.7040671302915,
            "lng": -73.98543521970849
          },
          "southwest": {
            "lat": 40.7013691697085,
            "lng": -73.9881331802915
          }
        }
      },
      "icon": "https://maps.gstatic.com/mapfiles/place_api/icons/v1/png_71/shopping-71.png",
      "icon_background_color": "#4B96F3",
      "icon_mask_base_uri": "https://maps.gstatic.com/mapfiles/place_api/icons/v2/shopping_pinlet",
      "name": "Saltlands Studio",
      "place_id": "ChIJhVjDujNawokRDrcQQ4ru3Ss",
      "reference": "ChIJhVjDujNawokRDrcQQ4ru3Ss",
      "scope": "GOOGLE",
      "types": [
        "home_goods_store",
        "electronics_store",
        "store",
        "point_of_interest",
        "establishment"
      ],
      "vicinity": "68 Jay Street, Brooklyn"
    },
    {
      "business_status": "OPERATIONAL",
      "geometry": {
        "location": {
          "lat": 40.7026493,
          "lng": -73.98932409999999
        },
        "viewport": {
          "northeast": {
            "lat": 40.7039333302915,
            "lng": -73.98797961970848
          },
          "southwest": {
            "lat": 40.7012353697085,
            "lng": -73.9906775802915
          }
        }
      },
      "icon": "https://maps.gstatic.com/mapfiles/place_api/icons/v1/png_71/generic_business-71.png",
      "icon_background_color": "#7B9EB0",
      "icon_mask_base_uri": "https://maps.gstatic.com/mapfiles/place_api/icons/v2/generic_pinlet",
      "name": "CBL Consulting LLC",
      "place_id": "ChIJZaiaZzFawokRytfQAH39Mms",
      "plus_code": {
        "compound_code": "P236+37 \u7f8e\u570b\u7d10\u7d04\u5e03\u9c81\u514b\u6797",
        "global_code": "87G8P236+37"
      },
      "reference": "ChIJZaiaZzFawokRytfQAH39Mms",
      "scope": "GOOGLE",
      "types": [
        "point_of_interest",
        "establishment"
      ],
      "vicinity": "55 Washington Street # 321, Brooklyn"
    },
    {
      "business_status": "OPERATIONAL",
      "geometry": {
        "location": {
          "lat": 40.7028129,
          "lng": -73.9873187
        },
        "viewport": {
          "northeast": {
            "lat": 40.7041891802915,
            "lng": -73.9861166197085
          },
          "southwest": {
            "lat": 40.7014912197085,
            "lng": -73.9888145802915
          }
        }
      },
      "icon": "https://maps.gstatic.com/mapfiles/place_api/icons/v1/png_71/generic_business-71.png",
      "icon_background_color": "#7B9EB0",
      "icon_mask_base_uri": "https://maps.gstatic.com/mapfiles/place_api/icons/v2/generic_pinlet",
      "name": "Kindred Development",
      "opening_hours": {
        "open_now": false
      },
      "photos": [
        {
          "height": 1536,
          "html_attributions": [
            "<a href=\"https://maps.google.com/maps/contrib/106933889786228584942\">Kindred Development</a>"
          ],
          "photo_reference": "AeJbb3dMGQlHgUS9_oG36asPspfmzl27fEXIXaT6-Yq5-pF8Cxt881LRfGlJjEdCsA6Qwuhj5jrEADhPpLaS2xlFrnkQgaHmEOiJgEVP9isQxxsHwjhF8-Kt-iOl5WsyRDRrBbQeSt-HV8pPEwhVaN-kdG6Y7LquxwIHTdAU0lZSe7ZrlE03",
          "width": 2048
        }
      ],
      "place_id": "ChIJ6V6WvDNawokRoBv9CjbgaAo",
      "reference": "ChIJ6V6WvDNawokRoBv9CjbgaAo",
      "scope": "GOOGLE",
      "types": [
        "point_of_interest",
        "establishment"
      ],
      "vicinity": "68 Jay Street #201, Brooklyn"
    },
    {
      "geometry": {
        "location": {
          "lat": 40.6781784,
          "lng": -73.9441579
        },
        "viewport": {
          "northeast": {
            "lat": 40.73944597129348,
            "lng": -73.83336505117123
          },
          "southwest": {
            "lat": 40.55104197967331,
            "lng": -74.05662998413648
          }
        }
      },
      "icon": "https://maps.gstatic.com/mapfiles/place_api/icons/v1/png_71/geocode-71.png",
      "icon_background_color": "#7B9EB0",
      "icon_mask_base_uri": "https://maps.gstatic.com/mapfiles/place_api/icons/v2/generic_pinlet",
      "name": "\u5e03\u9c81\u514b\u6797",
      "photos": [
        {
          "height": 3024,
          "html_attributions": [
            "<a href=\"https://maps.google.com/maps/contrib/114417859579881743500\">Chengxiang Yuan</a>"
          ],
          "photo_reference": "AeJbb3f56WRzsQsmlN_6Y1Fi2hwzNXsX5J3rkmI6t9wqrvOjShSEN-DruqHeF2egRNvH4D2ic-c29_nh9UDuVyJRtIhNwoi-3ATpECeu3DmozYi24vGOgQl051XvGNlokMtis-9FKPL76H_2LwfBiGB_0UtVj4PMRsqKS7d6ZT2BbhzyHW-F",
          "width": 4032
        }
      ],
      "place_id": "ChIJCSF8lBZEwokRhngABHRcdoI",
      "reference": "ChIJCSF8lBZEwokRhngABHRcdoI",
      "scope": "GOOGLE",
      "types": [
        "sublocality_level_1",
        "sublocality",
        "political"
      ],
      "vicinity": "\u5e03\u9c81\u514b\u6797"
    },
    {
      "business_status": "OPERATIONAL",
      "geometry": {
        "location": {
          "lat": 40.7028139,
          "lng": -73.9868145
        },
        "viewport": {
          "northeast": {
            "lat": 40.7041604802915,
            "lng": -73.98539571970849
          },
          "southwest": {
            "lat": 40.7014625197085,
            "lng": -73.98809368029151
          }
        }
      },
      "icon": "https://maps.gstatic.com/mapfiles/place_api/icons/v1/png_71/generic_business-71.png",
      "icon_background_color": "#7B9EB0",
      "icon_mask_base_uri": "https://maps.gstatic.com/mapfiles/place_api/icons/v2/generic_pinlet",
      "name": "EnviroMed Services, INC.",
      "opening_hours": {
        "open_now": true
      },
      "place_id": "ChIJUcyOPjFawokRxAjl0Y5bXvg",
      "plus_code": {
        "compound_code": "P237+47 Brooklyn, NY, USA",
        "global_code": "87G8P237+47"
      },
      "reference": "ChIJUcyOPjFawokRxAjl0Y5bXvg",
      "scope": "GOOGLE",
      "types": [
        "point_of_interest",
        "establishment"
      ],
      "vicinity": "68 Jay Street #203, Brooklyn"
    },
    {
      "business_status": "OPERATIONAL",
      "geometry": {
        "location": {
          "lat": 40.7028816,
          "lng": -73.9904334
        },
        "viewport": {
          "northeast": {
            "lat": 40.7041577302915,
            "lng": -73.9892052197085
          },
          "southwest": {
            "lat": 40.7014597697085,
            "lng": -73.9919031802915
          }
        }
      },
      "icon": "https://maps.gstatic.com/mapfiles/place_api/icons/v1/png_71/generic_business-71.png",
      "icon_background_color": "#7B9EB0",
      "icon_mask_base_uri": "https://maps.gstatic.com/mapfiles/place_api/icons/v2/generic_pinlet",
      "name": "National Student Nurse's Association",
      "opening_hours": {
        "open_now": false
      },
      "place_id": "ChIJIVm7PjFawokRY9g3-NzTJVY",
      "plus_code": {
        "compound_code": "P235+5R Brooklyn, NY, USA",
        "global_code": "87G8P235+5R"
      },
      "reference": "ChIJIVm7PjFawokRY9g3-NzTJVY",
      "scope": "GOOGLE",
      "types": [
        "point_of_interest",
        "establishment"
      ],
      "vicinity": "45 Main Street #606, Brooklyn"
    },
    {
      "business_status": "OPERATIONAL",
      "geometry": {
        "location": {
          "lat": 40.7028278,
          "lng": -73.9893866
        },
        "viewport": {
          "northeast": {
            "lat": 40.7041682302915,
            "lng": -73.98815021970849
          },
          "southwest": {
            "lat": 40.7014702697085,
            "lng": -73.9908481802915
          }
        }
      },
      "icon": "https://maps.gstatic.com/mapfiles/place_api/icons/v1/png_71/generic_business-71.png",
      "icon_background_color": "#7B9EB0",
      "icon_mask_base_uri": "https://maps.gstatic.com/mapfiles/place_api/icons/v2/generic_pinlet",
      "name": "Mc Mahon Martine & Gallagher",
      "place_id": "ChIJZaiaZzFawokRT_BYHb9xQ40",
      "plus_code": {
        "compound_code": "P236+46 New York, NY, USA",
        "global_code": "87G8P236+46"
      },
      "rating": 2.8,
      "reference": "ChIJZaiaZzFawokRT_BYHb9xQ40",
      "scope": "GOOGLE",
      "types": [
        "lawyer",
        "point_of_interest",
        "establishment"
      ],
      "user_ratings_total": 4,
      "vicinity": "55 Washington Street Suite 720, Brooklyn"
    },
    {
      "business_status": "OPERATIONAL",
      "geometry": {
        "location": {
          "lat": 40.7028278,
          "lng": -73.9893866
        },
        "viewport": {
          "northeast": {
            "lat": 40.7041682302915,
            "lng": -73.98815021970849
          },
          "southwest": {
            "lat": 40.7014702697085,
            "lng": -73.9908481802915
          }
        }
      },
      "icon": "https://maps.gstatic.com/mapfiles/place_api/icons/v1/png_71/generic_business-71.png",
      "icon_background_color": "#7B9EB0",
      "icon_mask_base_uri": "https://maps.gstatic.com/mapfiles/place_api/icons/v2/generic_pinlet",
      "name": "Compassionate Care",
      "place_id": "ChIJZaiaZzFawokRSIrv21URfaY",
      "plus_code": {
        "compound_code": "P236+46 Brooklyn, NY, USA",
        "global_code": "87G8P236+46"
      },
      "reference": "ChIJZaiaZzFawokRSIrv21URfaY",
      "scope": "GOOGLE",
      "types": [
        "health",
        "point_of_interest",
        "establishment"
      ],
      "vicinity": "55 Washington Street # 331, Brooklyn"
    },
    {
      "business_status": "OPERATIONAL",
      "geometry": {
        "location": {
          "lat": 40.7027571,
          "lng": -73.98683419999999
        },
        "viewport": {
          "northeast": {
            "lat": 40.7041034302915,
            "lng": -73.98540731970849
          },
          "southwest": {
            "lat": 40.7014054697085,
            "lng": -73.98810528029149
          }
        }
      },
      "icon": "https://maps.gstatic.com/mapfiles/place_api/icons/v1/png_71/generic_business-71.png",
      "icon_background_color": "#7B9EB0",
      "icon_mask_base_uri": "https://maps.gstatic.com/mapfiles/place_api/icons/v2/generic_pinlet",
      "name": "Jens Mortensen Photography",
      "place_id": "ChIJbSHDjq1ZwokRTtnPPCu0Oxg",
      "plus_code": {
        "compound_code": "P237+47 New York, NY, USA",
        "global_code": "87G8P237+47"
      },
      "reference": "ChIJbSHDjq1ZwokRTtnPPCu0Oxg",
      "scope": "GOOGLE",
      "types": [
        "point_of_interest",
        "establishment"
      ],
      "vicinity": "68 Jay Street, Brooklyn"
    },
    {
      "business_status": "OPERATIONAL",
      "geometry": {
        "location": {
          "lat": 40.7027217,
          "lng": -73.98688779999999
        },
        "viewport": {
          "northeast": {
            "lat": 40.7040671302915,
            "lng": -73.98543521970849
          },
          "southwest": {
            "lat": 40.7013691697085,
            "lng": -73.9881331802915
          }
        }
      },
      "icon": "https://maps.gstatic.com/mapfiles/place_api/icons/v1/png_71/generic_business-71.png",
      "icon_background_color": "#7B9EB0",
      "icon_mask_base_uri": "https://maps.gstatic.com/mapfiles/place_api/icons/v2/generic_pinlet",
      "name": "Delirium",
      "photos": [
        {
          "height": 3024,
          "html_attributions": [
            "<a href=\"https://maps.google.com/maps/contrib/107101651209508065359\">Jaysen Hortenstine</a>"
          ],
          "photo_reference": "AeJbb3c4ZxPt5vbsCdQplEyToDmeX00Ci3C3RcwPNUkA_YUkt-08dMqMJdcXQGzYmz2OmVVs4iO53mv9fh6fUZNxmDKr4UpkJJSnGvk6UpBw5stdN5YlejxKB1NtvrHlGHe_MSOWsqolViu9B2cu7mVTv84oQv90exyTbZbusAJehLRBz6uO",
          "width": 4032
        }
      ],
      "place_id": "ChIJhVjDujNawokRBhNYr28226s",
      "reference": "ChIJhVjDujNawokRBhNYr28226s",
      "scope": "GOOGLE",
      "types": [
        "point_of_interest",
        "establishment"
      ],
      "vicinity": "68 Jay Street, Brooklyn"
    },
    {
      "business_status": "OPERATIONAL",
      "geometry": {
        "location": {
          "lat": 40.7026493,
          "lng": -73.98932409999999
        },
        "viewport": {
          "northeast": {
            "lat": 40.7039333302915,
            "lng": -73.98797961970848
          },
          "southwest": {
            "lat": 40.7012353697085,
            "lng": -73.9906775802915
          }
        }
      },
      "icon": "https://maps.gstatic.com/mapfiles/place_api/icons/v1/png_71/generic_business-71.png",
      "icon_background_color": "#7B9EB0",
      "icon_mask_base_uri": "https://maps.gstatic.com/mapfiles/place_api/icons/v2/generic_pinlet",
      "name": "Robinson + Grisaru Architecture PC",
      "place_id": "ChIJZaiaZzFawokRRLfOEuTrk4s",
      "plus_code": {
        "compound_code": "P236+37 New York, NY, USA",
        "global_code": "87G8P236+37"
      },
      "reference": "ChIJZaiaZzFawokRRLfOEuTrk4s",
      "scope": "GOOGLE",
      "types": [
        "point_of_interest",
        "establishment"
      ],
      "vicinity": "55 Washington Street Suite 711, Brooklyn"
    },
    {
      "business_status": "CLOSED_TEMPORARILY",
      "geometry": {
        "location": {
          "lat": 40.7028278,
          "lng": -73.9893866
        },
        "viewport": {
          "northeast": {
            "lat": 40.7041682302915,
            "lng": -73.98815021970849
          },
          "southwest": {
            "lat": 40.7014702697085,
            "lng": -73.9908481802915
          }
        }
      },
      "icon": "https://maps.gstatic.com/mapfiles/place_api/icons/v1/png_71/generic_business-71.png",
      "icon_background_color": "#7B9EB0",
      "icon_mask_base_uri": "https://maps.gstatic.com/mapfiles/place_api/icons/v2/generic_pinlet",
      "name": "Morgan Carper Designs LLC",
      "permanently_closed": true,
      "place_id": "ChIJZaiaZzFawokR_K_B2UH-gfg",
      "plus_code": {
        "compound_code": "P236+46 Brooklyn, NY, USA",
        "global_code": "87G8P236+46"
      },
      "reference": "ChIJZaiaZzFawokR_K_B2UH-gfg",
      "scope": "GOOGLE",
      "types": [
        "general_contractor",
        "point_of_interest",
        "establishment"
      ],
      "vicinity": "55 Washington Street, Brooklyn"
    },
    {
      "business_status": "OPERATIONAL",
      "geometry": {
        "location": {
          "lat": 40.7028278,
          "lng": -73.9893866
        },
        "viewport": {
          "northeast": {
            "lat": 40.7041682302915,
            "lng": -73.98815021970849
          },
          "southwest": {
            "lat": 40.7014702697085,
            "lng": -73.9908481802915
          }
        }
      },
      "icon": "https://maps.gstatic.com/mapfiles/place_api/icons/v1/png_71/generic_business-71.png",
      "icon_background_color": "#7B9EB0",
      "icon_mask_base_uri": "https://maps.gstatic.com/mapfiles/place_api/icons/v2/generic_pinlet",
      "name": "Martine Anthony D",
      "place_id": "ChIJZaiaZzFawokRiJrtoR0_f-U",
      "plus_code": {
        "compound_code": "P236+46 Brooklyn, NY, USA",
        "global_code": "87G8P236+46"
      },
      "reference": "ChIJZaiaZzFawokRiJrtoR0_f-U",
      "scope": "GOOGLE",
      "types": [
        "lawyer",
        "point_of_interest",
        "establishment"
      ],
      "vicinity": "55 Washington Street, Brooklyn"
    },
    {
      "business_status": "CLOSED_TEMPORARILY",
      "geometry": {
        "location": {
          "lat": 40.7028278,
          "lng": -73.9893866
        },
        "viewport": {
          "northeast": {
            "lat": 40.7041682302915,
            "lng": -73.98815021970849
          },
          "southwest": {
            "lat": 40.7014702697085,
            "lng": -73.9908481802915
          }
        }
      },
      "icon": "https://maps.gstatic.com/mapfiles/place_api/icons/v1/png_71/generic_business-71.png",
      "icon_background_color": "#7B9EB0",
      "icon_mask_base_uri": "https://maps.gstatic.com/mapfiles/place_api/icons/v2/generic_pinlet",
      "name": "P Pohl Productions",
      "permanently_closed": true,
      "place_id": "ChIJZaiaZzFawokRDJmI2qja-Mk",
      "plus_code": {
        "compound_code": "P236+46 Brooklyn, NY, USA",
        "global_code": "87G8P236+46"
      },
      "reference": "ChIJZaiaZzFawokRDJmI2qja-Mk",
      "scope": "GOOGLE",
      "types": [
        "point_of_interest",
        "establishment"
      ],
      "vicinity": "55 Washington Street # 709, Brooklyn"
    },
    {
      "business_status": "OPERATIONAL",
      "geometry": {
        "location": {
          "lat": 40.7028278,
          "lng": -73.9893866
        },
        "viewport": {
          "northeast": {
            "lat": 40.7041682302915,
            "lng": -73.98815021970849
          },
          "southwest": {
            "lat": 40.7014702697085,
            "lng": -73.9908481802915
          }
        }
      },
      "icon": "https://maps.gstatic.com/mapfiles/place_api/icons/v1/png_71/generic_business-71.png",
      "icon_background_color": "#7B9EB0",
      "icon_mask_base_uri": "https://maps.gstatic.com/mapfiles/place_api/icons/v2/generic_pinlet",
      "name": "FutureNow, Inc.",
      "place_id": "ChIJZaiaZzFawokRkD5GwodEMRQ",
      "plus_code": {
        "compound_code": "P236+46 Brooklyn, NY, USA",
        "global_code": "87G8P236+46"
      },
      "reference": "ChIJZaiaZzFawokRkD5GwodEMRQ",
      "scope": "GOOGLE",
      "types": [
        "point_of_interest",
        "establishment"
      ],
      "vicinity": "55 Washington Street, Brooklyn"
    },
    {
      "business_status": "CLOSED_TEMPORARILY",
      "geometry": {
        "location": {
          "lat": 40.70285829999999,
          "lng": -73.9893922
        },
        "viewport": {
          "northeast": {
            "lat": 40.7041833802915,
            "lng": -73.9881522697085
          },
          "southwest": {
            "lat": 40.70148541970851,
            "lng": -73.9908502302915
          }
        }
      },
      "icon": "https://maps.gstatic.com/mapfiles/place_api/icons/v1/png_71/shopping-71.png",
      "icon_background_color": "#4B96F3",
      "icon_mask_base_uri": "https://maps.gstatic.com/mapfiles/place_api/icons/v2/shopping_pinlet",
      "name": "Dabney Lee Stationery",
      "permanently_closed": true,
      "place_id": "ChIJZaiaZzFawokRgXBtkM1Gs7Q",
      "plus_code": {
        "compound_code": "P236+46 Brooklyn, NY, USA",
        "global_code": "87G8P236+46"
      },
      "reference": "ChIJZaiaZzFawokRgXBtkM1Gs7Q",
      "scope": "GOOGLE",
      "types": [
        "point_of_interest",
        "store",
        "establishment"
      ],
      "vicinity": "55 Washington Street # 736, Brooklyn"
    },
    {
      "business_status": "OPERATIONAL",
      "geometry": {
        "location": {
          "lat": 40.7027467,
          "lng": -73.9934349
        },
        "viewport": {
          "northeast": {
            "lat": 40.70401893029149,
            "lng": -73.99216131970849
          },
          "southwest": {
            "lat": 40.70132096970849,
            "lng": -73.99485928029151
          }
        }
      },
      "icon": "https://maps.gstatic.com/mapfiles/place_api/icons/v1/png_71/restaurant-71.png",
      "icon_background_color": "#FF9E67",
      "icon_mask_base_uri": "https://maps.gstatic.com/mapfiles/place_api/icons/v2/restaurant_pinlet",
      "name": "Juliana's",
      "opening_hours": {
        "open_now": true
      },
      "photos": [
        {
          "height": 667,
          "html_attributions": [
            "<a href=\"https://maps.google.com/maps/contrib/115599262880008137921\">Juliana&#39;s</a>"
          ],
          "photo_reference": "AeJbb3cQd0REZhs_LR88nmruvwY4NK_wd8pBsdzunEV1dtDtgM4A48JWIIGIRVs2W6P6tsG8Lu6ymiOTRgw7lnHb4d4Z34LnFb0GfMFtB9xMnap3DpfuM92zlJj8R195GNwA9eUwI9x601hir-q34UZSSseZiBM14YMhPeXcK4yORM3jWtol",
          "width": 1000
        }
      ],
      "place_id": "ChIJAQr5tjBawokRBBESUv8Tw5I",
      "plus_code": {
        "compound_code": "P234+3J New York, NY, USA",
        "global_code": "87G8P234+3J"
      },
      "price_level": 2,
      "rating": 4.6,
      "reference": "ChIJAQr5tjBawokRBBESUv8Tw5I",
      "scope": "GOOGLE",
      "types": [
        "restaurant",
        "food",
        "point_of_interest",
        "establishment"
      ],
      "user_ratings_total": 4515,
      "vicinity": "19 Old Fulton Street, Brooklyn"
    },
    {
      "business_status": "OPERATIONAL",
      "geometry": {
        "location": {
          "lat": 40.7028278,
          "lng": -73.9893866
        },
        "viewport": {
          "northeast": {
            "lat": 40.7041682302915,
            "lng": -73.98815021970849
          },
          "southwest": {
            "lat": 40.7014702697085,
            "lng": -73.9908481802915
          }
        }
      },
      "icon": "https://maps.gstatic.com/mapfiles/place_api/icons/v1/png_71/generic_business-71.png",
      "icon_background_color": "#7B9EB0",
      "icon_mask_base_uri": "https://maps.gstatic.com/mapfiles/place_api/icons/v2/generic_pinlet",
      "name": "Martinez Group Pllc",
      "place_id": "ChIJZaiaZzFawokRwYss5HjAAx4",
      "plus_code": {
        "compound_code": "P236+46 Brooklyn, NY, USA",
        "global_code": "87G8P236+46"
      },
      "reference": "ChIJZaiaZzFawokRwYss5HjAAx4",
      "scope": "GOOGLE",
      "types": [
        "point_of_interest",
        "establishment"
      ],
      "vicinity": "55 Washington Street # 316, Brooklyn"
    },
    {
      "business_status": "OPERATIONAL",
      "geometry": {
        "location": {
          "lat": 40.7027571,
          "lng": -73.98683419999999
        },
        "viewport": {
          "northeast": {
            "lat": 40.7041034302915,
            "lng": -73.98540731970849
          },
          "southwest": {
            "lat": 40.7014054697085,
            "lng": -73.98810528029149
          }
        }
      },
      "icon": "https://maps.gstatic.com/mapfiles/place_api/icons/v1/png_71/generic_business-71.png",
      "icon_background_color": "#7B9EB0",
      "icon_mask_base_uri": "https://maps.gstatic.com/mapfiles/place_api/icons/v2/generic_pinlet",
      "name": "Canino Lcsw Psychotherapy PC",
      "opening_hours": {
        "open_now": true
      },
      "photos": [
        {
          "height": 450,
          "html_attributions": [
            "<a href=\"https://maps.google.com/maps/contrib/107396207624704458255\">Canino Lcsw Psychotherapy PC</a>"
          ],
          "photo_reference": "AeJbb3eb6u0SAxt67jAN9VYHVHzZoqp3EZyAGHQ-bJ4SglZLeIvJiimdK6tXCWAhS_5oqvJoDy38zfw_FOJ84TzLX3RihfAoVItTSinvIfZSTojkF21c0RbpD7e6nc4MPWHoVZaCtDnyATCykKuBPJ2XhH1fl2WUyoUY81shgpbED3Q0-zzH",
          "width": 674
        }
      ],
      "place_id": "ChIJgRMMljNawokRwzu4NUbjT20",
      "plus_code": {
        "compound_code": "P237+47 Brooklyn, NY, USA",
        "global_code": "87G8P237+47"
      },
      "rating": 5,
      "reference": "ChIJgRMMljNawokRwzu4NUbjT20",
      "scope": "GOOGLE",
      "types": [
        "health",
        "point_of_interest",
        "establishment"
      ],
      "user_ratings_total": 14,
      "vicinity": "68 Jay Street Suite 212, 311, 620, Brooklyn"
    },
    {
      "business_status": "OPERATIONAL",
      "geometry": {
        "location": {
          "lat": 40.7022837,
          "lng": -73.986935
        },
        "viewport": {
          "northeast": {
            "lat": 40.7037071302915,
            "lng": -73.9855818697085
          },
          "southwest": {
            "lat": 40.7010091697085,
            "lng": -73.9882798302915
          }
        }
      },
      "icon": "https://maps.gstatic.com/mapfiles/place_api/icons/v1/png_71/generic_business-71.png",
      "icon_background_color": "#7B9EB0",
      "icon_mask_base_uri": "https://maps.gstatic.com/mapfiles/place_api/icons/v2/generic_pinlet",
      "name": "Colin Kelly - Digital Media",
      "place_id": "ChIJA0rIjzNawokRFm_l07h6-X0",
      "plus_code": {
        "compound_code": "P227+W6 New York, NY, USA",
        "global_code": "87G8P227+W6"
      },
      "reference": "ChIJA0rIjzNawokRFm_l07h6-X0",
      "scope": "GOOGLE",
      "types": [
        "point_of_interest",
        "establishment"
      ],
      "vicinity": "100 Jay Street, Brooklyn"
    },
    {
      "business_status": "OPERATIONAL",
      "geometry": {
        "location": {
          "lat": 40.703037,
          "lng": -73.9888723
        },
        "viewport": {
          "northeast": {
            "lat": 40.7044708302915,
            "lng": -73.9877103197085
          },
          "southwest": {
            "lat": 40.7017728697085,
            "lng": -73.9904082802915
          }
        }
      },
      "icon": "https://maps.gstatic.com/mapfiles/place_api/icons/v1/png_71/generic_business-71.png",
      "icon_background_color": "#7B9EB0",
      "icon_mask_base_uri": "https://maps.gstatic.com/mapfiles/place_api/icons/v2/generic_pinlet",
      "name": "powerHouse Books",
      "opening_hours": {
        "open_now": true
      },
      "photos": [
        {
          "height": 3000,
          "html_attributions": [
            "<a href=\"https://maps.google.com/maps/contrib/118263448868940008128\">Phillip Pastore</a>"
          ],
          "photo_reference": "AeJbb3eN5km4mOxVRYzHY5u0dgibmdJR4GwbHClRkWRrpj1RKYD7MspFZtMNlJftj0JZl-UAYZKHWXyujYYVH-Al6xlXjR7I-la41e4JAffyeFBfXoXteqe9S1y74szFmqWTz7fT14bUxpktmSiWqensbkHZc0SLvDQ9aMEL3duxv_hDmklg",
          "width": 4000
        }
      ],
      "place_id": "ChIJi-GsFTFawokRXHiJIV3rhLk",
      "plus_code": {
        "compound_code": "P236+6F New York, NY, USA",
        "global_code": "87G8P236+6F"
      },
      "rating": 4.6,
      "reference": "ChIJi-GsFTFawokRXHiJIV3rhLk",
      "scope": "GOOGLE",
      "types": [
        "point_of_interest",
        "establishment"
      ],
      "user_ratings_total": 28,
      "vicinity": "32 Adams Street, Brooklyn"
    },
    {
      "business_status": "OPERATIONAL",
      "geometry": {
        "location": {
          "lat": 40.6990442,
          "lng": -73.9893167
        },
        "viewport": {
          "northeast": {
            "lat": 40.70040108029149,
            "lng": -73.98771426970849
          },
          "southwest": {
            "lat": 40.6977031197085,
            "lng": -73.9904122302915
          }
        }
      },
      "icon": "https://maps.gstatic.com/mapfiles/place_api/icons/v1/png_71/civic_building-71.png",
      "icon_background_color": "#7B9EB0",
      "icon_mask_base_uri": "https://maps.gstatic.com/mapfiles/place_api/icons/v2/civic-bldg_pinlet",
      "name": "New York City Emergency Management Department",
      "photos": [
        {
          "height": 2752,
          "html_attributions": [
            "<a href=\"https://maps.google.com/maps/contrib/116522566196014882453\">Rade Spasovski</a>"
          ],
          "photo_reference": "AeJbb3f-NInVXGkj1_1ITldewJBUl_T3RZvCTaAHrE7fi9vMdxk7u7BJjhQeuIi2iMClMZ_M5gCunWK8YrDWTf4GysKjTNcJgPIGYxJxsRWdczrq8OeqG10CEfjFuklfTWGYP3g1pV9JsqS0JMXqCeSHom0P8_TsKzfko4V-b9LbxIn1g6vP",
          "width": 5664
        }
      ],
      "place_id": "ChIJgUKyfTZawokRDf7spAJ5mIY",
      "plus_code": {
        "compound_code": "M2X6+J7 Brooklyn, NY, USA",
        "global_code": "87G8M2X6+J7"
      },
      "rating": 4.6,
      "reference": "ChIJgUKyfTZawokRDf7spAJ5mIY",
      "scope": "GOOGLE",
      "types": [
        "local_government_office",
        "point_of_interest",
        "establishment"
      ],
      "user_ratings_total": 7,
      "vicinity": "165 Cadman Plaza East, Brooklyn"
    },
    {
      "business_status": "OPERATIONAL",
      "geometry": {
        "location": {
          "lat": 40.7029769,
          "lng": -73.9887652
        },
        "viewport": {
          "northeast": {
            "lat": 40.70444043029151,
            "lng": -73.98765856970849
          },
          "southwest": {
            "lat": 40.70174246970851,
            "lng": -73.9903565302915
          }
        }
      },
      "icon": "https://maps.gstatic.com/mapfiles/place_api/icons/v1/png_71/shopping-71.png",
      "icon_background_color": "#4B96F3",
      "icon_mask_base_uri": "https://maps.gstatic.com/mapfiles/place_api/icons/v2/shopping_pinlet",
      "name": "POWERHOUSE Arena",
      "opening_hours": {
        "open_now": true
      },
      "photos": [
        {
          "height": 2268,
          "html_attributions": [
            "<a href=\"https://maps.google.com/maps/contrib/102683979011523736903\">Sergio Rub\u00e9n Geller</a>"
          ],
          "photo_reference": "AeJbb3d0n-N00aO_K2VjkflxqLanreAHqolCSjW7YdKyUz4egbSn42Gv7QQaWJQayGZ0v1_VauBZwZsrI57TJhG8at5NfvSJTmTy_oXNGvoWJpHqU-8Es5KeAlQ16GdiOqCE8NW7yXkfPjvBfKRX_c7qx1vCF0u0gQI0S3j3u72bAbPS3eI_",
          "width": 4032
        }
      ],
      "place_id": "ChIJi-GsFTFawokRE9iJoKgcOM0",
      "plus_code": {
        "compound_code": "P236+5F New York, NY, USA",
        "global_code": "87G8P236+5F"
      },
      "rating": 4.5,
      "reference": "ChIJi-GsFTFawokRE9iJoKgcOM0",
      "scope": "GOOGLE",
      "types": [
        "book_store",
        "point_of_interest",
        "store",
        "establishment"
      ],
      "user_ratings_total": 202,
      "vicinity": "28 Adams Street, Brooklyn"
    },
    {
      "business_status": "OPERATIONAL",
      "geometry": {
        "location": {
          "lat": 40.7033301,
          "lng": -73.9877822
        },
        "viewport": {
          "northeast": {
            "lat": 40.7045903302915,
            "lng": -73.98650696970849
          },
          "southwest": {
            "lat": 40.7018923697085,
            "lng": -73.98920493029149
          }
        }
      },
      "icon": "https://maps.gstatic.com/mapfiles/place_api/icons/v1/png_71/generic_business-71.png",
      "icon_background_color": "#7B9EB0",
      "icon_mask_base_uri": "https://maps.gstatic.com/mapfiles/place_api/icons/v2/generic_pinlet",
      "name": "The Dumbo Loft",
      "photos": [
        {
          "height": 1033,
          "html_attributions": [
            "<a href=\"https://maps.google.com/maps/contrib/117936328040939466530\">T P</a>"
          ],
          "photo_reference": "AeJbb3d4vI2-_Z-XND_xJvfaMo5AB3TmK4gJ7b64T_vZf1icgZiwMPP4UQ9ImCHFqrpxcfJRciJatMbco3wVQ5t9p5_wj-AOyDSLQAs5C-QAsbs3TWS_vAyE02Wg_sPJLPLcbgMgpz0kMb8LWdHRvIifoR-pDf5KNCDafQ8QOJBrz5rK9m-t",
          "width": 828
        }
      ],
      "place_id": "ChIJSZq1sjZawokRxwogbYlwP3E",
      "plus_code": {
        "compound_code": "P236+8V Brooklyn, NY, USA",
        "global_code": "87G8P236+8V"
      },
      "rating": 4.6,
      "reference": "ChIJSZq1sjZawokRxwogbYlwP3E",
      "scope": "GOOGLE",
      "types": [
        "point_of_interest",
        "establishment"
      ],
      "user_ratings_total": 199,
      "vicinity": "155 Water Street, Brooklyn"
    },
    {
      "business_status": "CLOSED_TEMPORARILY",
      "geometry": {
        "location": {
          "lat": 40.7028278,
          "lng": -73.9893866
        },
        "viewport": {
          "northeast": {
            "lat": 40.7041682302915,
            "lng": -73.98815021970849
          },
          "southwest": {
            "lat": 40.7014702697085,
            "lng": -73.9908481802915
          }
        }
      },
      "icon": "https://maps.gstatic.com/mapfiles/place_api/icons/v1/png_71/generic_business-71.png",
      "icon_background_color": "#7B9EB0",
      "icon_mask_base_uri": "https://maps.gstatic.com/mapfiles/place_api/icons/v2/generic_pinlet",
      "name": "National Elevator Inspection",
      "permanently_closed": true,
      "place_id": "ChIJZaiaZzFawokRep5W8OMUi44",
      "plus_code": {
        "compound_code": "P236+46 New York, NY, USA",
        "global_code": "87G8P236+46"
      },
      "reference": "ChIJZaiaZzFawokRep5W8OMUi44",
      "scope": "GOOGLE",
      "types": [
        "point_of_interest",
        "establishment"
      ],
      "vicinity": "247 West 37th Street"
    },
    {
      "business_status": "OPERATIONAL",
      "geometry": {
        "location": {
          "lat": 40.7028816,
          "lng": -73.9904334
        },
        "viewport": {
          "northeast": {
            "lat": 40.7041577302915,
            "lng": -73.9892052197085
          },
          "southwest": {
            "lat": 40.7014597697085,
            "lng": -73.9919031802915
          }
        }
      },
      "icon": "https://maps.gstatic.com/mapfiles/place_api/icons/v1/png_71/generic_business-71.png",
      "icon_background_color": "#7B9EB0",
      "icon_mask_base_uri": "https://maps.gstatic.com/mapfiles/place_api/icons/v2/generic_pinlet",
      "name": "MGMT. design",
      "opening_hours": {
        "open_now": false
      },
      "photos": [
        {
          "height": 588,
          "html_attributions": [
            "<a href=\"https://maps.google.com/maps/contrib/107431716328699921323\">MGMT. design</a>"
          ],
          "photo_reference": "AeJbb3cPhKKlOura7_-538bv_9TTJeIYllT-DqrDnJMMrIqPryE6LQRkCgkdFvs2wl1TGIAmUIS4zIEUwmDUihu-qXrNVSfq_683QSaoGbSJSZUSxjICXivQn63tlE39JqPWn3d1f07s6XEmGe_RZnzh4bvQdDZWwYZYxXaMtkmW5w5VJGGv",
          "width": 828
        }
      ],
      "place_id": "ChIJZaiaZzFawokRbXHQXZ5Y-zk",
      "plus_code": {
        "compound_code": "P235+5R New York, NY, USA",
        "global_code": "87G8P235+5R"
      },
      "rating": 5,
      "reference": "ChIJZaiaZzFawokRbXHQXZ5Y-zk",
      "scope": "GOOGLE",
      "types": [
        "point_of_interest",
        "establishment"
      ],
      "user_ratings_total": 1,
      "vicinity": "45 Main Street #500, Brooklyn"
    },
    {
      "business_status": "OPERATIONAL",
      "geometry": {
        "location": {
          "lat": 40.7030629,
          "lng": -73.9904597
        },
        "viewport": {
          "northeast": {
            "lat": 40.70443248029149,
            "lng": -73.98921471970851
          },
          "southwest": {
            "lat": 40.7017345197085,
            "lng": -73.99191268029152
          }
        }
      },
      "icon": "https://maps.gstatic.com/mapfiles/place_api/icons/v1/png_71/generic_business-71.png",
      "icon_background_color": "#7B9EB0",
      "icon_mask_base_uri": "https://maps.gstatic.com/mapfiles/place_api/icons/v2/generic_pinlet",
      "name": "Garrison Architects",
      "opening_hours": {
        "open_now": false
      },
      "place_id": "ChIJIVm7PjFawokRdG9bjttdFNU",
      "plus_code": {
        "compound_code": "P235+6R Brooklyn, NY, USA",
        "global_code": "87G8P235+6R"
      },
      "rating": 4,
      "reference": "ChIJIVm7PjFawokRdG9bjttdFNU",
      "scope": "GOOGLE",
      "types": [
        "point_of_interest",
        "establishment"
      ],
      "user_ratings_total": 4,
      "vicinity": "45 Main Street, Brooklyn"
    },
    {
      "business_status": "OPERATIONAL",
      "geometry": {
        "location": {
          "lat": 40.7028278,
          "lng": -73.9893866
        },
        "viewport": {
          "northeast": {
            "lat": 40.7041682302915,
            "lng": -73.98815021970849
          },
          "southwest": {
            "lat": 40.7014702697085,
            "lng": -73.9908481802915
          }
        }
      },
      "icon": "https://maps.gstatic.com/mapfiles/place_api/icons/v1/png_71/generic_business-71.png",
      "icon_background_color": "#7B9EB0",
      "icon_mask_base_uri": "https://maps.gstatic.com/mapfiles/place_api/icons/v2/generic_pinlet",
      "name": "Carrot Creative",
      "photos": [
        {
          "height": 4160,
          "html_attributions": [
            "<a href=\"https://maps.google.com/maps/contrib/102905008875203762364\">Josefina Flores</a>"
          ],
          "photo_reference": "AeJbb3fmUsUn-l2dbRV2w2Ef7X-lvj9ITRBrOQ7Q7SdxvdJtOg_qI-i3Ex870pvZJ8hsNThyly9bEPiSwmV5LwUaLQjQpM2cYK2XbpBaISjU8WuAMswRRxFGRIt5KdjNZOu8rVZfdy5fqMbqKa6SKd3-7k-1tAmDh1xZmJRQ5wZfHgENhBjn",
          "width": 2340
        }
      ],
      "place_id": "ChIJIVm7PjFawokR5EoR92YnHaU",
      "plus_code": {
        "compound_code": "P236+46 Brooklyn, NY, USA",
        "global_code": "87G8P236+46"
      },
      "rating": 4.2,
      "reference": "ChIJIVm7PjFawokR5EoR92YnHaU",
      "scope": "GOOGLE",
      "types": [
        "point_of_interest",
        "establishment"
      ],
      "user_ratings_total": 5,
      "vicinity": "55 Washington Street #900, Brooklyn"
    },
    {
      "business_status": "CLOSED_TEMPORARILY",
      "geometry": {
        "location": {
          "lat": 40.70330939999999,
          "lng": -73.9878238
        },
        "viewport": {
          "northeast": {
            "lat": 40.7045799802915,
            "lng": -73.98652211970848
          },
          "southwest": {
            "lat": 40.7018820197085,
            "lng": -73.9892200802915
          }
        }
      },
      "icon": "https://maps.gstatic.com/mapfiles/place_api/icons/v1/png_71/generic_business-71.png",
      "icon_background_color": "#7B9EB0",
      "icon_mask_base_uri": "https://maps.gstatic.com/mapfiles/place_api/icons/v2/generic_pinlet",
      "name": "Global Wealth Foundation",
      "permanently_closed": true,
      "place_id": "ChIJVXjvyDNawokRP9LPHUyxcTo",
      "plus_code": {
        "compound_code": "P236+8V Brooklyn, NY, USA",
        "global_code": "87G8P236+8V"
      },
      "reference": "ChIJVXjvyDNawokRP9LPHUyxcTo",
      "scope": "GOOGLE",
      "types": [
        "university",
        "point_of_interest",
        "establishment"
      ],
      "vicinity": "155 Water Street, Brooklyn"
    },
    {
      "business_status": "OPERATIONAL",
      "geometry": {
        "location": {
          "lat": 40.7028796,
          "lng": -73.9904226
        },
        "viewport": {
          "northeast": {
            "lat": 40.7041568802915,
            "lng": -73.9891998697085
          },
          "southwest": {
            "lat": 40.7014589197085,
            "lng": -73.9918978302915
          }
        }
      },
      "icon": "https://maps.gstatic.com/mapfiles/place_api/icons/v1/png_71/generic_business-71.png",
      "icon_background_color": "#7B9EB0",
      "icon_mask_base_uri": "https://maps.gstatic.com/mapfiles/place_api/icons/v2/generic_pinlet",
      "name": "Huge",
      "photos": [
        {
          "height": 3365,
          "html_attributions": [
            "<a href=\"https://maps.google.com/maps/contrib/103861138891972266208\">Huge</a>"
          ],
          "photo_reference": "AeJbb3dglip22h9xqllg-R2pkedQod1uxV6VtPDcYSj_U8sc0sAIKlk_zEnLJqPFScGzAyXC-W5rlusywf5QXbmzMzYnCJZoQtw8JhCOf1bAkk5kPmtyhL415ABcmsSh1I-ERVa_xFgG2d0-PpZY5fKywVKvhjMajT1gSS4Ra7DhRI2DOodE",
          "width": 5049
        }
      ],
      "place_id": "ChIJIVm7PjFawokR1wPmdSIg9Uc",
      "plus_code": {
        "compound_code": "P235+5R New York, NY, USA",
        "global_code": "87G8P235+5R"
      },
      "rating": 4.5,
      "reference": "ChIJIVm7PjFawokR1wPmdSIg9Uc",
      "scope": "GOOGLE",
      "types": [
        "point_of_interest",
        "establishment"
      ],
      "user_ratings_total": 36,
      "vicinity": "45 Main Street 3rd floor, Brooklyn"
    },
    {
      "business_status": "OPERATIONAL",
      "geometry": {
        "location": {
          "lat": 40.7028602,
          "lng": -73.9904359
        },
        "viewport": {
          "northeast": {
            "lat": 40.7041470302915,
            "lng": -73.9892070697085
          },
          "southwest": {
            "lat": 40.7014490697085,
            "lng": -73.9919050302915
          }
        }
      },
      "icon": "https://maps.gstatic.com/mapfiles/place_api/icons/v1/png_71/generic_business-71.png",
      "icon_background_color": "#7B9EB0",
      "icon_mask_base_uri": "https://maps.gstatic.com/mapfiles/place_api/icons/v2/generic_pinlet",
      "name": "City Elevator Co",
      "photos": [
        {
          "height": 4032,
          "html_attributions": [
            "<a href=\"https://maps.google.com/maps/contrib/111503254489812690415\">Andreas Thomson</a>"
          ],
          "photo_reference": "AeJbb3d9tp4PLM8ghIEo7xPYmW37gkK6zbroWIgeazON3MyaYLU_7X7XPEWuyJnqKBvbD9i7fUZV0VBBPN-ecE0hiXPVk8fAME_T7MbT9kUcmnLWBUAYoJIdgIuZ0AlADcdys1MPFT4qSG6UFX9-i4PN33ZeQbLU_ESZ-5KX9CHTx25G0Sj4",
          "width": 3024
        }
      ],
      "place_id": "ChIJIVm7PjFawokRkMZLIh--Y40",
      "plus_code": {
        "compound_code": "P235+4R Brooklyn, NY, USA",
        "global_code": "87G8P235+4R"
      },
      "reference": "ChIJIVm7PjFawokRkMZLIh--Y40",
      "scope": "GOOGLE",
      "types": [
        "point_of_interest",
        "establishment"
      ],
      "vicinity": "45 Main Street #844, Brooklyn"
    },
    {
      "business_status": "OPERATIONAL",
      "geometry": {
        "location": {
          "lat": 40.70330939999999,
          "lng": -73.9878238
        },
        "viewport": {
          "northeast": {
            "lat": 40.7045799802915,
            "lng": -73.98652211970848
          },
          "southwest": {
            "lat": 40.7018820197085,
            "lng": -73.9892200802915
          }
        }
      },
      "icon": "https://maps.gstatic.com/mapfiles/place_api/icons/v1/png_71/generic_business-71.png",
      "icon_background_color": "#7B9EB0",
      "icon_mask_base_uri": "https://maps.gstatic.com/mapfiles/place_api/icons/v2/generic_pinlet",
      "name": "Jacob Arthur Photographer",
      "opening_hours": {
        "open_now": true
      },
      "photos": [
        {
          "height": 562,
          "html_attributions": [
            "<a href=\"https://maps.google.com/maps/contrib/109635281465351556198\">Jacob Arthur Photographer</a>"
          ],
          "photo_reference": "AeJbb3e_6LQCeA8DQmhIfNkZDSxeKYOq9syJKFl1VFtnsfUUI5-Dgh39Q7OWT8pMvnnZCF9Ofyfb5lYYy1H87xLf83rqmsxXy2BPBNeqIlugK9lZ-TkHKuqQ-16ls9CwsJ5qMkwUekb4CwBJng2J97Kns_aMn4qAIxSZD9nQHQbWIFHPThda",
          "width": 1000
        }
      ],
      "place_id": "ChIJFZh0GzNawokRK3EAkbBOZPI",
      "plus_code": {
        "compound_code": "P236+8V Brooklyn, NY, USA",
        "global_code": "87G8P236+8V"
      },
      "rating": 5,
      "reference": "ChIJFZh0GzNawokRK3EAkbBOZPI",
      "scope": "GOOGLE",
      "types": [
        "point_of_interest",
        "establishment"
      ],
      "user_ratings_total": 3,
      "vicinity": "155 Water Street, Brooklyn"
    },
    {
      "business_status": "OPERATIONAL",
      "geometry": {
        "location": {
          "lat": 40.7028602,
          "lng": -73.9904359
        },
        "viewport": {
          "northeast": {
            "lat": 40.7041470302915,
            "lng": -73.9892070697085
          },
          "southwest": {
            "lat": 40.7014490697085,
            "lng": -73.9919050302915
          }
        }
      },
      "icon": "https://maps.gstatic.com/mapfiles/place_api/icons/v1/png_71/school-71.png",
      "icon_background_color": "#7B9EB0",
      "icon_mask_base_uri": "https://maps.gstatic.com/mapfiles/place_api/icons/v2/school_pinlet",
      "name": "Headstart Sponsoring Board",
      "place_id": "ChIJIVm7PjFawokRzqWsJFE_vmY",
      "plus_code": {
        "compound_code": "P235+4R Brooklyn, NY, USA",
        "global_code": "87G8P235+4R"
      },
      "reference": "ChIJIVm7PjFawokRzqWsJFE_vmY",
      "scope": "GOOGLE",
      "types": [
        "school",
        "point_of_interest",
        "establishment"
      ],
      "vicinity": "45 Main Street #712, Brooklyn"
    },
    {
      "business_status": "OPERATIONAL",
      "geometry": {
        "location": {
          "lat": 40.70330939999999,
          "lng": -73.9878238
        },
        "viewport": {
          "northeast": {
            "lat": 40.7045799802915,
            "lng": -73.98652211970848
          },
          "southwest": {
            "lat": 40.7018820197085,
            "lng": -73.9892200802915
          }
        }
      },
      "icon": "https://maps.gstatic.com/mapfiles/place_api/icons/v1/png_71/generic_business-71.png",
      "icon_background_color": "#7B9EB0",
      "icon_mask_base_uri": "https://maps.gstatic.com/mapfiles/place_api/icons/v2/generic_pinlet",
      "name": "KLAD Creative",
      "opening_hours": {
        "open_now": false
      },
      "place_id": "ChIJVXjvyDNawokRn9BuBDhY6W8",
      "plus_code": {
        "compound_code": "P236+8V Brooklyn, NY, USA",
        "global_code": "87G8P236+8V"
      },
      "reference": "ChIJVXjvyDNawokRn9BuBDhY6W8",
      "scope": "GOOGLE",
      "types": [
        "point_of_interest",
        "establishment"
      ],
      "vicinity": "155 Water Street, Brooklyn"
    },
    {
      "business_status": "CLOSED_TEMPORARILY",
      "geometry": {
        "location": {
          "lat": 40.7028816,
          "lng": -73.9904334
        },
        "viewport": {
          "northeast": {
            "lat": 40.7041577302915,
            "lng": -73.9892052197085
          },
          "southwest": {
            "lat": 40.7014597697085,
            "lng": -73.9919031802915
          }
        }
      },
      "icon": "https://maps.gstatic.com/mapfiles/place_api/icons/v1/png_71/generic_business-71.png",
      "icon_background_color": "#7B9EB0",
      "icon_mask_base_uri": "https://maps.gstatic.com/mapfiles/place_api/icons/v2/generic_pinlet",
      "name": "Stav Efrat Studio",
      "permanently_closed": true,
      "place_id": "ChIJIVm7PjFawokRLolFC1foyNQ",
      "plus_code": {
        "compound_code": "P235+5R Brooklyn, NY, USA",
        "global_code": "87G8P235+5R"
      },
      "reference": "ChIJIVm7PjFawokRLolFC1foyNQ",
      "scope": "GOOGLE",
      "types": [
        "point_of_interest",
        "establishment"
      ],
      "vicinity": "45 Main Street, Brooklyn"
    },
    {
      "business_status": "OPERATIONAL",
      "geometry": {
        "location": {
          "lat": 40.703073,
          "lng": -73.990332
        },
        "viewport": {
          "northeast": {
            "lat": 40.7045030802915,
            "lng": -73.98910311970849
          },
          "southwest": {
            "lat": 40.7018051197085,
            "lng": -73.9918010802915
          }
        }
      },
      "icon": "https://maps.gstatic.com/mapfiles/place_api/icons/v1/png_71/generic_business-71.png",
      "icon_background_color": "#7B9EB0",
      "icon_mask_base_uri": "https://maps.gstatic.com/mapfiles/place_api/icons/v2/generic_pinlet",
      "name": "The Brooklyn Studio",
      "opening_hours": {
        "open_now": false
      },
      "photos": [
        {
          "height": 2172,
          "html_attributions": [
            "<a href=\"https://maps.google.com/maps/contrib/118352887689174575029\">The Brooklyn Studio</a>"
          ],
          "photo_reference": "AeJbb3fcPG9LBIul4Xn0wh54pc_L4CmgP5lmco4Nb4JBgM16ZcDZI9Xt-n-_mo_NCoS7wvjxHuaarSe-vBUq16TW5wUivMsr2-FssSCBiKgNOW4C21vTvoUDOlSlYpbA3fyUzrWcVwZM5gjN-MCRRWSiMQ_Y56mM1DzSiOXs575w4oi483Q",
          "width": 1630
        }
      ],
      "place_id": "ChIJIVm7PjFawokRsXHC_SXFHcc",
      "plus_code": {
        "compound_code": "P235+6V Brooklyn, NY, USA",
        "global_code": "87G8P235+6V"
      },
      "rating": 5,
      "reference": "ChIJIVm7PjFawokRsXHC_SXFHcc",
      "scope": "GOOGLE",
      "types": [
        "point_of_interest",
        "establishment"
      ],
      "user_ratings_total": 3,
      "vicinity": "45 Main Street #824, Brooklyn"
    },
    {
      "business_status": "OPERATIONAL",
      "geometry": {
        "location": {
          "lat": 40.7027497,
          "lng": -73.9870991
        },
        "viewport": {
          "northeast": {
            "lat": 40.7039425302915,
            "lng": -73.98573661970849
          },
          "southwest": {
            "lat": 40.7012445697085,
            "lng": -73.9884345802915
          }
        }
      },
      "icon": "https://maps.gstatic.com/mapfiles/place_api/icons/v1/png_71/generic_business-71.png",
      "icon_background_color": "#7B9EB0",
      "icon_mask_base_uri": "https://maps.gstatic.com/mapfiles/place_api/icons/v2/generic_pinlet",
      "name": "Michael F. Canino, LCSW",
      "opening_hours": {
        "open_now": true
      },
      "place_id": "ChIJy3hVTDFawokReIuAeW2CExQ",
      "plus_code": {
        "compound_code": "P237+35 Brooklyn, NY, USA",
        "global_code": "87G8P237+35"
      },
      "rating": 5,
      "reference": "ChIJy3hVTDFawokReIuAeW2CExQ",
      "scope": "GOOGLE",
      "types": [
        "doctor",
        "health",
        "point_of_interest",
        "establishment"
      ],
      "user_ratings_total": 1,
      "vicinity": "147 Front Street #212, Brooklyn"
    },
    {
      "business_status": "OPERATIONAL",
      "geometry": {
        "location": {
          "lat": 40.69981,
          "lng": -73.9921036
        },
        "viewport": {
          "northeast": {
            "lat": 40.7011259302915,
            "lng": -73.9906548697085
          },
          "southwest": {
            "lat": 40.6984279697085,
            "lng": -73.99335283029151
          }
        }
      },
      "icon": "https://maps.gstatic.com/mapfiles/place_api/icons/v1/png_71/restaurant-71.png",
      "icon_background_color": "#FF9E67",
      "icon_mask_base_uri": "https://maps.gstatic.com/mapfiles/place_api/icons/v2/restaurant_pinlet",
      "name": "Noodle Pudding",
      "opening_hours": {
        "open_now": false
      },
      "photos": [
        {
          "height": 3024,
          "html_attributions": [
            "<a href=\"https://maps.google.com/maps/contrib/115924793540509610412\">Mich S</a>"
          ],
          "photo_reference": "AeJbb3ffpCjVzBjU0MZrhK5JtjNpdzl12trxc7RXqcRdFDRxanGvv3c4BZM_hv2tyEkoAhw2TD1qSy4iWEY9Lh_jSDddG0lj0elcRhSpcw4cRb5NyYV0oUET6MVGMW8lh2gLNS2ArAOme8B9IkQBdD-pnNDfRrNSlvBlYUVr9gdWTx0Y4R1j",
          "width": 4032
        }
      ],
      "place_id": "ChIJaZ3zATdawokRwWdbyV9OwmY",
      "plus_code": {
        "compound_code": "M2X5+W5 New York, NY, USA",
        "global_code": "87G8M2X5+W5"
      },
      "price_level": 2,
      "rating": 4.4,
      "reference": "ChIJaZ3zATdawokRwWdbyV9OwmY",
      "scope": "GOOGLE",
      "types": [
        "restaurant",
        "food",
        "point_of_interest",
        "establishment"
      ],
      "user_ratings_total": 500,
      "vicinity": "38 Henry Street, Brooklyn"
    },
    {
      "business_status": "OPERATIONAL",
      "geometry": {
        "location": {
          "lat": 40.7029043,
          "lng": -73.9894702
        },
        "viewport": {
          "northeast": {
            "lat": 40.70426988029151,
            "lng": -73.98819026970848
          },
          "southwest": {
            "lat": 40.70157191970851,
            "lng": -73.9908882302915
          }
        }
      },
      "icon": "https://maps.gstatic.com/mapfiles/place_api/icons/v1/png_71/generic_business-71.png",
      "icon_background_color": "#7B9EB0",
      "icon_mask_base_uri": "https://maps.gstatic.com/mapfiles/place_api/icons/v2/generic_pinlet",
      "name": "Joey Co",
      "place_id": "ChIJIVm7PjFawokRrYHRiwLYbg0",
      "plus_code": {
        "compound_code": "P236+56 New York, NY, USA",
        "global_code": "87G8P236+56"
      },
      "rating": 3.7,
      "reference": "ChIJIVm7PjFawokRrYHRiwLYbg0",
      "scope": "GOOGLE",
      "types": [
        "point_of_interest",
        "establishment"
      ],
      "user_ratings_total": 3,
      "vicinity": "45 Main Street #632, Brooklyn"
    },
    {
      "business_status": "OPERATIONAL",
      "geometry": {
        "location": {
          "lat": 40.7028602,
          "lng": -73.9904359
        },
        "viewport": {
          "northeast": {
            "lat": 40.7041470302915,
            "lng": -73.9892070697085
          },
          "southwest": {
            "lat": 40.7014490697085,
            "lng": -73.9919050302915
          }
        }
      },
      "icon": "https://maps.gstatic.com/mapfiles/place_api/icons/v1/png_71/generic_business-71.png",
      "icon_background_color": "#7B9EB0",
      "icon_mask_base_uri": "https://maps.gstatic.com/mapfiles/place_api/icons/v2/generic_pinlet",
      "name": "Riverfront Abstract Corporation.",
      "place_id": "ChIJZaiaZzFawokR7iDBpU9zk8U",
      "plus_code": {
        "compound_code": "P235+4R Brooklyn, NY, USA",
        "global_code": "87G8P235+4R"
      },
      "reference": "ChIJZaiaZzFawokR7iDBpU9zk8U",
      "scope": "GOOGLE",
      "types": [
        "insurance_agency",
        "point_of_interest",
        "establishment"
      ],
      "vicinity": "45 Main Street #1052, Brooklyn"
    },
    {
      "business_status": "OPERATIONAL",
      "geometry": {
        "location": {
          "lat": 40.7028602,
          "lng": -73.9904359
        },
        "viewport": {
          "northeast": {
            "lat": 40.7041470302915,
            "lng": -73.9892070697085
          },
          "southwest": {
            "lat": 40.7014490697085,
            "lng": -73.9919050302915
          }
        }
      },
      "icon": "https://maps.gstatic.com/mapfiles/place_api/icons/v1/png_71/generic_business-71.png",
      "icon_background_color": "#7B9EB0",
      "icon_mask_base_uri": "https://maps.gstatic.com/mapfiles/place_api/icons/v2/generic_pinlet",
      "name": "Lubrano Ciavarra Architects",
      "opening_hours": {
        "open_now": false
      },
      "place_id": "ChIJIVm7PjFawokRq-325L6MZ5c",
      "plus_code": {
        "compound_code": "P235+4R Brooklyn, NY, USA",
        "global_code": "87G8P235+4R"
      },
      "reference": "ChIJIVm7PjFawokRq-325L6MZ5c",
      "scope": "GOOGLE",
      "types": [
        "point_of_interest",
        "establishment"
      ],
      "vicinity": "45 Main Street #1016, Brooklyn"
    },
    {
      "business_status": "CLOSED_TEMPORARILY",
      "geometry": {
        "location": {
          "lat": 40.7028602,
          "lng": -73.9904359
        },
        "viewport": {
          "northeast": {
            "lat": 40.7041470302915,
            "lng": -73.9892070697085
          },
          "southwest": {
            "lat": 40.7014490697085,
            "lng": -73.9919050302915
          }
        }
      },
      "icon": "https://maps.gstatic.com/mapfiles/place_api/icons/v1/png_71/generic_business-71.png",
      "icon_background_color": "#7B9EB0",
      "icon_mask_base_uri": "https://maps.gstatic.com/mapfiles/place_api/icons/v2/generic_pinlet",
      "name": "DCM Corporation",
      "permanently_closed": true,
      "place_id": "ChIJIVm7PjFawokRvuE-TVfKjsw",
      "plus_code": {
        "compound_code": "P235+4R Brooklyn, NY, USA",
        "global_code": "87G8P235+4R"
      },
      "reference": "ChIJIVm7PjFawokRvuE-TVfKjsw",
      "scope": "GOOGLE",
      "types": [
        "point_of_interest",
        "establishment"
      ],
      "vicinity": "45 Main Street #816, Brooklyn"
    },
    {
      "business_status": "OPERATIONAL",
      "geometry": {
        "location": {
          "lat": 40.7007351,
          "lng": -73.98764659999999
        },
        "viewport": {
          "northeast": {
            "lat": 40.70200983029149,
            "lng": -73.9861618197085
          },
          "southwest": {
            "lat": 40.6993118697085,
            "lng": -73.9888597802915
          }
        }
      },
      "icon": "https://maps.gstatic.com/mapfiles/place_api/icons/v1/png_71/generic_business-71.png",
      "icon_background_color": "#7B9EB0",
      "icon_mask_base_uri": "https://maps.gstatic.com/mapfiles/place_api/icons/v2/generic_pinlet",
      "name": "Quint and Quint",
      "place_id": "ChIJZaiaZzFawokR6XtNfTjyaZI",
      "plus_code": {
        "compound_code": "P226+7W New York, NY, USA",
        "global_code": "87G8P226+7W"
      },
      "reference": "ChIJZaiaZzFawokR6XtNfTjyaZI",
      "scope": "GOOGLE",
      "types": [
        "point_of_interest",
        "establishment"
      ],
      "vicinity": "81 Prospect Street, Brooklyn"
    },
    {
      "business_status": "OPERATIONAL",
      "geometry": {
        "location": {
          "lat": 40.70263660000001,
          "lng": -73.9894059
        },
        "viewport": {
          "northeast": {
            "lat": 40.7039285802915,
            "lng": -73.98802241970849
          },
          "southwest": {
            "lat": 40.7012306197085,
            "lng": -73.99072038029149
          }
        }
      },
      "icon": "https://maps.gstatic.com/mapfiles/place_api/icons/v1/png_71/generic_business-71.png",
      "icon_background_color": "#7B9EB0",
      "icon_mask_base_uri": "https://maps.gstatic.com/mapfiles/place_api/icons/v2/generic_pinlet",
      "name": "Northside Media Group",
      "opening_hours": {
        "open_now": false
      },
      "photos": [
        {
          "height": 323,
          "html_attributions": [
            "<a href=\"https://maps.google.com/maps/contrib/102141056293581408957\">Northside Media Group</a>"
          ],
          "photo_reference": "AeJbb3cfKMAh4-u0ZDiNnU8A5TmSq-DD9LvWagHukpeIeKTG45JobgZJHLjPJNvxODJHQ3MOn00HXzaA-aqAOm_Ze69UKN7Gw5iUJl6eKJRhG3bSQypCvbgV6AkNtcxyGxCi5z6WhgpQhryoMpWJ4go300RXQwg6aXx6vGgRhacGLN7IWa8h",
          "width": 1197
        }
      ],
      "place_id": "ChIJUcyOPjFawokRcQiiDr_FWFM",
      "plus_code": {
        "compound_code": "P236+36 Brooklyn, NY, USA",
        "global_code": "87G8P236+36"
      },
      "reference": "ChIJUcyOPjFawokRcQiiDr_FWFM",
      "scope": "GOOGLE",
      "types": [
        "point_of_interest",
        "establishment"
      ],
      "vicinity": "55 Washington Street #652, Brooklyn"
    }
  ],
  "status": "OK"
}