{
  "html_attributions": [],
  "results": [
    {
      "geometry": {
        "location": {
          "lat": 40.7177545,
          "lng": -74.0431435
        },
        "viewport": {
          "northeast": {
            "lat": 40.76886696556042,
            "lng": -74.02040497604364
          },
          "southwest": {
            "lat": 40.66162203954202,
            "lng": -74.11705692034361
          }
        }
      },
      "icon": "https://maps.gstatic.com/mapfiles/place_api/icons/v1/png_71/geocode-71.png",
      "icon_background_color": "#7B9EB0",
      "icon_mask_base_uri": "https://maps.gstatic.com/mapfiles/place_api/icons/v2/generic_pinlet",
      "name": "\u6fa4\u897f\u5e02",
      "photos": [
        {
          "height": 3024,
          "html_attributions": [
            "<a href=\"https://maps.google.com/maps/contrib/110214719387408653852\">Husam Attalla</a>"
          ],
          "photo_reference": "AeJbb3eY0Tg59xem3MZVAvmDePwFFa9uzU-033vuw5D0sYSHsPUbOL_ZsUlLL94B4QeBXD2S6TLDKUrJ8gxlr2POl6OzvZ830sD-sIOGRL6ouZKVBo79t4Ypad2oEFeEhCnAM_lPAsW7Gmrfz5ffyWjeLEluY5JXhBLTz84CcRoV1O1EOCb0",
          "width": 4032
        }
      ],
      "place_id": "ChIJ3a-_JdJQwokR2SXNohPwSQI",
      "reference": "ChIJ3a-_JdJQwokR2SXNohPwSQI",
      "scope": "GOOGLE",
      "types": [
        "locality",
        "political"
      ],
      "vicinity": "\u6fa4\u897f\u5e02"
    },
    {
      "business_status": "OPERATIONAL",
      "geometry": {
        "location": {
          "lat": 40.7302253,
          "lng": -74.0612585
        },
        "viewport": {
          "northeast": {
            "lat": 40.73163373029151,
            "lng": -74.05994231970848
          },
          "southwest": {
            "lat": 40.72893576970851,
            "lng": -74.0626402802915
          }
        }
      },
      "icon": "https://maps.gstatic.com/mapfiles/place_api/icons/v1/png_71/civic_building-71.png",
      "icon_background_color": "#7B9EB0",
      "icon_mask_base_uri": "https://maps.gstatic.com/mapfiles/place_api/icons/v2/civic-bldg_pinlet",
      "name": "New Jersey Motor Vehicle Commission",
      "opening_hours": {
        "open_now": true
      },
      "photos": [
        {
          "height": 4032,
          "html_attributions": [
            "<a href=\"https://maps.google.com/maps/contrib/105491258772286442019\">\ubb38\uc720\uc900</a>"
          ],
          "photo_reference": "AeJbb3fbjp54bt4YccKvjmD8iadVEWd6WMJs73IlJ6kjvLUBC1vT0SE21BVbinkG_ePyJK8gGhafNDVBGzt1TcFVZucra5UWpO3ZrWcGHLz_gq9gIhq7nkIXyEesVyU5Pw8vDscutjD8YU-X8k35UnLSN65ikQM9UUyHMFRbkuNZp7xS3JOK",
          "width": 3024
        }
      ],
      "place_id": "ChIJX16QuDNXwokR7g7sq1GtmCk",
      "plus_code": {
        "compound_code": "PWJQ+3F \u7f8e\u570b\u65b0\u6fa4\u897f\u6fa4\u897f\u5e02",
        "global_code": "87G7PWJQ+3F"
      },
      "rating": 2.9,
      "reference": "ChIJX16QuDNXwokR7g7sq1GtmCk",
      "scope": "GOOGLE",
      "types": [
        "local_government_office",
        "point_of_interest",
        "establishment"
      ],
      "user_ratings_total": 898,
      "vicinity": "438 Summit Avenue, Jersey City"
    },
    {
      "business_status": "OPERATIONAL",
      "geometry": {
        "location": {
          "lat": 40.7304306,
          "lng": -74.06275169999999
        },
        "viewport": {
          "northeast": {
            "lat": 40.73198568029149,
            "lng": -74.0615012697085
          },
          "southwest": {
            "lat": 40.7292877197085,
            "lng": -74.0641992302915
          }
        }
      },
      "icon": "https://maps.gstatic.com/mapfiles/place_api/icons/v1/png_71/school-71.png",
      "icon_background_color": "#7B9EB0",
      "icon_mask_base_uri": "https://maps.gstatic.com/mapfiles/place_api/icons/v2/school_pinlet",
      "name": "Hudson County Community College",
      "photos": [
        {
          "height": 3024,
          "html_attributions": [
            "<a href=\"https://maps.google.com/maps/contrib/111950022485008180050\">David Canela</a>"
          ],
          "photo_reference": "AeJbb3d22xsoTieq8yJfjg9aE7plYxRwf533wWziTtiGtMPl_bcmQMV2kqxzaZJ8A_E3gfEZHWfYXHY_KOk84DuuK9A3P4F9Rlfxivl0aHD1oSMytVegGF2eoab_H2cM6T_JKamgfHMwiay2E4V9tO-7nVBn3HR809mReSqNQbCZkQMbML11",
          "width": 4032
        }
      ],
      "place_id": "ChIJLYW7ijFXwokRFIjBkD7g03Y",
      "plus_code": {
        "compound_code": "PWJP+5V \u7f8e\u570b\u65b0\u6fa4\u897f\u6fa4\u897f\u5e02",
        "global_code": "87G7PWJP+5V"
      },
      "rating": 3.7,
      "reference": "ChIJLYW7ijFXwokRFIjBkD7g03Y",
      "scope": "GOOGLE",
      "types": [
        "university",
        "point_of_interest",
        "establishment"
      ],
      "user_ratings_total": 151,
      "vicinity": "70 Sip Avenue, Jersey City"
    },
    {
      "business_status": "OPERATIONAL",
      "geometry": {
        "location": {
          "lat": 40.7296242,
          "lng": -74.0536576
        },
        "viewport": {
          "northeast": {
            "lat": 40.7309629302915,
            "lng": -74.05229366970849
          },
          "southwest": {
            "lat": 40.7282649697085,
            "lng": -74.0549916302915
          }
        }
      },
      "icon": "https://maps.gstatic.com/mapfiles/place_api/icons/v1/png_71/school-71.png",
      "icon_background_color": "#7B9EB0",
      "icon_mask_base_uri": "https://maps.gstatic.com/mapfiles/place_api/icons/v2/school_pinlet",
      "name": "William L Dickinson High School",
      "photos": [
        {
          "height": 2379,
          "html_attributions": [
            "<a href=\"https://maps.google.com/maps/contrib/103787679381289789748\">Nora Lazo</a>"
          ],
          "photo_reference": "AeJbb3e01T-mlMNnUs7KQ6HEo1QRqr6CExwgfttiXH3_G22eBlw-DNAfHLMYZFaVsfvxdPwq11VJFVPrzUa_kYqbJaXs7ZZ2CEcAnpv-uhFwfAT0LVZXHcgZd18Fo1eIKknev1qhJkqd2pIMn5y9jsL0tHWCdIDoRKelsQ7UHgjraG0NM4MU",
          "width": 3127
        }
      ],
      "place_id": "ChIJD4qpwzVXwokR-h4ZHDPbGqc",
      "plus_code": {
        "compound_code": "PWHW+RG \u7f8e\u570b\u65b0\u6fa4\u897f\u6fa4\u897f\u5e02",
        "global_code": "87G7PWHW+RG"
      },
      "rating": 3.2,
      "reference": "ChIJD4qpwzVXwokR-h4ZHDPbGqc",
      "scope": "GOOGLE",
      "types": [
        "secondary_school",
        "school",
        "point_of_interest",
        "establishment"
      ],
      "user_ratings_total": 57,
      "vicinity": "2 Palisade Avenue, Jersey City"
    },
    {
      "business_status": "OPERATIONAL",
      "geometry": {
        "location": {
          "lat": 40.7328623,
          "lng": -74.0582822
        },
        "viewport": {
          "northeast": {
            "lat": 40.7341002302915,
            "lng": -74.0565416697085
          },
          "southwest": {
            "lat": 40.7314022697085,
            "lng": -74.0592396302915
          }
        }
      },
      "icon": "https://maps.gstatic.com/mapfiles/place_api/icons/v1/png_71/civic_building-71.png",
      "icon_background_color": "#7B9EB0",
      "icon_mask_base_uri": "https://maps.gstatic.com/mapfiles/place_api/icons/v2/civic-bldg_pinlet",
      "name": "Hudson County Superior Court",
      "opening_hours": {
        "open_now": false
      },
      "photos": [
        {
          "height": 3024,
          "html_attributions": [
            "<a href=\"https://maps.google.com/maps/contrib/108959347335760964509\">Jorge Mart\u00ednez Gualdr\u00f3n - Photographer</a>"
          ],
          "photo_reference": "AeJbb3fiyHmJ6b0eUyPvOJDn8xMF8u4FynwO-Cj1oHsfUKOZ6idECIhgymvBvC-mu4GA5_VTvfgv0XxIbtcFntPm2AvuV8EveoAiOlj8Bpn33I6fT21HxSAlryBBqLlMiFfzaW2Odrp5BweFOzSKriEYY66gFK7K3CBcVe3-PfOtlatWMeu-",
          "width": 4032
        }
      ],
      "place_id": "ChIJx40I6jZXwokRj_v7F5-9HHk",
      "plus_code": {
        "compound_code": "PWMR+4M \u7f8e\u570b\u65b0\u6fa4\u897f\u6fa4\u897f\u5e02",
        "global_code": "87G7PWMR+4M"
      },
      "rating": 2,
      "reference": "ChIJx40I6jZXwokRj_v7F5-9HHk",
      "scope": "GOOGLE",
      "types": [
        "courthouse",
        "point_of_interest",
        "establishment"
      ],
      "user_ratings_total": 63,
      "vicinity": "595 Newark Avenue, Jersey City"
    },
    {
      "business_status": "OPERATIONAL",
      "geometry": {
        "location": {
          "lat": 40.7325086,
          "lng": -74.05760269999999
        },
        "viewport": {
          "northeast": {
            "lat": 40.7339496802915,
            "lng": -74.05620446970849
          },
          "southwest": {
            "lat": 40.7312517197085,
            "lng": -74.0589024302915
          }
        }
      },
      "icon": "https://maps.gstatic.com/mapfiles/place_api/icons/v1/png_71/civic_building-71.png",
      "icon_background_color": "#7B9EB0",
      "icon_mask_base_uri": "https://maps.gstatic.com/mapfiles/place_api/icons/v2/civic-bldg_pinlet",
      "name": "Hudson County Sheriff's Office",
      "place_id": "ChIJx40I6jZXwokRU_ihNJBwcm0",
      "plus_code": {
        "compound_code": "PWMR+2X \u7f8e\u570b\u65b0\u6fa4\u897f\u6fa4\u897f\u5e02",
        "global_code": "87G7PWMR+2X"
      },
      "rating": 5,
      "reference": "ChIJx40I6jZXwokRU_ihNJBwcm0",
      "scope": "GOOGLE",
      "types": [
        "police",
        "local_government_office",
        "point_of_interest",
        "establishment"
      ],
      "user_ratings_total": 1,
      "vicinity": "595 Newark Avenue, Jersey City"
    },
    {
      "business_status": "OPERATIONAL",
      "geometry": {
        "location": {
          "lat": 40.732572,
          "lng": -74.05807060000001
        },
        "viewport": {
          "northeast": {
            "lat": 40.7340358802915,
            "lng": -74.0564848197085
          },
          "southwest": {
            "lat": 40.7313379197085,
            "lng": -74.05918278029151
          }
        }
      },
      "icon": "https://maps.gstatic.com/mapfiles/place_api/icons/v1/png_71/civic_building-71.png",
      "icon_background_color": "#7B9EB0",
      "icon_mask_base_uri": "https://maps.gstatic.com/mapfiles/place_api/icons/v2/civic-bldg_pinlet",
      "name": "Civil Court",
      "place_id": "ChIJx40I6jZXwokR01gIunJbWFg",
      "plus_code": {
        "compound_code": "PWMR+2Q \u7f8e\u570b\u65b0\u6fa4\u897f\u6fa4\u897f\u5e02",
        "global_code": "87G7PWMR+2Q"
      },
      "rating": 3.3,
      "reference": "ChIJx40I6jZXwokR01gIunJbWFg",
      "scope": "GOOGLE",
      "types": [
        "local_government_office",
        "point_of_interest",
        "establishment"
      ],
      "user_ratings_total": 3,
      "vicinity": "595 Newark Avenue # 711, Jersey City"
    },
    {
      "business_status": "OPERATIONAL",
      "geometry": {
        "location": {
          "lat": 40.7331904,
          "lng": -74.0577676
        },
        "viewport": {
          "northeast": {
            "lat": 40.7345137302915,
            "lng": -74.0564758197085
          },
          "southwest": {
            "lat": 40.7318157697085,
            "lng": -74.0591737802915
          }
        }
      },
      "icon": "https://maps.gstatic.com/mapfiles/place_api/icons/v1/png_71/civic_building-71.png",
      "icon_background_color": "#7B9EB0",
      "icon_mask_base_uri": "https://maps.gstatic.com/mapfiles/place_api/icons/v2/civic-bldg_pinlet",
      "name": "Hudson County Violations",
      "place_id": "ChIJx40I6jZXwokROUxaMEA1i_s",
      "plus_code": {
        "compound_code": "PWMR+7V \u7f8e\u570b\u65b0\u6fa4\u897f\u6fa4\u897f\u5e02",
        "global_code": "87G7PWMR+7V"
      },
      "reference": "ChIJx40I6jZXwokROUxaMEA1i_s",
      "scope": "GOOGLE",
      "types": [
        "local_government_office",
        "point_of_interest",
        "establishment"
      ],
      "vicinity": "595 Newark Avenue # G9, Jersey City"
    },
    {
      "business_status": "OPERATIONAL",
      "geometry": {
        "location": {
          "lat": 40.7328737,
          "lng": -74.05828869999999
        },
        "viewport": {
          "northeast": {
            "lat": 40.7342737302915,
            "lng": -74.0566199197085
          },
          "southwest": {
            "lat": 40.7315757697085,
            "lng": -74.0593178802915
          }
        }
      },
      "icon": "https://maps.gstatic.com/mapfiles/place_api/icons/v1/png_71/civic_building-71.png",
      "icon_background_color": "#7B9EB0",
      "icon_mask_base_uri": "https://maps.gstatic.com/mapfiles/place_api/icons/v2/civic-bldg_pinlet",
      "name": "Family Court",
      "opening_hours": {
        "open_now": false
      },
      "place_id": "ChIJx40I6jZXwokRPDcjFhz03wY",
      "plus_code": {
        "compound_code": "PWMR+4M \u7f8e\u570b\u65b0\u6fa4\u897f\u6fa4\u897f\u5e02",
        "global_code": "87G7PWMR+4M"
      },
      "rating": 3.6,
      "reference": "ChIJx40I6jZXwokRPDcjFhz03wY",
      "scope": "GOOGLE",
      "types": [
        "local_government_office",
        "point_of_interest",
        "establishment"
      ],
      "user_ratings_total": 10,
      "vicinity": "595 Newark Avenue #1, Jersey City"
    },
    {
      "business_status": "OPERATIONAL",
      "geometry": {
        "location": {
          "lat": 40.7347374,
          "lng": -74.0601903
        },
        "viewport": {
          "northeast": {
            "lat": 40.73621638029149,
            "lng": -74.05876321970848
          },
          "southwest": {
            "lat": 40.7335184197085,
            "lng": -74.0614611802915
          }
        }
      },
      "icon": "https://maps.gstatic.com/mapfiles/place_api/icons/v1/png_71/restaurant-71.png",
      "icon_background_color": "#FF9E67",
      "icon_mask_base_uri": "https://maps.gstatic.com/mapfiles/place_api/icons/v2/restaurant_pinlet",
      "name": "Max's Restaurant, Cuisine of the Philippines, Jersey City",
      "opening_hours": {
        "open_now": true
      },
      "photos": [
        {
          "height": 3456,
          "html_attributions": [
            "<a href=\"https://maps.google.com/maps/contrib/103704698560783738709\">Max&#39;s Restaurant, Cuisine of the Philippines, Jersey City</a>"
          ],
          "photo_reference": "AeJbb3dZACRMl16vJW2BY-uN05p39KPXpe6qqvjL_Z-tM91G6nVkxra6Whq1sHsSJyYfv2S9_9wp4KWb9AU4b_XqbYACMOmaa_5WvdRCmtsLdGfDX5GBsXGcjtPlq9uV7k4ezZCJjf92ML-4e_o-PfUHg9VXiZuvXNiFkEiZFEpnGnEB05ew",
          "width": 4608
        }
      ],
      "place_id": "ChIJJQ-DyDBXwokRDVrLo0JoO_Y",
      "plus_code": {
        "compound_code": "PWMQ+VW \u7f8e\u570b\u65b0\u6fa4\u897f\u6fa4\u897f\u5e02",
        "global_code": "87G7PWMQ+VW"
      },
      "price_level": 2,
      "rating": 4.3,
      "reference": "ChIJJQ-DyDBXwokRDVrLo0JoO_Y",
      "scope": "GOOGLE",
      "types": [
        "restaurant",
        "food",
        "point_of_interest",
        "establishment"
      ],
      "user_ratings_total": 693,
      "vicinity": "687 Newark Avenue, Jersey City"
    },
    {
      "business_status": "OPERATIONAL",
      "geometry": {
        "location": {
          "lat": 40.7347143,
          "lng": -74.05961669999999
        },
        "viewport": {
          "northeast": {
            "lat": 40.73617118029149,
            "lng": -74.05816001970848
          },
          "southwest": {
            "lat": 40.7334732197085,
            "lng": -74.0608579802915
          }
        }
      },
      "icon": "https://maps.gstatic.com/mapfiles/place_api/icons/v1/png_71/generic_business-71.png",
      "icon_background_color": "#7B9EB0",
      "icon_mask_base_uri": "https://maps.gstatic.com/mapfiles/place_api/icons/v2/generic_pinlet",
      "name": "Confident Care Corp",
      "opening_hours": {
        "open_now": false
      },
      "photos": [
        {
          "height": 1192,
          "html_attributions": [
            "<a href=\"https://maps.google.com/maps/contrib/103957907200880148571\">Confident Care Corp</a>"
          ],
          "photo_reference": "AeJbb3fyqIvxlXsH43RpSd8bdy2MwqndANidTdTWvQFhorFzg1QP_vRbocGfEFMlx58VWTbNeO3Oru1nCE3kNCyVVI2f3dENd9NO6xmPTim6wC1ytJ3KnQbnq-iE_Xk671LhS__wPCr6e_6oydJXDXUonjXJtVBH5UyqNB5h6Y25ANr5bYZL",
          "width": 2120
        }
      ],
      "place_id": "ChIJ_9NTNDdXwokR6L3u0zAKwRk",
      "plus_code": {
        "compound_code": "PWMR+V5 \u7f8e\u570b\u65b0\u6fa4\u897f\u6fa4\u897f\u5e02",
        "global_code": "87G7PWMR+V5"
      },
      "rating": 3,
      "reference": "ChIJ_9NTNDdXwokR6L3u0zAKwRk",
      "scope": "GOOGLE",
      "types": [
        "health",
        "point_of_interest",
        "establishment"
      ],
      "user_ratings_total": 2,
      "vicinity": "591 Summit Avenue, Jersey City"
    },
    {
      "business_status": "OPERATIONAL",
      "geometry": {
        "location": {
          "lat": 40.734743,
          "lng": -74.0593992
        },
        "viewport": {
          "northeast": {
            "lat": 40.7360851802915,
            "lng": -74.05798286970848
          },
          "southwest": {
            "lat": 40.7333872197085,
            "lng": -74.0606808302915
          }
        }
      },
      "icon": "https://maps.gstatic.com/mapfiles/place_api/icons/v1/png_71/school-71.png",
      "icon_background_color": "#7B9EB0",
      "icon_mask_base_uri": "https://maps.gstatic.com/mapfiles/place_api/icons/v2/school_pinlet",
      "name": "Garden State Science and Technology Institute",
      "opening_hours": {
        "open_now": false
      },
      "photos": [
        {
          "height": 503,
          "html_attributions": [
            "<a href=\"https://maps.google.com/maps/contrib/108533129258887488875\">Garden State Science and Technology Institute</a>"
          ],
          "photo_reference": "AeJbb3f8kU9sIlM0ouI0kGo6rsjj7lcJrxrYYSwNxlYvk4E7GKf17txVtc8UCzxex8FFel5K-x-bkrnK9Pu2lPJoiCwYx9zRPxHbVOebcHFUszsKEvnoJFykIERYqGtn6bgOIo-DzQi4TLahIwQE_Sf4jfJnrkwNZfduFBBGydMZhhZK1sq3",
          "width": 960
        }
      ],
      "place_id": "ChIJ_9NTNDdXwokRR6GdW8ZHWvw",
      "plus_code": {
        "compound_code": "PWMR+V6 \u7f8e\u570b\u65b0\u6fa4\u897f\u6fa4\u897f\u5e02",
        "global_code": "87G7PWMR+V6"
      },
      "rating": 3.9,
      "reference": "ChIJ_9NTNDdXwokRR6GdW8ZHWvw",
      "scope": "GOOGLE",
      "types": [
        "university",
        "health",
        "school",
        "point_of_interest",
        "establishment"
      ],
      "user_ratings_total": 15,
      "vicinity": "591 Summit Avenue Suite 705, Jersey City"
    },
    {
      "business_status": "OPERATIONAL",
      "geometry": {
        "location": {
          "lat": 40.7343566,
          "lng": -74.0591348
        },
        "viewport": {
          "northeast": {
            "lat": 40.7357241802915,
            "lng": -74.05783721970849
          },
          "southwest": {
            "lat": 40.7330262197085,
            "lng": -74.0605351802915
          }
        }
      },
      "icon": "https://maps.gstatic.com/mapfiles/place_api/icons/v1/png_71/generic_business-71.png",
      "icon_background_color": "#7B9EB0",
      "icon_mask_base_uri": "https://maps.gstatic.com/mapfiles/place_api/icons/v2/generic_pinlet",
      "name": "Forest Laboratories",
      "place_id": "ChIJiwQ1d-1XwokRpymM1ImGQrg",
      "plus_code": {
        "compound_code": "PWMR+P8 \u7f8e\u570b\u65b0\u6fa4\u897f\u6fa4\u897f\u5e02",
        "global_code": "87G7PWMR+P8"
      },
      "reference": "ChIJiwQ1d-1XwokRpymM1ImGQrg",
      "scope": "GOOGLE",
      "types": [
        "health",
        "point_of_interest",
        "establishment"
      ],
      "vicinity": "1900 Plaza Five, Jersey City"
    },
    {
      "business_status": "OPERATIONAL",
      "geometry": {
        "location": {
          "lat": 40.7319475,
          "lng": -74.0631837
        },
        "viewport": {
          "northeast": {
            "lat": 40.7333910302915,
            "lng": -74.0620880697085
          },
          "southwest": {
            "lat": 40.7306930697085,
            "lng": -74.0647860302915
          }
        }
      },
      "icon": "https://maps.gstatic.com/mapfiles/place_api/icons/v1/png_71/generic_business-71.png",
      "icon_background_color": "#7B9EB0",
      "icon_mask_base_uri": "https://maps.gstatic.com/mapfiles/place_api/icons/v2/generic_pinlet",
      "name": "Path Federal CU",
      "opening_hours": {
        "open_now": false
      },
      "place_id": "ChIJcbmFrldXwokRL6ysvc6KXYo",
      "plus_code": {
        "compound_code": "PWJP+QP \u7f8e\u570b\u65b0\u6fa4\u897f\u6fa4\u897f\u5e02",
        "global_code": "87G7PWJP+QP"
      },
      "rating": 4.3,
      "reference": "ChIJcbmFrldXwokRL6ysvc6KXYo",
      "scope": "GOOGLE",
      "types": [
        "finance",
        "point_of_interest",
        "establishment"
      ],
      "user_ratings_total": 3,
      "vicinity": "1 Path Plaza, Jersey City"
    },
    {
      "business_status": "OPERATIONAL",
      "geometry": {
        "location": {
          "lat": 40.732572,
          "lng": -74.05807060000001
        },
        "viewport": {
          "northeast": {
            "lat": 40.7340358802915,
            "lng": -74.0564848197085
          },
          "southwest": {
            "lat": 40.7313379197085,
            "lng": -74.05918278029151
          }
        }
      },
      "icon": "https://maps.gstatic.com/mapfiles/place_api/icons/v1/png_71/civic_building-71.png",
      "icon_background_color": "#7B9EB0",
      "icon_mask_base_uri": "https://maps.gstatic.com/mapfiles/place_api/icons/v2/civic-bldg_pinlet",
      "name": "Women Rising Court Liaison",
      "place_id": "ChIJx40I6jZXwokR5BeebDKst4U",
      "plus_code": {
        "compound_code": "PWMR+2Q \u7f8e\u570b\u65b0\u6fa4\u897f\u6fa4\u897f\u5e02",
        "global_code": "87G7PWMR+2Q"
      },
      "reference": "ChIJx40I6jZXwokR5BeebDKst4U",
      "scope": "GOOGLE",
      "types": [
        "courthouse",
        "point_of_interest",
        "establishment"
      ],
      "vicinity": "595 Newark Avenue, Jersey City"
    },
    {
      "business_status": "OPERATIONAL",
      "geometry": {
        "location": {
          "lat": 40.732572,
          "lng": -74.05807060000001
        },
        "viewport": {
          "northeast": {
            "lat": 40.7340358802915,
            "lng": -74.0564848197085
          },
          "southwest": {
            "lat": 40.7313379197085,
            "lng": -74.05918278029151
          }
        }
      },
      "icon": "https://maps.gstatic.com/mapfiles/place_api/icons/v1/png_71/civic_building-71.png",
      "icon_background_color": "#7B9EB0",
      "icon_mask_base_uri": "https://maps.gstatic.com/mapfiles/place_api/icons/v2/civic-bldg_pinlet",
      "name": "Hudson County Building & Grounds",
      "place_id": "ChIJx40I6jZXwokRWV_UAI_WAi8",
      "plus_code": {
        "compound_code": "PWMR+2Q \u7f8e\u570b\u65b0\u6fa4\u897f\u6fa4\u897f\u5e02",
        "global_code": "87G7PWMR+2Q"
      },
      "reference": "ChIJx40I6jZXwokRWV_UAI_WAi8",
      "scope": "GOOGLE",
      "types": [
        "local_government_office",
        "point_of_interest",
        "establishment"
      ],
      "vicinity": "595 Newark Avenue # G12, Jersey City"
    },
    {
      "business_status": "OPERATIONAL",
      "geometry": {
        "location": {
          "lat": 40.732572,
          "lng": -74.05807060000001
        },
        "viewport": {
          "northeast": {
            "lat": 40.7340358802915,
            "lng": -74.0564848197085
          },
          "southwest": {
            "lat": 40.7313379197085,
            "lng": -74.05918278029151
          }
        }
      },
      "icon": "https://maps.gstatic.com/mapfiles/place_api/icons/v1/png_71/civic_building-71.png",
      "icon_background_color": "#7B9EB0",
      "icon_mask_base_uri": "https://maps.gstatic.com/mapfiles/place_api/icons/v2/civic-bldg_pinlet",
      "name": "Public Information Division",
      "place_id": "ChIJx40I6jZXwokRrmBBbb6C2q4",
      "plus_code": {
        "compound_code": "PWMR+2Q \u7f8e\u570b\u65b0\u6fa4\u897f\u6fa4\u897f\u5e02",
        "global_code": "87G7PWMR+2Q"
      },
      "reference": "ChIJx40I6jZXwokRrmBBbb6C2q4",
      "scope": "GOOGLE",
      "types": [
        "local_government_office",
        "point_of_interest",
        "establishment"
      ],
      "vicinity": "595 Newark Avenue, Jersey City"
    },
    {
      "business_status": "OPERATIONAL",
      "geometry": {
        "location": {
          "lat": 40.7337903,
          "lng": -74.05923829999999
        },
        "viewport": {
          "northeast": {
            "lat": 40.7351355802915,
            "lng": -74.05795971970849
          },
          "southwest": {
            "lat": 40.7324376197085,
            "lng": -74.0606576802915
          }
        }
      },
      "icon": "https://maps.gstatic.com/mapfiles/place_api/icons/v1/png_71/generic_business-71.png",
      "icon_background_color": "#7B9EB0",
      "icon_mask_base_uri": "https://maps.gstatic.com/mapfiles/place_api/icons/v2/generic_pinlet",
      "name": "Concentra Urgent Care",
      "opening_hours": {
        "open_now": false
      },
      "photos": [
        {
          "height": 2175,
          "html_attributions": [
            "<a href=\"https://maps.google.com/maps/contrib/111755085706842831596\">Concentra Urgent Care</a>"
          ],
          "photo_reference": "AeJbb3eNlzGgwBzjj0voPm8PBpuyOtUdF1votSR9u1Ele2qPDAO67ixFdQMTRyIqFIMkaT04ksOyxg1vzRP8g0AHSR-4qPQ0x0CSfYFMmh_S_QQY7xMJCH2u93rrnsENxAHQKeilAFpjV-7KY0v9T34HFY4SbjnTIJ8OOV0emaSGoXf-lnvi",
          "width": 3139
        }
      ],
      "place_id": "ChIJ2-CxKjdXwokRwhRE3i-lPDM",
      "plus_code": {
        "compound_code": "PWMR+G8 \u7f8e\u570b\u65b0\u6fa4\u897f\u6fa4\u897f\u5e02",
        "global_code": "87G7PWMR+G8"
      },
      "rating": 3.7,
      "reference": "ChIJ2-CxKjdXwokRwhRE3i-lPDM",
      "scope": "GOOGLE",
      "types": [
        "physiotherapist",
        "health",
        "point_of_interest",
        "establishment"
      ],
      "user_ratings_total": 516,
      "vicinity": "574 Summit Avenue 4th Floor, Jersey City"
    },
    {
      "business_status": "OPERATIONAL",
      "geometry": {
        "location": {
          "lat": 40.7329519,
          "lng": -74.0603247
        },
        "viewport": {
          "northeast": {
            "lat": 40.73418383029151,
            "lng": -74.05904191970849
          },
          "southwest": {
            "lat": 40.73148586970851,
            "lng": -74.0617398802915
          }
        }
      },
      "icon": "https://maps.gstatic.com/mapfiles/place_api/icons/v1/png_71/generic_business-71.png",
      "icon_background_color": "#7B9EB0",
      "icon_mask_base_uri": "https://maps.gstatic.com/mapfiles/place_api/icons/v2/generic_pinlet",
      "name": "Anume Med Spa",
      "opening_hours": {
        "open_now": true
      },
      "place_id": "ChIJBQLAODFXwokRFpgSEzhsnRA",
      "plus_code": {
        "compound_code": "PWMQ+5V \u7f8e\u570b\u65b0\u6fa4\u897f\u6fa4\u897f\u5e02",
        "global_code": "87G7PWMQ+5V"
      },
      "rating": 2.3,
      "reference": "ChIJBQLAODFXwokRFpgSEzhsnRA",
      "scope": "GOOGLE",
      "types": [
        "spa",
        "hair_care",
        "beauty_salon",
        "doctor",
        "health",
        "point_of_interest",
        "establishment"
      ],
      "user_ratings_total": 3,
      "vicinity": "600 Pavonia Avenue, Jersey City"
    },
    {
      "geometry": {
        "location": {
          "lat": 40.7190163,
          "lng": -74.04136559999999
        },
        "viewport": {
          "northeast": {
            "lat": 40.73656454717712,
            "lng": -74.02661431449599
          },
          "southwest": {
            "lat": 40.7109149370721,
            "lng": -74.06200559238953
          }
        }
      },
      "icon": "https://maps.gstatic.com/mapfiles/place_api/icons/v1/png_71/geocode-71.png",
      "icon_background_color": "#7B9EB0",
      "icon_mask_base_uri": "https://maps.gstatic.com/mapfiles/place_api/icons/v2/generic_pinlet",
      "name": "Downtown Jersey City",
      "photos": [
        {
          "height": 1908,
          "html_attributions": [
            "<a href=\"https://maps.google.com/maps/contrib/116992533205705838643\">Punnu Singh</a>"
          ],
          "photo_reference": "AeJbb3cO_fkMjLcuh8hR13w-AH2ZM6vziQ1Fm2LrvMBpZ9P-S61zGJMdgb-m9omjTsuTzE3ewBEB4xxAroU5dZx26iv6o9YzT1WyvnEdWorteeLaIPeIo1ffyuLoxEYe-evdYrg4VHD57SXq9aE1-92nADtRKY3lc6Z7s6ufQhB4Qq_eenFF",
          "width": 4032
        }
      ],
      "place_id": "ChIJ_5Q_bLJQwokRy7o0TOvDEWk",
      "reference": "ChIJ_5Q_bLJQwokRy7o0TOvDEWk",
      "scope": "GOOGLE",
      "types": [
        "neighborhood",
        "political"
      ],
      "vicinity": "Jersey City"
    },
    {
      "business_status": "CLOSED_TEMPORARILY",
      "geometry": {
        "location": {
          "lat": 40.7347615,
          "lng": -74.05939699999999
        },
        "viewport": {
          "northeast": {
            "lat": 40.73609443029149,
            "lng": -74.05798036970849
          },
          "southwest": {
            "lat": 40.7333964697085,
            "lng": -74.06067833029151
          }
        }
      },
      "icon": "https://maps.gstatic.com/mapfiles/place_api/icons/v1/png_71/school-71.png",
      "icon_background_color": "#7B9EB0",
      "icon_mask_base_uri": "https://maps.gstatic.com/mapfiles/place_api/icons/v2/school_pinlet",
      "name": "R C Career Institute",
      "permanently_closed": true,
      "place_id": "ChIJvVkTMzdXwokRJAIlT1Bblq8",
      "plus_code": {
        "compound_code": "PWMR+W6 Jersey City, NJ, USA",
        "global_code": "87G7PWMR+W6"
      },
      "rating": 5,
      "reference": "ChIJvVkTMzdXwokRJAIlT1Bblq8",
      "scope": "GOOGLE",
      "types": [
        "point_of_interest",
        "establishment"
      ],
      "user_ratings_total": 3,
      "vicinity": "591 Summit Avenue, Jersey City"
    },
    {
      "business_status": "OPERATIONAL",
      "geometry": {
        "location": {
          "lat": 40.7311478,
          "lng": -74.0560608
        },
        "viewport": {
          "northeast": {
            "lat": 40.73251088029149,
            "lng": -74.0547751197085
          },
          "southwest": {
            "lat": 40.72981291970849,
            "lng": -74.0574730802915
          }
        }
      },
      "icon": "https://maps.gstatic.com/mapfiles/place_api/icons/v1/png_71/generic_business-71.png",
      "icon_background_color": "#7B9EB0",
      "icon_mask_base_uri": "https://maps.gstatic.com/mapfiles/place_api/icons/v2/generic_pinlet",
      "name": "Jersey City Pediatrics",
      "opening_hours": {
        "open_now": true
      },
      "photos": [
        {
          "height": 2448,
          "html_attributions": [
            "<a href=\"https://maps.google.com/maps/contrib/112797633189852177634\">Magila Gigi</a>"
          ],
          "photo_reference": "AeJbb3fDr8PEWdlvpmKB8eiIQjs06PEYFAkBHbQOcdfbesFlyroMyaUarUQc8GKCu9vgsz3JKJ9Q5S4TVZSaSLxtRpq0gLFrpY_fhLJ2mXnxWzu-EMYgW6RMzNLF08PwJJE1duy0JV0_eD-acf4z0g_pTmklqcAlHmzLvZLY3xYQPRXgJkx3",
          "width": 3264
        }
      ],
      "place_id": "ChIJGULIfTZXwokRZmxvFGh1Ht0",
      "plus_code": {
        "compound_code": "PWJV+FH Jersey City, NJ, USA",
        "global_code": "87G7PWJV+FH"
      },
      "rating": 4.3,
      "reference": "ChIJGULIfTZXwokRZmxvFGh1Ht0",
      "scope": "GOOGLE",
      "types": [
        "doctor",
        "health",
        "point_of_interest",
        "establishment"
      ],
      "user_ratings_total": 42,
      "vicinity": "550 Newark Avenue #401, Jersey City"
    },
    {
      "business_status": "OPERATIONAL",
      "geometry": {
        "location": {
          "lat": 40.7334256,
          "lng": -74.0584097
        },
        "viewport": {
          "northeast": {
            "lat": 40.7348226302915,
            "lng": -74.0569519197085
          },
          "southwest": {
            "lat": 40.7321246697085,
            "lng": -74.0596498802915
          }
        }
      },
      "icon": "https://maps.gstatic.com/mapfiles/place_api/icons/v1/png_71/generic_business-71.png",
      "icon_background_color": "#7B9EB0",
      "icon_mask_base_uri": "https://maps.gstatic.com/mapfiles/place_api/icons/v2/generic_pinlet",
      "name": "Domino's Pizza",
      "opening_hours": {
        "open_now": true
      },
      "photos": [
        {
          "height": 1960,
          "html_attributions": [
            "<a href=\"https://maps.google.com/maps/contrib/100396148228938928861\">Waqas Yaqoob</a>"
          ],
          "photo_reference": "AeJbb3cbwg5G2hTPppeo3B8bryHNce9YZGg2XRwo2oJJScSylFNkNba6WjTowood7pHRmlfjbl_iojP-y3mGSwCiC4YUwqR2BeOYTbpisgCztsBgfz_-Mlz3SKnpUowJakfmr7h01wh7uZaeegqMAPJUI1Jq4R2y2CENbRne52ZmlWLrU-Mw",
          "width": 4032
        }
      ],
      "place_id": "ChIJWTU23zZXwokRShsAR-WJPgM",
      "plus_code": {
        "compound_code": "PWMR+9J Jersey City, NJ, USA",
        "global_code": "87G7PWMR+9J"
      },
      "price_level": 1,
      "rating": 3.4,
      "reference": "ChIJWTU23zZXwokRShsAR-WJPgM",
      "scope": "GOOGLE",
      "types": [
        "meal_takeaway",
        "meal_delivery",
        "restaurant",
        "food",
        "point_of_interest",
        "establishment"
      ],
      "user_ratings_total": 535,
      "vicinity": "631 Newark Avenue, Jersey City"
    },
    {
      "business_status": "OPERATIONAL",
      "geometry": {
        "location": {
          "lat": 40.7347404,
          "lng": -74.05967679999999
        },
        "viewport": {
          "northeast": {
            "lat": 40.7361890802915,
            "lng": -74.05819006970849
          },
          "southwest": {
            "lat": 40.7334911197085,
            "lng": -74.0608880302915
          }
        }
      },
      "icon": "https://maps.gstatic.com/mapfiles/place_api/icons/v1/png_71/generic_business-71.png",
      "icon_background_color": "#7B9EB0",
      "icon_mask_base_uri": "https://maps.gstatic.com/mapfiles/place_api/icons/v2/generic_pinlet",
      "name": "Anjay Accountax",
      "opening_hours": {
        "open_now": true
      },
      "place_id": "ChIJvVkTMzdXwokRr6XfgMb2kUA",
      "plus_code": {
        "compound_code": "PWMR+V4 Jersey City, NJ, USA",
        "global_code": "87G7PWMR+V4"
      },
      "rating": 5,
      "reference": "ChIJvVkTMzdXwokRr6XfgMb2kUA",
      "scope": "GOOGLE",
      "types": [
        "accounting",
        "finance",
        "point_of_interest",
        "establishment"
      ],
      "user_ratings_total": 7,
      "vicinity": "591 Summit Avenue # 203, Jersey City"
    },
    {
      "business_status": "OPERATIONAL",
      "geometry": {
        "location": {
          "lat": 40.7321097,
          "lng": -74.063366
        },
        "viewport": {
          "northeast": {
            "lat": 40.73343093029149,
            "lng": -74.0621877197085
          },
          "southwest": {
            "lat": 40.7307329697085,
            "lng": -74.06488568029151
          }
        }
      },
      "icon": "https://maps.gstatic.com/mapfiles/place_api/icons/v1/png_71/generic_business-71.png",
      "icon_background_color": "#7B9EB0",
      "icon_mask_base_uri": "https://maps.gstatic.com/mapfiles/place_api/icons/v2/generic_pinlet",
      "name": "PATH (Port Authority Trans Hudson)",
      "opening_hours": {
        "open_now": true
      },
      "photos": [
        {
          "height": 2340,
          "html_attributions": [
            "<a href=\"https://maps.google.com/maps/contrib/111233107845623285255\">Todd McKee</a>"
          ],
          "photo_reference": "AeJbb3fs6XcLxlJpNrOiLtHmElcAG4r8CtmDtilOwuNRii1hVd7lSoCm2kYQdkmM3POmxu8XqKQ8-dXjt-Rdsw_U59drM181A3tNTtARTVxuakPEkXtICCDPbpc_p2L4_60UGOSJuSRHYHR-3mk3oVTq5VxXyOozBhcbdjlKI7GUDsAaTnWI",
          "width": 4160
        }
      ],
      "place_id": "ChIJcbmFrldXwokRtR-YAvub4Es",
      "plus_code": {
        "compound_code": "PWJP+RM Jersey City, NJ, USA",
        "global_code": "87G7PWJP+RM"
      },
      "rating": 4.1,
      "reference": "ChIJcbmFrldXwokRtR-YAvub4Es",
      "scope": "GOOGLE",
      "types": [
        "point_of_interest",
        "establishment"
      ],
      "user_ratings_total": 4528,
      "vicinity": "1 Path Plaza, Jersey City"
    },
    {
      "business_status": "OPERATIONAL",
      "geometry": {
        "location": {
          "lat": 40.7329519,
          "lng": -74.0603247
        },
        "viewport": {
          "northeast": {
            "lat": 40.73418383029151,
            "lng": -74.05904191970849
          },
          "southwest": {
            "lat": 40.73148586970851,
            "lng": -74.0617398802915
          }
        }
      },
      "icon": "https://maps.gstatic.com/mapfiles/place_api/icons/v1/png_71/generic_business-71.png",
      "icon_background_color": "#7B9EB0",
      "icon_mask_base_uri": "https://maps.gstatic.com/mapfiles/place_api/icons/v2/generic_pinlet",
      "name": "Hudson Eye Physicians & Surgeons",
      "opening_hours": {
        "open_now": false
      },
      "photos": [
        {
          "height": 3096,
          "html_attributions": [
            "<a href=\"https://maps.google.com/maps/contrib/100279299279352418479\">ALON JARA</a>"
          ],
          "photo_reference": "AeJbb3fM2ovIrFRyHJ5TlK0tQgxR73PL8GI38qC48QIzPqVvs9WZieHrHvmRWDvuWROsWzSfu9PEpa7gGWoIAxPGlKjfvh_IRyN2293_Pmy0JmL5PPRheMEWYmLACrmQxwWEanWqY_3u_ZMm-FVD-It4Kj0XmhqfYeXVexhuXF4Udj7MYsNq",
          "width": 5504
        }
      ],
      "place_id": "ChIJBQLAODFXwokRC70GvNvqCSo",
      "plus_code": {
        "compound_code": "PWMQ+5V Jersey City, NJ, USA",
        "global_code": "87G7PWMQ+5V"
      },
      "rating": 3.3,
      "reference": "ChIJBQLAODFXwokRC70GvNvqCSo",
      "scope": "GOOGLE",
      "types": [
        "doctor",
        "health",
        "point_of_interest",
        "establishment"
      ],
      "user_ratings_total": 46,
      "vicinity": "600 Pavonia Avenue, Jersey City"
    },
    {
      "business_status": "OPERATIONAL",
      "geometry": {
        "location": {
          "lat": 40.7328451,
          "lng": -74.0603027
        },
        "viewport": {
          "northeast": {
            "lat": 40.73412783029151,
            "lng": -74.05903091970849
          },
          "southwest": {
            "lat": 40.73142986970851,
            "lng": -74.0617288802915
          }
        }
      },
      "icon": "https://maps.gstatic.com/mapfiles/place_api/icons/v1/png_71/generic_business-71.png",
      "icon_background_color": "#7B9EB0",
      "icon_mask_base_uri": "https://maps.gstatic.com/mapfiles/place_api/icons/v2/generic_pinlet",
      "name": "Neurology Partners: Vinod Kapoor MD",
      "opening_hours": {
        "open_now": false
      },
      "place_id": "ChIJBQLAODFXwokRARrF5ggEKGU",
      "plus_code": {
        "compound_code": "PWMQ+4V Jersey City, NJ, USA",
        "global_code": "87G7PWMQ+4V"
      },
      "rating": 2.3,
      "reference": "ChIJBQLAODFXwokRARrF5ggEKGU",
      "scope": "GOOGLE",
      "types": [
        "doctor",
        "health",
        "point_of_interest",
        "establishment"
      ],
      "user_ratings_total": 16,
      "vicinity": "600 Pavonia Avenue # 4, Jersey City"
    },
    {
      "business_status": "OPERATIONAL",
      "geometry": {
        "location": {
          "lat": 40.7338351,
          "lng": -74.0587145
        },
        "viewport": {
          "northeast": {
            "lat": 40.7352184802915,
            "lng": -74.0572616697085
          },
          "southwest": {
            "lat": 40.7325205197085,
            "lng": -74.0599596302915
          }
        }
      },
      "icon": "https://maps.gstatic.com/mapfiles/place_api/icons/v1/png_71/civic_building-71.png",
      "icon_background_color": "#7B9EB0",
      "icon_mask_base_uri": "https://maps.gstatic.com/mapfiles/place_api/icons/v2/civic-bldg_pinlet",
      "name": "United States Postal Service",
      "opening_hours": {
        "open_now": true
      },
      "photos": [
        {
          "height": 4032,
          "html_attributions": [
            "<a href=\"https://maps.google.com/maps/contrib/104951358331311671428\">Jan Komrska</a>"
          ],
          "photo_reference": "AeJbb3cKl-EcsKBSa2lNWVfkxX--pF498h6ST39ZMcwhSgUGzt0Kaor6p-4-ZN6PO9-JrrtDUdKpyZqDULvWs0noMzwF1q2fF8AGACW15yxr5QRvtbjgiNM0VHcHfPD3FNrf5diIj45Me_Av4hWv1QTB8S3ROGr5XpCj2yNwYq7rad6SlRa7",
          "width": 3024
        }
      ],
      "place_id": "ChIJsT8xJjdXwokR0EOG-5n3Adg",
      "plus_code": {
        "compound_code": "PWMR+GG Jersey City, NJ, USA",
        "global_code": "87G7PWMR+GG"
      },
      "rating": 3.2,
      "reference": "ChIJsT8xJjdXwokR0EOG-5n3Adg",
      "scope": "GOOGLE",
      "types": [
        "post_office",
        "finance",
        "point_of_interest",
        "establishment"
      ],
      "user_ratings_total": 54,
      "vicinity": "645 Newark Avenue, Jersey City"
    },
    {
      "business_status": "OPERATIONAL",
      "geometry": {
        "location": {
          "lat": 40.73121019999999,
          "lng": -74.0560836
        },
        "viewport": {
          "northeast": {
            "lat": 40.7325371302915,
            "lng": -74.0548082697085
          },
          "southwest": {
            "lat": 40.7298391697085,
            "lng": -74.05750623029151
          }
        }
      },
      "icon": "https://maps.gstatic.com/mapfiles/place_api/icons/v1/png_71/generic_business-71.png",
      "icon_background_color": "#7B9EB0",
      "icon_mask_base_uri": "https://maps.gstatic.com/mapfiles/place_api/icons/v2/generic_pinlet",
      "name": "Cardiology Associates",
      "place_id": "ChIJGULIfTZXwokRn48DOMfy8HQ",
      "plus_code": {
        "compound_code": "PWJV+FH Jersey City, NJ, USA",
        "global_code": "87G7PWJV+FH"
      },
      "reference": "ChIJGULIfTZXwokRn48DOMfy8HQ",
      "scope": "GOOGLE",
      "types": [
        "doctor",
        "health",
        "point_of_interest",
        "establishment"
      ],
      "vicinity": "550 Newark Avenue STE 301A, Jersey City"
    },
    {
      "business_status": "OPERATIONAL",
      "geometry": {
        "location": {
          "lat": 40.732572,
          "lng": -74.05807060000001
        },
        "viewport": {
          "northeast": {
            "lat": 40.7340358802915,
            "lng": -74.0564848197085
          },
          "southwest": {
            "lat": 40.7313379197085,
            "lng": -74.05918278029151
          }
        }
      },
      "icon": "https://maps.gstatic.com/mapfiles/place_api/icons/v1/png_71/civic_building-71.png",
      "icon_background_color": "#7B9EB0",
      "icon_mask_base_uri": "https://maps.gstatic.com/mapfiles/place_api/icons/v2/civic-bldg_pinlet",
      "name": "Hudson County Consumer Affairs",
      "place_id": "ChIJx40I6jZXwokRq_tncKj0CIY",
      "plus_code": {
        "compound_code": "PWMR+2Q Jersey City, NJ, USA",
        "global_code": "87G7PWMR+2Q"
      },
      "rating": 3,
      "reference": "ChIJx40I6jZXwokRq_tncKj0CIY",
      "scope": "GOOGLE",
      "types": [
        "local_government_office",
        "point_of_interest",
        "establishment"
      ],
      "user_ratings_total": 1,
      "vicinity": "595 Newark Avenue, Jersey City"
    },
    {
      "business_status": "OPERATIONAL",
      "geometry": {
        "location": {
          "lat": 40.73152690000001,
          "lng": -74.0555409
        },
        "viewport": {
          "northeast": {
            "lat": 40.73270348029151,
            "lng": -74.0545543697085
          },
          "southwest": {
            "lat": 40.73000551970851,
            "lng": -74.0572523302915
          }
        }
      },
      "icon": "https://maps.gstatic.com/mapfiles/place_api/icons/v1/png_71/generic_business-71.png",
      "icon_background_color": "#7B9EB0",
      "icon_mask_base_uri": "https://maps.gstatic.com/mapfiles/place_api/icons/v2/generic_pinlet",
      "name": "Advanced Rehabilitation of Jersey City",
      "opening_hours": {
        "open_now": false
      },
      "photos": [
        {
          "height": 1702,
          "html_attributions": [
            "<a href=\"https://maps.google.com/maps/contrib/104042332612994961689\">Advanced Rehabilitation of Jersey City</a>"
          ],
          "photo_reference": "AeJbb3eUY7U2p2o2y_Sy2oqqcRaFisTdZa4JExyBIMTCdxMPnAGyzKmCjja_TO9N_SbJ63Ix-FSD8TE6eA1axbT62plSG3LQcN9mNjoY9mEafEByHyXfCZbzFxjH0aW3VVPJvUPB2t6aoOwf0P9CAALK4gzrIMJOaxFOEohTpLE3t0O92AWy",
          "width": 3024
        }
      ],
      "place_id": "ChIJGULIfTZXwokRNQGAarlaV-A",
      "plus_code": {
        "compound_code": "PWJV+JQ Jersey City, NJ, USA",
        "global_code": "87G7PWJV+JQ"
      },
      "rating": 4.9,
      "reference": "ChIJGULIfTZXwokRNQGAarlaV-A",
      "scope": "GOOGLE",
      "types": [
        "physiotherapist",
        "doctor",
        "health",
        "point_of_interest",
        "establishment"
      ],
      "user_ratings_total": 286,
      "vicinity": "550 Newark Avenue #304, Jersey City"
    },
    {
      "business_status": "OPERATIONAL",
      "geometry": {
        "location": {
          "lat": 40.7346754,
          "lng": -74.05896539999999
        },
        "viewport": {
          "northeast": {
            "lat": 40.7360006302915,
            "lng": -74.05767886970848
          },
          "southwest": {
            "lat": 40.7333026697085,
            "lng": -74.06037683029149
          }
        }
      },
      "icon": "https://maps.gstatic.com/mapfiles/place_api/icons/v1/png_71/generic_business-71.png",
      "icon_background_color": "#7B9EB0",
      "icon_mask_base_uri": "https://maps.gstatic.com/mapfiles/place_api/icons/v2/generic_pinlet",
      "name": "Liberty Savings Federal Credit Union",
      "opening_hours": {
        "open_now": false
      },
      "photos": [
        {
          "height": 1000,
          "html_attributions": [
            "<a href=\"https://maps.google.com/maps/contrib/116028898219021751052\">Liberty Savings Federal Credit Union</a>"
          ],
          "photo_reference": "AeJbb3f-ML7q-7dxHKafYvYCMMQBJSia7NIZjieZ3SjrULUdkUy9AIcdbs-6R-debfv8HHioy_p1pz_EE1fY0PQGSxc9g1aXmCHBlZaYDmNrAEzMSTSNH-UG5dVdTyPm5yGEA__BuPW2IEWH1eVGKJlQEgUXWPOYEB8EiNGh-IOGfx6CZNFG",
          "width": 1000
        }
      ],
      "place_id": "ChIJU48ANDdXwokRiCFxvmd8Uwk",
      "plus_code": {
        "compound_code": "PWMR+VC Jersey City, NJ, USA",
        "global_code": "87G7PWMR+VC"
      },
      "rating": 2.8,
      "reference": "ChIJU48ANDdXwokRiCFxvmd8Uwk",
      "scope": "GOOGLE",
      "types": [
        "atm",
        "finance",
        "point_of_interest",
        "establishment"
      ],
      "user_ratings_total": 87,
      "vicinity": "666 Newark Avenue, Jersey City"
    },
    {
      "business_status": "OPERATIONAL",
      "geometry": {
        "location": {
          "lat": 40.732572,
          "lng": -74.05807060000001
        },
        "viewport": {
          "northeast": {
            "lat": 40.7340358802915,
            "lng": -74.0564848197085
          },
          "southwest": {
            "lat": 40.7313379197085,
            "lng": -74.05918278029151
          }
        }
      },
      "icon": "https://maps.gstatic.com/mapfiles/place_api/icons/v1/png_71/civic_building-71.png",
      "icon_background_color": "#7B9EB0",
      "icon_mask_base_uri": "https://maps.gstatic.com/mapfiles/place_api/icons/v2/civic-bldg_pinlet",
      "name": "Hudson County Records Room",
      "place_id": "ChIJx40I6jZXwokR31vFq47oELg",
      "plus_code": {
        "compound_code": "PWMR+2Q Jersey City, NJ, USA",
        "global_code": "87G7PWMR+2Q"
      },
      "reference": "ChIJx40I6jZXwokR31vFq47oELg",
      "scope": "GOOGLE",
      "types": [
        "local_government_office",
        "point_of_interest",
        "establishment"
      ],
      "vicinity": "595 Newark Avenue # 6, Jersey City"
    },
    {
      "business_status": "OPERATIONAL",
      "geometry": {
        "location": {
          "lat": 40.73015520000001,
          "lng": -74.06116899999999
        },
        "viewport": {
          "northeast": {
            "lat": 40.7315540302915,
            "lng": -74.05994256970848
          },
          "southwest": {
            "lat": 40.7288560697085,
            "lng": -74.06264053029149
          }
        }
      },
      "icon": "https://maps.gstatic.com/mapfiles/place_api/icons/v1/png_71/generic_business-71.png",
      "icon_background_color": "#7B9EB0",
      "icon_mask_base_uri": "https://maps.gstatic.com/mapfiles/place_api/icons/v2/generic_pinlet",
      "name": "Unemployment Insurance Office",
      "opening_hours": {
        "open_now": false
      },
      "place_id": "ChIJlbDdv9BWwokRshJ0LeZeoa4",
      "plus_code": {
        "compound_code": "PWJQ+3G Jersey City, NJ, USA",
        "global_code": "87G7PWJQ+3G"
      },
      "rating": 2.3,
      "reference": "ChIJlbDdv9BWwokRshJ0LeZeoa4",
      "scope": "GOOGLE",
      "types": [
        "insurance_agency",
        "local_government_office",
        "point_of_interest",
        "establishment"
      ],
      "user_ratings_total": 143,
      "vicinity": "438 Summit Avenue # 16, Jersey City"
    },
    {
      "business_status": "OPERATIONAL",
      "geometry": {
        "location": {
          "lat": 40.732572,
          "lng": -74.05807060000001
        },
        "viewport": {
          "northeast": {
            "lat": 40.7340358802915,
            "lng": -74.0564848197085
          },
          "southwest": {
            "lat": 40.7313379197085,
            "lng": -74.05918278029151
          }
        }
      },
      "icon": "https://maps.gstatic.com/mapfiles/place_api/icons/v1/png_71/civic_building-71.png",
      "icon_background_color": "#7B9EB0",
      "icon_mask_base_uri": "https://maps.gstatic.com/mapfiles/place_api/icons/v2/civic-bldg_pinlet",
      "name": "Hudson County Victim Witness",
      "place_id": "ChIJx40I6jZXwokRIK4D8eqSMwQ",
      "plus_code": {
        "compound_code": "PWMR+2Q Jersey City, NJ, USA",
        "global_code": "87G7PWMR+2Q"
      },
      "reference": "ChIJx40I6jZXwokRIK4D8eqSMwQ",
      "scope": "GOOGLE",
      "types": [
        "local_government_office",
        "point_of_interest",
        "establishment"
      ],
      "vicinity": "595 Newark Avenue # 500, Jersey City"
    },
    {
      "business_status": "OPERATIONAL",
      "geometry": {
        "location": {
          "lat": 40.732572,
          "lng": -74.05807060000001
        },
        "viewport": {
          "northeast": {
            "lat": 40.7340358802915,
            "lng": -74.0564848197085
          },
          "southwest": {
            "lat": 40.7313379197085,
            "lng": -74.05918278029151
          }
        }
      },
      "icon": "https://maps.gstatic.com/mapfiles/place_api/icons/v1/png_71/civic_building-71.png",
      "icon_background_color": "#7B9EB0",
      "icon_mask_base_uri": "https://maps.gstatic.com/mapfiles/place_api/icons/v2/civic-bldg_pinlet",
      "name": "Hudson County Power House",
      "place_id": "ChIJx40I6jZXwokRil9ILtb1Abk",
      "plus_code": {
        "compound_code": "PWMR+2Q Jersey City, NJ, USA",
        "global_code": "87G7PWMR+2Q"
      },
      "reference": "ChIJx40I6jZXwokRil9ILtb1Abk",
      "scope": "GOOGLE",
      "types": [
        "local_government_office",
        "point_of_interest",
        "establishment"
      ],
      "vicinity": "595 Newark Avenue # 1, Jersey City"
    },
    {
      "business_status": "OPERATIONAL",
      "geometry": {
        "location": {
          "lat": 40.734067,
          "lng": -74.05739
        },
        "viewport": {
          "northeast": {
            "lat": 40.7355532802915,
            "lng": -74.0559316197085
          },
          "southwest": {
            "lat": 40.7328553197085,
            "lng": -74.05862958029151
          }
        }
      },
      "icon": "https://maps.gstatic.com/mapfiles/place_api/icons/v1/png_71/generic_business-71.png",
      "icon_background_color": "#7B9EB0",
      "icon_mask_base_uri": "https://maps.gstatic.com/mapfiles/place_api/icons/v2/generic_pinlet",
      "name": "Swaaminarayan World Org Inc",
      "opening_hours": {
        "open_now": false
      },
      "place_id": "ChIJLYlQDjdXwokRFUD0sOx_tEY",
      "plus_code": {
        "compound_code": "PWMV+J2 Jersey City, NJ, USA",
        "global_code": "87G7PWMV+J2"
      },
      "rating": 5,
      "reference": "ChIJLYlQDjdXwokRFUD0sOx_tEY",
      "scope": "GOOGLE",
      "types": [
        "point_of_interest",
        "establishment"
      ],
      "user_ratings_total": 1,
      "vicinity": "417 Hoboken Avenue, Jersey City"
    },
    {
      "business_status": "OPERATIONAL",
      "geometry": {
        "location": {
          "lat": 40.73128699999999,
          "lng": -74.055859
        },
        "viewport": {
          "northeast": {
            "lat": 40.73255178029149,
            "lng": -74.05468706970849
          },
          "southwest": {
            "lat": 40.7298538197085,
            "lng": -74.0573850302915
          }
        }
      },
      "icon": "https://maps.gstatic.com/mapfiles/place_api/icons/v1/png_71/generic_business-71.png",
      "icon_background_color": "#7B9EB0",
      "icon_mask_base_uri": "https://maps.gstatic.com/mapfiles/place_api/icons/v2/generic_pinlet",
      "name": "Perera S MD",
      "place_id": "ChIJQSQIXEhXwokRqvrN9MIIVp8",
      "plus_code": {
        "compound_code": "PWJV+GM Jersey City, NJ, USA",
        "global_code": "87G7PWJV+GM"
      },
      "reference": "ChIJQSQIXEhXwokRqvrN9MIIVp8",
      "scope": "GOOGLE",
      "types": [
        "doctor",
        "health",
        "point_of_interest",
        "establishment"
      ],
      "vicinity": "550 Newark Avenue #2, Jersey City"
    },
    {
      "business_status": "OPERATIONAL",
      "geometry": {
        "location": {
          "lat": 40.73480059999999,
          "lng": -74.0594625
        },
        "viewport": {
          "northeast": {
            "lat": 40.7361999802915,
            "lng": -74.0580663697085
          },
          "southwest": {
            "lat": 40.7335020197085,
            "lng": -74.0607643302915
          }
        }
      },
      "icon": "https://maps.gstatic.com/mapfiles/place_api/icons/v1/png_71/restaurant-71.png",
      "icon_background_color": "#FF9E67",
      "icon_mask_base_uri": "https://maps.gstatic.com/mapfiles/place_api/icons/v2/restaurant_pinlet",
      "name": "Red Ribbon Bakeshop",
      "opening_hours": {
        "open_now": true
      },
      "photos": [
        {
          "height": 2448,
          "html_attributions": [
            "<a href=\"https://maps.google.com/maps/contrib/116108793151490091954\">E Rivera</a>"
          ],
          "photo_reference": "AeJbb3e4zkfnuJE3h1gccUAiAb7V_IUIerdBwEDyGmYHJAk8a5R0xvC7E0wNxD1VQSqvaV1-zxU-mrVW21CObdY9yfcAuuo44BHI6_cFNNPkt-ZqVJeNUAu4K8v1wK74lTAwRDX82PyIfSIBKDlJ9RLKxU3UEiX1HmbxIkfLGsm0XL1oVCtE",
          "width": 3264
        }
      ],
      "place_id": "ChIJ_9NTNDdXwokR4HemMFCbNYs",
      "plus_code": {
        "compound_code": "PWMR+W6 Jersey City, NJ, USA",
        "global_code": "87G7PWMR+W6"
      },
      "rating": 4.4,
      "reference": "ChIJ_9NTNDdXwokR4HemMFCbNYs",
      "scope": "GOOGLE",
      "types": [
        "bakery",
        "meal_takeaway",
        "restaurant",
        "food",
        "store",
        "point_of_interest",
        "establishment"
      ],
      "user_ratings_total": 594,
      "vicinity": "591 Summit Avenue, Jersey City"
    },
    {
      "business_status": "OPERATIONAL",
      "geometry": {
        "location": {
          "lat": 40.7347404,
          "lng": -74.05967679999999
        },
        "viewport": {
          "northeast": {
            "lat": 40.73607893029149,
            "lng": -74.05812256970849
          },
          "southwest": {
            "lat": 40.73338096970849,
            "lng": -74.0608205302915
          }
        }
      },
      "icon": "https://maps.gstatic.com/mapfiles/place_api/icons/v1/png_71/generic_business-71.png",
      "icon_background_color": "#7B9EB0",
      "icon_mask_base_uri": "https://maps.gstatic.com/mapfiles/place_api/icons/v2/generic_pinlet",
      "name": "Kothari Harish B MD",
      "opening_hours": {
        "open_now": false
      },
      "place_id": "ChIJ_9NTNDdXwokRy_KQev2dLcc",
      "plus_code": {
        "compound_code": "PWMR+V4 Jersey City, NJ, USA",
        "global_code": "87G7PWMR+V4"
      },
      "rating": 2.8,
      "reference": "ChIJ_9NTNDdXwokRy_KQev2dLcc",
      "scope": "GOOGLE",
      "types": [
        "doctor",
        "health",
        "point_of_interest",
        "establishment"
      ],
      "user_ratings_total": 9,
      "vicinity": "591 Summit Avenue # 405, Jersey City"
    },
    {
      "business_status": "OPERATIONAL",
      "geometry": {
        "location": {
          "lat": 40.7328451,
          "lng": -74.0603027
        },
        "viewport": {
          "northeast": {
            "lat": 40.73412783029151,
            "lng": -74.05903091970849
          },
          "southwest": {
            "lat": 40.73142986970851,
            "lng": -74.0617288802915
          }
        }
      },
      "icon": "https://maps.gstatic.com/mapfiles/place_api/icons/v1/png_71/generic_business-71.png",
      "icon_background_color": "#7B9EB0",
      "icon_mask_base_uri": "https://maps.gstatic.com/mapfiles/place_api/icons/v2/generic_pinlet",
      "name": "Sklower Jay DO",
      "place_id": "ChIJBQLAODFXwokR-wuZWHE7KW8",
      "plus_code": {
        "compound_code": "PWMQ+4V Jersey City, NJ, USA",
        "global_code": "87G7PWMQ+4V"
      },
      "rating": 3,
      "reference": "ChIJBQLAODFXwokR-wuZWHE7KW8",
      "scope": "GOOGLE",
      "types": [
        "doctor",
        "health",
        "point_of_interest",
        "establishment"
      ],
      "user_ratings_total": 2,
      "vicinity": "1, Journal Square Plaza, Jersey City"
    },
    {
      "business_status": "OPERATIONAL",
      "geometry": {
        "location": {
          "lat": 40.73132509999999,
          "lng": -74.0558533
        },
        "viewport": {
          "northeast": {
            "lat": 40.7325835302915,
            "lng": -74.0546947197085
          },
          "southwest": {
            "lat": 40.7298855697085,
            "lng": -74.0573926802915
          }
        }
      },
      "icon": "https://maps.gstatic.com/mapfiles/place_api/icons/v1/png_71/generic_business-71.png",
      "icon_background_color": "#7B9EB0",
      "icon_mask_base_uri": "https://maps.gstatic.com/mapfiles/place_api/icons/v2/generic_pinlet",
      "name": "The Modern Woman",
      "opening_hours": {
        "open_now": false
      },
      "place_id": "ChIJz2nIfTZXwokRc-gJ3XlV5Bk",
      "plus_code": {
        "compound_code": "PWJV+GM Jersey City, NJ, USA",
        "global_code": "87G7PWJV+GM"
      },
      "reference": "ChIJz2nIfTZXwokRc-gJ3XlV5Bk",
      "scope": "GOOGLE",
      "types": [
        "doctor",
        "health",
        "point_of_interest",
        "establishment"
      ],
      "vicinity": "550 Newark Avenue, Jersey City"
    },
    {
      "business_status": "OPERATIONAL",
      "geometry": {
        "location": {
          "lat": 40.73015520000001,
          "lng": -74.06116899999999
        },
        "viewport": {
          "northeast": {
            "lat": 40.7315540302915,
            "lng": -74.05994256970848
          },
          "southwest": {
            "lat": 40.7288560697085,
            "lng": -74.06264053029149
          }
        }
      },
      "icon": "https://maps.gstatic.com/mapfiles/place_api/icons/v1/png_71/generic_business-71.png",
      "icon_background_color": "#7B9EB0",
      "icon_mask_base_uri": "https://maps.gstatic.com/mapfiles/place_api/icons/v2/generic_pinlet",
      "name": "Vocational Rehabilitation Services",
      "opening_hours": {
        "open_now": false
      },
      "place_id": "ChIJX16QuDNXwokRVmFuQ8mwl-k",
      "plus_code": {
        "compound_code": "PWJQ+3G Jersey City, NJ, USA",
        "global_code": "87G7PWJQ+3G"
      },
      "rating": 3.8,
      "reference": "ChIJX16QuDNXwokRVmFuQ8mwl-k",
      "scope": "GOOGLE",
      "types": [
        "point_of_interest",
        "establishment"
      ],
      "user_ratings_total": 18,
      "vicinity": "438 Summit Avenue # 6, Jersey City"
    },
    {
      "business_status": "OPERATIONAL",
      "geometry": {
        "location": {
          "lat": 40.7311122,
          "lng": -74.05597209999999
        },
        "viewport": {
          "northeast": {
            "lat": 40.73248298029149,
            "lng": -74.05472441970849
          },
          "southwest": {
            "lat": 40.7297850197085,
            "lng": -74.0574223802915
          }
        }
      },
      "icon": "https://maps.gstatic.com/mapfiles/place_api/icons/v1/png_71/generic_business-71.png",
      "icon_background_color": "#7B9EB0",
      "icon_mask_base_uri": "https://maps.gstatic.com/mapfiles/place_api/icons/v2/generic_pinlet",
      "name": "Dr. Johnimel L Merene-Bianco, DMD",
      "opening_hours": {
        "open_now": true
      },
      "photos": [
        {
          "height": 680,
          "html_attributions": [
            "<a href=\"https://maps.google.com/maps/contrib/114868545634242540893\">Dr. Johnimel L Merene-Bianco, DMD</a>"
          ],
          "photo_reference": "AeJbb3fvoZrYlZ_jZDrVity26a5rJ4M4e2NFEXGVjRZnd7IyCVOkvWmz3bBMIZwMaNveA9qCvBSAE4gzZuci-DdJpPQ6MwYwJMkv0L7f0-VPxKvr4Fsk8pNxfNDyXQFW9oO_MhZo8HqIF_0X4kkMeA3DX_jXOsXCXj1gZ6lbN_TiUy71rlZ6",
          "width": 1024
        }
      ],
      "place_id": "ChIJGULIfTZXwokRDMQCtLsOnRs",
      "plus_code": {
        "compound_code": "PWJV+CJ Jersey City, NJ, USA",
        "global_code": "87G7PWJV+CJ"
      },
      "rating": 4.7,
      "reference": "ChIJGULIfTZXwokRDMQCtLsOnRs",
      "scope": "GOOGLE",
      "types": [
        "dentist",
        "health",
        "point_of_interest",
        "establishment"
      ],
      "user_ratings_total": 3,
      "vicinity": "550 Newark Avenue STE 410, Jersey City"
    },
    {
      "business_status": "OPERATIONAL",
      "geometry": {
        "location": {
          "lat": 40.7328451,
          "lng": -74.0603027
        },
        "viewport": {
          "northeast": {
            "lat": 40.73412783029151,
            "lng": -74.05903091970849
          },
          "southwest": {
            "lat": 40.73142986970851,
            "lng": -74.0617288802915
          }
        }
      },
      "icon": "https://maps.gstatic.com/mapfiles/place_api/icons/v1/png_71/generic_business-71.png",
      "icon_background_color": "#7B9EB0",
      "icon_mask_base_uri": "https://maps.gstatic.com/mapfiles/place_api/icons/v2/generic_pinlet",
      "name": "Hudson County Cardiovascular",
      "place_id": "ChIJBQLAODFXwokRPHKn6k0BcZ8",
      "plus_code": {
        "compound_code": "PWMQ+4V Jersey City, NJ, USA",
        "global_code": "87G7PWMQ+4V"
      },
      "reference": "ChIJBQLAODFXwokRPHKn6k0BcZ8",
      "scope": "GOOGLE",
      "types": [
        "doctor",
        "health",
        "point_of_interest",
        "establishment"
      ],
      "vicinity": "600 Pavonia Avenue # 5, Jersey City"
    },
    {
      "business_status": "OPERATIONAL",
      "geometry": {
        "location": {
          "lat": 40.7313398,
          "lng": -74.0557673
        },
        "viewport": {
          "northeast": {
            "lat": 40.73258148029151,
            "lng": -74.0546439697085
          },
          "southwest": {
            "lat": 40.72988351970851,
            "lng": -74.0573419302915
          }
        }
      },
      "icon": "https://maps.gstatic.com/mapfiles/place_api/icons/v1/png_71/generic_business-71.png",
      "icon_background_color": "#7B9EB0",
      "icon_mask_base_uri": "https://maps.gstatic.com/mapfiles/place_api/icons/v2/generic_pinlet",
      "name": "Edward Esposito D.C | Jersey City Chiropractic",
      "opening_hours": {
        "open_now": true
      },
      "photos": [
        {
          "height": 250,
          "html_attributions": [
            "<a href=\"https://maps.google.com/maps/contrib/118367181584877334529\">Edward Esposito D.C | Jersey City Chiropractic</a>"
          ],
          "photo_reference": "AeJbb3eRzKdDMI8WpaC3XhmVMafST0kiR0rm3p87DWdhP999bg2159Jx-7DL5Z6Hecqa613n0MUsEf4OShjUOj1eSHn6HB4alWA00GcMvMK9gfRlaLV7W13LwguyWHnxKPoVy-Uoum_g888MkdCEWQXoqQmNENL_5sMkz78jLX7ZyazDjUca",
          "width": 250
        }
      ],
      "place_id": "ChIJGULIfTZXwokRb5xl_aHCqo4",
      "plus_code": {
        "compound_code": "PWJV+GM Jersey City, NJ, USA",
        "global_code": "87G7PWJV+GM"
      },
      "rating": 5,
      "reference": "ChIJGULIfTZXwokRb5xl_aHCqo4",
      "scope": "GOOGLE",
      "types": [
        "physiotherapist",
        "health",
        "point_of_interest",
        "establishment"
      ],
      "user_ratings_total": 30,
      "vicinity": "550 Newark Avenue #304, Jersey City"
    },
    {
      "business_status": "OPERATIONAL",
      "geometry": {
        "location": {
          "lat": 40.73299,
          "lng": -74.0525229
        },
        "viewport": {
          "northeast": {
            "lat": 40.7343998802915,
            "lng": -74.0512939197085
          },
          "southwest": {
            "lat": 40.7317019197085,
            "lng": -74.0539918802915
          }
        }
      },
      "icon": "https://maps.gstatic.com/mapfiles/place_api/icons/v1/png_71/lodging-71.png",
      "icon_background_color": "#909CE1",
      "icon_mask_base_uri": "https://maps.gstatic.com/mapfiles/place_api/icons/v2/hotel_pinlet",
      "name": "The Manhattan house",
      "place_id": "ChIJfyWhM0hXwokRvunWXSpT7SU",
      "plus_code": {
        "compound_code": "PWMW+5X Jersey City, NJ, USA",
        "global_code": "87G7PWMW+5X"
      },
      "reference": "ChIJfyWhM0hXwokRvunWXSpT7SU",
      "scope": "GOOGLE",
      "types": [
        "lodging",
        "point_of_interest",
        "establishment"
      ],
      "vicinity": "26 Concord Street Apt 2, Jersey City"
    },
    {
      "business_status": "OPERATIONAL",
      "geometry": {
        "location": {
          "lat": 40.7329519,
          "lng": -74.0603247
        },
        "viewport": {
          "northeast": {
            "lat": 40.73418383029151,
            "lng": -74.05904191970849
          },
          "southwest": {
            "lat": 40.73148586970851,
            "lng": -74.0617398802915
          }
        }
      },
      "icon": "https://maps.gstatic.com/mapfiles/place_api/icons/v1/png_71/generic_business-71.png",
      "icon_background_color": "#7B9EB0",
      "icon_mask_base_uri": "https://maps.gstatic.com/mapfiles/place_api/icons/v2/generic_pinlet",
      "name": "Pavonia Surgery Center Inc",
      "place_id": "ChIJBQLAODFXwokRYe4UoRyKk4k",
      "plus_code": {
        "compound_code": "PWMQ+5V Jersey City, NJ, USA",
        "global_code": "87G7PWMQ+5V"
      },
      "reference": "ChIJBQLAODFXwokRYe4UoRyKk4k",
      "scope": "GOOGLE",
      "types": [
        "health",
        "point_of_interest",
        "establishment"
      ],
      "vicinity": "600 Pavonia Avenue #4, Jersey City"
    },
    {
      "business_status": "OPERATIONAL",
      "geometry": {
        "location": {
          "lat": 40.7347404,
          "lng": -74.05967679999999
        },
        "viewport": {
          "northeast": {
            "lat": 40.7361890802915,
            "lng": -74.05819006970849
          },
          "southwest": {
            "lat": 40.7334911197085,
            "lng": -74.0608880302915
          }
        }
      },
      "icon": "https://maps.gstatic.com/mapfiles/place_api/icons/v1/png_71/generic_business-71.png",
      "icon_background_color": "#7B9EB0",
      "icon_mask_base_uri": "https://maps.gstatic.com/mapfiles/place_api/icons/v2/generic_pinlet",
      "name": "Assaleh Marwan MD",
      "place_id": "ChIJ_9NTNDdXwokRc1tCpf9fOf4",
      "plus_code": {
        "compound_code": "PWMR+V4 Jersey City, NJ, USA",
        "global_code": "87G7PWMR+V4"
      },
      "rating": 4.1,
      "reference": "ChIJ_9NTNDdXwokRc1tCpf9fOf4",
      "scope": "GOOGLE",
      "types": [
        "doctor",
        "health",
        "point_of_interest",
        "establishment"
      ],
      "user_ratings_total": 50,
      "vicinity": "591 Summit Avenue # 205, Jersey City"
    },
    {
      "business_status": "OPERATIONAL",
      "geometry": {
        "location": {
          "lat": 40.7351141,
          "lng": -74.0595927
        },
        "viewport": {
          "northeast": {
            "lat": 40.7364580302915,
            "lng": -74.05832806970848
          },
          "southwest": {
            "lat": 40.7337600697085,
            "lng": -74.0610260302915
          }
        }
      },
      "icon": "https://maps.gstatic.com/mapfiles/place_api/icons/v1/png_71/school-71.png",
      "icon_background_color": "#7B9EB0",
      "icon_mask_base_uri": "https://maps.gstatic.com/mapfiles/place_api/icons/v2/school_pinlet",
      "name": "Jersey City Free Public Library: Five Corners Branch",
      "opening_hours": {
        "open_now": true
      },
      "photos": [
        {
          "height": 3900,
          "html_attributions": [
            "<a href=\"https://maps.google.com/maps/contrib/117180338066387863872\">Kaustav Bhattacharjee</a>"
          ],
          "photo_reference": "AeJbb3faw9QKK3AKO54YaWOKxxq7-Z56It75cUyb777h3F2fpJY_RtLcxlZ2LmX82nHxwY-2hii0PKgumpRljuW4_sOn4PEA3WCiJG2SUgOcGmdGl_HvUws3-628unrqprUKOMhmcFHRu0aWZPiVZsgEXbyAC83fE-NH1BTFZuAG30blOBps",
          "width": 5612
        }
      ],
      "place_id": "ChIJKUhUyjBXwokRJPm6E2kz8_s",
      "plus_code": {
        "compound_code": "PWPR+25 Jersey City, NJ, USA",
        "global_code": "87G7PWPR+25"
      },
      "rating": 4.2,
      "reference": "ChIJKUhUyjBXwokRJPm6E2kz8_s",
      "scope": "GOOGLE",
      "types": [
        "library",
        "point_of_interest",
        "establishment"
      ],
      "user_ratings_total": 79,
      "vicinity": "678 Newark Avenue, Jersey City"
    },
    {
      "business_status": "OPERATIONAL",
      "geometry": {
        "location": {
          "lat": 40.73202509999999,
          "lng": -74.0632287
        },
        "viewport": {
          "northeast": {
            "lat": 40.73365258029149,
            "lng": -74.06189496970849
          },
          "southwest": {
            "lat": 40.7309546197085,
            "lng": -74.0645929302915
          }
        }
      },
      "icon": "https://maps.gstatic.com/mapfiles/place_api/icons/v1/png_71/shopping-71.png",
      "icon_background_color": "#4B96F3",
      "icon_mask_base_uri": "https://maps.gstatic.com/mapfiles/place_api/icons/v2/convenience_pinlet",
      "name": "Duane Reade",
      "opening_hours": {
        "open_now": true
      },
      "photos": [
        {
          "height": 3024,
          "html_attributions": [
            "<a href=\"https://maps.google.com/maps/contrib/110668897095058225687\">Sandeep Kumar</a>"
          ],
          "photo_reference": "AeJbb3fh96gCrMfx3XSGt-j-wbBdVdUfjvxDvoDg0o4-7OhrbHSMHJAuOmddTV1uLGRAN-2dtp3KnZCmrkZQYFFLAydDwOYEaJFLtOCIuP7XIOgKNqM0B9rgQMn6JfE6Bwo3puhV6lBuRVCgWkUStE7SPu4HaeiyV1WHSs4OOP-yitkDuih1",
          "width": 4032
        }
      ],
      "place_id": "ChIJKfHZHjJXwokRP5AUgp-gB24",
      "plus_code": {
        "compound_code": "PWJP+RP Jersey City, NJ, USA",
        "global_code": "87G7PWJP+RP"
      },
      "price_level": 2,
      "rating": 2.6,
      "reference": "ChIJKfHZHjJXwokRP5AUgp-gB24",
      "scope": "GOOGLE",
      "types": [
        "convenience_store",
        "clothing_store",
        "food",
        "point_of_interest",
        "store",
        "establishment"
      ],
      "user_ratings_total": 87,
      "vicinity": "U.S. 1, Jersey City"
    },
    {
      "business_status": "OPERATIONAL",
      "geometry": {
        "location": {
          "lat": 40.7328451,
          "lng": -74.0603027
        },
        "viewport": {
          "northeast": {
            "lat": 40.73412783029151,
            "lng": -74.05903091970849
          },
          "southwest": {
            "lat": 40.73142986970851,
            "lng": -74.0617288802915
          }
        }
      },
      "icon": "https://maps.gstatic.com/mapfiles/place_api/icons/v1/png_71/generic_business-71.png",
      "icon_background_color": "#7B9EB0",
      "icon_mask_base_uri": "https://maps.gstatic.com/mapfiles/place_api/icons/v2/generic_pinlet",
      "name": "Hudson Eye Surgery Center",
      "place_id": "ChIJBQLAODFXwokR-LTNf44VmO0",
      "plus_code": {
        "compound_code": "PWMQ+4V Jersey City, NJ, USA",
        "global_code": "87G7PWMQ+4V"
      },
      "rating": 5,
      "reference": "ChIJBQLAODFXwokR-LTNf44VmO0",
      "scope": "GOOGLE",
      "types": [
        "doctor",
        "health",
        "point_of_interest",
        "establishment"
      ],
      "user_ratings_total": 1,
      "vicinity": "600 Pavonia Avenue # 6, Jersey City"
    },
    {
      "business_status": "OPERATIONAL",
      "geometry": {
        "location": {
          "lat": 40.73292800000001,
          "lng": -74.05934599999999
        },
        "viewport": {
          "northeast": {
            "lat": 40.7342842802915,
            "lng": -74.05808411970848
          },
          "southwest": {
            "lat": 40.7315863197085,
            "lng": -74.0607820802915
          }
        }
      },
      "icon": "https://maps.gstatic.com/mapfiles/place_api/icons/v1/png_71/generic_business-71.png",
      "icon_background_color": "#7B9EB0",
      "icon_mask_base_uri": "https://maps.gstatic.com/mapfiles/place_api/icons/v2/generic_pinlet",
      "name": "Summit Medical Associates",
      "place_id": "ChIJDYmnMjFXwokRGuV3gG_yxig",
      "plus_code": {
        "compound_code": "PWMR+57 Jersey City, NJ, USA",
        "global_code": "87G7PWMR+57"
      },
      "rating": 3.5,
      "reference": "ChIJDYmnMjFXwokRGuV3gG_yxig",
      "scope": "GOOGLE",
      "types": [
        "doctor",
        "health",
        "point_of_interest",
        "establishment"
      ],
      "user_ratings_total": 2,
      "vicinity": "550 Summit Avenue, Jersey City"
    },
    {
      "business_status": "OPERATIONAL",
      "geometry": {
        "location": {
          "lat": 40.73128699999999,
          "lng": -74.055859
        },
        "viewport": {
          "northeast": {
            "lat": 40.73255178029149,
            "lng": -74.05468706970849
          },
          "southwest": {
            "lat": 40.7298538197085,
            "lng": -74.0573850302915
          }
        }
      },
      "icon": "https://maps.gstatic.com/mapfiles/place_api/icons/v1/png_71/generic_business-71.png",
      "icon_background_color": "#7B9EB0",
      "icon_mask_base_uri": "https://maps.gstatic.com/mapfiles/place_api/icons/v2/generic_pinlet",
      "name": "Magnetic Diagnostic Resources",
      "place_id": "ChIJGULIfTZXwokR4FZkOIlu0os",
      "plus_code": {
        "compound_code": "PWJV+GM Jersey City, NJ, USA",
        "global_code": "87G7PWJV+GM"
      },
      "reference": "ChIJGULIfTZXwokR4FZkOIlu0os",
      "scope": "GOOGLE",
      "types": [
        "doctor",
        "health",
        "point_of_interest",
        "establishment"
      ],
      "vicinity": "550 Newark Avenue, Jersey City"
    },
    {
      "business_status": "OPERATIONAL",
      "geometry": {
        "location": {
          "lat": 40.7341364,
          "lng": -74.06060289999999
        },
        "viewport": {
          "northeast": {
            "lat": 40.7354931802915,
            "lng": -74.05931741970848
          },
          "southwest": {
            "lat": 40.7327952197085,
            "lng": -74.0620153802915
          }
        }
      },
      "icon": "https://maps.gstatic.com/mapfiles/place_api/icons/v1/png_71/school-71.png",
      "icon_background_color": "#7B9EB0",
      "icon_mask_base_uri": "https://maps.gstatic.com/mapfiles/place_api/icons/v2/school_pinlet",
      "name": "New Jersey Child Support",
      "opening_hours": {
        "open_now": false
      },
      "place_id": "ChIJ-5aN3jBXwokRWfVBXc5hvw0",
      "plus_code": {
        "compound_code": "PWMQ+MQ Jersey City, NJ, USA",
        "global_code": "87G7PWMQ+MQ"
      },
      "rating": 1.3,
      "reference": "ChIJ-5aN3jBXwokRWfVBXc5hvw0",
      "scope": "GOOGLE",
      "types": [
        "local_government_office",
        "point_of_interest",
        "establishment"
      ],
      "user_ratings_total": 64,
      "vicinity": "29 Cottage Street, Jersey City"
    },
    {
      "business_status": "OPERATIONAL",
      "geometry": {
        "location": {
          "lat": 40.73283380000001,
          "lng": -74.0604534
        },
        "viewport": {
          "northeast": {
            "lat": 40.7341309302915,
            "lng": -74.0591153197085
          },
          "southwest": {
            "lat": 40.7314329697085,
            "lng": -74.06181328029152
          }
        }
      },
      "icon": "https://maps.gstatic.com/mapfiles/place_api/icons/v1/png_71/generic_business-71.png",
      "icon_background_color": "#7B9EB0",
      "icon_mask_base_uri": "https://maps.gstatic.com/mapfiles/place_api/icons/v2/generic_pinlet",
      "name": "Diagnostic Imaging",
      "place_id": "ChIJBQLAODFXwokR8PaoXx6BkLE",
      "plus_code": {
        "compound_code": "PWMQ+4R Jersey City, NJ, USA",
        "global_code": "87G7PWMQ+4R"
      },
      "reference": "ChIJBQLAODFXwokR8PaoXx6BkLE",
      "scope": "GOOGLE",
      "types": [
        "doctor",
        "health",
        "point_of_interest",
        "establishment"
      ],
      "vicinity": "600 Pavonia Avenue, Jersey City"
    },
    {
      "business_status": "OPERATIONAL",
      "geometry": {
        "location": {
          "lat": 40.7300427,
          "lng": -74.06107209999999
        },
        "viewport": {
          "northeast": {
            "lat": 40.7314733802915,
            "lng": -74.05991291970848
          },
          "southwest": {
            "lat": 40.7287754197085,
            "lng": -74.0626108802915
          }
        }
      },
      "icon": "https://maps.gstatic.com/mapfiles/place_api/icons/v1/png_71/civic_building-71.png",
      "icon_background_color": "#7B9EB0",
      "icon_mask_base_uri": "https://maps.gstatic.com/mapfiles/place_api/icons/v2/civic-bldg_pinlet",
      "name": "Jersey City Workers Compensation Court",
      "opening_hours": {
        "open_now": false
      },
      "place_id": "ChIJX16QuDNXwokRA0hq7UoJ5cQ",
      "plus_code": {
        "compound_code": "PWJQ+2H Jersey City, NJ, USA",
        "global_code": "87G7PWJQ+2H"
      },
      "reference": "ChIJX16QuDNXwokRA0hq7UoJ5cQ",
      "scope": "GOOGLE",
      "types": [
        "point_of_interest",
        "establishment"
      ],
      "vicinity": "3, 438 Summit Avenue, Jersey City"
    },
    {
      "business_status": "OPERATIONAL",
      "geometry": {
        "location": {
          "lat": 40.73128699999999,
          "lng": -74.055859
        },
        "viewport": {
          "northeast": {
            "lat": 40.73255178029149,
            "lng": -74.05468706970849
          },
          "southwest": {
            "lat": 40.7298538197085,
            "lng": -74.0573850302915
          }
        }
      },
      "icon": "https://maps.gstatic.com/mapfiles/place_api/icons/v1/png_71/generic_business-71.png",
      "icon_background_color": "#7B9EB0",
      "icon_mask_base_uri": "https://maps.gstatic.com/mapfiles/place_api/icons/v2/generic_pinlet",
      "name": "Patient Service Center",
      "opening_hours": {
        "open_now": false
      },
      "photos": [
        {
          "height": 1280,
          "html_attributions": [
            "<a href=\"https://maps.google.com/maps/contrib/112149676498109948783\">BioReference Laboratories</a>"
          ],
          "photo_reference": "AeJbb3dD66oCgPc-TT8spy8XxqaMpmj_MBSNyAdLhEitlgvgyAb2lE54nAb7oj9VFajvRZqKEqCgxCZRuySRhGlFjND1Yb_vbIr_Sl6r_-uYdPbqKc6gPN8-W4X37MmnpZOWrrTrMHl41ZfgPtbOJtm2jgG9FQMwmd4JgUzVwfGEp-MHdoFz",
          "width": 960
        }
      ],
      "place_id": "ChIJGULIfTZXwokRfkcr6y2oTGk",
      "plus_code": {
        "compound_code": "PWJV+GM Jersey City, NJ, USA",
        "global_code": "87G7PWJV+GM"
      },
      "rating": 4.1,
      "reference": "ChIJGULIfTZXwokRfkcr6y2oTGk",
      "scope": "GOOGLE",
      "types": [
        "health",
        "point_of_interest",
        "establishment"
      ],
      "user_ratings_total": 8,
      "vicinity": "550 Newark Avenue #309, Jersey City"
    },
    {
      "business_status": "OPERATIONAL",
      "geometry": {
        "location": {
          "lat": 40.73174799999999,
          "lng": -74.0572712
        },
        "viewport": {
          "northeast": {
            "lat": 40.73321698029149,
            "lng": -74.0559748197085
          },
          "southwest": {
            "lat": 40.7305190197085,
            "lng": -74.0586727802915
          }
        }
      },
      "icon": "https://maps.gstatic.com/mapfiles/place_api/icons/v1/png_71/civic_building-71.png",
      "icon_background_color": "#7B9EB0",
      "icon_mask_base_uri": "https://maps.gstatic.com/mapfiles/place_api/icons/v2/civic-bldg_pinlet",
      "name": "William J Brennan Courthouse",
      "opening_hours": {
        "open_now": false
      },
      "photos": [
        {
          "height": 3024,
          "html_attributions": [
            "<a href=\"https://maps.google.com/maps/contrib/104951358331311671428\">Jan Komrska</a>"
          ],
          "photo_reference": "AeJbb3f7AT3TBMshqOsLRbO8IJl2zhhTvz4Mp27abppRrm4Zo6EnTo2Umh4mOdfmw2nhDq_kFO1OgZ4v2qKzoYvey1tYPsd1fv49VAAWSVnZVCa13Q2qpCq8K9vWijgnFcJe6vbkWlOwKgxowuUMfiCVX2kWBD-nyLOJ0Uv87usAPA7Kc18r",
          "width": 4032
        }
      ],
      "place_id": "ChIJM3oyjDZXwokRePyvs7SHWUw",
      "plus_code": {
        "compound_code": "PWJV+M3 Jersey City, NJ, USA",
        "global_code": "87G7PWJV+M3"
      },
      "rating": 4.2,
      "reference": "ChIJM3oyjDZXwokRePyvs7SHWUw",
      "scope": "GOOGLE",
      "types": [
        "courthouse",
        "point_of_interest",
        "establishment"
      ],
      "user_ratings_total": 11,
      "vicinity": "583 Newark Avenue, Jersey City"
    },
    {
      "business_status": "OPERATIONAL",
      "geometry": {
        "location": {
          "lat": 40.7347404,
          "lng": -74.05967679999999
        },
        "viewport": {
          "northeast": {
            "lat": 40.7361890802915,
            "lng": -74.05819006970849
          },
          "southwest": {
            "lat": 40.7334911197085,
            "lng": -74.0608880302915
          }
        }
      },
      "icon": "https://maps.gstatic.com/mapfiles/place_api/icons/v1/png_71/generic_business-71.png",
      "icon_background_color": "#7B9EB0",
      "icon_mask_base_uri": "https://maps.gstatic.com/mapfiles/place_api/icons/v2/generic_pinlet",
      "name": "Endodontic Associates: Baer Richard DDS",
      "place_id": "ChIJ_9NTNDdXwokRAz1h-Ob7iXY",
      "plus_code": {
        "compound_code": "PWMR+V4 Jersey City, NJ, USA",
        "global_code": "87G7PWMR+V4"
      },
      "rating": 5,
      "reference": "ChIJ_9NTNDdXwokRAz1h-Ob7iXY",
      "scope": "GOOGLE",
      "types": [
        "dentist",
        "health",
        "point_of_interest",
        "establishment"
      ],
      "user_ratings_total": 3,
      "vicinity": "591 Summit Avenue # 515, Jersey City"
    }
  ],
  "status": "OK"
}