{
  "html_attributions": [],
  "results": [
    {
      "geometry": {
        "location": {
          "lat": 40.7177545,
          "lng": -74.0431435
        },
        "viewport": {
          "northeast": {
            "lat": 40.76886696556042,
            "lng": -74.02040497604364
          },
          "southwest": {
            "lat": 40.66162203954202,
            "lng": -74.11705692034361
          }
        }
      },
      "icon": "https://maps.gstatic.com/mapfiles/place_api/icons/v1/png_71/geocode-71.png",
      "icon_background_color": "#7B9EB0",
      "icon_mask_base_uri": "https://maps.gstatic.com/mapfiles/place_api/icons/v2/generic_pinlet",
      "name": "\u6fa4\u897f\u5e02",
      "photos": [
        {
          "height": 3024,
          "html_attributions": [
            "<a href=\"https://maps.google.com/maps/contrib/110214719387408653852\">Husam Attalla</a>"
          ],
          "photo_reference": "AeJbb3cIhDtVBwHBSRr1Dh-4LlBmh9Wccnr-T_EXWKdOV4YC-kER6HqnrezNy2Mq7QnVjU1TAoaospQTGy59IYb4FNfLBqF8qYVTJSm2YYBE-yXbnfttbmMKknnzvYRfjRPJl9B9LtOlbGsLTBEmDw77Ou3I-EzQW4mTCYQEAIsEMTxnauYb",
          "width": 4032
        }
      ],
      "place_id": "ChIJ3a-_JdJQwokR2SXNohPwSQI",
      "reference": "ChIJ3a-_JdJQwokR2SXNohPwSQI",
      "scope": "GOOGLE",
      "types": [
        "locality",
        "political"
      ],
      "vicinity": "\u6fa4\u897f\u5e02"
    },
    {
      "business_status": "OPERATIONAL",
      "geometry": {
        "location": {
          "lat": 40.7276989,
          "lng": -74.0340808
        },
        "viewport": {
          "northeast": {
            "lat": 40.7289902802915,
            "lng": -74.0327606697085
          },
          "southwest": {
            "lat": 40.7262923197085,
            "lng": -74.0354586302915
          }
        }
      },
      "icon": "https://maps.gstatic.com/mapfiles/place_api/icons/v1/png_71/lodging-71.png",
      "icon_background_color": "#909CE1",
      "icon_mask_base_uri": "https://maps.gstatic.com/mapfiles/place_api/icons/v2/hotel_pinlet",
      "name": "Courtyard by Marriott Jersey City Newport",
      "photos": [
        {
          "height": 1366,
          "html_attributions": [
            "<a href=\"https://maps.google.com/maps/contrib/105963730565734649289\">Courtyard by Marriott Jersey City Newport</a>"
          ],
          "photo_reference": "AeJbb3cKTknK5xN5wEyt9dpa1Kf-CUawq8smyWMGas_bBAuQ6uWXgcNeWLRjzrmvbr4joed5U739ITZ50IztH_x6lL2d_myxPZ07bJgAPMZPhD4G9DXq9o3_fYMbUGuCFFaNayR23Nh3s4k01FgjOLlkHysW4LzkUZ002SN0_hj-w0F_0RPG",
          "width": 2048
        }
      ],
      "place_id": "ChIJq3yNJlRXwokR4AcdAM9oIm0",
      "plus_code": {
        "compound_code": "PXH8+39 \u7f8e\u570b\u65b0\u6fa4\u897f\u6fa4\u897f\u5e02",
        "global_code": "87G7PXH8+39"
      },
      "rating": 4.3,
      "reference": "ChIJq3yNJlRXwokR4AcdAM9oIm0",
      "scope": "GOOGLE",
      "types": [
        "lodging",
        "point_of_interest",
        "establishment"
      ],
      "user_ratings_total": 901,
      "vicinity": "540 Washington Boulevard, Jersey City"
    },
    {
      "business_status": "OPERATIONAL",
      "geometry": {
        "location": {
          "lat": 40.7269137,
          "lng": -74.0355253
        },
        "viewport": {
          "northeast": {
            "lat": 40.72813938029151,
            "lng": -74.0339304197085
          },
          "southwest": {
            "lat": 40.72544141970851,
            "lng": -74.0366283802915
          }
        }
      },
      "icon": "https://maps.gstatic.com/mapfiles/place_api/icons/v1/png_71/generic_business-71.png",
      "icon_background_color": "#7B9EB0",
      "icon_mask_base_uri": "https://maps.gstatic.com/mapfiles/place_api/icons/v2/generic_pinlet",
      "name": "AXA Equitable",
      "opening_hours": {
        "open_now": false
      },
      "photos": [
        {
          "height": 2988,
          "html_attributions": [
            "<a href=\"https://maps.google.com/maps/contrib/105167271722475538277\">Hazel Anne De Leon-Esguerra</a>"
          ],
          "photo_reference": "AeJbb3fAA89SWl2R0KxckUBm2r1pfsjbxw0st6JllsF4gNzOCnylozI6JqPOowA3xiuieShHDSASWHx-huD01dyxllW-7HaxSdqFB1EgSq2ZPznyjGP4Jqqm9aNQZmEje_yOOc20QfA7fRa4eDRlH4HnleZbb7h3r0YVCOtdn-gO36mArP0J",
          "width": 5312
        }
      ],
      "place_id": "ChIJ_RH_DVRXwokRLMAFYNa2n7g",
      "plus_code": {
        "compound_code": "PXG7+QQ \u7f8e\u570b\u65b0\u6fa4\u897f\u6fa4\u897f\u5e02",
        "global_code": "87G7PXG7+QQ"
      },
      "rating": 3.7,
      "reference": "ChIJ_RH_DVRXwokRLMAFYNa2n7g",
      "scope": "GOOGLE",
      "types": [
        "insurance_agency",
        "point_of_interest",
        "establishment"
      ],
      "user_ratings_total": 15,
      "vicinity": "525 Washington Boulevard, Jersey City"
    },
    {
      "business_status": "OPERATIONAL",
      "geometry": {
        "location": {
          "lat": 40.7272438,
          "lng": -74.03130759999999
        },
        "viewport": {
          "northeast": {
            "lat": 40.7284568302915,
            "lng": -74.03036791970848
          },
          "southwest": {
            "lat": 40.7257588697085,
            "lng": -74.03306588029149
          }
        }
      },
      "icon": "https://maps.gstatic.com/mapfiles/place_api/icons/v1/png_71/generic_business-71.png",
      "icon_background_color": "#7B9EB0",
      "icon_mask_base_uri": "https://maps.gstatic.com/mapfiles/place_api/icons/v2/generic_pinlet",
      "name": "Newport Tower Suites",
      "photos": [
        {
          "height": 3024,
          "html_attributions": [
            "<a href=\"https://maps.google.com/maps/contrib/106454576420490512937\">William Ricks</a>"
          ],
          "photo_reference": "AeJbb3en1uxvBgTJK-xPcX69CPYtJVVA4G09mWyr1UPL3SxEMIJkG5HIqM8pu_0cZKw6v0F3yppE2gd4uflYcP-cE3XAhdGAaAWjlRJMJPCO0VuYYaKchPlAZN58DwwoPcz2jBqLWRU-rgiBcV2TOGXkFecgD65ANWuc5VRLUyf4CMoaWhFa",
          "width": 4032
        }
      ],
      "place_id": "ChIJ87dSCVZXwokRY54NWcSdAdI",
      "plus_code": {
        "compound_code": "PXG9+VF \u7f8e\u570b\u65b0\u6fa4\u897f\u6fa4\u897f\u5e02",
        "global_code": "87G7PXG9+VF"
      },
      "rating": 4.3,
      "reference": "ChIJ87dSCVZXwokRY54NWcSdAdI",
      "scope": "GOOGLE",
      "types": [
        "lodging",
        "point_of_interest",
        "establishment"
      ],
      "user_ratings_total": 76,
      "vicinity": "30 River Court, Jersey City"
    },
    {
      "business_status": "OPERATIONAL",
      "geometry": {
        "location": {
          "lat": 40.726926,
          "lng": -74.035658
        },
        "viewport": {
          "northeast": {
            "lat": 40.7281456802915,
            "lng": -74.03399676970848
          },
          "southwest": {
            "lat": 40.7254477197085,
            "lng": -74.03669473029149
          }
        }
      },
      "icon": "https://maps.gstatic.com/mapfiles/place_api/icons/v1/png_71/generic_business-71.png",
      "icon_background_color": "#7B9EB0",
      "icon_mask_base_uri": "https://maps.gstatic.com/mapfiles/place_api/icons/v2/generic_pinlet",
      "name": "Club Metro USA",
      "opening_hours": {
        "open_now": true
      },
      "photos": [
        {
          "height": 288,
          "html_attributions": [
            "<a href=\"https://maps.google.com/maps/contrib/103360242893827983378\">Club Metro USA</a>"
          ],
          "photo_reference": "AeJbb3c-F9WJ32FW86rMZyVkX9O_AVXvqzjpqAU3aUvWco1htd2Mz3TQ163aPXyj3NjUmfTp9Q8tdw4ZffrfUTOlg54TMj-tzwmL27_U7jrheLanhtq8-C6ONA36oo2BWLKhQYArZINmLwGvO9UTPA7Rn7NRJI68sEjOpFxF-d5_jigfrMM",
          "width": 512
        }
      ],
      "place_id": "ChIJMWlwbKxQwokRv4_yjjsWRxQ",
      "plus_code": {
        "compound_code": "PXG7+QP \u7f8e\u570b\u65b0\u6fa4\u897f\u6fa4\u897f\u5e02",
        "global_code": "87G7PXG7+QP"
      },
      "rating": 4,
      "reference": "ChIJMWlwbKxQwokRv4_yjjsWRxQ",
      "scope": "GOOGLE",
      "types": [
        "gym",
        "health",
        "point_of_interest",
        "establishment"
      ],
      "user_ratings_total": 186,
      "vicinity": "525 Washington Boulevard, Jersey City"
    },
    {
      "business_status": "OPERATIONAL",
      "geometry": {
        "location": {
          "lat": 40.7287,
          "lng": -74.035287
        },
        "viewport": {
          "northeast": {
            "lat": 40.7300000802915,
            "lng": -74.0336880197085
          },
          "southwest": {
            "lat": 40.7273021197085,
            "lng": -74.03638598029151
          }
        }
      },
      "icon": "https://maps.gstatic.com/mapfiles/place_api/icons/v1/png_71/bank-71.png",
      "icon_background_color": "#909CE1",
      "icon_mask_base_uri": "https://maps.gstatic.com/mapfiles/place_api/icons/v2/bank-intl_pinlet",
      "name": "Chase Bank",
      "opening_hours": {
        "open_now": true
      },
      "photos": [
        {
          "height": 3000,
          "html_attributions": [
            "<a href=\"https://maps.google.com/maps/contrib/107518347613800367943\">Abhijit Naik</a>"
          ],
          "photo_reference": "AeJbb3f1WpX6VHzyiSwT7YrindKhMKEafIIjiyNrGZpjoHPRPoEjfni8AzJOaz5sCZjNZYitID3OAGfhgXRu9tgKQ_P3uB6UObaafFOre4ecSHPzlEOa4aHgaxlibGDfhTFhmVGE7JjfqSsxLyduzK5lyYwMqymPOwpXQoBVTnMALKBlAkl6",
          "width": 4000
        }
      ],
      "place_id": "ChIJU7VXsFZXwokR1gjGXL522JA",
      "plus_code": {
        "compound_code": "PXH7+FV \u7f8e\u570b\u65b0\u6fa4\u897f\u6fa4\u897f\u5e02",
        "global_code": "87G7PXH7+FV"
      },
      "rating": 3.8,
      "reference": "ChIJU7VXsFZXwokR1gjGXL522JA",
      "scope": "GOOGLE",
      "types": [
        "bank",
        "atm",
        "finance",
        "point_of_interest",
        "establishment"
      ],
      "user_ratings_total": 44,
      "vicinity": "575 Washington Boulevard, Jersey City"
    },
    {
      "business_status": "OPERATIONAL",
      "geometry": {
        "location": {
          "lat": 40.7263044,
          "lng": -74.0337401
        },
        "viewport": {
          "northeast": {
            "lat": 40.7278122302915,
            "lng": -74.03236891970849
          },
          "southwest": {
            "lat": 40.72511426970851,
            "lng": -74.0350668802915
          }
        }
      },
      "icon": "https://maps.gstatic.com/mapfiles/place_api/icons/v1/png_71/generic_business-71.png",
      "icon_background_color": "#7B9EB0",
      "icon_mask_base_uri": "https://maps.gstatic.com/mapfiles/place_api/icons/v2/generic_pinlet",
      "name": "Premium Technology Inc",
      "opening_hours": {
        "open_now": false
      },
      "photos": [
        {
          "height": 1000,
          "html_attributions": [
            "<a href=\"https://maps.google.com/maps/contrib/108861127833754113401\">Premium Technology Inc</a>"
          ],
          "photo_reference": "AeJbb3dRdS6cvkdKQJXqcd3EjEAYUjKG3_9e5AgBZkluIodeODroUqP1UMCbQqV_lCQwzDYjqUkcyz_kZYXVtGGP1qo6OhHSDzqrqYKmgTLGn_yTFT6IjB82jZwDmwZmjSLKwlqIO7ZGHgI3zWzBqwICDmr2e8w2YClxGqiib0eULqVYJTBn",
          "width": 1000
        }
      ],
      "place_id": "ChIJS3rqSBFawokRRwr4YFDWI3E",
      "plus_code": {
        "compound_code": "PXG8+GG \u7f8e\u570b\u65b0\u6fa4\u897f\u6fa4\u897f\u5e02",
        "global_code": "87G7PXG8+GG"
      },
      "reference": "ChIJS3rqSBFawokRRwr4YFDWI3E",
      "scope": "GOOGLE",
      "types": [
        "point_of_interest",
        "establishment"
      ],
      "vicinity": "111 Town Square Place #1510, Jersey City"
    },
    {
      "business_status": "OPERATIONAL",
      "geometry": {
        "location": {
          "lat": 40.730663,
          "lng": -74.034916
        },
        "viewport": {
          "northeast": {
            "lat": 40.7318579302915,
            "lng": -74.03353996970849
          },
          "southwest": {
            "lat": 40.72915996970851,
            "lng": -74.0362379302915
          }
        }
      },
      "icon": "https://maps.gstatic.com/mapfiles/place_api/icons/v1/png_71/shopping-71.png",
      "icon_background_color": "#4B96F3",
      "icon_mask_base_uri": "https://maps.gstatic.com/mapfiles/place_api/icons/v2/shopping_pinlet",
      "name": "Staples",
      "opening_hours": {
        "open_now": true
      },
      "photos": [
        {
          "height": 3024,
          "html_attributions": [
            "<a href=\"https://maps.google.com/maps/contrib/106545788687714170431\">Vinod Kuwar</a>"
          ],
          "photo_reference": "AeJbb3cNs0Ml37tuKEyRAIOxXii-K-mgZ2WSuU8o3KLswTwx1LOg31u9_aTaEcZW00ftvXJT1cOxI0p8_TMjGRxSkqeRS9Z7BmiVJJYAaJvabXrbwoJSh4KQRcfOiahVgXsRFFM0MGhxnkDRhTVY0mHT4ZOwks7OKH6SMaEo1lSsAi0UFnZL",
          "width": 4032
        }
      ],
      "place_id": "ChIJ261kt1ZXwokRbJMwNB1vGm4",
      "plus_code": {
        "compound_code": "PXJ8+72 \u7f8e\u570b\u65b0\u6fa4\u897f\u6fa4\u897f\u5e02",
        "global_code": "87G7PXJ8+72"
      },
      "price_level": 2,
      "rating": 3.6,
      "reference": "ChIJ261kt1ZXwokRbJMwNB1vGm4",
      "scope": "GOOGLE",
      "types": [
        "furniture_store",
        "electronics_store",
        "home_goods_store",
        "point_of_interest",
        "store",
        "establishment"
      ],
      "user_ratings_total": 237,
      "vicinity": "613 Washington Boulevard, Jersey City"
    },
    {
      "business_status": "OPERATIONAL",
      "geometry": {
        "location": {
          "lat": 40.7275599,
          "lng": -74.0368998
        },
        "viewport": {
          "northeast": {
            "lat": 40.7288652302915,
            "lng": -74.0352017697085
          },
          "southwest": {
            "lat": 40.7261672697085,
            "lng": -74.0378997302915
          }
        }
      },
      "icon": "https://maps.gstatic.com/mapfiles/place_api/icons/v1/png_71/shopping-71.png",
      "icon_background_color": "#4B96F3",
      "icon_mask_base_uri": "https://maps.gstatic.com/mapfiles/place_api/icons/v2/shopping_pinlet",
      "name": "Kohl's",
      "opening_hours": {
        "open_now": true
      },
      "photos": [
        {
          "height": 3672,
          "html_attributions": [
            "<a href=\"https://maps.google.com/maps/contrib/117979751334919367476\">Alexander Mejia</a>"
          ],
          "photo_reference": "AeJbb3fviJjX3Dvc_IONQa9V_SgmNuMIYJgvaqRl5lExKZRyGK8Pp8b2NB08tez8j6_c4uqnNMdOwURHU7gAcMWd1V1YTxazhR2CgPt4sGGbKD7NMslyUyD_HvxU-Yjgbc45HBGw786cWNvVHdQL5z0QWFzaDCBV_nVsLE-PwISNaVSZbIHr",
          "width": 4896
        }
      ],
      "place_id": "ChIJK_WntFNXwokRi0LkCojGRoY",
      "plus_code": {
        "compound_code": "PXH7+26 \u7f8e\u570b\u65b0\u6fa4\u897f\u6fa4\u897f\u5e02",
        "global_code": "87G7PXH7+26"
      },
      "price_level": 1,
      "rating": 4.3,
      "reference": "ChIJK_WntFNXwokRi0LkCojGRoY",
      "scope": "GOOGLE",
      "types": [
        "department_store",
        "point_of_interest",
        "store",
        "establishment"
      ],
      "user_ratings_total": 1827,
      "vicinity": "40 Mall Drive East, Jersey City"
    },
    {
      "business_status": "OPERATIONAL",
      "geometry": {
        "location": {
          "lat": 40.72939959999999,
          "lng": -74.032552
        },
        "viewport": {
          "northeast": {
            "lat": 40.73053918029149,
            "lng": -74.03100351970848
          },
          "southwest": {
            "lat": 40.72784121970849,
            "lng": -74.0337014802915
          }
        }
      },
      "icon": "https://maps.gstatic.com/mapfiles/place_api/icons/v1/png_71/bank-71.png",
      "icon_background_color": "#909CE1",
      "icon_mask_base_uri": "https://maps.gstatic.com/mapfiles/place_api/icons/v2/bank-intl_pinlet",
      "name": "Citizens Bank",
      "opening_hours": {
        "open_now": false
      },
      "photos": [
        {
          "height": 3096,
          "html_attributions": [
            "<a href=\"https://maps.google.com/maps/contrib/117326583961047171110\">SIDDHESH REDKAR</a>"
          ],
          "photo_reference": "AeJbb3cyQl9Xu7GoHtnF1vSZdF2JQYEl0T6L57UZbxBYfbG1g2Ab_Hoyk3yXY-F5eLorKOdE2G2RSn1bGvPyuZlxvS8pIaouKlSFWaVUfdTSUevo-fnWji61SbOUjbaqA-1WS-UmZEXHDIMd2gaeBZjqI70jQnrGrknogPu4fORxA1Ke7kSO",
          "width": 4128
        }
      ],
      "place_id": "ChIJc8UfQlZXwokRCSZsv6UfZtE",
      "plus_code": {
        "compound_code": "PXH8+QX \u7f8e\u570b\u65b0\u6fa4\u897f\u6fa4\u897f\u5e02",
        "global_code": "87G7PXH8+QX"
      },
      "rating": 2.2,
      "reference": "ChIJc8UfQlZXwokRCSZsv6UfZtE",
      "scope": "GOOGLE",
      "types": [
        "bank",
        "atm",
        "finance",
        "point_of_interest",
        "establishment"
      ],
      "user_ratings_total": 25,
      "vicinity": "89 River Drive South, Jersey City"
    },
    {
      "business_status": "OPERATIONAL",
      "geometry": {
        "location": {
          "lat": 40.7304035,
          "lng": -74.0323796
        },
        "viewport": {
          "northeast": {
            "lat": 40.73185498029149,
            "lng": -74.0309857197085
          },
          "southwest": {
            "lat": 40.7291570197085,
            "lng": -74.0336836802915
          }
        }
      },
      "icon": "https://maps.gstatic.com/mapfiles/place_api/icons/v1/png_71/generic_business-71.png",
      "icon_background_color": "#7B9EB0",
      "icon_mask_base_uri": "https://maps.gstatic.com/mapfiles/place_api/icons/v2/generic_pinlet",
      "name": "1 Shore Lane",
      "opening_hours": {
        "open_now": true
      },
      "photos": [
        {
          "height": 3036,
          "html_attributions": [
            "<a href=\"https://maps.google.com/maps/contrib/103430310563460407546\">Ravi Arora</a>"
          ],
          "photo_reference": "AeJbb3dB0uFbTxZrHA5R-9DnhVG63jIbytg-ZpmQJcAL-LvcDULV1OE0wCxBmivWiKCXKeHXALgfajgvxjvFweduOgkIBPyXG2StrbYR1xPyZ8Z_FY5ABkoFLnFCkDmuE2aVGjkUP_C4yW5sNsk7YFbo1MUCjPCgjZd3bl9pIAxs01yps7uh",
          "width": 4048
        }
      ],
      "place_id": "ChIJcbmFrldXwokRMn4ASwZDZ9w",
      "plus_code": {
        "compound_code": "PXJ9+52 \u7f8e\u570b\u65b0\u6fa4\u897f\u6fa4\u897f\u5e02",
        "global_code": "87G7PXJ9+52"
      },
      "rating": 4.1,
      "reference": "ChIJcbmFrldXwokRMn4ASwZDZ9w",
      "scope": "GOOGLE",
      "types": [
        "point_of_interest",
        "establishment"
      ],
      "user_ratings_total": 14,
      "vicinity": "2603 North Boulevard, Jersey City"
    },
    {
      "business_status": "OPERATIONAL",
      "geometry": {
        "location": {
          "lat": 40.7271238,
          "lng": -74.0355977
        },
        "viewport": {
          "northeast": {
            "lat": 40.7283150302915,
            "lng": -74.03389846970849
          },
          "southwest": {
            "lat": 40.72561706970851,
            "lng": -74.03659643029151
          }
        }
      },
      "icon": "https://maps.gstatic.com/mapfiles/place_api/icons/v1/png_71/generic_business-71.png",
      "icon_background_color": "#7B9EB0",
      "icon_mask_base_uri": "https://maps.gstatic.com/mapfiles/place_api/icons/v2/generic_pinlet",
      "name": "Wilshire Associates Inc",
      "place_id": "ChIJ_RH_DVRXwokRO5Dqwgl5H2Y",
      "plus_code": {
        "compound_code": "PXG7+RQ \u7f8e\u570b\u65b0\u6fa4\u897f\u6fa4\u897f\u5e02",
        "global_code": "87G7PXG7+RQ"
      },
      "reference": "ChIJ_RH_DVRXwokRO5Dqwgl5H2Y",
      "scope": "GOOGLE",
      "types": [
        "finance",
        "point_of_interest",
        "establishment"
      ],
      "vicinity": "525 Washington Boulevard # 2500A, Jersey City"
    },
    {
      "business_status": "OPERATIONAL",
      "geometry": {
        "location": {
          "lat": 40.7287878,
          "lng": -74.0350839
        },
        "viewport": {
          "northeast": {
            "lat": 40.7301802302915,
            "lng": -74.03360711970849
          },
          "southwest": {
            "lat": 40.7274822697085,
            "lng": -74.03630508029151
          }
        }
      },
      "icon": "https://maps.gstatic.com/mapfiles/place_api/icons/v1/png_71/school-71.png",
      "icon_background_color": "#7B9EB0",
      "icon_mask_base_uri": "https://maps.gstatic.com/mapfiles/place_api/icons/v2/school_pinlet",
      "name": "JPMorgan Chase Backup CCC Newport + Back-Up Care",
      "photos": [
        {
          "height": 2048,
          "html_attributions": [
            "<a href=\"https://maps.google.com/maps/contrib/110078563957696724757\">Sybid Jones</a>"
          ],
          "photo_reference": "AeJbb3cla4FojiLr89MTGd-YeF3WPfOXHTbsGCE3d4aq1AWmR56SPtROzfEU7Fh459N_VQQbu32IlSUDjLtdlPsqYh3tykPQDucOQY-eUw6vzuI7sOI5ZrUpywddod-F_bgguNikT6mPl1EWbN_W70e3M_Xnsuv_0oCHcuHaS0J3WweUW8s_",
          "width": 1536
        }
      ],
      "place_id": "ChIJU7VXsFZXwokRnB_Vot0Ts5s",
      "plus_code": {
        "compound_code": "PXH7+GX \u7f8e\u570b\u65b0\u6fa4\u897f\u6fa4\u897f\u5e02",
        "global_code": "87G7PXH7+GX"
      },
      "rating": 5,
      "reference": "ChIJU7VXsFZXwokRnB_Vot0Ts5s",
      "scope": "GOOGLE",
      "types": [
        "point_of_interest",
        "establishment"
      ],
      "user_ratings_total": 4,
      "vicinity": "575 Washington Boulevard, Jersey City"
    },
    {
      "business_status": "OPERATIONAL",
      "geometry": {
        "location": {
          "lat": 40.7271238,
          "lng": -74.0355977
        },
        "viewport": {
          "northeast": {
            "lat": 40.7282444302915,
            "lng": -74.0339666197085
          },
          "southwest": {
            "lat": 40.72554646970851,
            "lng": -74.0366645802915
          }
        }
      },
      "icon": "https://maps.gstatic.com/mapfiles/place_api/icons/v1/png_71/generic_business-71.png",
      "icon_background_color": "#7B9EB0",
      "icon_mask_base_uri": "https://maps.gstatic.com/mapfiles/place_api/icons/v2/generic_pinlet",
      "name": "Alba Wheels Up International Inc",
      "place_id": "ChIJ_RH_DVRXwokR_wR6cbk2g-4",
      "plus_code": {
        "compound_code": "PXG7+RQ \u7f8e\u570b\u65b0\u6fa4\u897f\u6fa4\u897f\u5e02",
        "global_code": "87G7PXG7+RQ"
      },
      "reference": "ChIJ_RH_DVRXwokR_wR6cbk2g-4",
      "scope": "GOOGLE",
      "types": [
        "finance",
        "point_of_interest",
        "establishment"
      ],
      "vicinity": "525 Washington Boulevard, Jersey City"
    },
    {
      "business_status": "OPERATIONAL",
      "geometry": {
        "location": {
          "lat": 40.7269136,
          "lng": -74.0355254
        },
        "viewport": {
          "northeast": {
            "lat": 40.7281638302915,
            "lng": -74.03391386970848
          },
          "southwest": {
            "lat": 40.7254658697085,
            "lng": -74.03661183029149
          }
        }
      },
      "icon": "https://maps.gstatic.com/mapfiles/place_api/icons/v1/png_71/generic_business-71.png",
      "icon_background_color": "#7B9EB0",
      "icon_mask_base_uri": "https://maps.gstatic.com/mapfiles/place_api/icons/v2/generic_pinlet",
      "name": "HGK Asset Management, Inc",
      "opening_hours": {
        "open_now": false
      },
      "place_id": "ChIJ_RH_DVRXwokR1so-6SAEGao",
      "plus_code": {
        "compound_code": "PXG7+QQ \u7f8e\u570b\u65b0\u6fa4\u897f\u6fa4\u897f\u5e02",
        "global_code": "87G7PXG7+QQ"
      },
      "reference": "ChIJ_RH_DVRXwokR1so-6SAEGao",
      "scope": "GOOGLE",
      "types": [
        "finance",
        "point_of_interest",
        "establishment"
      ],
      "vicinity": "525 Washington Boulevard # 2000, Jersey City"
    },
    {
      "business_status": "OPERATIONAL",
      "geometry": {
        "location": {
          "lat": 40.7271238,
          "lng": -74.0355977
        },
        "viewport": {
          "northeast": {
            "lat": 40.7282444302915,
            "lng": -74.0339666197085
          },
          "southwest": {
            "lat": 40.72554646970851,
            "lng": -74.0366645802915
          }
        }
      },
      "icon": "https://maps.gstatic.com/mapfiles/place_api/icons/v1/png_71/generic_business-71.png",
      "icon_background_color": "#7B9EB0",
      "icon_mask_base_uri": "https://maps.gstatic.com/mapfiles/place_api/icons/v2/generic_pinlet",
      "name": "Charles Schwab",
      "opening_hours": {
        "open_now": true
      },
      "place_id": "ChIJ_RH_DVRXwokRfZf-2V-vY3M",
      "plus_code": {
        "compound_code": "PXG7+RQ \u7f8e\u570b\u65b0\u6fa4\u897f\u6fa4\u897f\u5e02",
        "global_code": "87G7PXG7+RQ"
      },
      "rating": 1.5,
      "reference": "ChIJ_RH_DVRXwokRfZf-2V-vY3M",
      "scope": "GOOGLE",
      "types": [
        "point_of_interest",
        "establishment"
      ],
      "user_ratings_total": 2,
      "vicinity": "525 Washington Boulevard, Jersey City"
    },
    {
      "business_status": "OPERATIONAL",
      "geometry": {
        "location": {
          "lat": 40.7266328,
          "lng": -74.03540459999999
        },
        "viewport": {
          "northeast": {
            "lat": 40.7280474302915,
            "lng": -74.03387006970848
          },
          "southwest": {
            "lat": 40.7253494697085,
            "lng": -74.03656803029149
          }
        }
      },
      "icon": "https://maps.gstatic.com/mapfiles/place_api/icons/v1/png_71/generic_business-71.png",
      "icon_background_color": "#7B9EB0",
      "icon_mask_base_uri": "https://maps.gstatic.com/mapfiles/place_api/icons/v2/generic_pinlet",
      "name": "Newport Office Tower",
      "opening_hours": {
        "open_now": true
      },
      "photos": [
        {
          "height": 3024,
          "html_attributions": [
            "<a href=\"https://maps.google.com/maps/contrib/111336866950038342290\">Will Bachrach</a>"
          ],
          "photo_reference": "AeJbb3fsrbY4YfMaGpGZV8uPhhKF3gmCQvIuPKaHJ7cN8ZPLyY7bew5TJIIlWZj-sk2II0fObYMuq8VAm5hKNsziy9FtfuSqfZMOuGjVClL2jDtFohWz-l38d4zcPiUrArr-zY_u8AoOsHY9rvyk1pbFQBhqXefGpRsP2A6_jrHB4E_dbl5b",
          "width": 4032
        }
      ],
      "place_id": "ChIJ_RH_DVRXwokRtNFpIWzSWr0",
      "plus_code": {
        "compound_code": "PXG7+MR \u7f8e\u570b\u65b0\u6fa4\u897f\u6fa4\u897f\u5e02",
        "global_code": "87G7PXG7+MR"
      },
      "rating": 4.4,
      "reference": "ChIJ_RH_DVRXwokRtNFpIWzSWr0",
      "scope": "GOOGLE",
      "types": [
        "real_estate_agency",
        "point_of_interest",
        "establishment"
      ],
      "user_ratings_total": 233,
      "vicinity": "525 Washington Boulevard, Jersey City"
    },
    {
      "business_status": "CLOSED_TEMPORARILY",
      "geometry": {
        "location": {
          "lat": 40.7271238,
          "lng": -74.0355977
        },
        "viewport": {
          "northeast": {
            "lat": 40.7282444302915,
            "lng": -74.0339666197085
          },
          "southwest": {
            "lat": 40.72554646970851,
            "lng": -74.0366645802915
          }
        }
      },
      "icon": "https://maps.gstatic.com/mapfiles/place_api/icons/v1/png_71/generic_business-71.png",
      "icon_background_color": "#7B9EB0",
      "icon_mask_base_uri": "https://maps.gstatic.com/mapfiles/place_api/icons/v2/generic_pinlet",
      "name": "Mvp Consulting",
      "permanently_closed": true,
      "place_id": "ChIJ_RH_DVRXwokR3Z4kXD0UeqI",
      "plus_code": {
        "compound_code": "PXG7+RQ \u7f8e\u570b\u65b0\u6fa4\u897f\u6fa4\u897f\u5e02",
        "global_code": "87G7PXG7+RQ"
      },
      "reference": "ChIJ_RH_DVRXwokR3Z4kXD0UeqI",
      "scope": "GOOGLE",
      "types": [
        "point_of_interest",
        "establishment"
      ],
      "vicinity": "525 Washington Boulevard, Jersey City"
    },
    {
      "business_status": "CLOSED_TEMPORARILY",
      "geometry": {
        "location": {
          "lat": 40.72701269999999,
          "lng": -74.03536749999999
        },
        "viewport": {
          "northeast": {
            "lat": 40.7281888802915,
            "lng": -74.03385151970849
          },
          "southwest": {
            "lat": 40.7254909197085,
            "lng": -74.0365494802915
          }
        }
      },
      "icon": "https://maps.gstatic.com/mapfiles/place_api/icons/v1/png_71/generic_business-71.png",
      "icon_background_color": "#7B9EB0",
      "icon_mask_base_uri": "https://maps.gstatic.com/mapfiles/place_api/icons/v2/generic_pinlet",
      "name": "C O Axa Distributors LLC",
      "permanently_closed": true,
      "place_id": "ChIJ_RH_DVRXwokRw0zkHmUhIPU",
      "plus_code": {
        "compound_code": "PXG7+RV \u7f8e\u570b\u65b0\u6fa4\u897f\u6fa4\u897f\u5e02",
        "global_code": "87G7PXG7+RV"
      },
      "reference": "ChIJ_RH_DVRXwokRw0zkHmUhIPU",
      "scope": "GOOGLE",
      "types": [
        "insurance_agency",
        "point_of_interest",
        "establishment"
      ],
      "vicinity": "525 Washington Boulevard # 32, Jersey City"
    },
    {
      "geometry": {
        "location": {
          "lat": 40.7190163,
          "lng": -74.04136559999999
        },
        "viewport": {
          "northeast": {
            "lat": 40.73656454717712,
            "lng": -74.02661431449599
          },
          "southwest": {
            "lat": 40.7109149370721,
            "lng": -74.06200559238953
          }
        }
      },
      "icon": "https://maps.gstatic.com/mapfiles/place_api/icons/v1/png_71/geocode-71.png",
      "icon_background_color": "#7B9EB0",
      "icon_mask_base_uri": "https://maps.gstatic.com/mapfiles/place_api/icons/v2/generic_pinlet",
      "name": "Downtown Jersey City",
      "photos": [
        {
          "height": 1908,
          "html_attributions": [
            "<a href=\"https://maps.google.com/maps/contrib/116992533205705838643\">Punnu Singh</a>"
          ],
          "photo_reference": "AeJbb3fVxZxZhm4yd4TnwiE9wzD2e6R_eLGZCxqyQpmQB0YRTfZgJMDhOO0Ffrp3aWF5NkCjBvKjxxt_X0dEEJ6ma5SJbfIEVcSbUTE3RgfmPA-MV6PZ2adH2TCPM3HETz-OXwCGICqtGInk_TquCXF6UDK6iukt3Q3jKcfLhqKPjGyMBZ-1",
          "width": 4032
        }
      ],
      "place_id": "ChIJ_5Q_bLJQwokRy7o0TOvDEWk",
      "reference": "ChIJ_5Q_bLJQwokRy7o0TOvDEWk",
      "scope": "GOOGLE",
      "types": [
        "neighborhood",
        "political"
      ],
      "vicinity": "Jersey City"
    },
    {
      "business_status": "OPERATIONAL",
      "geometry": {
        "location": {
          "lat": 40.7269137,
          "lng": -74.0355253
        },
        "viewport": {
          "northeast": {
            "lat": 40.7281639302915,
            "lng": -74.03391376970849
          },
          "southwest": {
            "lat": 40.7254659697085,
            "lng": -74.03661173029151
          }
        }
      },
      "icon": "https://maps.gstatic.com/mapfiles/place_api/icons/v1/png_71/generic_business-71.png",
      "icon_background_color": "#7B9EB0",
      "icon_mask_base_uri": "https://maps.gstatic.com/mapfiles/place_api/icons/v2/generic_pinlet",
      "name": "China Construction America",
      "opening_hours": {
        "open_now": false
      },
      "photos": [
        {
          "height": 2448,
          "html_attributions": [
            "<a href=\"https://maps.google.com/maps/contrib/101046328970190273814\">Unego Yao</a>"
          ],
          "photo_reference": "AeJbb3cx1u-2YQW_mnwQENG-SnMj_Zl_KEGKDPUepbPJGb8EGCsSqDR5cjCpdFwE48aJ0dHpI61mmp4NCAKH9fz-cNF_L0NekgoPRB8TVhf-3YSsDPJ_ZCiNdAMF8xZ80I_u7MqU5KHMek9KpbokJ4nC8_DCS4ZtFZrnx0s4S3foVwMOjtY",
          "width": 3264
        }
      ],
      "place_id": "ChIJ_RH_DVRXwokRXA7enKqwzCc",
      "plus_code": {
        "compound_code": "PXG7+QQ Jersey City, NJ, USA",
        "global_code": "87G7PXG7+QQ"
      },
      "rating": 4.7,
      "reference": "ChIJ_RH_DVRXwokRXA7enKqwzCc",
      "scope": "GOOGLE",
      "types": [
        "finance",
        "general_contractor",
        "point_of_interest",
        "establishment"
      ],
      "user_ratings_total": 3,
      "vicinity": "525 Washington Boulevard 31st floor, Jersey City"
    },
    {
      "business_status": "CLOSED_TEMPORARILY",
      "geometry": {
        "location": {
          "lat": 40.7271238,
          "lng": -74.0355977
        },
        "viewport": {
          "northeast": {
            "lat": 40.7282444302915,
            "lng": -74.0339666197085
          },
          "southwest": {
            "lat": 40.72554646970851,
            "lng": -74.0366645802915
          }
        }
      },
      "icon": "https://maps.gstatic.com/mapfiles/place_api/icons/v1/png_71/generic_business-71.png",
      "icon_background_color": "#7B9EB0",
      "icon_mask_base_uri": "https://maps.gstatic.com/mapfiles/place_api/icons/v2/generic_pinlet",
      "name": "M & R Capital",
      "permanently_closed": true,
      "place_id": "ChIJ_RH_DVRXwokRa_Z6O5vbtNg",
      "plus_code": {
        "compound_code": "PXG7+RQ Jersey City, NJ, USA",
        "global_code": "87G7PXG7+RQ"
      },
      "reference": "ChIJ_RH_DVRXwokRa_Z6O5vbtNg",
      "scope": "GOOGLE",
      "types": [
        "finance",
        "point_of_interest",
        "establishment"
      ],
      "vicinity": "525 Washington Boulevard, Jersey City"
    },
    {
      "business_status": "OPERATIONAL",
      "geometry": {
        "location": {
          "lat": 40.7263408,
          "lng": -74.03326090000002
        },
        "viewport": {
          "northeast": {
            "lat": 40.7278044802915,
            "lng": -74.0318268697085
          },
          "southwest": {
            "lat": 40.7251065197085,
            "lng": -74.03452483029152
          }
        }
      },
      "icon": "https://maps.gstatic.com/mapfiles/place_api/icons/v1/png_71/cafe-71.png",
      "icon_background_color": "#FF9E67",
      "icon_mask_base_uri": "https://maps.gstatic.com/mapfiles/place_api/icons/v2/cafe_pinlet",
      "name": "Starbucks",
      "opening_hours": {
        "open_now": true
      },
      "photos": [
        {
          "height": 2268,
          "html_attributions": [
            "<a href=\"https://maps.google.com/maps/contrib/106054902368580115335\">Jens Meyer</a>"
          ],
          "photo_reference": "AeJbb3e9l-mY-ArhwuysQDS0P4eosgTCc2vnaX-5j30G2fPBNv1JBpx3C0ahyciV9C8bN2T4yUt6qimlFz00iCq5O7j7VIJAOXsj5u74KUb5235ugnp6cmv_Xvz3u84fn85rnJWTSEkqAd5WslL_8EuslhGcs1vaGU7nz-NV6zg1up9X6ZXM",
          "width": 4032
        }
      ],
      "place_id": "ChIJ018DSVRXwokRcqtZ-szPnIE",
      "plus_code": {
        "compound_code": "PXG8+GM Jersey City, NJ, USA",
        "global_code": "87G7PXG8+GM"
      },
      "price_level": 2,
      "rating": 4.1,
      "reference": "ChIJ018DSVRXwokRcqtZ-szPnIE",
      "scope": "GOOGLE",
      "types": [
        "cafe",
        "store",
        "restaurant",
        "food",
        "point_of_interest",
        "establishment"
      ],
      "user_ratings_total": 954,
      "vicinity": "111 Town Square Place, Jersey City"
    },
    {
      "business_status": "OPERATIONAL",
      "geometry": {
        "location": {
          "lat": 40.7269136,
          "lng": -74.0355254
        },
        "viewport": {
          "northeast": {
            "lat": 40.7281638302915,
            "lng": -74.03391386970848
          },
          "southwest": {
            "lat": 40.7254658697085,
            "lng": -74.03661183029149
          }
        }
      },
      "icon": "https://maps.gstatic.com/mapfiles/place_api/icons/v1/png_71/bank-71.png",
      "icon_background_color": "#909CE1",
      "icon_mask_base_uri": "https://maps.gstatic.com/mapfiles/place_api/icons/v2/bank-intl_pinlet",
      "name": "Barclays",
      "place_id": "ChIJ_RH_DVRXwokR6R33FJUKulw",
      "plus_code": {
        "compound_code": "PXG7+QQ Jersey City, NJ, USA",
        "global_code": "87G7PXG7+QQ"
      },
      "price_level": 2,
      "rating": 1,
      "reference": "ChIJ_RH_DVRXwokR6R33FJUKulw",
      "scope": "GOOGLE",
      "types": [
        "bank",
        "atm",
        "finance",
        "point_of_interest",
        "establishment"
      ],
      "user_ratings_total": 1,
      "vicinity": "525 Washington Boulevard #1404, Jersey City"
    },
    {
      "business_status": "CLOSED_TEMPORARILY",
      "geometry": {
        "location": {
          "lat": 40.7277332,
          "lng": -74.03518389999999
        },
        "viewport": {
          "northeast": {
            "lat": 40.7291037302915,
            "lng": -74.0335401697085
          },
          "southwest": {
            "lat": 40.7264057697085,
            "lng": -74.03623813029151
          }
        }
      },
      "icon": "https://maps.gstatic.com/mapfiles/place_api/icons/v1/png_71/generic_business-71.png",
      "icon_background_color": "#7B9EB0",
      "icon_mask_base_uri": "https://maps.gstatic.com/mapfiles/place_api/icons/v2/generic_pinlet",
      "name": "Hotspot Fx Inc",
      "permanently_closed": true,
      "place_id": "ChIJlUrWHVRXwokR6sLaxbaveJU",
      "plus_code": {
        "compound_code": "PXH7+3W Jersey City, NJ, USA",
        "global_code": "87G7PXH7+3W"
      },
      "rating": 5,
      "reference": "ChIJlUrWHVRXwokR6sLaxbaveJU",
      "scope": "GOOGLE",
      "types": [
        "finance",
        "point_of_interest",
        "establishment"
      ],
      "user_ratings_total": 1,
      "vicinity": "545 Washington Boulevard #1, Jersey City"
    },
    {
      "business_status": "OPERATIONAL",
      "geometry": {
        "location": {
          "lat": 40.7269527,
          "lng": -74.0353255
        },
        "viewport": {
          "northeast": {
            "lat": 40.7282294802915,
            "lng": -74.0337816697085
          },
          "southwest": {
            "lat": 40.7255315197085,
            "lng": -74.03647963029151
          }
        }
      },
      "icon": "https://maps.gstatic.com/mapfiles/place_api/icons/v1/png_71/generic_business-71.png",
      "icon_background_color": "#7B9EB0",
      "icon_mask_base_uri": "https://maps.gstatic.com/mapfiles/place_api/icons/v2/generic_pinlet",
      "name": "Ports America",
      "place_id": "ChIJ_RH_DVRXwokRNcb1-DFf9ow",
      "plus_code": {
        "compound_code": "PXG7+QV Jersey City, NJ, USA",
        "global_code": "87G7PXG7+QV"
      },
      "rating": 5,
      "reference": "ChIJ_RH_DVRXwokRNcb1-DFf9ow",
      "scope": "GOOGLE",
      "types": [
        "point_of_interest",
        "establishment"
      ],
      "user_ratings_total": 1,
      "vicinity": "525 Washington Boulevard # 1600, Jersey City"
    },
    {
      "business_status": "OPERATIONAL",
      "geometry": {
        "location": {
          "lat": 40.7269136,
          "lng": -74.0355254
        },
        "viewport": {
          "northeast": {
            "lat": 40.7281638302915,
            "lng": -74.03391386970848
          },
          "southwest": {
            "lat": 40.7254658697085,
            "lng": -74.03661183029149
          }
        }
      },
      "icon": "https://maps.gstatic.com/mapfiles/place_api/icons/v1/png_71/generic_business-71.png",
      "icon_background_color": "#7B9EB0",
      "icon_mask_base_uri": "https://maps.gstatic.com/mapfiles/place_api/icons/v2/generic_pinlet",
      "name": "International Charter Services",
      "place_id": "ChIJ_RH_DVRXwokRKyFUYOqitSs",
      "plus_code": {
        "compound_code": "PXG7+QQ Jersey City, NJ, USA",
        "global_code": "87G7PXG7+QQ"
      },
      "reference": "ChIJ_RH_DVRXwokRKyFUYOqitSs",
      "scope": "GOOGLE",
      "types": [
        "point_of_interest",
        "establishment"
      ],
      "vicinity": "525 Washington Boulevard # 24, Jersey City"
    },
    {
      "business_status": "OPERATIONAL",
      "geometry": {
        "location": {
          "lat": 40.72692240000001,
          "lng": -74.0355277
        },
        "viewport": {
          "northeast": {
            "lat": 40.7281714302915,
            "lng": -74.0339129197085
          },
          "southwest": {
            "lat": 40.7254734697085,
            "lng": -74.03661088029152
          }
        }
      },
      "icon": "https://maps.gstatic.com/mapfiles/place_api/icons/v1/png_71/generic_business-71.png",
      "icon_background_color": "#7B9EB0",
      "icon_mask_base_uri": "https://maps.gstatic.com/mapfiles/place_api/icons/v2/generic_pinlet",
      "name": "AvePoint HQ & R&D",
      "opening_hours": {
        "open_now": false
      },
      "place_id": "ChIJ2wOuwqpQwokRepLEDzwVhQY",
      "plus_code": {
        "compound_code": "PXG7+QQ Jersey City, NJ, USA",
        "global_code": "87G7PXG7+QQ"
      },
      "rating": 4.5,
      "reference": "ChIJ2wOuwqpQwokRepLEDzwVhQY",
      "scope": "GOOGLE",
      "types": [
        "point_of_interest",
        "establishment"
      ],
      "user_ratings_total": 4,
      "vicinity": "525 Washington Boulevard #1400, Jersey City"
    },
    {
      "business_status": "OPERATIONAL",
      "geometry": {
        "location": {
          "lat": 40.7248648,
          "lng": -74.03474010000001
        },
        "viewport": {
          "northeast": {
            "lat": 40.7262609802915,
            "lng": -74.0337898697085
          },
          "southwest": {
            "lat": 40.7235630197085,
            "lng": -74.0364878302915
          }
        }
      },
      "icon": "https://maps.gstatic.com/mapfiles/place_api/icons/v1/png_71/generic_business-71.png",
      "icon_background_color": "#7B9EB0",
      "icon_mask_base_uri": "https://maps.gstatic.com/mapfiles/place_api/icons/v2/generic_pinlet",
      "name": "PennyMac Mortgage Investment Trust",
      "photos": [
        {
          "height": 563,
          "html_attributions": [
            "<a href=\"https://maps.google.com/maps/contrib/113049763802793884887\">Gyamfua Akuoko</a>"
          ],
          "photo_reference": "AeJbb3f10hrxrCiV5c32EJ0iJM6pfvERE_SsnPGyLLYXsNrfUR4Aj_1_0QVlD8HGLuI4IR3A5JgrKMLcVEmUrWZKOvRMNwHHS2--CObCGPD0omse1P6sE92URzkpL1O_SR1or-e8FBg0e88HNRcIo3HQFkc_-xw8ftisWgOSxGR7SZVX61c_",
          "width": 1000
        }
      ],
      "place_id": "ChIJJdDDjVRXwokRoGCDgaJNMhY",
      "plus_code": {
        "compound_code": "PXF8+W4 Jersey City, NJ, USA",
        "global_code": "87G7PXF8+W4"
      },
      "rating": 1.8,
      "reference": "ChIJJdDDjVRXwokRoGCDgaJNMhY",
      "scope": "GOOGLE",
      "types": [
        "finance",
        "point_of_interest",
        "establishment"
      ],
      "user_ratings_total": 5,
      "vicinity": "480 Washington Boulevard, Jersey City"
    },
    {
      "business_status": "OPERATIONAL",
      "geometry": {
        "location": {
          "lat": 40.7271238,
          "lng": -74.0355977
        },
        "viewport": {
          "northeast": {
            "lat": 40.7283150302915,
            "lng": -74.03389846970849
          },
          "southwest": {
            "lat": 40.72561706970851,
            "lng": -74.03659643029151
          }
        }
      },
      "icon": "https://maps.gstatic.com/mapfiles/place_api/icons/v1/png_71/generic_business-71.png",
      "icon_background_color": "#7B9EB0",
      "icon_mask_base_uri": "https://maps.gstatic.com/mapfiles/place_api/icons/v2/generic_pinlet",
      "name": "Dolan Realty",
      "place_id": "ChIJ_RH_DVRXwokRvrzR77DU-IU",
      "plus_code": {
        "compound_code": "PXG7+RQ Jersey City, NJ, USA",
        "global_code": "87G7PXG7+RQ"
      },
      "reference": "ChIJ_RH_DVRXwokRvrzR77DU-IU",
      "scope": "GOOGLE",
      "types": [
        "real_estate_agency",
        "point_of_interest",
        "establishment"
      ],
      "vicinity": "525 Washington Boulevard #1610, Jersey City"
    },
    {
      "business_status": "OPERATIONAL",
      "geometry": {
        "location": {
          "lat": 40.7267694,
          "lng": -74.0369353
        },
        "viewport": {
          "northeast": {
            "lat": 40.7281459802915,
            "lng": -74.0352773697085
          },
          "southwest": {
            "lat": 40.7254480197085,
            "lng": -74.0379753302915
          }
        }
      },
      "icon": "https://maps.gstatic.com/mapfiles/place_api/icons/v1/png_71/shopping-71.png",
      "icon_background_color": "#4B96F3",
      "icon_mask_base_uri": "https://maps.gstatic.com/mapfiles/place_api/icons/v2/convenience_pinlet",
      "name": "Street Corner",
      "opening_hours": {
        "open_now": true
      },
      "photos": [
        {
          "height": 3024,
          "html_attributions": [
            "<a href=\"https://maps.google.com/maps/contrib/117679113912781382711\">Konrad Borys</a>"
          ],
          "photo_reference": "AeJbb3ch44Lzlx6xJ3b04e2BM9Kha6-hMxMzcZ7y_YvtMsKBB7cGe30eokfImJPoR-wIKkI7fke2mHJVGNRtdH3aSMUwVWcFwrZK9K5nV7YFQw597lMFnaIwNzHuAC6nWaEe56B99PedLsZou9bCHPneKRURe68CFWJma-p47fp6ZRKrDKl8",
          "width": 4032
        }
      ],
      "place_id": "ChIJr9ky0VNXwokRdZhT06FpL5A",
      "plus_code": {
        "compound_code": "PXG7+P6 Jersey City, NJ, USA",
        "global_code": "87G7PXG7+P6"
      },
      "rating": 5,
      "reference": "ChIJr9ky0VNXwokRdZhT06FpL5A",
      "scope": "GOOGLE",
      "types": [
        "convenience_store",
        "store",
        "food",
        "point_of_interest",
        "establishment"
      ],
      "user_ratings_total": 5,
      "vicinity": "30 Mall Drive West # 204, Jersey City"
    },
    {
      "business_status": "OPERATIONAL",
      "geometry": {
        "location": {
          "lat": 40.727769,
          "lng": -74.0348547
        },
        "viewport": {
          "northeast": {
            "lat": 40.7293792802915,
            "lng": -74.03365666970849
          },
          "southwest": {
            "lat": 40.7266813197085,
            "lng": -74.0363546302915
          }
        }
      },
      "icon": "https://maps.gstatic.com/mapfiles/place_api/icons/v1/png_71/generic_business-71.png",
      "icon_background_color": "#7B9EB0",
      "icon_mask_base_uri": "https://maps.gstatic.com/mapfiles/place_api/icons/v2/generic_pinlet",
      "name": "Verisk",
      "photos": [
        {
          "height": 2592,
          "html_attributions": [
            "<a href=\"https://maps.google.com/maps/contrib/109790531415493475129\">Riddhi Kotian</a>"
          ],
          "photo_reference": "AeJbb3eZPYwzzdIiH3_pIdyRM3tNd_i7OgmZiQiCOlyt7ubabqOQYwM3iBzz5lOu-hK9SdIoSh8iejxFkENIaF_lrdQldPIHlcEIIhbHP5aE_r3OWVSuXFGII3LAQCFJjP9fJ5DWWSkTvJ0dnOel7fyJ9VEBR031emg5xtxNPYJCVjw01f-a",
          "width": 4608
        }
      ],
      "place_id": "ChIJlUrWHVRXwokRv2_DRZXi_-U",
      "plus_code": {
        "compound_code": "PXH8+43 Jersey City, NJ, USA",
        "global_code": "87G7PXH8+43"
      },
      "rating": 4.3,
      "reference": "ChIJlUrWHVRXwokRv2_DRZXi_-U",
      "scope": "GOOGLE",
      "types": [
        "insurance_agency",
        "point_of_interest",
        "establishment"
      ],
      "user_ratings_total": 56,
      "vicinity": "Newport Tower, 545 Washington Boulevard, Jersey City"
    },
    {
      "business_status": "OPERATIONAL",
      "geometry": {
        "location": {
          "lat": 40.7263575,
          "lng": -74.0331879
        },
        "viewport": {
          "northeast": {
            "lat": 40.7278138302915,
            "lng": -74.03178766970849
          },
          "southwest": {
            "lat": 40.7251158697085,
            "lng": -74.0344856302915
          }
        }
      },
      "icon": "https://maps.gstatic.com/mapfiles/place_api/icons/v1/png_71/restaurant-71.png",
      "icon_background_color": "#FF9E67",
      "icon_mask_base_uri": "https://maps.gstatic.com/mapfiles/place_api/icons/v2/restaurant_pinlet",
      "name": "Komegashi Too",
      "opening_hours": {
        "open_now": true
      },
      "photos": [
        {
          "height": 3024,
          "html_attributions": [
            "<a href=\"https://maps.google.com/maps/contrib/114498286395349375980\">Starcia Ague</a>"
          ],
          "photo_reference": "AeJbb3ci72PvVE83LoKtlVGzVeEDhswrq4gpQwCntj_4hwvltH_JXe_kQVPB1VXjxGuqhhZ4HxHOjZ0DDwXNeCVALyID8TlvCKLJZBO6hWqHnE3wSsgY3N2PdtXEnZXaV2GOi2PdOmEZGGUzIojRdqMx-dC44XJu_2HkO8GZzccd5k7BKa2D",
          "width": 4032
        }
      ],
      "place_id": "ChIJZXXuNlRXwokRXHlOhMC0PkU",
      "plus_code": {
        "compound_code": "PXG8+GP Jersey City, NJ, USA",
        "global_code": "87G7PXG8+GP"
      },
      "price_level": 2,
      "rating": 4.2,
      "reference": "ChIJZXXuNlRXwokRXHlOhMC0PkU",
      "scope": "GOOGLE",
      "types": [
        "restaurant",
        "food",
        "point_of_interest",
        "establishment"
      ],
      "user_ratings_total": 726,
      "vicinity": "99 Town Square Place, Jersey City"
    },
    {
      "business_status": "OPERATIONAL",
      "geometry": {
        "location": {
          "lat": 40.7304049,
          "lng": -74.03401099999999
        },
        "viewport": {
          "northeast": {
            "lat": 40.7315590802915,
            "lng": -74.03264341970848
          },
          "southwest": {
            "lat": 40.7288611197085,
            "lng": -74.0353413802915
          }
        }
      },
      "icon": "https://maps.gstatic.com/mapfiles/place_api/icons/v1/png_71/generic_business-71.png",
      "icon_background_color": "#7B9EB0",
      "icon_mask_base_uri": "https://maps.gstatic.com/mapfiles/place_api/icons/v2/generic_pinlet",
      "name": "Hamsa Gangaswamaiah, MD",
      "opening_hours": {
        "open_now": false
      },
      "photos": [
        {
          "height": 405,
          "html_attributions": [
            "<a href=\"https://maps.google.com/maps/contrib/104802891077885835197\">Hamsa Gangaswamaiah, MD</a>"
          ],
          "photo_reference": "AeJbb3fL8BwHZybkIksC6QfHZGZoRiuuHevoHjC3viEAnm_s-TMqWb5-Cf8_lsvEsPHo29Lwbpu8oRDVd8motG14mSZVhKZF_TFm3s9Lo1RUIyoBD8j4_VBsyz2DH5A_XhYDlQXiZ19Z3CRBKzWmbVSWP6gYs--J5Z-4OzS8yFo6aGO9MV3F",
          "width": 720
        }
      ],
      "place_id": "ChIJiRRzHldXwokRWeXjIVdLUQo",
      "plus_code": {
        "compound_code": "PXJ8+59 Jersey City, NJ, USA",
        "global_code": "87G7PXJ8+59"
      },
      "rating": 2.7,
      "reference": "ChIJiRRzHldXwokRWeXjIVdLUQo",
      "scope": "GOOGLE",
      "types": [
        "doctor",
        "health",
        "point_of_interest",
        "establishment"
      ],
      "user_ratings_total": 7,
      "vicinity": "610 Washington Boulevard, Jersey City"
    },
    {
      "business_status": "OPERATIONAL",
      "geometry": {
        "location": {
          "lat": 40.7271219,
          "lng": -74.0375942
        },
        "viewport": {
          "northeast": {
            "lat": 40.7288124802915,
            "lng": -74.03603951970848
          },
          "southwest": {
            "lat": 40.7261145197085,
            "lng": -74.0387374802915
          }
        }
      },
      "icon": "https://maps.gstatic.com/mapfiles/place_api/icons/v1/png_71/shopping-71.png",
      "icon_background_color": "#4B96F3",
      "icon_mask_base_uri": "https://maps.gstatic.com/mapfiles/place_api/icons/v2/shopping_pinlet",
      "name": "Zumiez",
      "opening_hours": {
        "open_now": true
      },
      "photos": [
        {
          "height": 480,
          "html_attributions": [
            "<a href=\"https://maps.google.com/maps/contrib/108155725704916924649\">Zumiez Webmaster</a>"
          ],
          "photo_reference": "AeJbb3cMmS8SAeLNhLlaPY0M30EHLg4nzDztzMItNGCNp-hbK7NRceonpat1ZhV_3a_qthpNiIsL6OYox8CLZeDN3S7ektTyJXgi6c__NM5_KlK-dlIeLtbBtLo7rArxp9klHX8uSxgxpjqB7cy927F7f6kCfeMbQGC3UvwHIgYo0LfPXeKF",
          "width": 640
        }
      ],
      "place_id": "ChIJr9ky0VNXwokRnNmvI2DWp_8",
      "plus_code": {
        "compound_code": "PXG6+RX Jersey City, NJ, USA",
        "global_code": "87G7PXG6+RX"
      },
      "price_level": 2,
      "rating": 4.3,
      "reference": "ChIJr9ky0VNXwokRnNmvI2DWp_8",
      "scope": "GOOGLE",
      "types": [
        "clothing_store",
        "shoe_store",
        "store",
        "point_of_interest",
        "establishment"
      ],
      "user_ratings_total": 79,
      "vicinity": "30 Mall Drive West, Jersey City"
    },
    {
      "business_status": "OPERATIONAL",
      "geometry": {
        "location": {
          "lat": 40.7270276,
          "lng": -74.03733330000001
        },
        "viewport": {
          "northeast": {
            "lat": 40.72870728029149,
            "lng": -74.0366554197085
          },
          "southwest": {
            "lat": 40.7260093197085,
            "lng": -74.0393533802915
          }
        }
      },
      "icon": "https://maps.gstatic.com/mapfiles/place_api/icons/v1/png_71/generic_business-71.png",
      "icon_background_color": "#7B9EB0",
      "icon_mask_base_uri": "https://maps.gstatic.com/mapfiles/place_api/icons/v2/generic_pinlet",
      "name": "Threading Station",
      "opening_hours": {
        "open_now": true
      },
      "photos": [
        {
          "height": 1564,
          "html_attributions": [
            "<a href=\"https://maps.google.com/maps/contrib/117675390512536971565\">Threading Station</a>"
          ],
          "photo_reference": "AeJbb3dFGEz1mAamncQGkwm2PBTZ5WO73CRgQplkBguJr1bRDp3ZawpezflJnv2fXCyGPuUo4nq6e9ACvpoKpkdxYMoRdwcJO6CwwkV5eAJKgDsRw7dzKB9Gz1S6F92CVl4ZfQhIoD5_2ii4ivPs_FoWzAxpuWXEhYba8M_tpnjEnOoh0_g8",
          "width": 2344
        }
      ],
      "place_id": "ChIJr9ky0VNXwokRojaUGhY47PM",
      "plus_code": {
        "compound_code": "PXG7+R3 Jersey City, NJ, USA",
        "global_code": "87G7PXG7+R3"
      },
      "rating": 3.2,
      "reference": "ChIJr9ky0VNXwokRojaUGhY47PM",
      "scope": "GOOGLE",
      "types": [
        "beauty_salon",
        "hair_care",
        "point_of_interest",
        "establishment"
      ],
      "user_ratings_total": 23,
      "vicinity": "Newport Centre, 30 Mall Drive West, Jersey City"
    },
    {
      "business_status": "CLOSED_TEMPORARILY",
      "geometry": {
        "location": {
          "lat": 40.72490149999999,
          "lng": -74.0348005
        },
        "viewport": {
          "northeast": {
            "lat": 40.7262841302915,
            "lng": -74.03381756970849
          },
          "southwest": {
            "lat": 40.7235861697085,
            "lng": -74.0365155302915
          }
        }
      },
      "icon": "https://maps.gstatic.com/mapfiles/place_api/icons/v1/png_71/generic_business-71.png",
      "icon_background_color": "#7B9EB0",
      "icon_mask_base_uri": "https://maps.gstatic.com/mapfiles/place_api/icons/v2/generic_pinlet",
      "name": "SCS Commodities Corporation.",
      "permanently_closed": true,
      "place_id": "ChIJZ06BjlRXwokRlb_wxWtXjgU",
      "plus_code": {
        "compound_code": "PXF8+X3 Jersey City, NJ, USA",
        "global_code": "87G7PXF8+X3"
      },
      "reference": "ChIJZ06BjlRXwokRlb_wxWtXjgU",
      "scope": "GOOGLE",
      "types": [
        "finance",
        "point_of_interest",
        "establishment"
      ],
      "vicinity": "480 Washington Boulevard, Jersey City"
    },
    {
      "business_status": "OPERATIONAL",
      "geometry": {
        "location": {
          "lat": 40.7280858,
          "lng": -74.0348921
        },
        "viewport": {
          "northeast": {
            "lat": 40.7294416802915,
            "lng": -74.0334151197085
          },
          "southwest": {
            "lat": 40.7267437197085,
            "lng": -74.0361130802915
          }
        }
      },
      "icon": "https://maps.gstatic.com/mapfiles/place_api/icons/v1/png_71/bar-71.png",
      "icon_background_color": "#FF9E67",
      "icon_mask_base_uri": "https://maps.gstatic.com/mapfiles/place_api/icons/v2/bar_pinlet",
      "name": "Dorrian's Red Hand",
      "opening_hours": {
        "open_now": true
      },
      "photos": [
        {
          "height": 3000,
          "html_attributions": [
            "<a href=\"https://maps.google.com/maps/contrib/108245733515186829873\">Pratik Gaitonde</a>"
          ],
          "photo_reference": "AeJbb3cO3ssjpt0W3xka3T6IKFSHB3UNKIFZCHjzZnQETqNa1eeWvgDjk2E2xacXV27GSesdD4XptWU_SCEojyGuSY1ouXKuWoQWlsNO2b16y2LI05eRpcN_PIUXiJE_CRGxKig12QNCdG2g79lmODuiemAZ9YxfXkefl3UMbjDc__WgozIT",
          "width": 4000
        }
      ],
      "place_id": "ChIJu6c9oVZXwokRneA6qyqQlKQ",
      "plus_code": {
        "compound_code": "PXH8+62 Jersey City, NJ, USA",
        "global_code": "87G7PXH8+62"
      },
      "price_level": 2,
      "rating": 4.2,
      "reference": "ChIJu6c9oVZXwokRneA6qyqQlKQ",
      "scope": "GOOGLE",
      "types": [
        "restaurant",
        "food",
        "bar",
        "point_of_interest",
        "establishment"
      ],
      "user_ratings_total": 768,
      "vicinity": "555 Washington Boulevard, Jersey City"
    },
    {
      "business_status": "OPERATIONAL",
      "geometry": {
        "location": {
          "lat": 40.7302998,
          "lng": -74.03408089999999
        },
        "viewport": {
          "northeast": {
            "lat": 40.7315065302915,
            "lng": -74.03267836970849
          },
          "southwest": {
            "lat": 40.72880856970851,
            "lng": -74.03537633029151
          }
        }
      },
      "icon": "https://maps.gstatic.com/mapfiles/place_api/icons/v1/png_71/generic_business-71.png",
      "icon_background_color": "#7B9EB0",
      "icon_mask_base_uri": "https://maps.gstatic.com/mapfiles/place_api/icons/v2/generic_pinlet",
      "name": "Newport Medical",
      "opening_hours": {
        "open_now": true
      },
      "photos": [
        {
          "height": 4032,
          "html_attributions": [
            "<a href=\"https://maps.google.com/maps/contrib/111200240393990450096\">Sai Rakshit Villa</a>"
          ],
          "photo_reference": "AeJbb3fOKWapjZ4mfuEHIIHpIR0qu9wNUG4kcLqnyIE9ipmwHzi4zqzwG37D9R1czcnzLFgzU3vZPCli6uli1VsrtAjXWE9D7gpvkYnfWd3v0_Cz93F2rpHuSsrMc-eaSO3TSbjHoIDj6TuiNohFfTkJB_T3ypBVwHlUq-UbsK2JIbvUMpAp",
          "width": 3024
        }
      ],
      "place_id": "ChIJiRRzHldXwokReMVTFZyb-A8",
      "plus_code": {
        "compound_code": "PXJ8+49 Jersey City, NJ, USA",
        "global_code": "87G7PXJ8+49"
      },
      "rating": 2,
      "reference": "ChIJiRRzHldXwokReMVTFZyb-A8",
      "scope": "GOOGLE",
      "types": [
        "doctor",
        "health",
        "point_of_interest",
        "establishment"
      ],
      "user_ratings_total": 56,
      "vicinity": "610 Washington Boulevard, Jersey City"
    },
    {
      "business_status": "OPERATIONAL",
      "geometry": {
        "location": {
          "lat": 40.7259929,
          "lng": -74.03578999999999
        },
        "viewport": {
          "northeast": {
            "lat": 40.7272982302915,
            "lng": -74.0342801197085
          },
          "southwest": {
            "lat": 40.7246002697085,
            "lng": -74.0369780802915
          }
        }
      },
      "icon": "https://maps.gstatic.com/mapfiles/place_api/icons/v1/png_71/generic_business-71.png",
      "icon_background_color": "#7B9EB0",
      "icon_mask_base_uri": "https://maps.gstatic.com/mapfiles/place_api/icons/v2/generic_pinlet",
      "name": "Hydroxatone",
      "opening_hours": {
        "open_now": true
      },
      "place_id": "ChIJj751h1NXwokRtqfcqIj6210",
      "plus_code": {
        "compound_code": "PXG7+9M Jersey City, NJ, USA",
        "global_code": "87G7PXG7+9M"
      },
      "reference": "ChIJj751h1NXwokRtqfcqIj6210",
      "scope": "GOOGLE",
      "types": [
        "point_of_interest",
        "establishment"
      ],
      "vicinity": "499 Washington Boulevard, Jersey City"
    },
    {
      "business_status": "OPERATIONAL",
      "geometry": {
        "location": {
          "lat": 40.72640839999999,
          "lng": -74.03416589999999
        },
        "viewport": {
          "northeast": {
            "lat": 40.72788368029149,
            "lng": -74.03284916970848
          },
          "southwest": {
            "lat": 40.72518571970849,
            "lng": -74.0355471302915
          }
        }
      },
      "icon": "https://maps.gstatic.com/mapfiles/place_api/icons/v1/png_71/generic_business-71.png",
      "icon_background_color": "#7B9EB0",
      "icon_mask_base_uri": "https://maps.gstatic.com/mapfiles/place_api/icons/v2/generic_pinlet",
      "name": "Newport Rentals",
      "opening_hours": {
        "open_now": true
      },
      "photos": [
        {
          "height": 3527,
          "html_attributions": [
            "<a href=\"https://maps.google.com/maps/contrib/106822678743961674088\">Newport Rentals</a>"
          ],
          "photo_reference": "AeJbb3fhKIQXS3lYpwkC66pgso2pZpmR4tgRTaCvpO5GRqQoSQdrTOF6ZVCfyp4fNXvm13-9FI1X9l49IKETnwRAhjjs_UIQrJ0Yo10kAwt8AsHBMkPMGY9OaMDBVEv0tOJxzAne1dmXdbu9B1roJ9i-abF_aegZ6ZYuam8qEZhY6-oYKhEZ",
          "width": 5294
        }
      ],
      "place_id": "ChIJExgrP1RXwokRuMU5suZYJJg",
      "plus_code": {
        "compound_code": "PXG8+H8 Jersey City, NJ, USA",
        "global_code": "87G7PXG8+H8"
      },
      "rating": 3.5,
      "reference": "ChIJExgrP1RXwokRuMU5suZYJJg",
      "scope": "GOOGLE",
      "types": [
        "real_estate_agency",
        "point_of_interest",
        "establishment"
      ],
      "user_ratings_total": 483,
      "vicinity": "121 Town Square Place, Jersey City"
    },
    {
      "business_status": "OPERATIONAL",
      "geometry": {
        "location": {
          "lat": 40.7304049,
          "lng": -74.03401099999999
        },
        "viewport": {
          "northeast": {
            "lat": 40.7315590802915,
            "lng": -74.03264341970848
          },
          "southwest": {
            "lat": 40.7288611197085,
            "lng": -74.0353413802915
          }
        }
      },
      "icon": "https://maps.gstatic.com/mapfiles/place_api/icons/v1/png_71/generic_business-71.png",
      "icon_background_color": "#7B9EB0",
      "icon_mask_base_uri": "https://maps.gstatic.com/mapfiles/place_api/icons/v2/generic_pinlet",
      "name": "Manish Luhana, MD",
      "opening_hours": {
        "open_now": false
      },
      "photos": [
        {
          "height": 405,
          "html_attributions": [
            "<a href=\"https://maps.google.com/maps/contrib/101188696335725494103\">Manish Luhana, MD</a>"
          ],
          "photo_reference": "AeJbb3dQWUoVohqtbI-L-Rakha-7dnqR59JzpGn-yhOtdFeqR4baIiT2hh8arYd2bb9FiE-j3iWoF-V-9NQoR-m1awoLYWhepwsIoKqKbJjfEtHSAhuuFFwLdhNLiaIfX1yQyQSN3qkF6-ZtHpXlbYcbQx_9K9Dd7yH5uideja2yPzIkFnO5",
          "width": 720
        }
      ],
      "place_id": "ChIJiRRzHldXwokR14DLXHkPmbk",
      "plus_code": {
        "compound_code": "PXJ8+59 Jersey City, NJ, USA",
        "global_code": "87G7PXJ8+59"
      },
      "rating": 3.6,
      "reference": "ChIJiRRzHldXwokR14DLXHkPmbk",
      "scope": "GOOGLE",
      "types": [
        "doctor",
        "health",
        "point_of_interest",
        "establishment"
      ],
      "user_ratings_total": 7,
      "vicinity": "610 Washington Boulevard, Jersey City"
    },
    {
      "business_status": "CLOSED_TEMPORARILY",
      "geometry": {
        "location": {
          "lat": 40.726397,
          "lng": -74.034089
        },
        "viewport": {
          "northeast": {
            "lat": 40.72787443029149,
            "lng": -74.03264926970849
          },
          "southwest": {
            "lat": 40.72517646970849,
            "lng": -74.03534723029149
          }
        }
      },
      "icon": "https://maps.gstatic.com/mapfiles/place_api/icons/v1/png_71/generic_business-71.png",
      "icon_background_color": "#7B9EB0",
      "icon_mask_base_uri": "https://maps.gstatic.com/mapfiles/place_api/icons/v2/generic_pinlet",
      "name": "GMKUSA Corp",
      "permanently_closed": true,
      "place_id": "ChIJh2WOQFRXwokR1YDhqtOTMJ8",
      "plus_code": {
        "compound_code": "PXG8+H9 Jersey City, NJ, USA",
        "global_code": "87G7PXG8+H9"
      },
      "reference": "ChIJh2WOQFRXwokR1YDhqtOTMJ8",
      "scope": "GOOGLE",
      "types": [
        "finance",
        "point_of_interest",
        "establishment"
      ],
      "vicinity": "123 Town Square Place St 101, Jersey City"
    },
    {
      "business_status": "OPERATIONAL",
      "geometry": {
        "location": {
          "lat": 40.72675630000001,
          "lng": -74.03739379999999
        },
        "viewport": {
          "northeast": {
            "lat": 40.72811968029149,
            "lng": -74.03551061970849
          },
          "southwest": {
            "lat": 40.72542171970849,
            "lng": -74.0382085802915
          }
        }
      },
      "icon": "https://maps.gstatic.com/mapfiles/place_api/icons/v1/png_71/shopping-71.png",
      "icon_background_color": "#4B96F3",
      "icon_mask_base_uri": "https://maps.gstatic.com/mapfiles/place_api/icons/v2/shopping_pinlet",
      "name": "AT&T Store",
      "opening_hours": {
        "open_now": true
      },
      "photos": [
        {
          "height": 3024,
          "html_attributions": [
            "<a href=\"https://maps.google.com/maps/contrib/114075849968565574223\">Shaun</a>"
          ],
          "photo_reference": "AeJbb3cmGxOP-sK1zG4E6VgMqYjhbiaw5z4A90iq50zOlxiWPWCGXub4X5U3eiEpdt71pEJrwwAc5wFUOGQZTImfWbXmzBF3l-Xn8Go0GyU3shZ8iGSNK3sYOqs1-Il0N78EakW2wW32BKe8oiALBXL7IPjnQ5SCTsMTT9WTQ3nZ9Btfhdcd",
          "width": 4032
        }
      ],
      "place_id": "ChIJr9ky0VNXwokRMmH8ySCkI74",
      "plus_code": {
        "compound_code": "PXG7+P2 Jersey City, NJ, USA",
        "global_code": "87G7PXG7+P2"
      },
      "price_level": 2,
      "rating": 3.3,
      "reference": "ChIJr9ky0VNXwokRMmH8ySCkI74",
      "scope": "GOOGLE",
      "types": [
        "point_of_interest",
        "store",
        "establishment"
      ],
      "user_ratings_total": 274,
      "vicinity": "30 Mall Drive West Space B29b, Jersey City"
    },
    {
      "business_status": "OPERATIONAL",
      "geometry": {
        "location": {
          "lat": 40.7250878,
          "lng": -74.0347127
        },
        "viewport": {
          "northeast": {
            "lat": 40.7263781802915,
            "lng": -74.0337564197085
          },
          "southwest": {
            "lat": 40.7236802197085,
            "lng": -74.0364543802915
          }
        }
      },
      "icon": "https://maps.gstatic.com/mapfiles/place_api/icons/v1/png_71/generic_business-71.png",
      "icon_background_color": "#7B9EB0",
      "icon_mask_base_uri": "https://maps.gstatic.com/mapfiles/place_api/icons/v2/generic_pinlet",
      "name": "Computershare",
      "place_id": "ChIJ_RH_DVRXwokRBcPFTjrcTXk",
      "plus_code": {
        "compound_code": "PXG8+24 Jersey City, NJ, USA",
        "global_code": "87G7PXG8+24"
      },
      "rating": 5,
      "reference": "ChIJ_RH_DVRXwokRBcPFTjrcTXk",
      "scope": "GOOGLE",
      "types": [
        "point_of_interest",
        "establishment"
      ],
      "user_ratings_total": 5,
      "vicinity": "480 Washington Boulevard, Jersey City"
    },
    {
      "business_status": "OPERATIONAL",
      "geometry": {
        "location": {
          "lat": 40.72662130000001,
          "lng": -74.031812
        },
        "viewport": {
          "northeast": {
            "lat": 40.72792878029151,
            "lng": -74.03064931970849
          },
          "southwest": {
            "lat": 40.72523081970851,
            "lng": -74.0333472802915
          }
        }
      },
      "icon": "https://maps.gstatic.com/mapfiles/place_api/icons/v1/png_71/cafe-71.png",
      "icon_background_color": "#FF9E67",
      "icon_mask_base_uri": "https://maps.gstatic.com/mapfiles/place_api/icons/v2/cafe_pinlet",
      "name": "Babo Teahouse",
      "opening_hours": {
        "open_now": true
      },
      "photos": [
        {
          "height": 4032,
          "html_attributions": [
            "<a href=\"https://maps.google.com/maps/contrib/113449210696296117173\">Monica Aviles</a>"
          ],
          "photo_reference": "AeJbb3fxz2Xh6iC1gcMjdL9x2QMGycUdnreFnrA0Gs99qahxz4pG_irFSWIUfAJEzYPQr0wmtg6-WODaTmPMnQbxUYEe8U0VeeoSNOhxhNnVGAjryJGn2o8gAF2jwUzbYtdD32gaLVGVa_Rlt8Mot5dzraCdu5leSF-jjdy4l4xBp9G_UtAO",
          "width": 3024
        }
      ],
      "place_id": "ChIJC9Q82lVXwokRXuAW8F9G5C0",
      "plus_code": {
        "compound_code": "PXG9+J7 Jersey City, NJ, USA",
        "global_code": "87G7PXG9+J7"
      },
      "price_level": 2,
      "rating": 4,
      "reference": "ChIJC9Q82lVXwokRXuAW8F9G5C0",
      "scope": "GOOGLE",
      "types": [
        "cafe",
        "restaurant",
        "food",
        "point_of_interest",
        "establishment"
      ],
      "user_ratings_total": 396,
      "vicinity": "10 River Drive South, Jersey City"
    },
    {
      "business_status": "OPERATIONAL",
      "geometry": {
        "location": {
          "lat": 40.72683800000001,
          "lng": -74.03744660000001
        },
        "viewport": {
          "northeast": {
            "lat": 40.7286124802915,
            "lng": -74.03670531970849
          },
          "southwest": {
            "lat": 40.7259145197085,
            "lng": -74.0394032802915
          }
        }
      },
      "icon": "https://maps.gstatic.com/mapfiles/place_api/icons/v1/png_71/generic_business-71.png",
      "icon_background_color": "#7B9EB0",
      "icon_mask_base_uri": "https://maps.gstatic.com/mapfiles/place_api/icons/v2/generic_pinlet",
      "name": "Citilight Optometry",
      "opening_hours": {
        "open_now": true
      },
      "photos": [
        {
          "height": 1365,
          "html_attributions": [
            "<a href=\"https://maps.google.com/maps/contrib/116798039330376588915\">Citilight Optometry</a>"
          ],
          "photo_reference": "AeJbb3eh2FzmDQWrWeIS1ALkTSvy-FF1Z3hMhSsvrFebLYP03UbuwbyY70bPOjL8gXjg_2zmAebENsYutusz1Js7TNmyXn1ojFwwJx9IF1st52tvkOhIjZz0y1KZFmPxyFbJQ1j0hL_UBJ_lO7Eex0tZNEYLkREo8peT1IxE9_yyTsHHuy6S",
          "width": 2048
        }
      ],
      "place_id": "ChIJr9ky0VNXwokRd9b-dTtRvWo",
      "plus_code": {
        "compound_code": "PXG7+P2 Jersey City, NJ, USA",
        "global_code": "87G7PXG7+P2"
      },
      "rating": 4.7,
      "reference": "ChIJr9ky0VNXwokRd9b-dTtRvWo",
      "scope": "GOOGLE",
      "types": [
        "health",
        "point_of_interest",
        "store",
        "establishment"
      ],
      "user_ratings_total": 200,
      "vicinity": "30 Mall Drive West, Jersey City"
    },
    {
      "business_status": "OPERATIONAL",
      "geometry": {
        "location": {
          "lat": 40.72950609999999,
          "lng": -74.03292429999999
        },
        "viewport": {
          "northeast": {
            "lat": 40.7309626802915,
            "lng": -74.0311106697085
          },
          "southwest": {
            "lat": 40.7282647197085,
            "lng": -74.0338086302915
          }
        }
      },
      "icon": "https://maps.gstatic.com/mapfiles/place_api/icons/v1/png_71/generic_business-71.png",
      "icon_background_color": "#7B9EB0",
      "icon_mask_base_uri": "https://maps.gstatic.com/mapfiles/place_api/icons/v2/generic_pinlet",
      "name": "Shore South Condominium",
      "photos": [
        {
          "height": 2268,
          "html_attributions": [
            "<a href=\"https://maps.google.com/maps/contrib/101210560863569739398\">Prateek Chandra</a>"
          ],
          "photo_reference": "AeJbb3eKxsz1z9kIK9fUu4LzYoxcCSx6kyf1WLi7SeCErjTXzE_cgC2QWGJh7FT15lV1ouFFFcQNz0Ys0zDtLDTT7zmHO7FkCH3GUtpF5U9T85TZxYsU4_BXoIly4Dro42XpmLtlWDHWV38XrPt9gCdTDhGnLKEfwYzDfgUfOCslCZSnNpKq",
          "width": 4032
        }
      ],
      "place_id": "ChIJqR4wWlZXwokRmxhhUfvmtrc",
      "plus_code": {
        "compound_code": "PXH8+RR Jersey City, NJ, USA",
        "global_code": "87G7PXH8+RR"
      },
      "rating": 3.8,
      "reference": "ChIJqR4wWlZXwokRmxhhUfvmtrc",
      "scope": "GOOGLE",
      "types": [
        "point_of_interest",
        "establishment"
      ],
      "user_ratings_total": 10,
      "vicinity": "20 Newport Parkway, Jersey City"
    },
    {
      "business_status": "OPERATIONAL",
      "geometry": {
        "location": {
          "lat": 40.7294375,
          "lng": -74.03269039999999
        },
        "viewport": {
          "northeast": {
            "lat": 40.7306495302915,
            "lng": -74.03145916970848
          },
          "southwest": {
            "lat": 40.7279515697085,
            "lng": -74.0341571302915
          }
        }
      },
      "icon": "https://maps.gstatic.com/mapfiles/place_api/icons/v1/png_71/generic_business-71.png",
      "icon_background_color": "#7B9EB0",
      "icon_mask_base_uri": "https://maps.gstatic.com/mapfiles/place_api/icons/v2/generic_pinlet",
      "name": "Newport Condo Association",
      "place_id": "ChIJqR4wWlZXwokRc5KycZEi_N0",
      "plus_code": {
        "compound_code": "PXH8+QW Jersey City, NJ, USA",
        "global_code": "87G7PXH8+QW"
      },
      "rating": 5,
      "reference": "ChIJqR4wWlZXwokRc5KycZEi_N0",
      "scope": "GOOGLE",
      "types": [
        "point_of_interest",
        "establishment"
      ],
      "user_ratings_total": 1,
      "vicinity": "20 Newport Parkway, Jersey City"
    },
    {
      "business_status": "OPERATIONAL",
      "geometry": {
        "location": {
          "lat": 40.7268211,
          "lng": -74.03336039999999
        },
        "viewport": {
          "northeast": {
            "lat": 40.7280576302915,
            "lng": -74.03203046970849
          },
          "southwest": {
            "lat": 40.7253596697085,
            "lng": -74.0347284302915
          }
        }
      },
      "icon": "https://maps.gstatic.com/mapfiles/place_api/icons/v1/png_71/generic_business-71.png",
      "icon_background_color": "#7B9EB0",
      "icon_mask_base_uri": "https://maps.gstatic.com/mapfiles/place_api/icons/v2/generic_pinlet",
      "name": "Dr. Louis P. Zazzaro, DMD",
      "place_id": "ChIJ6RcrP1RXwokRVg_pEzHpmgg",
      "plus_code": {
        "compound_code": "PXG8+PM Jersey City, NJ, USA",
        "global_code": "87G7PXG8+PM"
      },
      "rating": 5,
      "reference": "ChIJ6RcrP1RXwokRVg_pEzHpmgg",
      "scope": "GOOGLE",
      "types": [
        "dentist",
        "health",
        "point_of_interest",
        "establishment"
      ],
      "user_ratings_total": 8,
      "vicinity": "100 Town Square Place, Jersey City"
    },
    {
      "business_status": "OPERATIONAL",
      "geometry": {
        "location": {
          "lat": 40.7271197,
          "lng": -74.0350745
        },
        "viewport": {
          "northeast": {
            "lat": 40.7282425302915,
            "lng": -74.03381676970848
          },
          "southwest": {
            "lat": 40.7255445697085,
            "lng": -74.03651473029149
          }
        }
      },
      "icon": "https://maps.gstatic.com/mapfiles/place_api/icons/v1/png_71/bank-71.png",
      "icon_background_color": "#909CE1",
      "icon_mask_base_uri": "https://maps.gstatic.com/mapfiles/place_api/icons/v2/bank-intl_pinlet",
      "name": "BNP Paribas",
      "opening_hours": {
        "open_now": false
      },
      "photos": [
        {
          "height": 2448,
          "html_attributions": [
            "<a href=\"https://maps.google.com/maps/contrib/115380411175079212786\">MD RAHMAN</a>"
          ],
          "photo_reference": "AeJbb3fnM0FraE7YXDUZ5IdXWSJXjGitRLH6TqVcZ8qqWVdUX-3EBUjTblZks5QJAWfs2Z-GlFsjpUp6n37_vLEgqFPygp7EDzACk_oY-AeH1aA0S2w7EDedKkQsovujODIMpwkA8szdQ3u-ULcN5jZEVkwlAvIFIADzHjKhp_Te9T4BKFIQ",
          "width": 2448
        }
      ],
      "place_id": "ChIJ_RH_DVRXwokRX2x7GVOYyec",
      "plus_code": {
        "compound_code": "PXG7+RX Jersey City, NJ, USA",
        "global_code": "87G7PXG7+RX"
      },
      "rating": 3.3,
      "reference": "ChIJ_RH_DVRXwokRX2x7GVOYyec",
      "scope": "GOOGLE",
      "types": [
        "bank",
        "finance",
        "point_of_interest",
        "establishment"
      ],
      "user_ratings_total": 7,
      "vicinity": "525 Washington Boulevard # 600, Jersey City"
    },
    {
      "business_status": "OPERATIONAL",
      "geometry": {
        "location": {
          "lat": 40.7274624,
          "lng": -74.03492779999999
        },
        "viewport": {
          "northeast": {
            "lat": 40.72893353029151,
            "lng": -74.03342461970848
          },
          "southwest": {
            "lat": 40.72623556970851,
            "lng": -74.0361225802915
          }
        }
      },
      "icon": "https://maps.gstatic.com/mapfiles/place_api/icons/v1/png_71/restaurant-71.png",
      "icon_background_color": "#FF9E67",
      "icon_mask_base_uri": "https://maps.gstatic.com/mapfiles/place_api/icons/v2/restaurant_pinlet",
      "name": "Cos\u00ec",
      "opening_hours": {
        "open_now": true
      },
      "photos": [
        {
          "height": 3024,
          "html_attributions": [
            "<a href=\"https://maps.google.com/maps/contrib/106163940790398630723\">Zhou Dong</a>"
          ],
          "photo_reference": "AeJbb3fxNelgJj8uo5gvfg36CVDV9ruy4l4J89GVaE-FcEkV5HKVqdiW2rvJ7ENBn9YzJ2HJwz8FOiEgLafGtReBV04wU_gEJ4GYbki-UEYDh7s_AEt3pg6Mxqhreu4rysI6iQow8LPZT9JOhT7L93imG2kX-YxtCJwvM19LqlurJ92MZ8G3",
          "width": 4032
        }
      ],
      "place_id": "ChIJlUrWHVRXwokRM5wKHgClnbc",
      "plus_code": {
        "compound_code": "PXG8+X2 Jersey City, NJ, USA",
        "global_code": "87G7PXG8+X2"
      },
      "price_level": 1,
      "rating": 3.9,
      "reference": "ChIJlUrWHVRXwokRM5wKHgClnbc",
      "scope": "GOOGLE",
      "types": [
        "restaurant",
        "meal_takeaway",
        "food",
        "point_of_interest",
        "store",
        "establishment"
      ],
      "user_ratings_total": 213,
      "vicinity": "535 Washington Boulevard, Jersey City"
    },
    {
      "business_status": "OPERATIONAL",
      "geometry": {
        "location": {
          "lat": 40.7281427,
          "lng": -74.03179779999999
        },
        "viewport": {
          "northeast": {
            "lat": 40.7296530302915,
            "lng": -74.03049391970849
          },
          "southwest": {
            "lat": 40.7269550697085,
            "lng": -74.03319188029151
          }
        }
      },
      "icon": "https://maps.gstatic.com/mapfiles/place_api/icons/v1/png_71/shopping-71.png",
      "icon_background_color": "#4B96F3",
      "icon_mask_base_uri": "https://maps.gstatic.com/mapfiles/place_api/icons/v2/convenience_pinlet",
      "name": "Duane Reade",
      "opening_hours": {
        "open_now": true
      },
      "photos": [
        {
          "height": 4032,
          "html_attributions": [
            "<a href=\"https://maps.google.com/maps/contrib/110078563957696724757\">Sybid Jones</a>"
          ],
          "photo_reference": "AeJbb3cVE8qyt8fkfeujYlgh3RQ5YskCbkK-RzQGD9gcfLvvLCDpPkXS-gotlUQW4AmyEbav8MBENQgbZexvINlL6ErZElJJqLGcHXmWbxTUAqyXeEfrQeodQvtPakGt8uyW5mTml3kwU61icD9jI4SsDKxj7YEfGWoleIFV0oxPT8w1pT6Y",
          "width": 3024
        }
      ],
      "place_id": "ChIJk2nha1ZXwokRMlf179oameo",
      "plus_code": {
        "compound_code": "PXH9+77 Jersey City, NJ, USA",
        "global_code": "87G7PXH9+77"
      },
      "price_level": 2,
      "rating": 3.6,
      "reference": "ChIJk2nha1ZXwokRMlf179oameo",
      "scope": "GOOGLE",
      "types": [
        "convenience_store",
        "clothing_store",
        "food",
        "point_of_interest",
        "store",
        "establishment"
      ],
      "user_ratings_total": 85,
      "vicinity": "52 River Drive South, Jersey City"
    },
    {
      "business_status": "OPERATIONAL",
      "geometry": {
        "location": {
          "lat": 40.72966239999999,
          "lng": -74.0316306
        },
        "viewport": {
          "northeast": {
            "lat": 40.7309953302915,
            "lng": -74.03044936970849
          },
          "southwest": {
            "lat": 40.72829736970851,
            "lng": -74.03314733029151
          }
        }
      },
      "icon": "https://maps.gstatic.com/mapfiles/place_api/icons/v1/png_71/school-71.png",
      "icon_background_color": "#7B9EB0",
      "icon_mask_base_uri": "https://maps.gstatic.com/mapfiles/place_api/icons/v2/school_pinlet",
      "name": "Stevens Cooperative School - Jersey City (Newport)",
      "opening_hours": {
        "open_now": false
      },
      "photos": [
        {
          "height": 1080,
          "html_attributions": [
            "<a href=\"https://maps.google.com/maps/contrib/103979913174720969883\">Stevens Cooperative School - Jersey City (Newport)</a>"
          ],
          "photo_reference": "AeJbb3fytsZS4jHu9NLJSIxgLCknfc-4wsOcwoxEtPhkbHDfQ0hJ46n04Vrl6nhsKQUsuBkzPoUSng4AcmYoAv4moqzMXdwWS7gH9rLP-E7pkrvRYSZOg-hjSBPeFJKbweCYatiG1333wqs1sH59n3qARByf0Ssan0qTt2Mjx9h1aEzXHD3_",
          "width": 1920
        }
      ],
      "place_id": "ChIJAWN6FVRXwokREnZD2BkP_NY",
      "plus_code": {
        "compound_code": "PXH9+V8 Jersey City, NJ, USA",
        "global_code": "87G7PXH9+V8"
      },
      "rating": 4.3,
      "reference": "ChIJAWN6FVRXwokREnZD2BkP_NY",
      "scope": "GOOGLE",
      "types": [
        "primary_school",
        "school",
        "point_of_interest",
        "establishment"
      ],
      "user_ratings_total": 3,
      "vicinity": "Aquablu Building, 100 River Drive South, Jersey City"
    },
    {
      "business_status": "OPERATIONAL",
      "geometry": {
        "location": {
          "lat": 40.7262771,
          "lng": -74.0337316
        },
        "viewport": {
          "northeast": {
            "lat": 40.72779793029149,
            "lng": -74.03235691970848
          },
          "southwest": {
            "lat": 40.7250999697085,
            "lng": -74.0350548802915
          }
        }
      },
      "icon": "https://maps.gstatic.com/mapfiles/place_api/icons/v1/png_71/generic_business-71.png",
      "icon_background_color": "#7B9EB0",
      "icon_mask_base_uri": "https://maps.gstatic.com/mapfiles/place_api/icons/v2/generic_pinlet",
      "name": "Virtusa Corporation",
      "opening_hours": {
        "open_now": true
      },
      "place_id": "ChIJ018DSVRXwokRNiuZcOcNMNs",
      "plus_code": {
        "compound_code": "PXG8+GG Jersey City, NJ, USA",
        "global_code": "87G7PXG8+GG"
      },
      "reference": "ChIJ018DSVRXwokRNiuZcOcNMNs",
      "scope": "GOOGLE",
      "types": [
        "point_of_interest",
        "establishment"
      ],
      "vicinity": "111 Town Square Place Suite 340, Jersey City"
    },
    {
      "business_status": "OPERATIONAL",
      "geometry": {
        "location": {
          "lat": 40.73162560000001,
          "lng": -74.0326604
        },
        "viewport": {
          "northeast": {
            "lat": 40.7328460802915,
            "lng": -74.0305244
          },
          "southwest": {
            "lat": 40.73014811970851,
            "lng": -74.03523440000001
          }
        }
      },
      "icon": "https://maps.gstatic.com/mapfiles/place_api/icons/v1/png_71/park-71.png",
      "icon_background_color": "#4DB546",
      "icon_mask_base_uri": "https://maps.gstatic.com/mapfiles/place_api/icons/v2/tree_pinlet",
      "name": "Newport Green Park",
      "opening_hours": {
        "open_now": true
      },
      "photos": [
        {
          "height": 4096,
          "html_attributions": [
            "<a href=\"https://maps.google.com/maps/contrib/104485432405080289697\">Jody Olson</a>"
          ],
          "photo_reference": "AeJbb3cVTMucOYIvt3jKBl8x78IiqRX4aRqUU77PdT7BBa00Y5g6x3D-GjcZ4OkuOazzWQCduF--hHXkL1CCO-j6NyuB-EAQFc9qfbao6PhdkfnqsAANPWwXq7KjrMHxXhHm09cFTT944NZ0rPsXmdz-ykHA-j9xFMMQqpC78uq8fGzRXt4A",
          "width": 3072
        }
      ],
      "place_id": "ChIJ8VOxnVdXwokRLUGprXU3md4",
      "plus_code": {
        "compound_code": "PXJ8+MW Jersey City, NJ, USA",
        "global_code": "87G7PXJ8+MW"
      },
      "rating": 4.6,
      "reference": "ChIJ8VOxnVdXwokRLUGprXU3md4",
      "scope": "GOOGLE",
      "types": [
        "park",
        "tourist_attraction",
        "point_of_interest",
        "establishment"
      ],
      "user_ratings_total": 1407,
      "vicinity": "Green Park, 14th Street, Jersey City"
    },
    {
      "business_status": "OPERATIONAL",
      "geometry": {
        "location": {
          "lat": 40.7259929,
          "lng": -74.03578999999999
        },
        "viewport": {
          "northeast": {
            "lat": 40.7272982302915,
            "lng": -74.0342801197085
          },
          "southwest": {
            "lat": 40.7246002697085,
            "lng": -74.0369780802915
          }
        }
      },
      "icon": "https://maps.gstatic.com/mapfiles/place_api/icons/v1/png_71/generic_business-71.png",
      "icon_background_color": "#7B9EB0",
      "icon_mask_base_uri": "https://maps.gstatic.com/mapfiles/place_api/icons/v2/generic_pinlet",
      "name": "Guardian Service Industry",
      "place_id": "ChIJj751h1NXwokR60s4WyKK5Io",
      "plus_code": {
        "compound_code": "PXG7+9M Jersey City, NJ, USA",
        "global_code": "87G7PXG7+9M"
      },
      "reference": "ChIJj751h1NXwokR60s4WyKK5Io",
      "scope": "GOOGLE",
      "types": [
        "laundry",
        "point_of_interest",
        "establishment"
      ],
      "vicinity": "499 Washington Boulevard, Jersey City"
    },
    {
      "business_status": "CLOSED_TEMPORARILY",
      "geometry": {
        "location": {
          "lat": 40.7269136,
          "lng": -74.0355254
        },
        "viewport": {
          "northeast": {
            "lat": 40.7281638302915,
            "lng": -74.03391386970848
          },
          "southwest": {
            "lat": 40.7254658697085,
            "lng": -74.03661183029149
          }
        }
      },
      "icon": "https://maps.gstatic.com/mapfiles/place_api/icons/v1/png_71/generic_business-71.png",
      "icon_background_color": "#7B9EB0",
      "icon_mask_base_uri": "https://maps.gstatic.com/mapfiles/place_api/icons/v2/generic_pinlet",
      "name": "Control Associates LP",
      "permanently_closed": true,
      "place_id": "ChIJ_RH_DVRXwokROaUc-WpPiXk",
      "plus_code": {
        "compound_code": "PXG7+QQ Jersey City, NJ, USA",
        "global_code": "87G7PXG7+QQ"
      },
      "reference": "ChIJ_RH_DVRXwokROaUc-WpPiXk",
      "scope": "GOOGLE",
      "types": [
        "point_of_interest",
        "establishment"
      ],
      "vicinity": "525 Washington Boulevard # 2800, Jersey City"
    },
    {
      "business_status": "CLOSED_TEMPORARILY",
      "geometry": {
        "location": {
          "lat": 40.7271238,
          "lng": -74.0355977
        },
        "viewport": {
          "northeast": {
            "lat": 40.7282444302915,
            "lng": -74.0339666197085
          },
          "southwest": {
            "lat": 40.72554646970851,
            "lng": -74.0366645802915
          }
        }
      },
      "icon": "https://maps.gstatic.com/mapfiles/place_api/icons/v1/png_71/generic_business-71.png",
      "icon_background_color": "#7B9EB0",
      "icon_mask_base_uri": "https://maps.gstatic.com/mapfiles/place_api/icons/v2/generic_pinlet",
      "name": "Windsor IBC Inc",
      "permanently_closed": true,
      "place_id": "ChIJ_RH_DVRXwokRBWrhfUUXvUw",
      "plus_code": {
        "compound_code": "PXG7+RQ Jersey City, NJ, USA",
        "global_code": "87G7PXG7+RQ"
      },
      "reference": "ChIJ_RH_DVRXwokRBWrhfUUXvUw",
      "scope": "GOOGLE",
      "types": [
        "finance",
        "point_of_interest",
        "establishment"
      ],
      "vicinity": "525 Washington Boulevard, Jersey City"
    },
    {
      "business_status": "OPERATIONAL",
      "geometry": {
        "location": {
          "lat": 40.7289032,
          "lng": -74.0341959
        },
        "viewport": {
          "northeast": {
            "lat": 40.7302975302915,
            "lng": -74.0330617697085
          },
          "southwest": {
            "lat": 40.7275995697085,
            "lng": -74.03575973029152
          }
        }
      },
      "icon": "https://maps.gstatic.com/mapfiles/place_api/icons/v1/png_71/generic_business-71.png",
      "icon_background_color": "#7B9EB0",
      "icon_mask_base_uri": "https://maps.gstatic.com/mapfiles/place_api/icons/v2/generic_pinlet",
      "name": "DTCC",
      "opening_hours": {
        "open_now": false
      },
      "photos": [
        {
          "height": 4032,
          "html_attributions": [
            "<a href=\"https://maps.google.com/maps/contrib/117730487313282388505\">Tracy Wierciuch</a>"
          ],
          "photo_reference": "AeJbb3fo71UPZYkkq7IS-aUfIz3UPxvWt0amuX0RHxotkNagThTeYsilHoK82G9qyef-QZzNQQcGuAvFmgjSnuYqAcavyh7gNyPYVn1Hcp_q8x5Tsoy6PCKNxXO-5gSNVlr-Z1lhbs7ymWeear26XrRcrWoa0ccPN2IuCnVgtci9t6GCm2r0",
          "width": 2268
        }
      ],
      "place_id": "ChIJF97xv1ZXwokRglIKRHRzN8A",
      "plus_code": {
        "compound_code": "PXH8+H8 Jersey City, NJ, USA",
        "global_code": "87G7PXH8+H8"
      },
      "rating": 3.1,
      "reference": "ChIJF97xv1ZXwokRglIKRHRzN8A",
      "scope": "GOOGLE",
      "types": [
        "finance",
        "point_of_interest",
        "establishment"
      ],
      "user_ratings_total": 12,
      "vicinity": "570 Washington Boulevard, Jersey City"
    }
  ],
  "status": "OK"
}