{
  "html_attributions": [],
  "results": [
    {
      "geometry": {
        "location": {
          "lat": 40.7127753,
          "lng": -74.0059728
        },
        "viewport": {
          "northeast": {
            "lat": 40.91757705070789,
            "lng": -73.70027206817629
          },
          "southwest": {
            "lat": 40.47739906045452,
            "lng": -74.25908991427882
          }
        }
      },
      "icon": "https://maps.gstatic.com/mapfiles/place_api/icons/v1/png_71/geocode-71.png",
      "icon_background_color": "#7B9EB0",
      "icon_mask_base_uri": "https://maps.gstatic.com/mapfiles/place_api/icons/v2/generic_pinlet",
      "name": "\u7d10\u7d04",
      "photos": [
        {
          "height": 600,
          "html_attributions": [
            "<a href=\"https://maps.google.com/maps/contrib/102389334567210814614\">Bukurie</a>"
          ],
          "photo_reference": "AeJbb3fdPniQJ871dG7CnTvUEAmrwUhbhqbUmXgxbf3eDmsK5XVMjJOvUl6qHisZGZyF23ACv7tjdR3n7_K2DzlyvNx1No2x6D3T9UF5RO58x1gBjKZzqcSx6UegnNog03hyIY_PosKCxecTwwRF5sVEm5tPQa8BVvIThcaN_qx0lyDelv4p",
          "width": 480
        }
      ],
      "place_id": "ChIJOwg_06VPwokRYv534QaPC8g",
      "reference": "ChIJOwg_06VPwokRYv534QaPC8g",
      "scope": "GOOGLE",
      "types": [
        "locality",
        "political"
      ],
      "vicinity": "\u7d10\u7d04"
    },
    {
      "business_status": "OPERATIONAL",
      "geometry": {
        "location": {
          "lat": 40.798684,
          "lng": -73.96665300000001
        },
        "viewport": {
          "northeast": {
            "lat": 40.8000571302915,
            "lng": -73.9655140697085
          },
          "southwest": {
            "lat": 40.79735916970851,
            "lng": -73.96821203029151
          }
        }
      },
      "icon": "https://maps.gstatic.com/mapfiles/place_api/icons/v1/png_71/lodging-71.png",
      "icon_background_color": "#909CE1",
      "icon_mask_base_uri": "https://maps.gstatic.com/mapfiles/place_api/icons/v2/hotel_pinlet",
      "name": "HI New York City Hostel",
      "opening_hours": {
        "open_now": true
      },
      "photos": [
        {
          "height": 424,
          "html_attributions": [
            "<a href=\"https://maps.google.com/maps/contrib/105729003964565177505\">HI New York City Hostel</a>"
          ],
          "photo_reference": "AeJbb3ciFJvUXlg-XBYWi7daltb5NQDpgfcJTRAe1zbqlrzRhOn0dcu0u83NpIBq358mQhSqq8wKXh9Bb-X_BgNHF3R3H-cUkarg9lLvMEuJpag-MPT9Xcon5eOV1MiCSzQ0toW_Wr_6EzGl5VKS632uA15Y-JZTI3jvIsk1LE8Xeo7EXFxl",
          "width": 640
        }
      ],
      "place_id": "ChIJOwc3aCT2wokRZGbII0D83Mk",
      "plus_code": {
        "compound_code": "Q2XM+F8 \u7f8e\u570b\u7d10\u7d04",
        "global_code": "87G8Q2XM+F8"
      },
      "rating": 4.4,
      "reference": "ChIJOwc3aCT2wokRZGbII0D83Mk",
      "scope": "GOOGLE",
      "types": [
        "lodging",
        "point_of_interest",
        "establishment"
      ],
      "user_ratings_total": 3086,
      "vicinity": "891 Amsterdam Avenue, New York"
    },
    {
      "business_status": "OPERATIONAL",
      "geometry": {
        "location": {
          "lat": 40.798094,
          "lng": -73.960939
        },
        "viewport": {
          "northeast": {
            "lat": 40.7995493302915,
            "lng": -73.9595125697085
          },
          "southwest": {
            "lat": 40.7968513697085,
            "lng": -73.9622105302915
          }
        }
      },
      "icon": "https://maps.gstatic.com/mapfiles/place_api/icons/v1/png_71/lodging-71.png",
      "icon_background_color": "#909CE1",
      "icon_mask_base_uri": "https://maps.gstatic.com/mapfiles/place_api/icons/v2/hotel_pinlet",
      "name": "Jazz on The Park Hostel",
      "opening_hours": {
        "open_now": true
      },
      "photos": [
        {
          "height": 4032,
          "html_attributions": [
            "<a href=\"https://maps.google.com/maps/contrib/109343603829005625493\">Miguel Benitez</a>"
          ],
          "photo_reference": "AeJbb3e2ZPZfQkLAWEWAYeAkD5_Dy7OIA6HqhQdSmRiTGmdbqna2f32sXDKsYBWiaHwki5xjtv0IP_tIu9701S8VBfk0tuzrMx9ooJ0zo6_0xUC0cH4PMlIaNr3ChOJxYcy2cXKZKZwHeB07FtoTwwq5WGJhpXisBYcAhP-U56qarIsQ7hUT",
          "width": 3024
        }
      ],
      "place_id": "ChIJl4z0ZyL2wokRhpZ5rNVeqRQ",
      "plus_code": {
        "compound_code": "Q2XQ+6J \u7f8e\u570b\u7d10\u7d04",
        "global_code": "87G8Q2XQ+6J"
      },
      "rating": 3.2,
      "reference": "ChIJl4z0ZyL2wokRhpZ5rNVeqRQ",
      "scope": "GOOGLE",
      "types": [
        "lodging",
        "point_of_interest",
        "establishment"
      ],
      "user_ratings_total": 707,
      "vicinity": "36 West 106th Street, New York"
    },
    {
      "business_status": "OPERATIONAL",
      "geometry": {
        "location": {
          "lat": 40.7947215,
          "lng": -73.9665356
        },
        "viewport": {
          "northeast": {
            "lat": 40.7960831802915,
            "lng": -73.96505166970849
          },
          "southwest": {
            "lat": 40.7933852197085,
            "lng": -73.9677496302915
          }
        }
      },
      "icon": "https://maps.gstatic.com/mapfiles/place_api/icons/v1/png_71/parking-71.png",
      "icon_background_color": "#7B9EB0",
      "icon_mask_base_uri": "https://maps.gstatic.com/mapfiles/place_api/icons/v2/parking_pinlet",
      "name": "Quik Park 808 Garage LLC",
      "opening_hours": {
        "open_now": true
      },
      "place_id": "ChIJ-6ZxFif2wokRaUd9SxWrAUM",
      "plus_code": {
        "compound_code": "Q2VM+V9 \u7f8e\u570b\u7d10\u7d04",
        "global_code": "87G8Q2VM+V9"
      },
      "rating": 3.4,
      "reference": "ChIJ-6ZxFif2wokRaUd9SxWrAUM",
      "scope": "GOOGLE",
      "types": [
        "parking",
        "point_of_interest",
        "establishment"
      ],
      "user_ratings_total": 10,
      "vicinity": "808 Columbus Avenue, New York"
    },
    {
      "business_status": "OPERATIONAL",
      "geometry": {
        "location": {
          "lat": 40.7946826,
          "lng": -73.966641
        },
        "viewport": {
          "northeast": {
            "lat": 40.79557913029151,
            "lng": -73.9656022697085
          },
          "southwest": {
            "lat": 40.79288116970851,
            "lng": -73.9683002302915
          }
        }
      },
      "icon": "https://maps.gstatic.com/mapfiles/place_api/icons/v1/png_71/generic_business-71.png",
      "icon_background_color": "#7B9EB0",
      "icon_mask_base_uri": "https://maps.gstatic.com/mapfiles/place_api/icons/v2/generic_pinlet",
      "name": "Columbus Square",
      "opening_hours": {
        "open_now": true
      },
      "photos": [
        {
          "height": 800,
          "html_attributions": [
            "<a href=\"https://maps.google.com/maps/contrib/105757902910674900229\">Columbus Square</a>"
          ],
          "photo_reference": "AeJbb3e9t_Cv02MrGcFXD2Z4xBN8TUw4MsIom4Mm_8aZgm8o4I39W9Wl4YXaEyPjT5F4MRZPlV6_cZiFiGMs_9k7ZR1byVHLVq9xJceZciFULLaFHrTwcyQLHB916IsunfQP2CRfXbHufDIEasoGqHqh0487dIAy_-UeKQ6OEiBO4FnDJEco",
          "width": 1150
        }
      ],
      "place_id": "ChIJ80_1ICf2wokRoKC5Fh2SIJQ",
      "plus_code": {
        "compound_code": "Q2VM+V8 \u7f8e\u570b\u7d10\u7d04",
        "global_code": "87G8Q2VM+V8"
      },
      "rating": 4.8,
      "reference": "ChIJ80_1ICf2wokRoKC5Fh2SIJQ",
      "scope": "GOOGLE",
      "types": [
        "point_of_interest",
        "establishment"
      ],
      "user_ratings_total": 182,
      "vicinity": "808 Columbus Avenue, New York"
    },
    {
      "business_status": "OPERATIONAL",
      "geometry": {
        "location": {
          "lat": 40.79489239999999,
          "lng": -73.9663853
        },
        "viewport": {
          "northeast": {
            "lat": 40.7965998802915,
            "lng": -73.96490716970848
          },
          "southwest": {
            "lat": 40.7939019197085,
            "lng": -73.9676051302915
          }
        }
      },
      "icon": "https://maps.gstatic.com/mapfiles/place_api/icons/v1/png_71/shopping-71.png",
      "icon_background_color": "#4B96F3",
      "icon_mask_base_uri": "https://maps.gstatic.com/mapfiles/place_api/icons/v2/shopping_pinlet",
      "name": "T.J. Maxx",
      "opening_hours": {
        "open_now": true
      },
      "photos": [
        {
          "height": 2592,
          "html_attributions": [
            "<a href=\"https://maps.google.com/maps/contrib/102493823871712619373\">Kenneth Tangerois3 Maroc</a>"
          ],
          "photo_reference": "AeJbb3cKG4zTkDEXM_hHdcL_3Mss5XSmXMsiRUZhxxA6GmthY_6VezELhuYzDF_UegfQSQoc3PyHixOP0CynQQyRiqVeUheDyTFD6nWXxw3_RR_JW6ZBeWnReHzus3FXc9npap-OTodBYQ8AO63UdddPY3H-3zn1lEnLf9JbcvGIcgCmHfw",
          "width": 1936
        }
      ],
      "place_id": "ChIJ-6ZxFif2wokRqTqMOeNHhDk",
      "plus_code": {
        "compound_code": "Q2VM+XC \u7f8e\u570b\u7d10\u7d04",
        "global_code": "87G8Q2VM+XC"
      },
      "price_level": 1,
      "rating": 4.4,
      "reference": "ChIJ-6ZxFif2wokRqTqMOeNHhDk",
      "scope": "GOOGLE",
      "types": [
        "department_store",
        "jewelry_store",
        "clothing_store",
        "store",
        "point_of_interest",
        "establishment"
      ],
      "user_ratings_total": 1205,
      "vicinity": "808 Columbus Avenue, New York"
    },
    {
      "business_status": "OPERATIONAL",
      "geometry": {
        "location": {
          "lat": 40.79847559999999,
          "lng": -73.95993039999999
        },
        "viewport": {
          "northeast": {
            "lat": 40.7997944302915,
            "lng": -73.95850891970849
          },
          "southwest": {
            "lat": 40.7970964697085,
            "lng": -73.9612068802915
          }
        }
      },
      "icon": "https://maps.gstatic.com/mapfiles/place_api/icons/v1/png_71/lodging-71.png",
      "icon_background_color": "#909CE1",
      "icon_mask_base_uri": "https://maps.gstatic.com/mapfiles/place_api/icons/v2/hotel_pinlet",
      "name": "The Park West Hotel",
      "photos": [
        {
          "height": 626,
          "html_attributions": [
            "<a href=\"https://maps.google.com/maps/contrib/112188367350064437877\">The Park West Hotel</a>"
          ],
          "photo_reference": "AeJbb3cENd4QtvnLVE-X_jXVMKSHjdJNC5So6tsQ5jeNZatgtcsSyds5PxfZh20Qm3bkG9Gxy7V4MYr_70006VCcRFBcdK-PZelS8IjbYmA1kN07XwZiKGKUn56z5a1-ZF2U6QGFvexXJ4RuVpCN5rL63NPcCUZBVvzuzD1jWEt4N4HFOpwM",
          "width": 626
        }
      ],
      "place_id": "ChIJsZL1fCL2wokRxVli412A6og",
      "plus_code": {
        "compound_code": "Q2XR+92 \u7f8e\u570b\u7d10\u7d04",
        "global_code": "87G8Q2XR+92"
      },
      "rating": 2.8,
      "reference": "ChIJsZL1fCL2wokRxVli412A6og",
      "scope": "GOOGLE",
      "types": [
        "lodging",
        "point_of_interest",
        "establishment"
      ],
      "user_ratings_total": 901,
      "vicinity": "465 Central Park West #3851, New York"
    },
    {
      "business_status": "CLOSED_TEMPORARILY",
      "geometry": {
        "location": {
          "lat": 40.79465829999999,
          "lng": -73.96662770000002
        },
        "viewport": {
          "northeast": {
            "lat": 40.7960442302915,
            "lng": -73.9651037697085
          },
          "southwest": {
            "lat": 40.7933462697085,
            "lng": -73.96780173029153
          }
        }
      },
      "icon": "https://maps.gstatic.com/mapfiles/place_api/icons/v1/png_71/generic_business-71.png",
      "icon_background_color": "#7B9EB0",
      "icon_mask_base_uri": "https://maps.gstatic.com/mapfiles/place_api/icons/v2/generic_pinlet",
      "name": "LocalOnSpot",
      "permanently_closed": true,
      "place_id": "ChIJ80_1ICf2wokRpujKyej76DQ",
      "plus_code": {
        "compound_code": "Q2VM+V8 \u7f8e\u570b\u7d10\u7d04",
        "global_code": "87G8Q2VM+V8"
      },
      "reference": "ChIJ80_1ICf2wokRpujKyej76DQ",
      "scope": "GOOGLE",
      "types": [
        "point_of_interest",
        "establishment"
      ],
      "vicinity": "808 Columbus Avenue #23G, New York"
    },
    {
      "business_status": "OPERATIONAL",
      "geometry": {
        "location": {
          "lat": 40.7938269,
          "lng": -73.9665529
        },
        "viewport": {
          "northeast": {
            "lat": 40.79522268029151,
            "lng": -73.9653125697085
          },
          "southwest": {
            "lat": 40.79252471970851,
            "lng": -73.96801053029151
          }
        }
      },
      "icon": "https://maps.gstatic.com/mapfiles/place_api/icons/v1/png_71/restaurant-71.png",
      "icon_background_color": "#FF9E67",
      "icon_mask_base_uri": "https://maps.gstatic.com/mapfiles/place_api/icons/v2/restaurant_pinlet",
      "name": "Make My Cake",
      "opening_hours": {
        "open_now": true
      },
      "photos": [
        {
          "height": 510,
          "html_attributions": [
            "<a href=\"https://maps.google.com/maps/contrib/114877616331822840397\">Make My Cake</a>"
          ],
          "photo_reference": "AeJbb3cfL_H_WGAqCIYao23dlNlvlnK_ledyeSbov-M4kuzG4CkV6KS7hpa44DcivYFghv10SNIgifWa2M2P7ChJgKmkxsuq8uZPe_lSiUKIFRVE3MRNQvrqHyoNlb0dE_4JKZ9TFytGimuR0xfNC2MzW_yXJe3EMpWc72pLdNw3xMRPNDrp",
          "width": 683
        }
      ],
      "place_id": "ChIJNwcgOhH2wokRtiA9lKM5egc",
      "plus_code": {
        "compound_code": "Q2VM+G9 \u7f8e\u570b\u7d10\u7d04",
        "global_code": "87G8Q2VM+G9"
      },
      "price_level": 2,
      "rating": 3.9,
      "reference": "ChIJNwcgOhH2wokRtiA9lKM5egc",
      "scope": "GOOGLE",
      "types": [
        "bakery",
        "store",
        "food",
        "point_of_interest",
        "establishment"
      ],
      "user_ratings_total": 237,
      "vicinity": "775 Columbus Avenue, New York"
    },
    {
      "business_status": "OPERATIONAL",
      "geometry": {
        "location": {
          "lat": 40.79668499999999,
          "lng": -73.9625822
        },
        "viewport": {
          "northeast": {
            "lat": 40.79798093029149,
            "lng": -73.9611982197085
          },
          "southwest": {
            "lat": 40.7952829697085,
            "lng": -73.96389618029151
          }
        }
      },
      "icon": "https://maps.gstatic.com/mapfiles/place_api/icons/v1/png_71/lodging-71.png",
      "icon_background_color": "#909CE1",
      "icon_mask_base_uri": "https://maps.gstatic.com/mapfiles/place_api/icons/v2/hotel_pinlet",
      "name": "Central Park Apartments",
      "photos": [
        {
          "height": 1080,
          "html_attributions": [
            "<a href=\"https://maps.google.com/maps/contrib/100817774440817334553\">John Smith</a>"
          ],
          "photo_reference": "AeJbb3dvI1rgRJnI_hL-ZpLehIf57gc0SpjW-js6enQTG1wO9RLLRVvjy0qowYU7WMArxZO3UmG9ZL4lUTB2skO8VHr5BNSVn_68u5_Yty1FnU3bArmlOQaFJ6dV38n03nWJqqS1LrZDJBe9_PwBLBlqlHEEkshTcs878DZexbNahlGGH7KF",
          "width": 1920
        }
      ],
      "place_id": "ChIJmdCc1SP2wokRK9kQWlKfokI",
      "plus_code": {
        "compound_code": "Q2WP+MX \u7f8e\u570b\u7d10\u7d04",
        "global_code": "87G8Q2WP+MX"
      },
      "rating": 3.8,
      "reference": "ChIJmdCc1SP2wokRK9kQWlKfokI",
      "scope": "GOOGLE",
      "types": [
        "lodging",
        "point_of_interest",
        "establishment"
      ],
      "user_ratings_total": 49,
      "vicinity": "19 West 103rd Street Suite 503, New York"
    },
    {
      "business_status": "OPERATIONAL",
      "geometry": {
        "location": {
          "lat": 40.7939667,
          "lng": -73.9671163
        },
        "viewport": {
          "northeast": {
            "lat": 40.7952682302915,
            "lng": -73.9656122697085
          },
          "southwest": {
            "lat": 40.7925702697085,
            "lng": -73.96831023029151
          }
        }
      },
      "icon": "https://maps.gstatic.com/mapfiles/place_api/icons/v1/png_71/shopping-71.png",
      "icon_background_color": "#4B96F3",
      "icon_mask_base_uri": "https://maps.gstatic.com/mapfiles/place_api/icons/v2/shoppingcart_pinlet",
      "name": "Whole Foods Market",
      "opening_hours": {
        "open_now": true
      },
      "photos": [
        {
          "height": 3024,
          "html_attributions": [
            "<a href=\"https://maps.google.com/maps/contrib/116508613387585310062\">Shachar Ashkenazi</a>"
          ],
          "photo_reference": "AeJbb3ctUIv7doXs4rNUkdfzXmMnjuIXN2OSu_cvGItvYjrdQdJWTUY09EOXHdVW3nP3fZeNmw3h75p2cJN_oLbHBaA73p7OQPwrk1mqBywP_sRmlbUa2zbN6jn7mOAV_Cuv1Gz_KpMPb5EnNBviPG1X7JKPh2m41tpTsDRM7uW-KMcVdtRJ",
          "width": 4032
        }
      ],
      "place_id": "ChIJ-6ZxFif2wokRaRaETTJc_9Q",
      "plus_code": {
        "compound_code": "Q2VM+H5 \u7f8e\u570b\u7d10\u7d04",
        "global_code": "87G8Q2VM+H5"
      },
      "price_level": 2,
      "rating": 4.2,
      "reference": "ChIJ-6ZxFif2wokRaRaETTJc_9Q",
      "scope": "GOOGLE",
      "types": [
        "grocery_or_supermarket",
        "supermarket",
        "store",
        "health",
        "food",
        "point_of_interest",
        "establishment"
      ],
      "user_ratings_total": 2244,
      "vicinity": "808 Columbus Avenue, New York"
    },
    {
      "business_status": "OPERATIONAL",
      "geometry": {
        "location": {
          "lat": 40.7947802,
          "lng": -73.9663988
        },
        "viewport": {
          "northeast": {
            "lat": 40.7960993802915,
            "lng": -73.9649420197085
          },
          "southwest": {
            "lat": 40.7934014197085,
            "lng": -73.96763998029151
          }
        }
      },
      "icon": "https://maps.gstatic.com/mapfiles/place_api/icons/v1/png_71/shopping-71.png",
      "icon_background_color": "#4B96F3",
      "icon_mask_base_uri": "https://maps.gstatic.com/mapfiles/place_api/icons/v2/shopping_pinlet",
      "name": "SEPHORA",
      "opening_hours": {
        "open_now": true
      },
      "photos": [
        {
          "height": 4032,
          "html_attributions": [
            "<a href=\"https://maps.google.com/maps/contrib/109896805750470100724\">Maria Eugenia</a>"
          ],
          "photo_reference": "AeJbb3clGdq7If2pDC-Q1kEInCzr2gfVJQTK3HUhwR99Q7N-7hveM2g4GZ8YazMdYlY_PQOkO6qDCqGZWky7U0vKtPExPx7-wPzZoULFml-TRi2wLaQNe4RPdIFN7xXAsTPxhJ1J6qO0AUMkDe1m2gptYgWgG906y8xXNp8bc-DSQChF1p7Q",
          "width": 3024
        }
      ],
      "place_id": "ChIJ-6ZxFif2wokRbfUmp2gH3nc",
      "plus_code": {
        "compound_code": "Q2VM+WC \u7f8e\u570b\u7d10\u7d04",
        "global_code": "87G8Q2VM+WC"
      },
      "price_level": 3,
      "rating": 4,
      "reference": "ChIJ-6ZxFif2wokRbfUmp2gH3nc",
      "scope": "GOOGLE",
      "types": [
        "clothing_store",
        "store",
        "point_of_interest",
        "establishment"
      ],
      "user_ratings_total": 218,
      "vicinity": "808 Columbus Avenue, New York"
    },
    {
      "business_status": "CLOSED_TEMPORARILY",
      "geometry": {
        "location": {
          "lat": 40.7942319,
          "lng": -73.963672
        },
        "viewport": {
          "northeast": {
            "lat": 40.7957018302915,
            "lng": -73.9622358197085
          },
          "southwest": {
            "lat": 40.79300386970851,
            "lng": -73.9649337802915
          }
        }
      },
      "icon": "https://maps.gstatic.com/mapfiles/place_api/icons/v1/png_71/generic_business-71.png",
      "icon_background_color": "#7B9EB0",
      "icon_mask_base_uri": "https://maps.gstatic.com/mapfiles/place_api/icons/v2/generic_pinlet",
      "name": "Ashland Hercules",
      "permanently_closed": true,
      "place_id": "ChIJ7-K54SD2wokRoSNEOwXBO6g",
      "plus_code": {
        "compound_code": "Q2VP+MG \u7f8e\u570b\u7d10\u7d04",
        "global_code": "87G8Q2VP+MG"
      },
      "reference": "ChIJ7-K54SD2wokRoSNEOwXBO6g",
      "scope": "GOOGLE",
      "types": [
        "lawyer",
        "point_of_interest",
        "establishment"
      ],
      "vicinity": "400 Central Park West, New York"
    },
    {
      "business_status": "OPERATIONAL",
      "geometry": {
        "location": {
          "lat": 40.79464979999999,
          "lng": -73.9659842
        },
        "viewport": {
          "northeast": {
            "lat": 40.7959645802915,
            "lng": -73.96476011970849
          },
          "southwest": {
            "lat": 40.7932666197085,
            "lng": -73.96745808029151
          }
        }
      },
      "icon": "https://maps.gstatic.com/mapfiles/place_api/icons/v1/png_71/shopping-71.png",
      "icon_background_color": "#4B96F3",
      "icon_mask_base_uri": "https://maps.gstatic.com/mapfiles/place_api/icons/v2/shopping_pinlet",
      "name": "HomeGoods",
      "opening_hours": {
        "open_now": true
      },
      "photos": [
        {
          "height": 3024,
          "html_attributions": [
            "<a href=\"https://maps.google.com/maps/contrib/107068838566965446335\">Moe Friedman</a>"
          ],
          "photo_reference": "AeJbb3fuQHavDHisadnqB23y5zM40h-LlcwcGpXCvKLiNvQnp0KhGpCRPezVBdHIcqlJcaygPlbVJIk2qOAH6c8LGdXGrpwGaDMcOmS5QVja-VGNxG5zLaBZRBkmFVBTlVP9ttHaBYqnXiSRd_lOCxQfcrjeu0q87uzaq5RmBQDA2CuXEe2w",
          "width": 4032
        }
      ],
      "place_id": "ChIJCXgc0Sb2wokRjVr7qx9-YPM",
      "plus_code": {
        "compound_code": "Q2VM+VJ \u7f8e\u570b\u7d10\u7d04",
        "global_code": "87G8Q2VM+VJ"
      },
      "price_level": 1,
      "rating": 4.4,
      "reference": "ChIJCXgc0Sb2wokRjVr7qx9-YPM",
      "scope": "GOOGLE",
      "types": [
        "department_store",
        "furniture_store",
        "home_goods_store",
        "store",
        "point_of_interest",
        "establishment"
      ],
      "user_ratings_total": 1103,
      "vicinity": "795 Columbus Avenue, New York"
    },
    {
      "business_status": "OPERATIONAL",
      "geometry": {
        "location": {
          "lat": 40.8001586,
          "lng": -73.9654426
        },
        "viewport": {
          "northeast": {
            "lat": 40.8015578802915,
            "lng": -73.96405556970849
          },
          "southwest": {
            "lat": 40.79885991970851,
            "lng": -73.9667535302915
          }
        }
      },
      "icon": "https://maps.gstatic.com/mapfiles/place_api/icons/v1/png_71/shopping-71.png",
      "icon_background_color": "#4B96F3",
      "icon_mask_base_uri": "https://maps.gstatic.com/mapfiles/place_api/icons/v2/shopping_pinlet",
      "name": "Morra Designs",
      "opening_hours": {
        "open_now": false
      },
      "place_id": "ChIJtfAlsP9YwokRme6BfAuzdMw",
      "plus_code": {
        "compound_code": "R22M+3R \u7f8e\u570b\u7d10\u7d04",
        "global_code": "87G8R22M+3R"
      },
      "rating": 5,
      "reference": "ChIJtfAlsP9YwokRme6BfAuzdMw",
      "scope": "GOOGLE",
      "types": [
        "jewelry_store",
        "store",
        "point_of_interest",
        "establishment"
      ],
      "user_ratings_total": 3,
      "vicinity": "160 West 106th Street, New York"
    },
    {
      "business_status": "OPERATIONAL",
      "geometry": {
        "location": {
          "lat": 40.800712,
          "lng": -73.965273
        },
        "viewport": {
          "northeast": {
            "lat": 40.80210773029149,
            "lng": -73.9640190697085
          },
          "southwest": {
            "lat": 40.79940976970849,
            "lng": -73.96671703029152
          }
        }
      },
      "icon": "https://maps.gstatic.com/mapfiles/place_api/icons/v1/png_71/restaurant-71.png",
      "icon_background_color": "#FF9E67",
      "icon_mask_base_uri": "https://maps.gstatic.com/mapfiles/place_api/icons/v2/restaurant_pinlet",
      "name": "Awash Ethiopian Restaurant",
      "opening_hours": {
        "open_now": false
      },
      "photos": [
        {
          "height": 3024,
          "html_attributions": [
            "<a href=\"https://maps.google.com/maps/contrib/100627893970968707991\">Ruth</a>"
          ],
          "photo_reference": "AeJbb3eNjZOz_5qtRydXyWWpE7xsnWaETKFCZWSgfSLCuJ5h3lECZEG4dEdX0266A9QCNeMtcmZdi_ZsrnyLb5N40dXn54nXLrD60Igernsz1qum3lkyOIu7MjMJnbXYPnTLur0bNqQYMdpwH0aDWXMuT1Sl12z0gQCnnV0Jnir3ZcX_Tp40",
          "width": 4032
        }
      ],
      "place_id": "ChIJTxiNYCP2wokRz8bUSToPz-k",
      "plus_code": {
        "compound_code": "R22M+7V \u7f8e\u570b\u7d10\u7d04",
        "global_code": "87G8R22M+7V"
      },
      "price_level": 2,
      "rating": 4.4,
      "reference": "ChIJTxiNYCP2wokRz8bUSToPz-k",
      "scope": "GOOGLE",
      "types": [
        "meal_takeaway",
        "restaurant",
        "food",
        "point_of_interest",
        "establishment"
      ],
      "user_ratings_total": 509,
      "vicinity": "947 Amsterdam Avenue, New York"
    },
    {
      "business_status": "OPERATIONAL",
      "geometry": {
        "location": {
          "lat": 40.794212,
          "lng": -73.9636647
        },
        "viewport": {
          "northeast": {
            "lat": 40.7954307802915,
            "lng": -73.9620047697085
          },
          "southwest": {
            "lat": 40.7927328197085,
            "lng": -73.9647027302915
          }
        }
      },
      "icon": "https://maps.gstatic.com/mapfiles/place_api/icons/v1/png_71/generic_business-71.png",
      "icon_background_color": "#7B9EB0",
      "icon_mask_base_uri": "https://maps.gstatic.com/mapfiles/place_api/icons/v2/generic_pinlet",
      "name": "Clear Blue Associates - Executive and Team Coaching",
      "place_id": "ChIJ7-K54SD2wokR1_0zpN7gBks",
      "plus_code": {
        "compound_code": "Q2VP+MG \u7f8e\u570b\u7d10\u7d04",
        "global_code": "87G8Q2VP+MG"
      },
      "rating": 3,
      "reference": "ChIJ7-K54SD2wokR1_0zpN7gBks",
      "scope": "GOOGLE",
      "types": [
        "point_of_interest",
        "establishment"
      ],
      "user_ratings_total": 1,
      "vicinity": "400 Central Park West, New York"
    },
    {
      "business_status": "OPERATIONAL",
      "geometry": {
        "location": {
          "lat": 40.7994158,
          "lng": -73.9679373
        },
        "viewport": {
          "northeast": {
            "lat": 40.8008651302915,
            "lng": -73.96651491970849
          },
          "southwest": {
            "lat": 40.7981671697085,
            "lng": -73.96921288029151
          }
        }
      },
      "icon": "https://maps.gstatic.com/mapfiles/place_api/icons/v1/png_71/school-71.png",
      "icon_background_color": "#7B9EB0",
      "icon_mask_base_uri": "https://maps.gstatic.com/mapfiles/place_api/icons/v2/school_pinlet",
      "name": "New York Language Center",
      "opening_hours": {
        "open_now": false
      },
      "photos": [
        {
          "height": 2142,
          "html_attributions": [
            "<a href=\"https://maps.google.com/maps/contrib/116541213602512632803\">New York Language Center</a>"
          ],
          "photo_reference": "AeJbb3c_0arBesh1JmeDel2xZnZrw-hlH6CP3TbWxsjUmeo761v-qLsWtw38Tdsflk4ePDHV738xRH21dLNRtetzvLty8EH3XCRr-hHcmgvQuCosewMISgHR3PfFyUROWnujbizbViUHdqkU8r5cayRmyOlKO-KGQGDbjk5Gb1n_1yMPlyMj",
          "width": 3363
        }
      ],
      "place_id": "ChIJEUhCDib2wokRCOwyKyFmOt4",
      "plus_code": {
        "compound_code": "Q2XJ+QR \u7f8e\u570b\u7d10\u7d04",
        "global_code": "87G8Q2XJ+QR"
      },
      "rating": 4.7,
      "reference": "ChIJEUhCDib2wokRCOwyKyFmOt4",
      "scope": "GOOGLE",
      "types": [
        "school",
        "point_of_interest",
        "establishment"
      ],
      "user_ratings_total": 138,
      "vicinity": "2710 Broadway 2nd Floor, New York"
    },
    {
      "business_status": "CLOSED_TEMPORARILY",
      "geometry": {
        "location": {
          "lat": 40.79585099999999,
          "lng": -73.9676214
        },
        "viewport": {
          "northeast": {
            "lat": 40.79739258029149,
            "lng": -73.9661523197085
          },
          "southwest": {
            "lat": 40.79469461970849,
            "lng": -73.9688502802915
          }
        }
      },
      "icon": "https://maps.gstatic.com/mapfiles/place_api/icons/v1/png_71/school-71.png",
      "icon_background_color": "#7B9EB0",
      "icon_mask_base_uri": "https://maps.gstatic.com/mapfiles/place_api/icons/v2/school_pinlet",
      "name": "Bloomingdale Library",
      "permanently_closed": true,
      "photos": [
        {
          "height": 2988,
          "html_attributions": [
            "<a href=\"https://maps.google.com/maps/contrib/107542443173392886540\">Al Cohen</a>"
          ],
          "photo_reference": "AeJbb3c_lQHwqC4dl7oF6z1UfKFupdwhOze-UM4S21GGu3WwaK0kOjkqK6r2bMxiBJ66SkWGeHf-Btw-RUEwQqSa05qzj7pOb02xOfLQ5pGRdxxtwfY8nxWBmgbKyBrQtWLhp-pKQ-8unD3ans1ZL8eNgWa3aHWHKSHlO6OVgtN5MvMwkIjy",
          "width": 5312
        }
      ],
      "place_id": "ChIJ6SGU8yb2wokRmPVa0OGGWD4",
      "plus_code": {
        "compound_code": "Q2WJ+8X \u7f8e\u570b\u7d10\u7d04",
        "global_code": "87G8Q2WJ+8X"
      },
      "rating": 4.4,
      "reference": "ChIJ6SGU8yb2wokRmPVa0OGGWD4",
      "scope": "GOOGLE",
      "types": [
        "library",
        "point_of_interest",
        "establishment"
      ],
      "user_ratings_total": 77,
      "vicinity": "150 West 100th Street, New York"
    },
    {
      "geometry": {
        "location": {
          "lat": 40.7830603,
          "lng": -73.9712488
        },
        "viewport": {
          "northeast": {
            "lat": 40.820045,
            "lng": -73.90331300000001
          },
          "southwest": {
            "lat": 40.698078,
            "lng": -74.03514899999999
          }
        }
      },
      "icon": "https://maps.gstatic.com/mapfiles/place_api/icons/v1/png_71/geocode-71.png",
      "icon_background_color": "#7B9EB0",
      "icon_mask_base_uri": "https://maps.gstatic.com/mapfiles/place_api/icons/v2/generic_pinlet",
      "name": "\u66fc\u54c8\u9813",
      "photos": [
        {
          "height": 1199,
          "html_attributions": [
            "<a href=\"https://maps.google.com/maps/contrib/108803842220307386999\">Debeli Atleti\u010dar</a>"
          ],
          "photo_reference": "AeJbb3cuyd89i1_kCo9L-ywQitRSG3y4gPogzfleg_xM8vHsSTVgDcEE0a3WA95cRaPtXc1SEEYkAbM-Q0rgh92FKuAZtubqQUcX2FALUqIr4yFKxOxbHFAKqVjrA7G0HnDmuGj-pP23K6eL12fkFRIBMhY4ucD3PX-XcJ_gZydfOmgnZo_p",
          "width": 1800
        }
      ],
      "place_id": "ChIJYeZuBI9YwokRjMDs_IEyCwo",
      "reference": "ChIJYeZuBI9YwokRjMDs_IEyCwo",
      "scope": "GOOGLE",
      "types": [
        "sublocality_level_1",
        "sublocality",
        "political"
      ],
      "vicinity": "\u66fc\u54c8\u9813"
    },
    {
      "business_status": "OPERATIONAL",
      "geometry": {
        "location": {
          "lat": 40.7980397,
          "lng": -73.968969
        },
        "viewport": {
          "northeast": {
            "lat": 40.7992334302915,
            "lng": -73.96773236970849
          },
          "southwest": {
            "lat": 40.7965354697085,
            "lng": -73.97043033029149
          }
        }
      },
      "icon": "https://maps.gstatic.com/mapfiles/place_api/icons/v1/png_71/restaurant-71.png",
      "icon_background_color": "#FF9E67",
      "icon_mask_base_uri": "https://maps.gstatic.com/mapfiles/place_api/icons/v2/restaurant_pinlet",
      "name": "Broadway Restaurant",
      "opening_hours": {
        "open_now": true
      },
      "photos": [
        {
          "height": 3024,
          "html_attributions": [
            "<a href=\"https://maps.google.com/maps/contrib/102368380120665232172\">Damian Brooker</a>"
          ],
          "photo_reference": "AeJbb3fDeRVxKtdRanvqeTB51hjh-j_H38aRgTYGBKgNa5yIj81pOCIj04IU3RDP6GboNd_YiYFSPrQQw2aTcqyP44oxu8S8uneBj7viGiiCkbyNliWvp5L7Qi0s9jPdBIv4YogfPB5HZrFV6elSb_w0Vh0RL4L_FHBugTm8ztpOYPdt9Zr2",
          "width": 4032
        }
      ],
      "place_id": "ChIJOSry2iX2wokRJ9svUmQZBQQ",
      "plus_code": {
        "compound_code": "Q2XJ+6C New York, NY, USA",
        "global_code": "87G8Q2XJ+6C"
      },
      "price_level": 1,
      "rating": 4.3,
      "reference": "ChIJOSry2iX2wokRJ9svUmQZBQQ",
      "scope": "GOOGLE",
      "types": [
        "restaurant",
        "food",
        "point_of_interest",
        "establishment"
      ],
      "user_ratings_total": 432,
      "vicinity": "2664 Broadway, New York"
    },
    {
      "business_status": "OPERATIONAL",
      "geometry": {
        "location": {
          "lat": 40.7978438,
          "lng": -73.9699242
        },
        "viewport": {
          "northeast": {
            "lat": 40.7991344302915,
            "lng": -73.96844586970849
          },
          "southwest": {
            "lat": 40.7964364697085,
            "lng": -73.97114383029151
          }
        }
      },
      "icon": "https://maps.gstatic.com/mapfiles/place_api/icons/v1/png_71/restaurant-71.png",
      "icon_background_color": "#FF9E67",
      "icon_mask_base_uri": "https://maps.gstatic.com/mapfiles/place_api/icons/v2/restaurant_pinlet",
      "name": "Flor de Mayo",
      "opening_hours": {
        "open_now": true
      },
      "photos": [
        {
          "height": 2160,
          "html_attributions": [
            "<a href=\"https://maps.google.com/maps/contrib/106315897177838432705\">Sergio Morel</a>"
          ],
          "photo_reference": "AeJbb3ddsuEBTRHA01EhAwf8MWlbKq-J-SsJNg1K1RBP_qiC_LkWZ1NYBGgy9vBgI8I0OOUQnKIJlJvAME4I5hJITDRiDrpDL5P7FvzXKhsWz81VbbH59Y77CHsRKdnog7nViIT8zELaKzItmRyP7gRiSHkaQvqhXmXMreKfgEctli-FE4fV",
          "width": 3840
        }
      ],
      "place_id": "ChIJccb94CX2wokRETIajBqC4tE",
      "plus_code": {
        "compound_code": "Q2XJ+42 New York, NY, USA",
        "global_code": "87G8Q2XJ+42"
      },
      "price_level": 2,
      "rating": 4.4,
      "reference": "ChIJccb94CX2wokRETIajBqC4tE",
      "scope": "GOOGLE",
      "types": [
        "restaurant",
        "food",
        "point_of_interest",
        "establishment"
      ],
      "user_ratings_total": 2457,
      "vicinity": "2651 Broadway, New York"
    },
    {
      "business_status": "OPERATIONAL",
      "geometry": {
        "location": {
          "lat": 40.796503,
          "lng": -73.967192
        },
        "viewport": {
          "northeast": {
            "lat": 40.79774518029151,
            "lng": -73.96600176970848
          },
          "southwest": {
            "lat": 40.79504721970851,
            "lng": -73.9686997302915
          }
        }
      },
      "icon": "https://maps.gstatic.com/mapfiles/place_api/icons/v1/png_71/civic_building-71.png",
      "icon_background_color": "#7B9EB0",
      "icon_mask_base_uri": "https://maps.gstatic.com/mapfiles/place_api/icons/v2/civic-bldg_pinlet",
      "name": "New York Police Department - 24 Precinct",
      "opening_hours": {
        "open_now": true
      },
      "photos": [
        {
          "height": 2988,
          "html_attributions": [
            "<a href=\"https://maps.google.com/maps/contrib/107542443173392886540\">Al Cohen</a>"
          ],
          "photo_reference": "AeJbb3d4rC0UXdsaUyAZGTVCbGvUd5ogU7QJpFN3BgYr5tGVFdvVQSup4FINYISTO-u-k0kzfwfJ-5QPttOEyEinPylVicReSewRtUv6R-coEnQyKfQfeCIm6LyRDp5_7mHqIBPcnQcoDOcyjj4tOP9CIBsrHnWhQ3D6xpvGHlCvKDD_81iC",
          "width": 5312
        }
      ],
      "place_id": "ChIJXTwPJCH2wokRM6uozxxIrog",
      "plus_code": {
        "compound_code": "Q2WM+J4 New York, NY, USA",
        "global_code": "87G8Q2WM+J4"
      },
      "rating": 3,
      "reference": "ChIJXTwPJCH2wokRM6uozxxIrog",
      "scope": "GOOGLE",
      "types": [
        "police",
        "point_of_interest",
        "establishment"
      ],
      "user_ratings_total": 35,
      "vicinity": "151 West 100th Street, New York"
    },
    {
      "business_status": "OPERATIONAL",
      "geometry": {
        "location": {
          "lat": 40.793337,
          "lng": -73.967587
        },
        "viewport": {
          "northeast": {
            "lat": 40.7946300302915,
            "lng": -73.96608551970849
          },
          "southwest": {
            "lat": 40.7919320697085,
            "lng": -73.96878348029149
          }
        }
      },
      "icon": "https://maps.gstatic.com/mapfiles/place_api/icons/v1/png_71/generic_business-71.png",
      "icon_background_color": "#7B9EB0",
      "icon_mask_base_uri": "https://maps.gstatic.com/mapfiles/place_api/icons/v2/generic_pinlet",
      "name": "West 96th Apartments",
      "opening_hours": {
        "open_now": true
      },
      "photos": [
        {
          "height": 1080,
          "html_attributions": [
            "<a href=\"https://maps.google.com/maps/contrib/105021003361401331253\">West 96th Apartments</a>"
          ],
          "photo_reference": "AeJbb3efJoCopPJHM5QK9ttylCGFT-T95RMF0hakG5-L04njqpdXPxwU-Bc0lXlb4O93KbSnSdITeZAtWHghbW8AWxnnAvUifZt-W2yh278RMMLmYoGMD-x1VGI1X3hgLyNxQZD0uWxiWReaO8pwFzeEI3WyoU9pK_rG3MLcHFfMd8oPMMEV",
          "width": 1920
        }
      ],
      "place_id": "ChIJq8owcif2wokRsY8wNSIBaH0",
      "plus_code": {
        "compound_code": "Q2VJ+8X New York, NY, USA",
        "global_code": "87G8Q2VJ+8X"
      },
      "rating": 4.7,
      "reference": "ChIJq8owcif2wokRsY8wNSIBaH0",
      "scope": "GOOGLE",
      "types": [
        "point_of_interest",
        "establishment"
      ],
      "user_ratings_total": 28,
      "vicinity": "750 Columbus Avenue, New York"
    },
    {
      "business_status": "OPERATIONAL",
      "geometry": {
        "location": {
          "lat": 40.79953889999999,
          "lng": -73.9641548
        },
        "viewport": {
          "northeast": {
            "lat": 40.8009386302915,
            "lng": -73.9626900197085
          },
          "southwest": {
            "lat": 40.7982406697085,
            "lng": -73.96538798029151
          }
        }
      },
      "icon": "https://maps.gstatic.com/mapfiles/place_api/icons/v1/png_71/generic_business-71.png",
      "icon_background_color": "#7B9EB0",
      "icon_mask_base_uri": "https://maps.gstatic.com/mapfiles/place_api/icons/v2/generic_pinlet",
      "name": "Dr. Hans Stohrer, MD",
      "place_id": "ChIJY2yHCyP2wokRTehPHDKgd-8",
      "plus_code": {
        "compound_code": "Q2XP+R8 New York, NY, USA",
        "global_code": "87G8Q2XP+R8"
      },
      "reference": "ChIJY2yHCyP2wokRTehPHDKgd-8",
      "scope": "GOOGLE",
      "types": [
        "doctor",
        "health",
        "point_of_interest",
        "establishment"
      ],
      "vicinity": "120 West 106th Street, New York"
    },
    {
      "business_status": "OPERATIONAL",
      "geometry": {
        "location": {
          "lat": 40.79355,
          "lng": -73.965862
        },
        "viewport": {
          "northeast": {
            "lat": 40.7950502802915,
            "lng": -73.96441656970849
          },
          "southwest": {
            "lat": 40.7923523197085,
            "lng": -73.96711453029151
          }
        }
      },
      "icon": "https://maps.gstatic.com/mapfiles/place_api/icons/v1/png_71/generic_business-71.png",
      "icon_background_color": "#7B9EB0",
      "icon_mask_base_uri": "https://maps.gstatic.com/mapfiles/place_api/icons/v2/generic_pinlet",
      "name": "Custom & Private New York Tours Inc",
      "opening_hours": {
        "open_now": true
      },
      "photos": [
        {
          "height": 2448,
          "html_attributions": [
            "<a href=\"https://maps.google.com/maps/contrib/115813736896025586189\">Custom &amp; Private New York Tours Inc</a>"
          ],
          "photo_reference": "AeJbb3edTpY51J364JVXbHaZgoTXqDxFl9pP6DYeBx8LsmgeCVBUTOxNQtuvhHnyDDHZLGx4pHoR0jUQJp7JD3mmmIGziecVYiZ5ENjLW7PredRLyCiYzydiX6Ez1J3V1n1L1mhkePCRUrILoCHay9_fdXWr7veTwodh3DNSjeVq65W36TLS",
          "width": 3264
        }
      ],
      "place_id": "ChIJgbfRMCf2wokRp8uoeQ9eGYA",
      "plus_code": {
        "compound_code": "Q2VM+CM New York, NY, USA",
        "global_code": "87G8Q2VM+CM"
      },
      "rating": 4.9,
      "reference": "ChIJgbfRMCf2wokRp8uoeQ9eGYA",
      "scope": "GOOGLE",
      "types": [
        "travel_agency",
        "point_of_interest",
        "establishment"
      ],
      "user_ratings_total": 43,
      "vicinity": "382 Central Park West, New York"
    },
    {
      "business_status": "OPERATIONAL",
      "geometry": {
        "location": {
          "lat": 40.79713090000001,
          "lng": -73.96678320000001
        },
        "viewport": {
          "northeast": {
            "lat": 40.7986411802915,
            "lng": -73.96532491970852
          },
          "southwest": {
            "lat": 40.79594321970851,
            "lng": -73.96802288029153
          }
        }
      },
      "icon": "https://maps.gstatic.com/mapfiles/place_api/icons/v1/png_71/school-71.png",
      "icon_background_color": "#7B9EB0",
      "icon_mask_base_uri": "https://maps.gstatic.com/mapfiles/place_api/icons/v2/school_pinlet",
      "name": "Edward A. Reynolds West Side High School",
      "photos": [
        {
          "height": 2304,
          "html_attributions": [
            "<a href=\"https://maps.google.com/maps/contrib/106384655658724557680\">Anton G</a>"
          ],
          "photo_reference": "AeJbb3cAxJLvkjnO2M5e6kUFggZ7YwtiE3sCPPc8mK7zugFp74FzNheKnSnkMJHJHELP1jBjHoayo-BH_UfpDWcr3kZEcKQDoQvjNuMLrMSoanG2aQ-fhkHUgPaaCjUvGM6aVZlOeJU8mTJSCMYSAet01EDh3AzWvf7BO5OHN_DCd87mgZ3z",
          "width": 3072
        }
      ],
      "place_id": "ChIJD97GmCb2wokRJDtn8K6uVzc",
      "plus_code": {
        "compound_code": "Q2WM+V7 New York, NY, USA",
        "global_code": "87G8Q2WM+V7"
      },
      "rating": 3.9,
      "reference": "ChIJD97GmCb2wokRJDtn8K6uVzc",
      "scope": "GOOGLE",
      "types": [
        "secondary_school",
        "point_of_interest",
        "school",
        "establishment"
      ],
      "user_ratings_total": 14,
      "vicinity": "140 West 102nd Street, New York"
    },
    {
      "business_status": "OPERATIONAL",
      "geometry": {
        "location": {
          "lat": 40.7955992,
          "lng": -73.96664419999999
        },
        "viewport": {
          "northeast": {
            "lat": 40.79690658029149,
            "lng": -73.96536326970848
          },
          "southwest": {
            "lat": 40.7942086197085,
            "lng": -73.9680612302915
          }
        }
      },
      "icon": "https://maps.gstatic.com/mapfiles/place_api/icons/v1/png_71/generic_business-71.png",
      "icon_background_color": "#7B9EB0",
      "icon_mask_base_uri": "https://maps.gstatic.com/mapfiles/place_api/icons/v2/generic_pinlet",
      "name": "PWV Management",
      "opening_hours": {
        "open_now": true
      },
      "place_id": "ChIJCSUe6Cb2wokRBlGhC_OFo8Y",
      "plus_code": {
        "compound_code": "Q2WM+68 New York, NY, USA",
        "global_code": "87G8Q2WM+68"
      },
      "rating": 2.4,
      "reference": "ChIJCSUe6Cb2wokRBlGhC_OFo8Y",
      "scope": "GOOGLE",
      "types": [
        "point_of_interest",
        "establishment"
      ],
      "user_ratings_total": 7,
      "vicinity": "792 Columbus Avenue, New York"
    },
    {
      "business_status": "CLOSED_TEMPORARILY",
      "geometry": {
        "location": {
          "lat": 40.79953889999999,
          "lng": -73.9641548
        },
        "viewport": {
          "northeast": {
            "lat": 40.8009386302915,
            "lng": -73.9626900197085
          },
          "southwest": {
            "lat": 40.7982406697085,
            "lng": -73.96538798029151
          }
        }
      },
      "icon": "https://maps.gstatic.com/mapfiles/place_api/icons/v1/png_71/generic_business-71.png",
      "icon_background_color": "#7B9EB0",
      "icon_mask_base_uri": "https://maps.gstatic.com/mapfiles/place_api/icons/v2/generic_pinlet",
      "name": "Mathew Shiny M",
      "permanently_closed": true,
      "place_id": "ChIJY2yHCyP2wokRHRQZjKLdT6w",
      "plus_code": {
        "compound_code": "Q2XP+R8 New York, NY, USA",
        "global_code": "87G8Q2XP+R8"
      },
      "reference": "ChIJY2yHCyP2wokRHRQZjKLdT6w",
      "scope": "GOOGLE",
      "types": [
        "point_of_interest",
        "establishment"
      ],
      "vicinity": "120 West 106th Street, New York"
    },
    {
      "business_status": "OPERATIONAL",
      "geometry": {
        "location": {
          "lat": 40.79953889999999,
          "lng": -73.9641548
        },
        "viewport": {
          "northeast": {
            "lat": 40.80096398029149,
            "lng": -73.96275031970849
          },
          "southwest": {
            "lat": 40.79826601970849,
            "lng": -73.9654482802915
          }
        }
      },
      "icon": "https://maps.gstatic.com/mapfiles/place_api/icons/v1/png_71/generic_business-71.png",
      "icon_background_color": "#7B9EB0",
      "icon_mask_base_uri": "https://maps.gstatic.com/mapfiles/place_api/icons/v2/generic_pinlet",
      "name": "Senior Health Partners",
      "place_id": "ChIJcSCXdCP2wokRx8lqzLSuQ80",
      "plus_code": {
        "compound_code": "Q2XP+R8 New York, NY, USA",
        "global_code": "87G8Q2XP+R8"
      },
      "rating": 4,
      "reference": "ChIJcSCXdCP2wokRx8lqzLSuQ80",
      "scope": "GOOGLE",
      "types": [
        "point_of_interest",
        "establishment"
      ],
      "user_ratings_total": 1,
      "vicinity": "120 West 106th Street, New York"
    },
    {
      "business_status": "OPERATIONAL",
      "geometry": {
        "location": {
          "lat": 40.792823,
          "lng": -73.9647354
        },
        "viewport": {
          "northeast": {
            "lat": 40.7941034802915,
            "lng": -73.96344291970848
          },
          "southwest": {
            "lat": 40.7914055197085,
            "lng": -73.96614088029149
          }
        }
      },
      "icon": "https://maps.gstatic.com/mapfiles/place_api/icons/v1/png_71/generic_business-71.png",
      "icon_background_color": "#7B9EB0",
      "icon_mask_base_uri": "https://maps.gstatic.com/mapfiles/place_api/icons/v2/generic_pinlet",
      "name": "Vaux Condominium",
      "photos": [
        {
          "height": 3226,
          "html_attributions": [
            "<a href=\"https://maps.google.com/maps/contrib/115034317907569632101\">Slava Gorodovoy</a>"
          ],
          "photo_reference": "AeJbb3d7leER2nCEoy0w1D1KMmQtZTirSC02T_DnNHX1zbu7Ze9tiPyo8epczRZgOER6SljejQLfQ-h5VoshVNUf4mxn7C62gmgH72t0xJjy55nkdK1KjQ43qZztT--09WXq1fynNN59mdlj1lV52hzyfcbpA3PmKWlLW-52J9dJ9sUZWMrX",
          "width": 3024
        }
      ],
      "place_id": "ChIJ4w-SvCD2wokRvr3Vp2a6Gps",
      "plus_code": {
        "compound_code": "Q2VP+44 New York, NY, USA",
        "global_code": "87G8Q2VP+44"
      },
      "rating": 4.4,
      "reference": "ChIJ4w-SvCD2wokRvr3Vp2a6Gps",
      "scope": "GOOGLE",
      "types": [
        "point_of_interest",
        "establishment"
      ],
      "user_ratings_total": 14,
      "vicinity": "372 Central Park West #12G, New York"
    },
    {
      "business_status": "OPERATIONAL",
      "geometry": {
        "location": {
          "lat": 40.7964671,
          "lng": -73.9688346
        },
        "viewport": {
          "northeast": {
            "lat": 40.7977791302915,
            "lng": -73.96739766970849
          },
          "southwest": {
            "lat": 40.7950811697085,
            "lng": -73.9700956302915
          }
        }
      },
      "icon": "https://maps.gstatic.com/mapfiles/place_api/icons/v1/png_71/worship_general-71.png",
      "icon_background_color": "#7B9EB0",
      "icon_mask_base_uri": "https://maps.gstatic.com/mapfiles/place_api/icons/v2/worship_christian_pinlet",
      "name": "St. Michael's Church",
      "opening_hours": {
        "open_now": false
      },
      "photos": [
        {
          "height": 1536,
          "html_attributions": [
            "<a href=\"https://maps.google.com/maps/contrib/116733651770837702793\">St. Michael&#39;s Church</a>"
          ],
          "photo_reference": "AeJbb3c4zkuVPTBFUtf4J8xPmtT47y5eZDcRej9Cfbac4Tu-ilKWYHGZCPaC0hnNvnj8QwHklYSCxjEjWE8hF_N_IAbPiUCQB-Dhnlni8CY-f1WXW3Mhel8fv3JvVb6YdwTkjIOLY2Mqdkoj2IJPC-9NrfroAF3if1OVyvUATyK56fxPVIGO",
          "width": 2048
        }
      ],
      "place_id": "ChIJlWopXSb2wokRQZ1n-bbuAp4",
      "plus_code": {
        "compound_code": "Q2WJ+HF New York, NY, USA",
        "global_code": "87G8Q2WJ+HF"
      },
      "rating": 4.5,
      "reference": "ChIJlWopXSb2wokRQZ1n-bbuAp4",
      "scope": "GOOGLE",
      "types": [
        "tourist_attraction",
        "church",
        "place_of_worship",
        "point_of_interest",
        "establishment"
      ],
      "user_ratings_total": 77,
      "vicinity": "225 West 99th Street, New York"
    },
    {
      "business_status": "OPERATIONAL",
      "geometry": {
        "location": {
          "lat": 40.7962074,
          "lng": -73.9684211
        },
        "viewport": {
          "northeast": {
            "lat": 40.7974395802915,
            "lng": -73.96732136970849
          },
          "southwest": {
            "lat": 40.7947416197085,
            "lng": -73.97001933029149
          }
        }
      },
      "icon": "https://maps.gstatic.com/mapfiles/place_api/icons/v1/png_71/generic_business-71.png",
      "icon_background_color": "#7B9EB0",
      "icon_mask_base_uri": "https://maps.gstatic.com/mapfiles/place_api/icons/v2/generic_pinlet",
      "name": "Avantus Renal Therapy Upper Manhattan Dialysis Center",
      "opening_hours": {
        "open_now": true
      },
      "photos": [
        {
          "height": 1042,
          "html_attributions": [
            "<a href=\"https://maps.google.com/maps/contrib/105528312280762791833\">Avantus Renal Therapy Upper Manhattan Dialysis Center</a>"
          ],
          "photo_reference": "AeJbb3cumZR1jZ3MBU4EYF0i4Z_WdPZsp9lsgFaG4uwrwV00QIQPLV27xzrmhIyZcYhoHhud2wSUaXEThxtDXU_Mu7n6pq4nz7w5pyqyzFFqDQIaAPLePuhzHLimHNCk1vHfQLR4f3lHXMNFwnGUJSC5dmSQvFdzKyzPhZa9qpZmQlZ-0ikQ",
          "width": 1042
        }
      ],
      "place_id": "ChIJ_y4HX4JYwokRpxIdg59-gMY",
      "plus_code": {
        "compound_code": "Q2WJ+FJ New York, NY, USA",
        "global_code": "87G8Q2WJ+FJ"
      },
      "rating": 5,
      "reference": "ChIJ_y4HX4JYwokRpxIdg59-gMY",
      "scope": "GOOGLE",
      "types": [
        "health",
        "point_of_interest",
        "establishment"
      ],
      "user_ratings_total": 1,
      "vicinity": "801 Amsterdam Avenue, New York"
    },
    {
      "business_status": "OPERATIONAL",
      "geometry": {
        "location": {
          "lat": 40.79953889999999,
          "lng": -73.9641548
        },
        "viewport": {
          "northeast": {
            "lat": 40.8009386302915,
            "lng": -73.9626900197085
          },
          "southwest": {
            "lat": 40.7982406697085,
            "lng": -73.96538798029151
          }
        }
      },
      "icon": "https://maps.gstatic.com/mapfiles/place_api/icons/v1/png_71/generic_business-71.png",
      "icon_background_color": "#7B9EB0",
      "icon_mask_base_uri": "https://maps.gstatic.com/mapfiles/place_api/icons/v2/generic_pinlet",
      "name": "Dr. Martha N. Krenn, MD",
      "place_id": "ChIJY2yHCyP2wokRbayzIJAQJ3Y",
      "plus_code": {
        "compound_code": "Q2XP+R8 New York, NY, USA",
        "global_code": "87G8Q2XP+R8"
      },
      "reference": "ChIJY2yHCyP2wokRbayzIJAQJ3Y",
      "scope": "GOOGLE",
      "types": [
        "doctor",
        "health",
        "point_of_interest",
        "establishment"
      ],
      "vicinity": "120 West 106th Street, New York"
    },
    {
      "business_status": "OPERATIONAL",
      "geometry": {
        "location": {
          "lat": 40.796088,
          "lng": -73.9685192
        },
        "viewport": {
          "northeast": {
            "lat": 40.7975446302915,
            "lng": -73.96730911970849
          },
          "southwest": {
            "lat": 40.7948466697085,
            "lng": -73.97000708029151
          }
        }
      },
      "icon": "https://maps.gstatic.com/mapfiles/place_api/icons/v1/png_71/generic_business-71.png",
      "icon_background_color": "#7B9EB0",
      "icon_mask_base_uri": "https://maps.gstatic.com/mapfiles/place_api/icons/v2/generic_pinlet",
      "name": "RRI UMDC Home",
      "place_id": "ChIJ_y4HX4JYwokR0B-s5m4nbCk",
      "plus_code": {
        "compound_code": "Q2WJ+CH New York, NY, USA",
        "global_code": "87G8Q2WJ+CH"
      },
      "reference": "ChIJ_y4HX4JYwokR0B-s5m4nbCk",
      "scope": "GOOGLE",
      "types": [
        "health",
        "point_of_interest",
        "establishment"
      ],
      "vicinity": "801 Amsterdam Avenue, New York"
    },
    {
      "business_status": "OPERATIONAL",
      "geometry": {
        "location": {
          "lat": 40.8001204,
          "lng": -73.9683901
        },
        "viewport": {
          "northeast": {
            "lat": 40.80137653029151,
            "lng": -73.9669498697085
          },
          "southwest": {
            "lat": 40.79867856970851,
            "lng": -73.9696478302915
          }
        }
      },
      "icon": "https://maps.gstatic.com/mapfiles/place_api/icons/v1/png_71/shopping-71.png",
      "icon_background_color": "#4B96F3",
      "icon_mask_base_uri": "https://maps.gstatic.com/mapfiles/place_api/icons/v2/shopping_pinlet",
      "name": "AT&T Store",
      "opening_hours": {
        "open_now": true
      },
      "photos": [
        {
          "height": 4032,
          "html_attributions": [
            "<a href=\"https://maps.google.com/maps/contrib/109048084333781558163\">AT&amp;T Store</a>"
          ],
          "photo_reference": "AeJbb3enGJWYKYhKULfPCKhFCa1vRYLDCNrZBcI-tbNQmwX34HK7wouNdSQrK6vl5OBsfhZ3HyGcX0TNr11PbumPX_ZQ3P6EO8AKZgSvkWKB3b5CEl5l8UIH-UgC6u5XTV2_nRO4zcrcGzMtdsJ6vvhmLG4zts9l5JGr_AV9V3ng6O1wvN5e",
          "width": 3024
        }
      ],
      "place_id": "ChIJfaz7ASX2wokRWp1xJXvRlpk",
      "plus_code": {
        "compound_code": "R22J+2J New York, NY, USA",
        "global_code": "87G8R22J+2J"
      },
      "price_level": 2,
      "rating": 4.7,
      "reference": "ChIJfaz7ASX2wokRWp1xJXvRlpk",
      "scope": "GOOGLE",
      "types": [
        "store",
        "point_of_interest",
        "establishment"
      ],
      "user_ratings_total": 350,
      "vicinity": "2727 Broadway, New York"
    },
    {
      "business_status": "OPERATIONAL",
      "geometry": {
        "location": {
          "lat": 40.7945333,
          "lng": -73.9649319
        },
        "viewport": {
          "northeast": {
            "lat": 40.79608648029149,
            "lng": -73.96340091970849
          },
          "southwest": {
            "lat": 40.79338851970849,
            "lng": -73.9660988802915
          }
        }
      },
      "icon": "https://maps.gstatic.com/mapfiles/place_api/icons/v1/png_71/generic_business-71.png",
      "icon_background_color": "#13B5C7",
      "icon_mask_base_uri": "https://maps.gstatic.com/mapfiles/place_api/icons/v2/generic_pinlet",
      "name": "Mitton Mark",
      "place_id": "ChIJLVgfKyH2wokRQ2mNBdS9m_0",
      "plus_code": {
        "compound_code": "Q2VP+R2 New York, NY, USA",
        "global_code": "87G8Q2VP+R2"
      },
      "rating": 5,
      "reference": "ChIJLVgfKyH2wokRQ2mNBdS9m_0",
      "scope": "GOOGLE",
      "types": [
        "point_of_interest",
        "establishment"
      ],
      "user_ratings_total": 1,
      "vicinity": "392 Central Park West # 20A, New York"
    },
    {
      "business_status": "OPERATIONAL",
      "geometry": {
        "location": {
          "lat": 40.7945328,
          "lng": -73.96493509999999
        },
        "viewport": {
          "northeast": {
            "lat": 40.7960866802915,
            "lng": -73.9634034697085
          },
          "southwest": {
            "lat": 40.7933887197085,
            "lng": -73.9661014302915
          }
        }
      },
      "icon": "https://maps.gstatic.com/mapfiles/place_api/icons/v1/png_71/generic_business-71.png",
      "icon_background_color": "#7B9EB0",
      "icon_mask_base_uri": "https://maps.gstatic.com/mapfiles/place_api/icons/v2/generic_pinlet",
      "name": "Ross Publishing LLC",
      "place_id": "ChIJLVgfKyH2wokRU6ebcn4mPi4",
      "plus_code": {
        "compound_code": "Q2VP+R2 New York, NY, USA",
        "global_code": "87G8Q2VP+R2"
      },
      "reference": "ChIJLVgfKyH2wokRU6ebcn4mPi4",
      "scope": "GOOGLE",
      "types": [
        "point_of_interest",
        "establishment"
      ],
      "vicinity": "392 Central Park West #20C, New York"
    },
    {
      "business_status": "OPERATIONAL",
      "geometry": {
        "location": {
          "lat": 40.79953889999999,
          "lng": -73.9641548
        },
        "viewport": {
          "northeast": {
            "lat": 40.8009386302915,
            "lng": -73.9626900197085
          },
          "southwest": {
            "lat": 40.7982406697085,
            "lng": -73.96538798029151
          }
        }
      },
      "icon": "https://maps.gstatic.com/mapfiles/place_api/icons/v1/png_71/generic_business-71.png",
      "icon_background_color": "#7B9EB0",
      "icon_mask_base_uri": "https://maps.gstatic.com/mapfiles/place_api/icons/v2/generic_pinlet",
      "name": "Dr. Maria-Jose F. Camargo, MD",
      "place_id": "ChIJY2yHCyP2wokRHJ9s-LIC_wE",
      "plus_code": {
        "compound_code": "Q2XP+R8 New York, NY, USA",
        "global_code": "87G8Q2XP+R8"
      },
      "reference": "ChIJY2yHCyP2wokRHJ9s-LIC_wE",
      "scope": "GOOGLE",
      "types": [
        "doctor",
        "health",
        "point_of_interest",
        "establishment"
      ],
      "vicinity": "120 West 106th Street, New York"
    },
    {
      "business_status": "OPERATIONAL",
      "geometry": {
        "location": {
          "lat": 40.7995561,
          "lng": -73.9640141
        },
        "viewport": {
          "northeast": {
            "lat": 40.8009463302915,
            "lng": -73.9626196697085
          },
          "southwest": {
            "lat": 40.7982483697085,
            "lng": -73.96531763029151
          }
        }
      },
      "icon": "https://maps.gstatic.com/mapfiles/place_api/icons/v1/png_71/generic_business-71.png",
      "icon_background_color": "#7B9EB0",
      "icon_mask_base_uri": "https://maps.gstatic.com/mapfiles/place_api/icons/v2/generic_pinlet",
      "name": "Dr. Judith M. Frank, MD",
      "place_id": "ChIJY2yHCyP2wokRfDYdMVxfkh4",
      "plus_code": {
        "compound_code": "Q2XP+R9 New York, NY, USA",
        "global_code": "87G8Q2XP+R9"
      },
      "reference": "ChIJY2yHCyP2wokRfDYdMVxfkh4",
      "scope": "GOOGLE",
      "types": [
        "doctor",
        "health",
        "point_of_interest",
        "establishment"
      ],
      "vicinity": "120 West 106th Street, New York"
    },
    {
      "business_status": "OPERATIONAL",
      "geometry": {
        "location": {
          "lat": 40.7935638,
          "lng": -73.96568789999999
        },
        "viewport": {
          "northeast": {
            "lat": 40.79503268029151,
            "lng": -73.9642624697085
          },
          "southwest": {
            "lat": 40.79233471970851,
            "lng": -73.96696043029151
          }
        }
      },
      "icon": "https://maps.gstatic.com/mapfiles/place_api/icons/v1/png_71/generic_business-71.png",
      "icon_background_color": "#7B9EB0",
      "icon_mask_base_uri": "https://maps.gstatic.com/mapfiles/place_api/icons/v2/generic_pinlet",
      "name": "Terrie Williams",
      "place_id": "ChIJva_ANif2wokRlxxVnpIdjpw",
      "plus_code": {
        "compound_code": "Q2VM+CP New York, NY, USA",
        "global_code": "87G8Q2VM+CP"
      },
      "reference": "ChIJva_ANif2wokRlxxVnpIdjpw",
      "scope": "GOOGLE",
      "types": [
        "point_of_interest",
        "establishment"
      ],
      "vicinity": "382 Central Park West #17u, New York"
    },
    {
      "business_status": "OPERATIONAL",
      "geometry": {
        "location": {
          "lat": 40.7942319,
          "lng": -73.963672
        },
        "viewport": {
          "northeast": {
            "lat": 40.7957018302915,
            "lng": -73.9622358197085
          },
          "southwest": {
            "lat": 40.79300386970851,
            "lng": -73.9649337802915
          }
        }
      },
      "icon": "https://maps.gstatic.com/mapfiles/place_api/icons/v1/png_71/civic_building-71.png",
      "icon_background_color": "#7B9EB0",
      "icon_mask_base_uri": "https://maps.gstatic.com/mapfiles/place_api/icons/v2/civic-bldg_pinlet",
      "name": "Collegiate Mail Services",
      "place_id": "ChIJ7-K54SD2wokRe9Fdf2Q6gU8",
      "plus_code": {
        "compound_code": "Q2VP+MG New York, NY, USA",
        "global_code": "87G8Q2VP+MG"
      },
      "reference": "ChIJ7-K54SD2wokRe9Fdf2Q6gU8",
      "scope": "GOOGLE",
      "types": [
        "post_office",
        "finance",
        "point_of_interest",
        "establishment"
      ],
      "vicinity": "400 Central Park West # 20d, New York"
    },
    {
      "business_status": "OPERATIONAL",
      "geometry": {
        "location": {
          "lat": 40.7936758,
          "lng": -73.96598709999999
        },
        "viewport": {
          "northeast": {
            "lat": 40.7951367302915,
            "lng": -73.9646696697085
          },
          "southwest": {
            "lat": 40.7924387697085,
            "lng": -73.96736763029152
          }
        }
      },
      "icon": "https://maps.gstatic.com/mapfiles/place_api/icons/v1/png_71/generic_business-71.png",
      "icon_background_color": "#7B9EB0",
      "icon_mask_base_uri": "https://maps.gstatic.com/mapfiles/place_api/icons/v2/generic_pinlet",
      "name": "Christina Vescovo, New York City, Keller Williams",
      "opening_hours": {
        "open_now": true
      },
      "photos": [
        {
          "height": 356,
          "html_attributions": [
            "<a href=\"https://maps.google.com/maps/contrib/100263654693426339817\">Christina Vescovo, New York City, Keller Williams</a>"
          ],
          "photo_reference": "AeJbb3dC5zRc3jDFefDR_X1Dp_XBG3-K3W411ZJk82hE9sRtJqgoFvIeOG1FcBIgYMqGydFg_EC-yRg8ucf4VHlNJKWInZRyModEPWXZmTPUT7OXR4YTStWRHDQgApBmPSM-p1v9v-YUk3n_p8HteX_8aAwZLgm_YUPDPkrAyBgsshCTGp5I",
          "width": 534
        }
      ],
      "place_id": "ChIJva_ANif2wokRZf_2X-9o8nU",
      "plus_code": {
        "compound_code": "Q2VM+FJ New York, NY, USA",
        "global_code": "87G8Q2VM+FJ"
      },
      "reference": "ChIJva_ANif2wokRZf_2X-9o8nU",
      "scope": "GOOGLE",
      "types": [
        "real_estate_agency",
        "point_of_interest",
        "establishment"
      ],
      "vicinity": "382 Central Park West, New York"
    },
    {
      "business_status": "OPERATIONAL",
      "geometry": {
        "location": {
          "lat": 40.797765,
          "lng": -73.96895099999999
        },
        "viewport": {
          "northeast": {
            "lat": 40.7990682302915,
            "lng": -73.96766136970848
          },
          "southwest": {
            "lat": 40.7963702697085,
            "lng": -73.97035933029149
          }
        }
      },
      "icon": "https://maps.gstatic.com/mapfiles/place_api/icons/v1/png_71/generic_business-71.png",
      "icon_background_color": "#7B9EB0",
      "icon_mask_base_uri": "https://maps.gstatic.com/mapfiles/place_api/icons/v2/generic_pinlet",
      "name": "NYCleaners",
      "opening_hours": {
        "open_now": true
      },
      "photos": [
        {
          "height": 667,
          "html_attributions": [
            "<a href=\"https://maps.google.com/maps/contrib/109065550841515205320\">NYCleaners</a>"
          ],
          "photo_reference": "AeJbb3f1fB7RwbiWYRuEIFr_9raApi0xurDyJRa7zLPikvLVDfqcgVzI5_AlWiJ2B1bJsq_JjFdVKLwJAkdElRjBbGoj500SFd5-pWxZV6OsryuRwIkraN-YB8DB-_OtebdqRKH76dzIdVYpay0bZqMv82VoNt_64J2sbM9hU-42IiGXVOpi",
          "width": 1000
        }
      ],
      "place_id": "ChIJc0oL1yX2wokRtby8tirHBgs",
      "plus_code": {
        "compound_code": "Q2XJ+4C New York, NY, USA",
        "global_code": "87G8Q2XJ+4C"
      },
      "rating": 4.9,
      "reference": "ChIJc0oL1yX2wokRtby8tirHBgs",
      "scope": "GOOGLE",
      "types": [
        "laundry",
        "point_of_interest",
        "establishment"
      ],
      "user_ratings_total": 199,
      "vicinity": "215 West 101st Street, New York"
    },
    {
      "business_status": "OPERATIONAL",
      "geometry": {
        "location": {
          "lat": 40.7994373,
          "lng": -73.9640098
        },
        "viewport": {
          "northeast": {
            "lat": 40.8008878302915,
            "lng": -73.96261751970852
          },
          "southwest": {
            "lat": 40.7981898697085,
            "lng": -73.96531548029152
          }
        }
      },
      "icon": "https://maps.gstatic.com/mapfiles/place_api/icons/v1/png_71/generic_business-71.png",
      "icon_background_color": "#7B9EB0",
      "icon_mask_base_uri": "https://maps.gstatic.com/mapfiles/place_api/icons/v2/generic_pinlet",
      "name": "The New Jewish Home, Manhattan Campus",
      "opening_hours": {
        "open_now": true
      },
      "photos": [
        {
          "height": 4912,
          "html_attributions": [
            "<a href=\"https://maps.google.com/maps/contrib/102204546350295361177\">The New Jewish Home, Manhattan Campus</a>"
          ],
          "photo_reference": "AeJbb3fDgfZKRgngfprT8AOFbmrp1j6zR6QLH5azCrgiO7G8wNeStnBTzM7JofDe66zRRLIZHjeRvpoOaem_TQQbfsbynLX7zelOPgTC3fEYIQjM9OOAz1HqnnxX-N_1UBl-l7kht1gH7igRmmQ2jX7HM-rqPx144KjURLRcTY_jajLNwafF",
          "width": 7360
        }
      ],
      "place_id": "ChIJY2yHCyP2wokRPnKb87zaENM",
      "plus_code": {
        "compound_code": "Q2XP+Q9 New York, NY, USA",
        "global_code": "87G8Q2XP+Q9"
      },
      "rating": 2.6,
      "reference": "ChIJY2yHCyP2wokRPnKb87zaENM",
      "scope": "GOOGLE",
      "types": [
        "health",
        "point_of_interest",
        "establishment"
      ],
      "user_ratings_total": 117,
      "vicinity": "120 West 106th Street, New York"
    },
    {
      "business_status": "OPERATIONAL",
      "geometry": {
        "location": {
          "lat": 40.796989,
          "lng": -73.9697065
        },
        "viewport": {
          "northeast": {
            "lat": 40.7983901802915,
            "lng": -73.9683195697085
          },
          "southwest": {
            "lat": 40.7956922197085,
            "lng": -73.9710175302915
          }
        }
      },
      "icon": "https://maps.gstatic.com/mapfiles/place_api/icons/v1/png_71/restaurant-71.png",
      "icon_background_color": "#FF9E67",
      "icon_mask_base_uri": "https://maps.gstatic.com/mapfiles/place_api/icons/v2/restaurant_pinlet",
      "name": "Manhattan Valley",
      "opening_hours": {
        "open_now": true
      },
      "photos": [
        {
          "height": 1360,
          "html_attributions": [
            "<a href=\"https://maps.google.com/maps/contrib/104111246635874032234\">ZAGAT</a>"
          ],
          "photo_reference": "AeJbb3cmtpsQwfbgA7UUiwnDI4uKQQU2PNLsK4s4jNulS9pm86KWPmL7ZpzaV93SDKRG8kJu55XXVgmo9whHiCaycC9pmQGgRivqhrCmsZ4d3MRZBLhNUrKRL__vY5tNuwjiEmDotPoRn0gjLKlIZw3eHgXpN3y4cScqt0dgWSgmT5OGiyA0",
          "width": 2048
        }
      ],
      "place_id": "ChIJ3R85DSb2wokR1XobETRMs5E",
      "plus_code": {
        "compound_code": "Q2WJ+Q4 New York, NY, USA",
        "global_code": "87G8Q2WJ+Q4"
      },
      "price_level": 2,
      "rating": 4.2,
      "reference": "ChIJ3R85DSb2wokR1XobETRMs5E",
      "scope": "GOOGLE",
      "types": [
        "restaurant",
        "food",
        "point_of_interest",
        "establishment"
      ],
      "user_ratings_total": 266,
      "vicinity": "2636 Broadway, West 100th Street, New York"
    },
    {
      "business_status": "OPERATIONAL",
      "geometry": {
        "location": {
          "lat": 40.7953252,
          "lng": -73.962295
        },
        "viewport": {
          "northeast": {
            "lat": 40.7966316302915,
            "lng": -73.96084526970849
          },
          "southwest": {
            "lat": 40.7939336697085,
            "lng": -73.9635432302915
          }
        }
      },
      "icon": "https://maps.gstatic.com/mapfiles/place_api/icons/v1/png_71/generic_business-71.png",
      "icon_background_color": "#7B9EB0",
      "icon_mask_base_uri": "https://maps.gstatic.com/mapfiles/place_api/icons/v2/generic_pinlet",
      "name": "STAMM & OLIVO, LLP: PHILIP STAMM",
      "opening_hours": {
        "open_now": false
      },
      "photos": [
        {
          "height": 661,
          "html_attributions": [
            "<a href=\"https://maps.google.com/maps/contrib/113794466944180017082\">STAMM &amp; OLIVO, LLP: PHILIP STAMM</a>"
          ],
          "photo_reference": "AeJbb3fGSAnfDerOMwP4Mza96Y0d-brGLdvd1K64y4gyYGCOfZdHCofGUgBxSSZ6YPcMnwj_oTPke87NZUSn5Q1gURfwBxtdc0S-wdgj9bfK9HJYGWElPk0zqmKu5yPbmIPUr2faTpkQFrS6kEQ3HZlG2M1tfFU3InDCoG9ChAmE81iuXMhz",
          "width": 453
        }
      ],
      "place_id": "ChIJywfGBQFZwokR0wgN066vmls",
      "plus_code": {
        "compound_code": "Q2WQ+43 New York, NY, USA",
        "global_code": "87G8Q2WQ+43"
      },
      "reference": "ChIJywfGBQFZwokR0wgN066vmls",
      "scope": "GOOGLE",
      "types": [
        "lawyer",
        "point_of_interest",
        "establishment"
      ],
      "vicinity": "418 Central Park West, New York"
    },
    {
      "business_status": "OPERATIONAL",
      "geometry": {
        "location": {
          "lat": 40.7975534,
          "lng": -73.96899060000001
        },
        "viewport": {
          "northeast": {
            "lat": 40.7989375802915,
            "lng": -73.9676161197085
          },
          "southwest": {
            "lat": 40.7962396197085,
            "lng": -73.97031408029152
          }
        }
      },
      "icon": "https://maps.gstatic.com/mapfiles/place_api/icons/v1/png_71/generic_business-71.png",
      "icon_background_color": "#7B9EB0",
      "icon_mask_base_uri": "https://maps.gstatic.com/mapfiles/place_api/icons/v2/generic_pinlet",
      "name": "Taubes Tanaquil MD",
      "place_id": "ChIJ4e0d2CX2wokReLR3vNl6NY0",
      "plus_code": {
        "compound_code": "Q2XJ+2C New York, NY, USA",
        "global_code": "87G8Q2XJ+2C"
      },
      "reference": "ChIJ4e0d2CX2wokReLR3vNl6NY0",
      "scope": "GOOGLE",
      "types": [
        "doctor",
        "health",
        "point_of_interest",
        "establishment"
      ],
      "vicinity": "210 West 101st Street #5C, New York"
    },
    {
      "business_status": "OPERATIONAL",
      "geometry": {
        "location": {
          "lat": 40.7983829,
          "lng": -73.969439
        },
        "viewport": {
          "northeast": {
            "lat": 40.7997328802915,
            "lng": -73.96799321970849
          },
          "southwest": {
            "lat": 40.7970349197085,
            "lng": -73.9706911802915
          }
        }
      },
      "icon": "https://maps.gstatic.com/mapfiles/place_api/icons/v1/png_71/restaurant-71.png",
      "icon_background_color": "#FF9E67",
      "icon_mask_base_uri": "https://maps.gstatic.com/mapfiles/place_api/icons/v2/restaurant_pinlet",
      "name": "Sal and Carmine Pizza",
      "opening_hours": {
        "open_now": true
      },
      "photos": [
        {
          "height": 2448,
          "html_attributions": [
            "<a href=\"https://maps.google.com/maps/contrib/114592143269096100906\">Jesse Spector</a>"
          ],
          "photo_reference": "AeJbb3clwMsNUk66zVkn2PEreR_Xi0ta_oDARSR7w36C-93JEhP7xv_3s_kRKP-FtcG-kyQW0e2INmwneZOFh17ZNI6Y_dYTPtE2Sn1zG5SBEf9W1xF55n3uS4BhFRcfWZT58862nWdVaux6Tvh88ve3Wx1K_tcCdIvojJ64i4YUztIsr00y",
          "width": 2448
        }
      ],
      "place_id": "ChIJs4RhwyX2wokRZ_3DWlaukaE",
      "plus_code": {
        "compound_code": "Q2XJ+96 New York, NY, USA",
        "global_code": "87G8Q2XJ+96"
      },
      "price_level": 1,
      "rating": 4.4,
      "reference": "ChIJs4RhwyX2wokRZ_3DWlaukaE",
      "scope": "GOOGLE",
      "types": [
        "restaurant",
        "food",
        "point_of_interest",
        "establishment"
      ],
      "user_ratings_total": 497,
      "vicinity": "2671 Broadway, New York"
    },
    {
      "business_status": "OPERATIONAL",
      "geometry": {
        "location": {
          "lat": 40.79912720000001,
          "lng": -73.9680115
        },
        "viewport": {
          "northeast": {
            "lat": 40.80054938029151,
            "lng": -73.9668505697085
          },
          "southwest": {
            "lat": 40.79785141970851,
            "lng": -73.96954853029152
          }
        }
      },
      "icon": "https://maps.gstatic.com/mapfiles/place_api/icons/v1/png_71/generic_business-71.png",
      "icon_background_color": "#7B9EB0",
      "icon_mask_base_uri": "https://maps.gstatic.com/mapfiles/place_api/icons/v2/generic_pinlet",
      "name": "Columbia University: Broadway Apartments",
      "place_id": "ChIJyQ3Tlj72wokRjrgY7CYi5oI",
      "plus_code": {
        "compound_code": "Q2XJ+MQ New York, NY, USA",
        "global_code": "87G8Q2XJ+MQ"
      },
      "rating": 5,
      "reference": "ChIJyQ3Tlj72wokRjrgY7CYi5oI",
      "scope": "GOOGLE",
      "types": [
        "real_estate_agency",
        "point_of_interest",
        "establishment"
      ],
      "user_ratings_total": 2,
      "vicinity": "2700 Broadway, New York"
    },
    {
      "business_status": "OPERATIONAL",
      "geometry": {
        "location": {
          "lat": 40.7943185,
          "lng": -73.9674452
        },
        "viewport": {
          "northeast": {
            "lat": 40.7957179302915,
            "lng": -73.9662187197085
          },
          "southwest": {
            "lat": 40.7930199697085,
            "lng": -73.9689166802915
          }
        }
      },
      "icon": "https://maps.gstatic.com/mapfiles/place_api/icons/v1/png_71/generic_business-71.png",
      "icon_background_color": "#7B9EB0",
      "icon_mask_base_uri": "https://maps.gstatic.com/mapfiles/place_api/icons/v2/generic_pinlet",
      "name": "SeeMeSmart",
      "photos": [
        {
          "height": 1109,
          "html_attributions": [
            "<a href=\"https://maps.google.com/maps/contrib/108316178831027024882\">SeeMeSmart</a>"
          ],
          "photo_reference": "AeJbb3fOKdmvmEqFMUT3gUtC95xb08CddQLJLyLXzwSnY-abZLMUHmjYfdcTsK1Nhcczc4ius9qRgl5A8xePjUcjU_qkuOQbnb4OQaKI7ZG8v5TJC8u_i4KsiZoOIQOXF0_shAvSQPGBcJA9Pg0EFQN1ng4Ngf5jkoHwYdH33n8JADi_dMQ",
          "width": 1600
        }
      ],
      "place_id": "ChIJaSkvBSf2wokR8k9Ln2byHmk",
      "plus_code": {
        "compound_code": "Q2VM+P2 New York, NY, USA",
        "global_code": "87G8Q2VM+P2"
      },
      "reference": "ChIJaSkvBSf2wokR8k9Ln2byHmk",
      "scope": "GOOGLE",
      "types": [
        "point_of_interest",
        "establishment"
      ],
      "vicinity": "784 Columbus Avenue, New York"
    },
    {
      "business_status": "OPERATIONAL",
      "geometry": {
        "location": {
          "lat": 40.7995649,
          "lng": -73.9631717
        },
        "viewport": {
          "northeast": {
            "lat": 40.8008583302915,
            "lng": -73.96186231970849
          },
          "southwest": {
            "lat": 40.7981603697085,
            "lng": -73.96456028029151
          }
        }
      },
      "icon": "https://maps.gstatic.com/mapfiles/place_api/icons/v1/png_71/shopping-71.png",
      "icon_background_color": "#4B96F3",
      "icon_mask_base_uri": "https://maps.gstatic.com/mapfiles/place_api/icons/v2/shopping_pinlet",
      "name": "Innovation Bike Shop",
      "opening_hours": {
        "open_now": true
      },
      "photos": [
        {
          "height": 453,
          "html_attributions": [
            "<a href=\"https://maps.google.com/maps/contrib/104546435250428094867\">Innovation Bike Shop</a>"
          ],
          "photo_reference": "AeJbb3cxmSXMvJe9rhQ7gd6P-k5SlZcLCV01NzNb89TKIw-QPKqVa0U_JXbX4_C2FsTB2wrJCkdV4aX3TvMy5vd2UKazaxdXifYs41nka4D45Bya-ipIA9PnMtyXZVj5ZGYp1ZkO2CGXmnccxmwcpr8KL5m0RtKoODxnB5-2V1PpQxj0Ncin",
          "width": 604
        }
      ],
      "place_id": "ChIJ79qKBSP2wokRGmdO3E-waWg",
      "plus_code": {
        "compound_code": "Q2XP+RP New York, NY, USA",
        "global_code": "87G8Q2XP+RP"
      },
      "rating": 4.7,
      "reference": "ChIJ79qKBSP2wokRGmdO3E-waWg",
      "scope": "GOOGLE",
      "types": [
        "bicycle_store",
        "store",
        "point_of_interest",
        "establishment"
      ],
      "user_ratings_total": 103,
      "vicinity": "105 West 106th Street, New York"
    },
    {
      "business_status": "OPERATIONAL",
      "geometry": {
        "location": {
          "lat": 40.79748649999999,
          "lng": -73.968975
        },
        "viewport": {
          "northeast": {
            "lat": 40.79889393029149,
            "lng": -73.9675837197085
          },
          "southwest": {
            "lat": 40.7961959697085,
            "lng": -73.9702816802915
          }
        }
      },
      "icon": "https://maps.gstatic.com/mapfiles/place_api/icons/v1/png_71/generic_business-71.png",
      "icon_background_color": "#7B9EB0",
      "icon_mask_base_uri": "https://maps.gstatic.com/mapfiles/place_api/icons/v2/generic_pinlet",
      "name": "Levine Samuel LLP",
      "opening_hours": {
        "open_now": false
      },
      "place_id": "ChIJ0dCh06pZwokR0q1kszNurx8",
      "plus_code": {
        "compound_code": "Q2WJ+XC New York, NY, USA",
        "global_code": "87G8Q2WJ+XC"
      },
      "reference": "ChIJ0dCh06pZwokR0q1kszNurx8",
      "scope": "GOOGLE",
      "types": [
        "lawyer",
        "point_of_interest",
        "establishment"
      ],
      "vicinity": "210 West 101st Street Suite 7J, New York"
    },
    {
      "business_status": "OPERATIONAL",
      "geometry": {
        "location": {
          "lat": 40.7972122,
          "lng": -73.9695837
        },
        "viewport": {
          "northeast": {
            "lat": 40.79859528029149,
            "lng": -73.9683281197085
          },
          "southwest": {
            "lat": 40.79589731970849,
            "lng": -73.97102608029151
          }
        }
      },
      "icon": "https://maps.gstatic.com/mapfiles/place_api/icons/v1/png_71/restaurant-71.png",
      "icon_background_color": "#FF9E67",
      "icon_mask_base_uri": "https://maps.gstatic.com/mapfiles/place_api/icons/v2/restaurant_pinlet",
      "name": "Cheesy Pizza",
      "opening_hours": {
        "open_now": true
      },
      "photos": [
        {
          "height": 900,
          "html_attributions": [
            "<a href=\"https://maps.google.com/maps/contrib/109446977718360793857\">Cheesy Pizza</a>"
          ],
          "photo_reference": "AeJbb3fgSUY_0FpU4m3yJMisbNp9zrGC2nxIx-cerupB8TRIPm5nupKAiG3vROGigR4QZzcrd9Np3JkgwTqXlmmpoHGf-Cfvo_mcyidkF3LROnjB23-ihRdJfUS64_x8wwL1ewBSMR-x-aYvU-0BElq8JsZfpOFaxPswA_zVKldDRO8qoz5u",
          "width": 1200
        }
      ],
      "place_id": "ChIJaRoOcyb2wokRUOfG3SZXr9E",
      "plus_code": {
        "compound_code": "Q2WJ+V5 New York, NY, USA",
        "global_code": "87G8Q2WJ+V5"
      },
      "price_level": 1,
      "rating": 4,
      "reference": "ChIJaRoOcyb2wokRUOfG3SZXr9E",
      "scope": "GOOGLE",
      "types": [
        "meal_delivery",
        "restaurant",
        "food",
        "point_of_interest",
        "establishment"
      ],
      "user_ratings_total": 534,
      "vicinity": "2640 Broadway, New York"
    },
    {
      "business_status": "OPERATIONAL",
      "geometry": {
        "location": {
          "lat": 40.79402319999999,
          "lng": -73.96321089999999
        },
        "viewport": {
          "northeast": {
            "lat": 40.7953368302915,
            "lng": -73.96177751970849
          },
          "southwest": {
            "lat": 40.7926388697085,
            "lng": -73.96447548029151
          }
        }
      },
      "icon": "https://maps.gstatic.com/mapfiles/place_api/icons/v1/png_71/generic_business-71.png",
      "icon_background_color": "#7B9EB0",
      "icon_mask_base_uri": "https://maps.gstatic.com/mapfiles/place_api/icons/v2/generic_pinlet",
      "name": "Concierge Desk 400 Central",
      "place_id": "ChIJ7-K54SD2wokRDq_cbvr4KIg",
      "plus_code": {
        "compound_code": "Q2VP+JP New York, NY, USA",
        "global_code": "87G8Q2VP+JP"
      },
      "reference": "ChIJ7-K54SD2wokRDq_cbvr4KIg",
      "scope": "GOOGLE",
      "types": [
        "point_of_interest",
        "establishment"
      ],
      "vicinity": "400 Central Park West, New York"
    },
    {
      "business_status": "OPERATIONAL",
      "geometry": {
        "location": {
          "lat": 40.7996265,
          "lng": -73.9686711
        },
        "viewport": {
          "northeast": {
            "lat": 40.80094378029149,
            "lng": -73.9672069197085
          },
          "southwest": {
            "lat": 40.79824581970849,
            "lng": -73.96990488029151
          }
        }
      },
      "icon": "https://maps.gstatic.com/mapfiles/place_api/icons/v1/png_71/restaurant-71.png",
      "icon_background_color": "#FF9E67",
      "icon_mask_base_uri": "https://maps.gstatic.com/mapfiles/place_api/icons/v2/restaurant_pinlet",
      "name": "Broadway Pizza",
      "opening_hours": {
        "open_now": true
      },
      "photos": [
        {
          "height": 1080,
          "html_attributions": [
            "<a href=\"https://maps.google.com/maps/contrib/107244735303439399069\">Alexander L</a>"
          ],
          "photo_reference": "AeJbb3cm1wvtaM53v4fTifJaSQmSnrSvp3gCJyPFaRoVhwO_GH8eDb1-IV8579gK38LWo8RRNeLCpk8wrGp_mQWgiqpGNYi7qbPt83WzfK8plsAUU0JKIUz7mhA8X7841TKAWnlCsph8nMVdqXlHaKy9ajzGa1D8nq-IG1hqVWDC_cdZW2F6",
          "width": 1920
        }
      ],
      "place_id": "ChIJ9_E9rCX2wokRA-KHf2-flk8",
      "plus_code": {
        "compound_code": "Q2XJ+VG New York, NY, USA",
        "global_code": "87G8Q2XJ+VG"
      },
      "price_level": 1,
      "rating": 4.3,
      "reference": "ChIJ9_E9rCX2wokRA-KHf2-flk8",
      "scope": "GOOGLE",
      "types": [
        "restaurant",
        "food",
        "point_of_interest",
        "establishment"
      ],
      "user_ratings_total": 160,
      "vicinity": "2709 Broadway, New York"
    },
    {
      "business_status": "OPERATIONAL",
      "geometry": {
        "location": {
          "lat": 40.7942319,
          "lng": -73.963672
        },
        "viewport": {
          "northeast": {
            "lat": 40.7957018302915,
            "lng": -73.9622358197085
          },
          "southwest": {
            "lat": 40.79300386970851,
            "lng": -73.9649337802915
          }
        }
      },
      "icon": "https://maps.gstatic.com/mapfiles/place_api/icons/v1/png_71/generic_business-71.png",
      "icon_background_color": "#7B9EB0",
      "icon_mask_base_uri": "https://maps.gstatic.com/mapfiles/place_api/icons/v2/generic_pinlet",
      "name": "Lifelong Growth Center",
      "place_id": "ChIJ7-K54SD2wokR8EgfVSuklnc",
      "plus_code": {
        "compound_code": "Q2VP+MG New York, NY, USA",
        "global_code": "87G8Q2VP+MG"
      },
      "reference": "ChIJ7-K54SD2wokR8EgfVSuklnc",
      "scope": "GOOGLE",
      "types": [
        "point_of_interest",
        "establishment"
      ],
      "vicinity": "400 Central Park West, New York"
    },
    {
      "business_status": "OPERATIONAL",
      "geometry": {
        "location": {
          "lat": 40.79420990000001,
          "lng": -73.9636725
        },
        "viewport": {
          "northeast": {
            "lat": 40.79542763029151,
            "lng": -73.96201016970849
          },
          "southwest": {
            "lat": 40.79272966970851,
            "lng": -73.96470813029151
          }
        }
      },
      "icon": "https://maps.gstatic.com/mapfiles/place_api/icons/v1/png_71/generic_business-71.png",
      "icon_background_color": "#7B9EB0",
      "icon_mask_base_uri": "https://maps.gstatic.com/mapfiles/place_api/icons/v2/generic_pinlet",
      "name": "Randi S. Cohen, ACSW",
      "place_id": "ChIJ7-K54SD2wokRnHB9ZK_Jj1M",
      "plus_code": {
        "compound_code": "Q2VP+MG New York, NY, USA",
        "global_code": "87G8Q2VP+MG"
      },
      "reference": "ChIJ7-K54SD2wokRnHB9ZK_Jj1M",
      "scope": "GOOGLE",
      "types": [
        "point_of_interest",
        "establishment"
      ],
      "vicinity": "400 Central Park West, New York"
    },
    {
      "business_status": "OPERATIONAL",
      "geometry": {
        "location": {
          "lat": 40.79420990000001,
          "lng": -73.9636725
        },
        "viewport": {
          "northeast": {
            "lat": 40.79542763029151,
            "lng": -73.96201016970849
          },
          "southwest": {
            "lat": 40.79272966970851,
            "lng": -73.96470813029151
          }
        }
      },
      "icon": "https://maps.gstatic.com/mapfiles/place_api/icons/v1/png_71/generic_business-71.png",
      "icon_background_color": "#7B9EB0",
      "icon_mask_base_uri": "https://maps.gstatic.com/mapfiles/place_api/icons/v2/generic_pinlet",
      "name": "Michelle M. Lalinde, FNP",
      "place_id": "ChIJ7-K54SD2wokRPEyb8nhaBQE",
      "plus_code": {
        "compound_code": "Q2VP+MG New York, NY, USA",
        "global_code": "87G8Q2VP+MG"
      },
      "reference": "ChIJ7-K54SD2wokRPEyb8nhaBQE",
      "scope": "GOOGLE",
      "types": [
        "doctor",
        "health",
        "point_of_interest",
        "establishment"
      ],
      "vicinity": "400 Central Park West, New York"
    },
    {
      "business_status": "OPERATIONAL",
      "geometry": {
        "location": {
          "lat": 40.79420990000001,
          "lng": -73.9636725
        },
        "viewport": {
          "northeast": {
            "lat": 40.79542763029151,
            "lng": -73.96201016970849
          },
          "southwest": {
            "lat": 40.79272966970851,
            "lng": -73.96470813029151
          }
        }
      },
      "icon": "https://maps.gstatic.com/mapfiles/place_api/icons/v1/png_71/generic_business-71.png",
      "icon_background_color": "#7B9EB0",
      "icon_mask_base_uri": "https://maps.gstatic.com/mapfiles/place_api/icons/v2/generic_pinlet",
      "name": "Thomas F. Barton, LCSW",
      "place_id": "ChIJ7-K54SD2wokRfm7He8Kl2yY",
      "plus_code": {
        "compound_code": "Q2VP+MG New York, NY, USA",
        "global_code": "87G8Q2VP+MG"
      },
      "reference": "ChIJ7-K54SD2wokRfm7He8Kl2yY",
      "scope": "GOOGLE",
      "types": [
        "point_of_interest",
        "establishment"
      ],
      "vicinity": "400 Central Park West, New York"
    }
  ],
  "status": "OK"
}