{
  "html_attributions": [],
  "results": [
    {
      "geometry": {
        "location": {
          "lat": 40.7127753,
          "lng": -74.0059728
        },
        "viewport": {
          "northeast": {
            "lat": 40.91757705070789,
            "lng": -73.70027206817629
          },
          "southwest": {
            "lat": 40.47739906045452,
            "lng": -74.25908991427882
          }
        }
      },
      "icon": "https://maps.gstatic.com/mapfiles/place_api/icons/v1/png_71/geocode-71.png",
      "icon_background_color": "#7B9EB0",
      "icon_mask_base_uri": "https://maps.gstatic.com/mapfiles/place_api/icons/v2/generic_pinlet",
      "name": "\u7d10\u7d04",
      "photos": [
        {
          "height": 600,
          "html_attributions": [
            "<a href=\"https://maps.google.com/maps/contrib/102389334567210814614\">Bukurie</a>"
          ],
          "photo_reference": "AeJbb3eZLVO963O9aNnTmmwuRvI11KEzAHQxj1PbVOYDqQysqG8icrqPNMZxx8p4tgvsVmgdy5ORI_Epwx1DBtgGl3-QJ3dDiCFfWNDyIWOkCljqHMi2tpN-QI5OZClR9XxGLX_rUP8sqi0eqvbxCQ94pcmtI6JTitoWYMboj1YtagsL220f",
          "width": 480
        }
      ],
      "place_id": "ChIJOwg_06VPwokRYv534QaPC8g",
      "reference": "ChIJOwg_06VPwokRYv534QaPC8g",
      "scope": "GOOGLE",
      "types": [
        "locality",
        "political"
      ],
      "vicinity": "\u7d10\u7d04"
    },
    {
      "business_status": "OPERATIONAL",
      "geometry": {
        "location": {
          "lat": 40.7848889,
          "lng": -73.9443993
        },
        "viewport": {
          "northeast": {
            "lat": 40.78669134999999,
            "lng": -73.94272215000001
          },
          "southwest": {
            "lat": 40.78335115000001,
            "lng": -73.94703035
          }
        }
      },
      "icon": "https://maps.gstatic.com/mapfiles/place_api/icons/v1/png_71/hospital-71.png",
      "icon_background_color": "#F88181",
      "icon_mask_base_uri": "https://maps.gstatic.com/mapfiles/place_api/icons/v2/hospital-H_pinlet",
      "name": "NYC Health + Hospitals/Metropolitan.",
      "opening_hours": {
        "open_now": true
      },
      "photos": [
        {
          "height": 1944,
          "html_attributions": [
            "<a href=\"https://maps.google.com/maps/contrib/101131508822129024504\">NYC Health + Hospitals/Metropolitan.</a>"
          ],
          "photo_reference": "AeJbb3cb8U-V6fZwRWoUUOXwUaKTwtPj_Ra9R7GTaeU1NGv91t3VCef2wf2lEeockP1Fo0WiiA6WW4tbFGYwyhXt1AJn4kM56ODuOnD2GNKWysZER4nsRFEaasaFX3PW18531rtz3noDDAi_88fk8w4laLCkNDp_Ey3Taplb-ke_a4grhBQ",
          "width": 2896
        }
      ],
      "place_id": "ChIJG1z-2KhYwokRhPmjewNNWcc",
      "plus_code": {
        "compound_code": "Q3M4+X6 \u7f8e\u570b\u7d10\u7d04",
        "global_code": "87G8Q3M4+X6"
      },
      "rating": 3.4,
      "reference": "ChIJG1z-2KhYwokRhPmjewNNWcc",
      "scope": "GOOGLE",
      "types": [
        "hospital",
        "health",
        "point_of_interest",
        "establishment"
      ],
      "user_ratings_total": 385,
      "vicinity": "1901 1st Avenue, New York"
    },
    {
      "business_status": "OPERATIONAL",
      "geometry": {
        "location": {
          "lat": 40.78662690000001,
          "lng": -73.9500944
        },
        "viewport": {
          "northeast": {
            "lat": 40.78802098029151,
            "lng": -73.94885456970849
          },
          "southwest": {
            "lat": 40.78532301970851,
            "lng": -73.9515525302915
          }
        }
      },
      "icon": "https://maps.gstatic.com/mapfiles/place_api/icons/v1/png_71/restaurant-71.png",
      "icon_background_color": "#FF9E67",
      "icon_mask_base_uri": "https://maps.gstatic.com/mapfiles/place_api/icons/v2/restaurant_pinlet",
      "name": "Judys Spanish Restaurant",
      "opening_hours": {
        "open_now": true
      },
      "photos": [
        {
          "height": 4032,
          "html_attributions": [
            "<a href=\"https://maps.google.com/maps/contrib/113111313476293205437\">Akeel Nelson</a>"
          ],
          "photo_reference": "AeJbb3ePMiP_PN3z6kNU12QKKguDnsIUUSuPuV1_u42Zd7-bAkMwSlOjQ0QCAtSYuszsScDGDVLnVgALoxvbplPbCgKJSRAj3hAVcrVJCDRai2oPv9D5_HnM7LPsurx0xap6frLpMw33kqxtOG-Fpnjv93tm9lOwAczUTDyEHq5WrXo2eGiH",
          "width": 3024
        }
      ],
      "place_id": "ChIJ_3uxW6ZYwokRjIJ1i6u3fYQ",
      "plus_code": {
        "compound_code": "Q2PX+MX \u7f8e\u570b\u7d10\u7d04",
        "global_code": "87G8Q2PX+MX"
      },
      "price_level": 1,
      "rating": 2.9,
      "reference": "ChIJ_3uxW6ZYwokRjIJ1i6u3fYQ",
      "scope": "GOOGLE",
      "types": [
        "restaurant",
        "food",
        "point_of_interest",
        "establishment"
      ],
      "user_ratings_total": 135,
      "vicinity": "1505 Lexington Avenue, New York"
    },
    {
      "business_status": "OPERATIONAL",
      "geometry": {
        "location": {
          "lat": 40.79010570000001,
          "lng": -73.94612049999999
        },
        "viewport": {
          "northeast": {
            "lat": 40.79139123029151,
            "lng": -73.9446252197085
          },
          "southwest": {
            "lat": 40.78869326970851,
            "lng": -73.9473231802915
          }
        }
      },
      "icon": "https://maps.gstatic.com/mapfiles/place_api/icons/v1/png_71/lodging-71.png",
      "icon_background_color": "#909CE1",
      "icon_mask_base_uri": "https://maps.gstatic.com/mapfiles/place_api/icons/v2/hotel_pinlet",
      "name": "Upper Yorkville Suites",
      "photos": [
        {
          "height": 3456,
          "html_attributions": [
            "<a href=\"https://maps.google.com/maps/contrib/112061170844157736890\">Gaston Mir</a>"
          ],
          "photo_reference": "AeJbb3ftM1FTt_xMkbVEVFaycFSpDLtEZPlWcleCMjDitk4EiUFMCdI6JRQfBMD937sIl1Fv6T308Rhvo7Nb10st3Ps00X2ko4Y-8WaViqQ6lkMnVqPr_5vp7sbV40soEtXo--pAwuywzroo5S1UAPZ6D9XWYmmymLyWxvke0pSYpPCMkU6M",
          "width": 4608
        }
      ],
      "place_id": "ChIJgVQTlwL2wokRy5YQ4S9gIvc",
      "plus_code": {
        "compound_code": "Q3R3+2H \u7f8e\u570b\u7d10\u7d04",
        "global_code": "87G8Q3R3+2H"
      },
      "rating": 4.6,
      "reference": "ChIJgVQTlwL2wokRy5YQ4S9gIvc",
      "scope": "GOOGLE",
      "types": [
        "lodging",
        "point_of_interest",
        "establishment"
      ],
      "user_ratings_total": 20,
      "vicinity": "1876 3rd Avenue, New York"
    },
    {
      "business_status": "OPERATIONAL",
      "geometry": {
        "location": {
          "lat": 40.78704510000001,
          "lng": -73.9505096
        },
        "viewport": {
          "northeast": {
            "lat": 40.7883234302915,
            "lng": -73.94899336970849
          },
          "southwest": {
            "lat": 40.7856254697085,
            "lng": -73.95169133029151
          }
        }
      },
      "icon": "https://maps.gstatic.com/mapfiles/place_api/icons/v1/png_71/generic_business-71.png",
      "icon_background_color": "#7B9EB0",
      "icon_mask_base_uri": "https://maps.gstatic.com/mapfiles/place_api/icons/v2/generic_pinlet",
      "name": "Shira Weinberger Photography",
      "place_id": "ChIJY4w6_QVZwokRyJk02JDTNVM",
      "plus_code": {
        "compound_code": "Q2PX+RQ \u7f8e\u570b\u7d10\u7d04",
        "global_code": "87G8Q2PX+RQ"
      },
      "rating": 5,
      "reference": "ChIJY4w6_QVZwokRyJk02JDTNVM",
      "scope": "GOOGLE",
      "types": [
        "point_of_interest",
        "establishment"
      ],
      "user_ratings_total": 2,
      "vicinity": "1510 Lexington Avenue, New York"
    },
    {
      "business_status": "OPERATIONAL",
      "geometry": {
        "location": {
          "lat": 40.7884986,
          "lng": -73.9488295
        },
        "viewport": {
          "northeast": {
            "lat": 40.7898782302915,
            "lng": -73.94757196970849
          },
          "southwest": {
            "lat": 40.7871802697085,
            "lng": -73.95026993029151
          }
        }
      },
      "icon": "https://maps.gstatic.com/mapfiles/place_api/icons/v1/png_71/restaurant-71.png",
      "icon_background_color": "#FF9E67",
      "icon_mask_base_uri": "https://maps.gstatic.com/mapfiles/place_api/icons/v2/restaurant_pinlet",
      "name": "Joy Burger Bar",
      "opening_hours": {
        "open_now": true
      },
      "photos": [
        {
          "height": 3456,
          "html_attributions": [
            "<a href=\"https://maps.google.com/maps/contrib/111525270372715935503\">Joy Burger Bar</a>"
          ],
          "photo_reference": "AeJbb3d-Xp4ccHhrswR8y_zSR9YOQFciN-HSyDyIie-rwfn626BVTgi6w01-HmKTK8xmE4B5yyQKmFmtIZMhy5B5heSPfkVxaM7OBrDS-rAN07HXtiN4W_xwJaZcY_OI19T3BSLkcayTnpWLwRDvi4D2hlBQrp2Bf-XwvcfPjAAZ-kbkSHtx",
          "width": 5184
        }
      ],
      "place_id": "ChIJqS9kwqdYwokRSoQV7YMVlLA",
      "plus_code": {
        "compound_code": "Q3Q2+9F \u7f8e\u570b\u7d10\u7d04",
        "global_code": "87G8Q3Q2+9F"
      },
      "price_level": 2,
      "rating": 4.1,
      "reference": "ChIJqS9kwqdYwokRSoQV7YMVlLA",
      "scope": "GOOGLE",
      "types": [
        "meal_delivery",
        "meal_takeaway",
        "restaurant",
        "food",
        "point_of_interest",
        "establishment"
      ],
      "user_ratings_total": 504,
      "vicinity": "1567 Lexington Avenue, New York"
    },
    {
      "business_status": "OPERATIONAL",
      "geometry": {
        "location": {
          "lat": 40.7844236,
          "lng": -73.94857619999999
        },
        "viewport": {
          "northeast": {
            "lat": 40.7859463302915,
            "lng": -73.94711451970848
          },
          "southwest": {
            "lat": 40.7832483697085,
            "lng": -73.94981248029148
          }
        }
      },
      "icon": "https://maps.gstatic.com/mapfiles/place_api/icons/v1/png_71/generic_business-71.png",
      "icon_background_color": "#7B9EB0",
      "icon_mask_base_uri": "https://maps.gstatic.com/mapfiles/place_api/icons/v2/generic_pinlet",
      "name": "New York Radiology Partners | East 95th Street Radiology",
      "opening_hours": {
        "open_now": false
      },
      "photos": [
        {
          "height": 1365,
          "html_attributions": [
            "<a href=\"https://maps.google.com/maps/contrib/113839337490376923338\">New York Radiology Partners | East 95th Street Radiology</a>"
          ],
          "photo_reference": "AeJbb3d4BF7SMC2OTGwQBrdw8M_Ls3fZMCcI1d4ZBc7a_A0bF693Nhkp-B2EZRf9rC3NipIFHqwo424geveKzsFTlV9GjYEzTES-gNOWZyvdW1-RVW0FfDOM4wWddfv1jM8QCkg4W7yKsHqxwxvLImzglYeoO-kO8kuyPFxnt80XL1n48xPS",
          "width": 2048
        }
      ],
      "place_id": "ChIJz0-X5aVYwokRmyudde2gGs4",
      "plus_code": {
        "compound_code": "Q3M2+QH \u7f8e\u570b\u7d10\u7d04",
        "global_code": "87G8Q3M2+QH"
      },
      "rating": 4.7,
      "reference": "ChIJz0-X5aVYwokRmyudde2gGs4",
      "scope": "GOOGLE",
      "types": [
        "doctor",
        "health",
        "point_of_interest",
        "establishment"
      ],
      "user_ratings_total": 592,
      "vicinity": "215 East 95th Street Ste. C, New York"
    },
    {
      "business_status": "OPERATIONAL",
      "geometry": {
        "location": {
          "lat": 40.7905885,
          "lng": -73.9477009
        },
        "viewport": {
          "northeast": {
            "lat": 40.7919054302915,
            "lng": -73.94626406970849
          },
          "southwest": {
            "lat": 40.7892074697085,
            "lng": -73.9489620302915
          }
        }
      },
      "icon": "https://maps.gstatic.com/mapfiles/place_api/icons/v1/png_71/restaurant-71.png",
      "icon_background_color": "#FF9E67",
      "icon_mask_base_uri": "https://maps.gstatic.com/mapfiles/place_api/icons/v2/restaurant_pinlet",
      "name": "Quechua Nostra",
      "opening_hours": {
        "open_now": true
      },
      "photos": [
        {
          "height": 3024,
          "html_attributions": [
            "<a href=\"https://maps.google.com/maps/contrib/114734064390523314763\">Chris Torres</a>"
          ],
          "photo_reference": "AeJbb3ei6oqxXucDLD85TGoddtJtRkaFLkbWz14VjJf9WgoVwW8qaUj4pnM_B1hvjCohgtIMhJZRtjw9v7YjDfY1_C9vgI_saSyCf1N4PHDrm0cswDf_vKHeMGiz_1sL3vJzGcmdkEMSqs_7yCPXd8UhFlwSfPHbxim0gfJeTbxR00mOZ8E",
          "width": 4032
        }
      ],
      "place_id": "ChIJ4yCxtAL2wokR3I4UitA11EE",
      "plus_code": {
        "compound_code": "Q3R2+6W \u7f8e\u570b\u7d10\u7d04",
        "global_code": "87G8Q3R2+6W"
      },
      "price_level": 1,
      "rating": 4.5,
      "reference": "ChIJ4yCxtAL2wokR3I4UitA11EE",
      "scope": "GOOGLE",
      "types": [
        "restaurant",
        "food",
        "point_of_interest",
        "establishment"
      ],
      "user_ratings_total": 170,
      "vicinity": "1634 Lexington Avenue, New York"
    },
    {
      "business_status": "OPERATIONAL",
      "geometry": {
        "location": {
          "lat": 40.78567559999999,
          "lng": -73.9495326
        },
        "viewport": {
          "northeast": {
            "lat": 40.78722318029149,
            "lng": -73.94806261970848
          },
          "southwest": {
            "lat": 40.78452521970849,
            "lng": -73.9507605802915
          }
        }
      },
      "icon": "https://maps.gstatic.com/mapfiles/place_api/icons/v1/png_71/parking-71.png",
      "icon_background_color": "#7B9EB0",
      "icon_mask_base_uri": "https://maps.gstatic.com/mapfiles/place_api/icons/v2/parking_pinlet",
      "name": "iPark East 97th",
      "opening_hours": {
        "open_now": true
      },
      "photos": [
        {
          "height": 1536,
          "html_attributions": [
            "<a href=\"https://maps.google.com/maps/contrib/110608446797075960265\">Craig Ostroff</a>"
          ],
          "photo_reference": "AeJbb3dCRBGy4UHR6dBqYr98EtVYpP9MFYuZXHVfmW1REpOmPQBq2E2h2EwgAZIxGkn7vgDqnxA0QsfmF7z7n31gXIsiJz2sAz0tOjq6h7tvDVA-m8RE0ARP3_vfHOjDMcTNnKMfD1Kgsp-15wsnLe-KM2Ze9um7ePtCIrJwR-VIrnMfojRR",
          "width": 2048
        }
      ],
      "place_id": "ChIJiZlBXqZYwokRohcBIfqKS94",
      "plus_code": {
        "compound_code": "Q3P2+75 \u7f8e\u570b\u7d10\u7d04",
        "global_code": "87G8Q3P2+75"
      },
      "rating": 3.1,
      "reference": "ChIJiZlBXqZYwokRohcBIfqKS94",
      "scope": "GOOGLE",
      "types": [
        "parking",
        "point_of_interest",
        "establishment"
      ],
      "user_ratings_total": 27,
      "vicinity": "176 East 97th Street, New York"
    },
    {
      "business_status": "OPERATIONAL",
      "geometry": {
        "location": {
          "lat": 40.7845012,
          "lng": -73.9483977
        },
        "viewport": {
          "northeast": {
            "lat": 40.7856631302915,
            "lng": -73.94694170000001
          },
          "southwest": {
            "lat": 40.7829651697085,
            "lng": -73.95006850000001
          }
        }
      },
      "icon": "https://maps.gstatic.com/mapfiles/place_api/icons/v1/png_71/generic_business-71.png",
      "icon_background_color": "#7B9EB0",
      "icon_mask_base_uri": "https://maps.gstatic.com/mapfiles/place_api/icons/v2/generic_pinlet",
      "name": "Normandie Court",
      "opening_hours": {
        "open_now": true
      },
      "photos": [
        {
          "height": 800,
          "html_attributions": [
            "<a href=\"https://maps.google.com/maps/contrib/103237191956315086897\">Normandie Court</a>"
          ],
          "photo_reference": "AeJbb3eCmLYLJFy-n_QYqYpi0YefII8_Fe8jnloc2wuaQ1DG6HMlDsB2THMIapfBu7-gt-J3reZ3_hydk7ogFCOKmsEQhyDoo0sdesMD9-K4uORr6ygFhzBdoKN0ndQfnKw0X6VWbc6YeYAhGBJ-KFDkpmf2ghQRcQoXbOpRx1yVIUxSws8",
          "width": 1200
        }
      ],
      "place_id": "ChIJkUhO3qVYwokRA-2PDHCzppQ",
      "plus_code": {
        "compound_code": "Q3M2+RJ \u7f8e\u570b\u7d10\u7d04",
        "global_code": "87G8Q3M2+RJ"
      },
      "rating": 3.9,
      "reference": "ChIJkUhO3qVYwokRA-2PDHCzppQ",
      "scope": "GOOGLE",
      "types": [
        "point_of_interest",
        "establishment"
      ],
      "user_ratings_total": 143,
      "vicinity": "225 East 95th Street, New York"
    },
    {
      "business_status": "OPERATIONAL",
      "geometry": {
        "location": {
          "lat": 40.7844236,
          "lng": -73.94857619999999
        },
        "viewport": {
          "northeast": {
            "lat": 40.78596393029149,
            "lng": -73.94715586970848
          },
          "southwest": {
            "lat": 40.78326596970849,
            "lng": -73.94985383029149
          }
        }
      },
      "icon": "https://maps.gstatic.com/mapfiles/place_api/icons/v1/png_71/generic_business-71.png",
      "icon_background_color": "#7B9EB0",
      "icon_mask_base_uri": "https://maps.gstatic.com/mapfiles/place_api/icons/v2/generic_pinlet",
      "name": "Melinda Sutton, MD, Family Medicine",
      "photos": [
        {
          "height": 451,
          "html_attributions": [
            "<a href=\"https://maps.google.com/maps/contrib/114713920839053562679\">Melinda Sutton, MD, Family Medicine</a>"
          ],
          "photo_reference": "AeJbb3dHr47Ofuw2jjkRJziNhtJkyaxmwZYCAq3gMBZhJL-csn5xVtoh2w40uNblr4y-vzJ7GxSv-2nm77wuV0sXraIr4BAii1C-3gdpSzKgKTA-vZYyxOcjbE12A9fuDyWjHNmMne_DWGOlEIQCaO8mareIFP9TKxaRFvGDh6buj4InTX76",
          "width": 346
        }
      ],
      "place_id": "ChIJ0SUW3aVYwokRwiAxedph9OA",
      "plus_code": {
        "compound_code": "Q3M2+QH \u7f8e\u570b\u7d10\u7d04",
        "global_code": "87G8Q3M2+QH"
      },
      "reference": "ChIJ0SUW3aVYwokRwiAxedph9OA",
      "scope": "GOOGLE",
      "types": [
        "doctor",
        "health",
        "point_of_interest",
        "establishment"
      ],
      "vicinity": "215 East 95th Street, New York"
    },
    {
      "business_status": "OPERATIONAL",
      "geometry": {
        "location": {
          "lat": 40.7844236,
          "lng": -73.94857619999999
        },
        "viewport": {
          "northeast": {
            "lat": 40.78596393029149,
            "lng": -73.94715586970848
          },
          "southwest": {
            "lat": 40.78326596970849,
            "lng": -73.94985383029149
          }
        }
      },
      "icon": "https://maps.gstatic.com/mapfiles/place_api/icons/v1/png_71/generic_business-71.png",
      "icon_background_color": "#7B9EB0",
      "icon_mask_base_uri": "https://maps.gstatic.com/mapfiles/place_api/icons/v2/generic_pinlet",
      "name": "Isabel Bogdan, WHNP-C",
      "opening_hours": {
        "open_now": true
      },
      "photos": [
        {
          "height": 346,
          "html_attributions": [
            "<a href=\"https://maps.google.com/maps/contrib/112563473156178047523\">Isabel Bogdan, WHNP-C</a>"
          ],
          "photo_reference": "AeJbb3e5jbullhVN-OfCy6r3bZf8aordoBK9LHOYrEVJT768xcMMCUEx3m5LQ93hf6r2HN0a5vbnq0idFmSxF8rV8bf_vthzOH-gJoP00vxHKQbGynT7FsuGPd1T_Q_ptGCA2Xsag2noUnveS5KyR_EGJmf1YF1gxf67OM9Be7ubgae7cwX0",
          "width": 346
        }
      ],
      "place_id": "ChIJ0SUW3aVYwokRXKXkUpi9e4o",
      "plus_code": {
        "compound_code": "Q3M2+QH \u7f8e\u570b\u7d10\u7d04",
        "global_code": "87G8Q3M2+QH"
      },
      "rating": 5,
      "reference": "ChIJ0SUW3aVYwokRXKXkUpi9e4o",
      "scope": "GOOGLE",
      "types": [
        "doctor",
        "health",
        "point_of_interest",
        "establishment"
      ],
      "user_ratings_total": 1,
      "vicinity": "215 East 95th Street, New York"
    },
    {
      "business_status": "OPERATIONAL",
      "geometry": {
        "location": {
          "lat": 40.7844236,
          "lng": -73.94857619999999
        },
        "viewport": {
          "northeast": {
            "lat": 40.78596393029149,
            "lng": -73.94715586970848
          },
          "southwest": {
            "lat": 40.78326596970849,
            "lng": -73.94985383029149
          }
        }
      },
      "icon": "https://maps.gstatic.com/mapfiles/place_api/icons/v1/png_71/generic_business-71.png",
      "icon_background_color": "#7B9EB0",
      "icon_mask_base_uri": "https://maps.gstatic.com/mapfiles/place_api/icons/v2/generic_pinlet",
      "name": "Katherine Farrell Harris, RD, CDN, CDE",
      "opening_hours": {
        "open_now": false
      },
      "photos": [
        {
          "height": 346,
          "html_attributions": [
            "<a href=\"https://maps.google.com/maps/contrib/104751567513566889932\">Katherine Farrell Harris, RD, CDN, CDE</a>"
          ],
          "photo_reference": "AeJbb3ccmNR-6WserMZxRv3LwJlmjyA3f1UVy1va3_I_yySNQGOcobDcl0vl4dFgulqL3QSs5C3m0Y8btHdEMJ9Fwk82n7AWg3ie-4K9I4UlLlS20EPv2w60kP4VRXmFCWy_BTyvNnzqNakl2R_dWgEjWvw8f9zzkNT4Oz8NBAwKfzP6w-Q",
          "width": 346
        }
      ],
      "place_id": "ChIJISORi_lYwokROT_ltjunRjc",
      "plus_code": {
        "compound_code": "Q3M2+QH \u7f8e\u570b\u7d10\u7d04",
        "global_code": "87G8Q3M2+QH"
      },
      "reference": "ChIJISORi_lYwokROT_ltjunRjc",
      "scope": "GOOGLE",
      "types": [
        "health",
        "point_of_interest",
        "establishment"
      ],
      "vicinity": "215 East 95th Street, New York"
    },
    {
      "business_status": "OPERATIONAL",
      "geometry": {
        "location": {
          "lat": 40.7856999,
          "lng": -73.9497935
        },
        "viewport": {
          "northeast": {
            "lat": 40.7869292802915,
            "lng": -73.9485333197085
          },
          "southwest": {
            "lat": 40.7842313197085,
            "lng": -73.95123128029151
          }
        }
      },
      "icon": "https://maps.gstatic.com/mapfiles/place_api/icons/v1/png_71/generic_business-71.png",
      "icon_background_color": "#7B9EB0",
      "icon_mask_base_uri": "https://maps.gstatic.com/mapfiles/place_api/icons/v2/generic_pinlet",
      "name": "Monterey Rental Office",
      "photos": [
        {
          "height": 1152,
          "html_attributions": [
            "<a href=\"https://maps.google.com/maps/contrib/109934559854295014080\">alan jarvis</a>"
          ],
          "photo_reference": "AeJbb3fRbjCVljgLcvMl44bXxQDoTZa8Gv7ylcOBpw_YNVLs-dXDlLSrY5XB9eOFNMRVB0fu_o16t9Zo6zcmIVr5QzrDRn0dYM7ls-La3WYhhhsXn8ugKjag2L-Ti-UpWeZTMtgDPNXH4kpS3Nbo_-2aR6RisB31npsU0Sn6WN9KLwE3k7t4",
          "width": 2048
        }
      ],
      "place_id": "ChIJb2_jb6ZYwokRhRX1OlQ7MJ0",
      "plus_code": {
        "compound_code": "Q3P2+73 \u7f8e\u570b\u7d10\u7d04",
        "global_code": "87G8Q3P2+73"
      },
      "rating": 3,
      "reference": "ChIJb2_jb6ZYwokRhRX1OlQ7MJ0",
      "scope": "GOOGLE",
      "types": [
        "real_estate_agency",
        "point_of_interest",
        "establishment"
      ],
      "user_ratings_total": 2,
      "vicinity": "175 East 96th Street, New York"
    },
    {
      "business_status": "OPERATIONAL",
      "geometry": {
        "location": {
          "lat": 40.79028,
          "lng": -73.9452
        },
        "viewport": {
          "northeast": {
            "lat": 40.79170678029149,
            "lng": -73.94399681970849
          },
          "southwest": {
            "lat": 40.7890088197085,
            "lng": -73.9466947802915
          }
        }
      },
      "icon": "https://maps.gstatic.com/mapfiles/place_api/icons/v1/png_71/restaurant-71.png",
      "icon_background_color": "#FF9E67",
      "icon_mask_base_uri": "https://maps.gstatic.com/mapfiles/place_api/icons/v2/restaurant_pinlet",
      "name": "Subway",
      "opening_hours": {
        "open_now": true
      },
      "photos": [
        {
          "height": 4032,
          "html_attributions": [
            "<a href=\"https://maps.google.com/maps/contrib/112510975103485871051\">Majiya Chai</a>"
          ],
          "photo_reference": "AeJbb3ecaEZIIHfB5_phGBj7ic4Z_HK9SWd73ZgVPVTWfjO1UnJIEdcO8ImtqIw7xcvp0Vg6QyU7KBoKZZjpY7Wl1PJx0MvhyCxgo8hJwiim9g7iBum3e20M34WiPGLfKWQ66BlvWT3TdVF03B4Vih_JcdSjwnYlBl-cRH9j87uPe7kAYtQJ",
          "width": 3024
        }
      ],
      "place_id": "ChIJj1R6jAL2wokRdWuE9v6YuCI",
      "plus_code": {
        "compound_code": "Q3R3+4W \u7f8e\u570b\u7d10\u7d04",
        "global_code": "87G8Q3R3+4W"
      },
      "price_level": 1,
      "rating": 3.7,
      "reference": "ChIJj1R6jAL2wokRdWuE9v6YuCI",
      "scope": "GOOGLE",
      "types": [
        "restaurant",
        "food",
        "point_of_interest",
        "establishment"
      ],
      "user_ratings_total": 51,
      "vicinity": "1885 3rd Avenue, New York"
    },
    {
      "business_status": "OPERATIONAL",
      "geometry": {
        "location": {
          "lat": 40.7863102,
          "lng": -73.9489416
        },
        "viewport": {
          "northeast": {
            "lat": 40.78759813029149,
            "lng": -73.9474247197085
          },
          "southwest": {
            "lat": 40.78490016970849,
            "lng": -73.9501226802915
          }
        }
      },
      "icon": "https://maps.gstatic.com/mapfiles/place_api/icons/v1/png_71/generic_business-71.png",
      "icon_background_color": "#7B9EB0",
      "icon_mask_base_uri": "https://maps.gstatic.com/mapfiles/place_api/icons/v2/generic_pinlet",
      "name": "Cash Bradley MD",
      "place_id": "ChIJ-evpPqZYwokRur5HLi4cI_Q",
      "plus_code": {
        "compound_code": "Q3P2+GC \u7f8e\u570b\u7d10\u7d04",
        "global_code": "87G8Q3P2+GC"
      },
      "reference": "ChIJ-evpPqZYwokRur5HLi4cI_Q",
      "scope": "GOOGLE",
      "types": [
        "doctor",
        "health",
        "point_of_interest",
        "establishment"
      ],
      "vicinity": "1760 3rd Avenue, New York"
    },
    {
      "business_status": "OPERATIONAL",
      "geometry": {
        "location": {
          "lat": 40.7890549,
          "lng": -73.9470836
        },
        "viewport": {
          "northeast": {
            "lat": 40.7904788802915,
            "lng": -73.94569481970848
          },
          "southwest": {
            "lat": 40.7877809197085,
            "lng": -73.9483927802915
          }
        }
      },
      "icon": "https://maps.gstatic.com/mapfiles/place_api/icons/v1/png_71/civic_building-71.png",
      "icon_background_color": "#7B9EB0",
      "icon_mask_base_uri": "https://maps.gstatic.com/mapfiles/place_api/icons/v2/civic-bldg_pinlet",
      "name": "New York City Police Department 23 Precinct",
      "photos": [
        {
          "height": 2912,
          "html_attributions": [
            "<a href=\"https://maps.google.com/maps/contrib/104045972974793117225\">Michael Rucinski</a>"
          ],
          "photo_reference": "AeJbb3ccd30DjDCQQvQ8zbiXtJwWg3SbwhPF2SKKROzNnHvnWhtklCIi7oAEizMNrqJX-cbuob9FRoCc_-KK7yg2ZdnIW07h4sdtRH7_AGM32ezpfekChVJyoAwrV_ytp0KFsCTDH7fkcwVL8Crvcm52RoSuJjmj5h7C3JtPcuBC88-feJC4",
          "width": 4368
        }
      ],
      "place_id": "ChIJ0SBRB6hYwokRr3tmDsVhdk0",
      "plus_code": {
        "compound_code": "Q3Q3+J5 \u7f8e\u570b\u7d10\u7d04",
        "global_code": "87G8Q3Q3+J5"
      },
      "rating": 3.5,
      "reference": "ChIJ0SBRB6hYwokRr3tmDsVhdk0",
      "scope": "GOOGLE",
      "types": [
        "police",
        "point_of_interest",
        "establishment"
      ],
      "user_ratings_total": 33,
      "vicinity": "162 East 102nd Street, New York"
    },
    {
      "business_status": "OPERATIONAL",
      "geometry": {
        "location": {
          "lat": 40.784169,
          "lng": -73.9479526
        },
        "viewport": {
          "northeast": {
            "lat": 40.7858079302915,
            "lng": -73.9469315697085
          },
          "southwest": {
            "lat": 40.7831099697085,
            "lng": -73.9496295302915
          }
        }
      },
      "icon": "https://maps.gstatic.com/mapfiles/place_api/icons/v1/png_71/shopping-71.png",
      "icon_background_color": "#4B96F3",
      "icon_mask_base_uri": "https://maps.gstatic.com/mapfiles/place_api/icons/v2/shopping_pinlet",
      "name": "Costello Communications Inc",
      "opening_hours": {
        "open_now": true
      },
      "place_id": "ChIJuRQr-KVYwokRObOFDO5cExk",
      "plus_code": {
        "compound_code": "Q3M2+MR \u7f8e\u570b\u7d10\u7d04",
        "global_code": "87G8Q3M2+MR"
      },
      "reference": "ChIJuRQr-KVYwokRObOFDO5cExk",
      "scope": "GOOGLE",
      "types": [
        "electronics_store",
        "point_of_interest",
        "store",
        "establishment"
      ],
      "vicinity": "235 East 95th Street # 11J, New York"
    },
    {
      "business_status": "OPERATIONAL",
      "geometry": {
        "location": {
          "lat": 40.784169,
          "lng": -73.9479526
        },
        "viewport": {
          "northeast": {
            "lat": 40.7858079302915,
            "lng": -73.9469315697085
          },
          "southwest": {
            "lat": 40.7831099697085,
            "lng": -73.9496295302915
          }
        }
      },
      "icon": "https://maps.gstatic.com/mapfiles/place_api/icons/v1/png_71/generic_business-71.png",
      "icon_background_color": "#7B9EB0",
      "icon_mask_base_uri": "https://maps.gstatic.com/mapfiles/place_api/icons/v2/generic_pinlet",
      "name": "Transplant Living Center",
      "place_id": "ChIJVxdt2qVYwokR_JJ_3U7S7i0",
      "plus_code": {
        "compound_code": "Q3M2+MR \u7f8e\u570b\u7d10\u7d04",
        "global_code": "87G8Q3M2+MR"
      },
      "rating": 5,
      "reference": "ChIJVxdt2qVYwokR_JJ_3U7S7i0",
      "scope": "GOOGLE",
      "types": [
        "point_of_interest",
        "establishment"
      ],
      "user_ratings_total": 9,
      "vicinity": "235 East 95th Street STE 1J, New York"
    },
    {
      "geometry": {
        "location": {
          "lat": 40.8240478,
          "lng": -73.9447643
        },
        "viewport": {
          "northeast": {
            "lat": 40.87822003591612,
            "lng": -73.91064591328563
          },
          "southwest": {
            "lat": 40.78278392408598,
            "lng": -73.97119006413347
          }
        }
      },
      "icon": "https://maps.gstatic.com/mapfiles/place_api/icons/v1/png_71/geocode-71.png",
      "icon_background_color": "#7B9EB0",
      "icon_mask_base_uri": "https://maps.gstatic.com/mapfiles/place_api/icons/v2/generic_pinlet",
      "name": "\u66fc\u54c8\u9813\u4e0a\u57ce",
      "photos": [
        {
          "height": 4000,
          "html_attributions": [
            "<a href=\"https://maps.google.com/maps/contrib/108665206705263687409\">Chris Lidstone</a>"
          ],
          "photo_reference": "AeJbb3d1yztd0suh3hynnkGLeiNnxQEasZPeAEi6Awcd8XpDAhasIU9oIBHxKiQRI_bExNHmqTAfKxfaGz6X_Wo7GVyp7I2tKzK6I5UxuIkAG_a43hvMcWH4F-njK2JVMcn7VIhZMUX3mN_wYH7gCQ3g8sbatvJR1uVKVU3UhAHZ48XysG9g",
          "width": 3000
        }
      ],
      "place_id": "ChIJY50xHxP2wokR7WhhDNRmgRU",
      "reference": "ChIJY50xHxP2wokR7WhhDNRmgRU",
      "scope": "GOOGLE",
      "types": [
        "neighborhood",
        "political"
      ],
      "vicinity": "\u66fc\u54c8\u9813"
    },
    {
      "business_status": "OPERATIONAL",
      "geometry": {
        "location": {
          "lat": 40.7867423,
          "lng": -73.951435
        },
        "viewport": {
          "northeast": {
            "lat": 40.7881773302915,
            "lng": -73.95002221970849
          },
          "southwest": {
            "lat": 40.7854793697085,
            "lng": -73.9527201802915
          }
        }
      },
      "icon": "https://maps.gstatic.com/mapfiles/place_api/icons/v1/png_71/lodging-71.png",
      "icon_background_color": "#909CE1",
      "icon_mask_base_uri": "https://maps.gstatic.com/mapfiles/place_api/icons/v2/hotel_pinlet",
      "name": "Shared Room In Manhattan Near Central Park",
      "place_id": "ChIJ__8D7qZYwokRCbLmTTemF8M",
      "plus_code": {
        "compound_code": "Q2PX+MC New York, NY, USA",
        "global_code": "87G8Q2PX+MC"
      },
      "rating": 4.5,
      "reference": "ChIJ__8D7qZYwokRCbLmTTemF8M",
      "scope": "GOOGLE",
      "types": [
        "lodging",
        "point_of_interest",
        "establishment"
      ],
      "user_ratings_total": 2,
      "vicinity": "108 East 97th Street #1B, New York"
    },
    {
      "business_status": "OPERATIONAL",
      "geometry": {
        "location": {
          "lat": 40.79196399999999,
          "lng": -73.946878
        },
        "viewport": {
          "northeast": {
            "lat": 40.7932511302915,
            "lng": -73.94538346970849
          },
          "southwest": {
            "lat": 40.7905531697085,
            "lng": -73.94808143029151
          }
        }
      },
      "icon": "https://maps.gstatic.com/mapfiles/place_api/icons/v1/png_71/school-71.png",
      "icon_background_color": "#7B9EB0",
      "icon_mask_base_uri": "https://maps.gstatic.com/mapfiles/place_api/icons/v2/school_pinlet",
      "name": "Heritage School, The",
      "place_id": "ChIJtf2OJwP2wokRPK-dogBO8g4",
      "plus_code": {
        "compound_code": "Q3R3+Q6 New York, NY, USA",
        "global_code": "87G8Q3R3+Q6"
      },
      "rating": 3.4,
      "reference": "ChIJtf2OJwP2wokRPK-dogBO8g4",
      "scope": "GOOGLE",
      "types": [
        "secondary_school",
        "school",
        "point_of_interest",
        "establishment"
      ],
      "user_ratings_total": 11,
      "vicinity": "1680 Lexington Avenue, New York"
    },
    {
      "business_status": "OPERATIONAL",
      "geometry": {
        "location": {
          "lat": 40.7850176,
          "lng": -73.9499938
        },
        "viewport": {
          "northeast": {
            "lat": 40.7862153302915,
            "lng": -73.94849046970849
          },
          "southwest": {
            "lat": 40.7835173697085,
            "lng": -73.9511884302915
          }
        }
      },
      "icon": "https://maps.gstatic.com/mapfiles/place_api/icons/v1/png_71/school-71.png",
      "icon_background_color": "#7B9EB0",
      "icon_mask_base_uri": "https://maps.gstatic.com/mapfiles/place_api/icons/v2/school_pinlet",
      "name": "P.S. 77 Lower Lab School",
      "opening_hours": {
        "open_now": true
      },
      "photos": [
        {
          "height": 3036,
          "html_attributions": [
            "<a href=\"https://maps.google.com/maps/contrib/105637913706276139020\">Kristian Laursen</a>"
          ],
          "photo_reference": "AeJbb3cfFBZzZLy4o-j3OjOSz3TDZICpLpGqR3tDRY-WOM50-6jl4Yam7kKbQVk4daHhE3OANz6CeK-98oWOAYuQo5eaMS7zugomCqw7ocuEg3XQVngTh5LBNNngkDRzlKKllnuH8KMx2BJK0uVNQIgCBqe92q26y3nLnU9Lif-uHACXZCHO",
          "width": 4048
        }
      ],
      "place_id": "ChIJE7XUd6ZYwokRZxVRk1OGSsg",
      "plus_code": {
        "compound_code": "Q3P2+22 New York, NY, USA",
        "global_code": "87G8Q3P2+22"
      },
      "rating": 4.9,
      "reference": "ChIJE7XUd6ZYwokRZxVRk1OGSsg",
      "scope": "GOOGLE",
      "types": [
        "primary_school",
        "school",
        "point_of_interest",
        "establishment"
      ],
      "user_ratings_total": 9,
      "vicinity": "1700 3rd Avenue, New York"
    },
    {
      "business_status": "OPERATIONAL",
      "geometry": {
        "location": {
          "lat": 40.7865726,
          "lng": -73.9519652
        },
        "viewport": {
          "northeast": {
            "lat": 40.7878111802915,
            "lng": -73.9506684197085
          },
          "southwest": {
            "lat": 40.7851132197085,
            "lng": -73.95336638029151
          }
        }
      },
      "icon": "https://maps.gstatic.com/mapfiles/place_api/icons/v1/png_71/generic_business-71.png",
      "icon_background_color": "#7B9EB0",
      "icon_mask_base_uri": "https://maps.gstatic.com/mapfiles/place_api/icons/v2/generic_pinlet",
      "name": "Beth Cohen, MD",
      "place_id": "ChIJmynI9KNYwokRlCEgw_G4e3w",
      "plus_code": {
        "compound_code": "Q2PX+J6 New York, NY, USA",
        "global_code": "87G8Q2PX+J6"
      },
      "reference": "ChIJmynI9KNYwokRlCEgw_G4e3w",
      "scope": "GOOGLE",
      "types": [
        "doctor",
        "health",
        "point_of_interest",
        "establishment"
      ],
      "vicinity": "1245 Park Avenue, New York"
    },
    {
      "business_status": "OPERATIONAL",
      "geometry": {
        "location": {
          "lat": 40.7873414,
          "lng": -73.95163079999999
        },
        "viewport": {
          "northeast": {
            "lat": 40.78871608029149,
            "lng": -73.95034431970849
          },
          "southwest": {
            "lat": 40.78601811970849,
            "lng": -73.95304228029151
          }
        }
      },
      "icon": "https://maps.gstatic.com/mapfiles/place_api/icons/v1/png_71/bar-71.png",
      "icon_background_color": "#FF9E67",
      "icon_mask_base_uri": "https://maps.gstatic.com/mapfiles/place_api/icons/v2/bar_pinlet",
      "name": "Earl's Beer and Cheese",
      "opening_hours": {
        "open_now": true
      },
      "photos": [
        {
          "height": 2672,
          "html_attributions": [
            "<a href=\"https://maps.google.com/maps/contrib/102498524092436005137\">Ari Miller</a>"
          ],
          "photo_reference": "AeJbb3dIRTtryIXL-nAXcaAMyUErSNgK25_jxF57kygMA2iHW4tV7fb7Pk8WPqJUB1Zk4gldvMH7FuuRAHdB58wdocBjB99IqyxKdmZVGMtpdtY5yLj89xR5x5fEiKKhaTK-zgZYJPiwvp2ZX0fAfV0b_6nRaPKGo96P8KKnjF2fKUaFwZqg",
          "width": 4000
        }
      ],
      "place_id": "ChIJbXB25KZYwokRDPPpjiXlUKw",
      "plus_code": {
        "compound_code": "Q2PX+W8 New York, NY, USA",
        "global_code": "87G8Q2PX+W8"
      },
      "price_level": 2,
      "rating": 4.6,
      "reference": "ChIJbXB25KZYwokRDPPpjiXlUKw",
      "scope": "GOOGLE",
      "types": [
        "bar",
        "restaurant",
        "food",
        "point_of_interest",
        "establishment"
      ],
      "user_ratings_total": 715,
      "vicinity": "1259 Park Avenue, New York"
    },
    {
      "business_status": "OPERATIONAL",
      "geometry": {
        "location": {
          "lat": 40.79041840000001,
          "lng": -73.945235
        },
        "viewport": {
          "northeast": {
            "lat": 40.7918106802915,
            "lng": -73.94398886970848
          },
          "southwest": {
            "lat": 40.78911271970851,
            "lng": -73.94668683029148
          }
        }
      },
      "icon": "https://maps.gstatic.com/mapfiles/place_api/icons/v1/png_71/shopping-71.png",
      "icon_background_color": "#4B96F3",
      "icon_mask_base_uri": "https://maps.gstatic.com/mapfiles/place_api/icons/v2/shopping_pinlet",
      "name": "Fabrics Save-A-Thon",
      "opening_hours": {
        "open_now": true
      },
      "photos": [
        {
          "height": 1140,
          "html_attributions": [
            "<a href=\"https://maps.google.com/maps/contrib/105170431124683218627\">Marc Gonzalez</a>"
          ],
          "photo_reference": "AeJbb3fnZGaYlovbxcftLtwI2Bb6LEWaWzjy2cdkLOMPRqPrc_W7yBVPIJO1blHTIMtJgqNOoPkV1_xU_jL53LXKNVIm5dGAtq3wt7m2oG0TePqLoTrJIrmYerFUkEo9dTG_2fZGbAyWdiKv6oFSAve9cvz6ylsKzwkpX3afX3tHF8lJP1Ge",
          "width": 1526
        }
      ],
      "place_id": "ChIJBSZjiwL2wokRCExhbchyL_g",
      "plus_code": {
        "compound_code": "Q3R3+5W New York, NY, USA",
        "global_code": "87G8Q3R3+5W"
      },
      "rating": 4.3,
      "reference": "ChIJBSZjiwL2wokRCExhbchyL_g",
      "scope": "GOOGLE",
      "types": [
        "home_goods_store",
        "point_of_interest",
        "store",
        "establishment"
      ],
      "user_ratings_total": 534,
      "vicinity": "1887 3rd Avenue, New York"
    },
    {
      "business_status": "OPERATIONAL",
      "geometry": {
        "location": {
          "lat": 40.7886376,
          "lng": -73.9524223
        },
        "viewport": {
          "northeast": {
            "lat": 40.7902165802915,
            "lng": -73.95128216970849
          },
          "southwest": {
            "lat": 40.7875186197085,
            "lng": -73.9539801302915
          }
        }
      },
      "icon": "https://maps.gstatic.com/mapfiles/place_api/icons/v1/png_71/generic_business-71.png",
      "icon_background_color": "#7B9EB0",
      "icon_mask_base_uri": "https://maps.gstatic.com/mapfiles/place_api/icons/v2/generic_pinlet",
      "name": "Kimberly Klipstein, MD",
      "opening_hours": {
        "open_now": false
      },
      "photos": [
        {
          "height": 727,
          "html_attributions": [
            "<a href=\"https://maps.google.com/maps/contrib/103341467976801152820\">Kimberly Klipstein, MD</a>"
          ],
          "photo_reference": "AeJbb3cg3h1BT7RzGKfweZMcVSibsJC9_XSdI2tcJdmPKSqVEF8y_SCwzj5K4SBn5e5pVx3RXAFXiZ_UNibscixtAG9vTtMsBovyANO-hvGl2EZmMtI9fAhzboPn1Q_tIr4tf-QGoLSX9eLgXA-KyBzyZeGxCHnJrr3qM4hDxt2_Ev20ssDf",
          "width": 727
        }
      ],
      "place_id": "ChIJ1-NkqqBYwokRkH5nMr9L3Ps",
      "plus_code": {
        "compound_code": "Q2QX+F2 New York, NY, USA",
        "global_code": "87G8Q2QX+F2"
      },
      "reference": "ChIJ1-NkqqBYwokRkH5nMr9L3Ps",
      "scope": "GOOGLE",
      "types": [
        "doctor",
        "health",
        "point_of_interest",
        "establishment"
      ],
      "vicinity": "1425 Madison Avenue 5th Fl, New York"
    },
    {
      "business_status": "OPERATIONAL",
      "geometry": {
        "location": {
          "lat": 40.7876189,
          "lng": -73.9427856
        },
        "viewport": {
          "northeast": {
            "lat": 40.7888968302915,
            "lng": -73.94143716970848
          },
          "southwest": {
            "lat": 40.78619886970851,
            "lng": -73.9441351302915
          }
        }
      },
      "icon": "https://maps.gstatic.com/mapfiles/place_api/icons/v1/png_71/generic_business-71.png",
      "icon_background_color": "#7B9EB0",
      "icon_mask_base_uri": "https://maps.gstatic.com/mapfiles/place_api/icons/v2/generic_pinlet",
      "name": "SCAN-Harbor",
      "opening_hours": {
        "open_now": false
      },
      "photos": [
        {
          "height": 772,
          "html_attributions": [
            "<a href=\"https://maps.google.com/maps/contrib/106519828577007569890\">Scan New York</a>"
          ],
          "photo_reference": "AeJbb3cCXP79zSaFIOiav0GBxd1gKWayViy6cljoIJae070yvYAhsi6lp2SjFiGCYa2lkKWoTCK6sE6S5TaixZ1Fi2Vt0087TtRgeaOWQP2skGqdIuULxkEfZRgmpXkBLXXjOAus4FwD6UBj0U0-uwYfJXwisdWxsKTGMsMO5hSnH1gL-xqc",
          "width": 1250
        }
      ],
      "place_id": "ChIJH9UfXqlYwokRn8_gi9p_eYE",
      "plus_code": {
        "compound_code": "Q3Q4+2V New York, NY, USA",
        "global_code": "87G8Q3Q4+2V"
      },
      "rating": 3.9,
      "reference": "ChIJH9UfXqlYwokRn8_gi9p_eYE",
      "scope": "GOOGLE",
      "types": [
        "point_of_interest",
        "establishment"
      ],
      "user_ratings_total": 7,
      "vicinity": "345 East 102nd Street, New York"
    },
    {
      "business_status": "OPERATIONAL",
      "geometry": {
        "location": {
          "lat": 40.78410400000001,
          "lng": -73.950454
        },
        "viewport": {
          "northeast": {
            "lat": 40.7853874802915,
            "lng": -73.94899081970848
          },
          "southwest": {
            "lat": 40.78268951970851,
            "lng": -73.9516887802915
          }
        }
      },
      "icon": "https://maps.gstatic.com/mapfiles/place_api/icons/v1/png_71/restaurant-71.png",
      "icon_background_color": "#FF9E67",
      "icon_mask_base_uri": "https://maps.gstatic.com/mapfiles/place_api/icons/v2/restaurant_pinlet",
      "name": "Barking Dog",
      "opening_hours": {
        "open_now": true
      },
      "photos": [
        {
          "height": 1952,
          "html_attributions": [
            "<a href=\"https://maps.google.com/maps/contrib/109099386624252224869\">Barking Dog</a>"
          ],
          "photo_reference": "AeJbb3eVlksjMkhSvGZEz7sWm1JIzALvHLuzVWPB8e5Kq7vzu4HjC6Vj9tNITE95sF9PydR_ghNyocvfiexJBgyV71cToxLYomuGT7_ztkoGTrU2nLDHzdh9uKOBH4mP7iGh7YjxRnAv3R7MVYvAdTSWCDRVFoI0ws3erryCj_4OWCCeRunV",
          "width": 2574
        }
      ],
      "place_id": "ChIJfWR-y6VYwokRWrgtJnJvfYU",
      "plus_code": {
        "compound_code": "Q2MX+JR New York, NY, USA",
        "global_code": "87G8Q2MX+JR"
      },
      "price_level": 2,
      "rating": 4.2,
      "reference": "ChIJfWR-y6VYwokRWrgtJnJvfYU",
      "scope": "GOOGLE",
      "types": [
        "bar",
        "restaurant",
        "food",
        "point_of_interest",
        "establishment"
      ],
      "user_ratings_total": 944,
      "vicinity": "1678 3rd Avenue, New York"
    },
    {
      "business_status": "OPERATIONAL",
      "geometry": {
        "location": {
          "lat": 40.7847533,
          "lng": -73.944479
        },
        "viewport": {
          "northeast": {
            "lat": 40.7861053802915,
            "lng": -73.9431402197085
          },
          "southwest": {
            "lat": 40.7834074197085,
            "lng": -73.9458381802915
          }
        }
      },
      "icon": "https://maps.gstatic.com/mapfiles/place_api/icons/v1/png_71/generic_business-71.png",
      "icon_background_color": "#7B9EB0",
      "icon_mask_base_uri": "https://maps.gstatic.com/mapfiles/place_api/icons/v2/generic_pinlet",
      "name": "Ny Metropolitan Hospitals: Levine Mark S MD",
      "place_id": "ChIJaxwy1a5YwokR3R5D8AtQYks",
      "plus_code": {
        "compound_code": "Q3M4+W6 New York, NY, USA",
        "global_code": "87G8Q3M4+W6"
      },
      "reference": "ChIJaxwy1a5YwokR3R5D8AtQYks",
      "scope": "GOOGLE",
      "types": [
        "doctor",
        "health",
        "point_of_interest",
        "establishment"
      ],
      "vicinity": "1901 1st Avenue #1309, New York"
    },
    {
      "business_status": "OPERATIONAL",
      "geometry": {
        "location": {
          "lat": 40.78852459999999,
          "lng": -73.9524002
        },
        "viewport": {
          "northeast": {
            "lat": 40.79000603029149,
            "lng": -73.95136356970852
          },
          "southwest": {
            "lat": 40.78730806970849,
            "lng": -73.95406153029153
          }
        }
      },
      "icon": "https://maps.gstatic.com/mapfiles/place_api/icons/v1/png_71/generic_business-71.png",
      "icon_background_color": "#7B9EB0",
      "icon_mask_base_uri": "https://maps.gstatic.com/mapfiles/place_api/icons/v2/generic_pinlet",
      "name": "Icahn School of Medicine at Mount Sinai - Alumni",
      "opening_hours": {
        "open_now": false
      },
      "photos": [
        {
          "height": 300,
          "html_attributions": [
            "<a href=\"https://maps.google.com/maps/contrib/112416231334928702547\">Icahn School of Medicine at Mount Sinai - Alumni</a>"
          ],
          "photo_reference": "AeJbb3eO8lFfdyYHz-jwho5O5VfiOwH8tzBjckBOG-S3XZYf1w6MYtp7bQeIj7Y_zv0OaHPNV2WBin7R0fJexL2xf1SRf5a4nTdPsxoqaKBYGboE0iMf9gqeMBOUFwnm21e19d-i2dXgyjaB198dP_iPrx2WHmBnFQdBY5UVowePHcpAtmRn",
          "width": 300
        }
      ],
      "place_id": "ChIJ_____wL2wokRpB5k8-euRpY",
      "plus_code": {
        "compound_code": "Q2QX+C2 New York, NY, USA",
        "global_code": "87G8Q2QX+C2"
      },
      "rating": 4.7,
      "reference": "ChIJ_____wL2wokRpB5k8-euRpY",
      "scope": "GOOGLE",
      "types": [
        "point_of_interest",
        "establishment"
      ],
      "user_ratings_total": 3,
      "vicinity": "1 Gustave L. Levy Place, New York"
    },
    {
      "business_status": "OPERATIONAL",
      "geometry": {
        "location": {
          "lat": 40.7891971,
          "lng": -73.9442968
        },
        "viewport": {
          "northeast": {
            "lat": 40.79074128029149,
            "lng": -73.9428056197085
          },
          "southwest": {
            "lat": 40.78804331970849,
            "lng": -73.9455035802915
          }
        }
      },
      "icon": "https://maps.gstatic.com/mapfiles/place_api/icons/v1/png_71/school-71.png",
      "icon_background_color": "#7B9EB0",
      "icon_mask_base_uri": "https://maps.gstatic.com/mapfiles/place_api/icons/v2/school_pinlet",
      "name": "DREAM Charter School",
      "opening_hours": {
        "open_now": false
      },
      "photos": [
        {
          "height": 3024,
          "html_attributions": [
            "<a href=\"https://maps.google.com/maps/contrib/110010486648405738264\">yitzchok L</a>"
          ],
          "photo_reference": "AeJbb3e77fvLpWFp0jxHJi7aba-4XEpx-GFrnTmZSepkBXKpP_KUOhsaO4_0h3GLtWWRICpFo5KQKMfi8ghTAQD2E_Klfeff_9RjHDKTQZriViDAtMoSUebrJvkH9nTTXklUHwPwHVIn_eIkGQ0GhaYaVXTZMVmU10yHowgJPOXrMafh_nIp",
          "width": 4032
        }
      ],
      "place_id": "ChIJ-9hT1KlYwokR-cRlVBnJ16U",
      "plus_code": {
        "compound_code": "Q3Q4+M7 New York, NY, USA",
        "global_code": "87G8Q3Q4+M7"
      },
      "rating": 4,
      "reference": "ChIJ-9hT1KlYwokR-cRlVBnJ16U",
      "scope": "GOOGLE",
      "types": [
        "school",
        "point_of_interest",
        "establishment"
      ],
      "user_ratings_total": 35,
      "vicinity": "1991 2nd Avenue, New York"
    },
    {
      "business_status": "OPERATIONAL",
      "geometry": {
        "location": {
          "lat": 40.7903307,
          "lng": -73.9440649
        },
        "viewport": {
          "northeast": {
            "lat": 40.79170643029151,
            "lng": -73.9426674697085
          },
          "southwest": {
            "lat": 40.78900846970851,
            "lng": -73.9453654302915
          }
        }
      },
      "icon": "https://maps.gstatic.com/mapfiles/place_api/icons/v1/png_71/school-71.png",
      "icon_background_color": "#7B9EB0",
      "icon_mask_base_uri": "https://maps.gstatic.com/mapfiles/place_api/icons/v2/school_pinlet",
      "name": "Park East High School",
      "place_id": "ChIJk7GtQgL2wokRo5ix4A-up48",
      "plus_code": {
        "compound_code": "Q3R4+49 New York, NY, USA",
        "global_code": "87G8Q3R4+49"
      },
      "rating": 3.7,
      "reference": "ChIJk7GtQgL2wokRo5ix4A-up48",
      "scope": "GOOGLE",
      "types": [
        "secondary_school",
        "school",
        "point_of_interest",
        "establishment"
      ],
      "user_ratings_total": 15,
      "vicinity": "230 East 105th Street, New York"
    },
    {
      "business_status": "OPERATIONAL",
      "geometry": {
        "location": {
          "lat": 40.7839876,
          "lng": -73.9451291
        },
        "viewport": {
          "northeast": {
            "lat": 40.7851090302915,
            "lng": -73.9438982697085
          },
          "southwest": {
            "lat": 40.7824110697085,
            "lng": -73.9465962302915
          }
        }
      },
      "icon": "https://maps.gstatic.com/mapfiles/place_api/icons/v1/png_71/school-71.png",
      "icon_background_color": "#7B9EB0",
      "icon_mask_base_uri": "https://maps.gstatic.com/mapfiles/place_api/icons/v2/school_pinlet",
      "name": "School for Cooperative Technical Education",
      "opening_hours": {
        "open_now": false
      },
      "photos": [
        {
          "height": 2988,
          "html_attributions": [
            "<a href=\"https://maps.google.com/maps/contrib/106174407060891179030\">Laurence OfNYC</a>"
          ],
          "photo_reference": "AeJbb3fH4g9a4sX_gQuriF4lnXhVcHPD5Zw7V4QAED5mME7Wa1yKidJkgQRIj4LbGaZE9w3mVyyKLSY6mkjEWyPh4so7p7UAXFdOMU71RPcE_yI2jkfIyekowZ8ZXCrQ-bEDbDm93wopwA5bUaj3mc7ds28KHHcBUYJB1DB9XlNE0QMD7SLv",
          "width": 5312
        }
      ],
      "place_id": "ChIJl2b-JK9YwokRi3n6ZB4uBWg",
      "plus_code": {
        "compound_code": "Q3M3+HW New York, NY, USA",
        "global_code": "87G8Q3M3+HW"
      },
      "rating": 4.4,
      "reference": "ChIJl2b-JK9YwokRi3n6ZB4uBWg",
      "scope": "GOOGLE",
      "types": [
        "school",
        "point_of_interest",
        "establishment"
      ],
      "user_ratings_total": 113,
      "vicinity": "321 East 96th Street, New York"
    },
    {
      "business_status": "OPERATIONAL",
      "geometry": {
        "location": {
          "lat": 40.785886,
          "lng": -73.95248400000001
        },
        "viewport": {
          "northeast": {
            "lat": 40.7873039802915,
            "lng": -73.95129331970851
          },
          "southwest": {
            "lat": 40.7846060197085,
            "lng": -73.95399128029152
          }
        }
      },
      "icon": "https://maps.gstatic.com/mapfiles/place_api/icons/v1/png_71/generic_business-71.png",
      "icon_background_color": "#7B9EB0",
      "icon_mask_base_uri": "https://maps.gstatic.com/mapfiles/place_api/icons/v2/generic_pinlet",
      "name": "George Mussalli MD",
      "place_id": "ChIJux76SZZZwokRKB4DhXQHOIY",
      "plus_code": {
        "compound_code": "Q2PX+92 New York, NY, USA",
        "global_code": "87G8Q2PX+92"
      },
      "reference": "ChIJux76SZZZwokRKB4DhXQHOIY",
      "scope": "GOOGLE",
      "types": [
        "doctor",
        "health",
        "point_of_interest",
        "establishment"
      ],
      "vicinity": "1225 Park Avenue, New York"
    },
    {
      "business_status": "OPERATIONAL",
      "geometry": {
        "location": {
          "lat": 40.786293,
          "lng": -73.951528
        },
        "viewport": {
          "northeast": {
            "lat": 40.7875861802915,
            "lng": -73.95024721970849
          },
          "southwest": {
            "lat": 40.78488821970851,
            "lng": -73.9529451802915
          }
        }
      },
      "icon": "https://maps.gstatic.com/mapfiles/place_api/icons/v1/png_71/restaurant-71.png",
      "icon_background_color": "#FF9E67",
      "icon_mask_base_uri": "https://maps.gstatic.com/mapfiles/place_api/icons/v2/restaurant_pinlet",
      "name": "Little Luzzo's Pizza NYC",
      "opening_hours": {
        "open_now": true
      },
      "photos": [
        {
          "height": 3643,
          "html_attributions": [
            "<a href=\"https://maps.google.com/maps/contrib/108420657759086595213\">Little Luzzo&#39;s Pizza NYC</a>"
          ],
          "photo_reference": "AeJbb3ftdLTHoyg767uXRNTxIT-UOEZKiWRP6kwQuCAidvbd2VTAdJhz3TftI43MYD9UIYH67K1haISnGYC40kbtTPUoDWU8acpuDkDENG4gyjaTAtTR51vjTyWsi1UXwiIBcJ2BDQL7wH4WzYfLfcwdHHsoQH3J0y-BW5IdombVK2WjADUX",
          "width": 5464
        }
      ],
      "place_id": "ChIJ34TKkqZYwokRDDdiBs9avEw",
      "plus_code": {
        "compound_code": "Q2PX+G9 New York, NY, USA",
        "global_code": "87G8Q2PX+G9"
      },
      "price_level": 1,
      "rating": 4.2,
      "reference": "ChIJ34TKkqZYwokRDDdiBs9avEw",
      "scope": "GOOGLE",
      "types": [
        "meal_delivery",
        "meal_takeaway",
        "restaurant",
        "food",
        "point_of_interest",
        "establishment"
      ],
      "user_ratings_total": 191,
      "vicinity": "119 East 96th Street, New York"
    },
    {
      "business_status": "OPERATIONAL",
      "geometry": {
        "location": {
          "lat": 40.78633000000001,
          "lng": -73.9433336
        },
        "viewport": {
          "northeast": {
            "lat": 40.7875414802915,
            "lng": -73.9416554697085
          },
          "southwest": {
            "lat": 40.7848435197085,
            "lng": -73.94435343029151
          }
        }
      },
      "icon": "https://maps.gstatic.com/mapfiles/place_api/icons/v1/png_71/civic_building-71.png",
      "icon_background_color": "#7B9EB0",
      "icon_mask_base_uri": "https://maps.gstatic.com/mapfiles/place_api/icons/v2/civic-bldg_pinlet",
      "name": "New York State Senator Jos\u00e9 M. Serrano",
      "opening_hours": {
        "open_now": false
      },
      "photos": [
        {
          "height": 1020,
          "html_attributions": [
            "<a href=\"https://maps.google.com/maps/contrib/102412552527499771391\">New York State Senator Jos\u00e9 M. Serrano</a>"
          ],
          "photo_reference": "AeJbb3dh-61wPjBvch0gcFY1eoAGCFLRb5nxycP2Rlu7yQ0hNTaYEiIjVWtlIAumgs4UmwlWtSkKkvzDS4kJ4jHAwG7fJYH1KJ83QPJeZlZk4YmuWX2IDaqH679FXN-z3fq1feFIPMarDIwg_DQ0HLgGXewsop-LHFan4G5pczU-BBgqNA",
          "width": 1360
        }
      ],
      "place_id": "ChIJX8saxwL2wokRG-5DvUBXTNU",
      "plus_code": {
        "compound_code": "Q3P4+GM New York, NY, USA",
        "global_code": "87G8Q3P4+GM"
      },
      "rating": 3.5,
      "reference": "ChIJX8saxwL2wokRG-5DvUBXTNU",
      "scope": "GOOGLE",
      "types": [
        "local_government_office",
        "point_of_interest",
        "establishment"
      ],
      "user_ratings_total": 2,
      "vicinity": "335 East 100th Street, New York"
    },
    {
      "business_status": "OPERATIONAL",
      "geometry": {
        "location": {
          "lat": 40.7886341,
          "lng": -73.9528119
        },
        "viewport": {
          "northeast": {
            "lat": 40.7900360302915,
            "lng": -73.9515877697085
          },
          "southwest": {
            "lat": 40.7873380697085,
            "lng": -73.95428573029152
          }
        }
      },
      "icon": "https://maps.gstatic.com/mapfiles/place_api/icons/v1/png_71/generic_business-71.png",
      "icon_background_color": "#7B9EB0",
      "icon_mask_base_uri": "https://maps.gstatic.com/mapfiles/place_api/icons/v2/generic_pinlet",
      "name": "Ann Marie T Sullivan Md",
      "place_id": "ChIJSyB-N6dYwokRKY0BYo55ukU",
      "plus_code": {
        "compound_code": "Q2QW+FV New York, NY, USA",
        "global_code": "87G8Q2QW+FV"
      },
      "reference": "ChIJSyB-N6dYwokRKY0BYo55ukU",
      "scope": "GOOGLE",
      "types": [
        "doctor",
        "health",
        "point_of_interest",
        "establishment"
      ],
      "vicinity": "1425 Madison Avenue, New York"
    },
    {
      "business_status": "OPERATIONAL",
      "geometry": {
        "location": {
          "lat": 40.7851883,
          "lng": -73.947968
        },
        "viewport": {
          "northeast": {
            "lat": 40.78659073029149,
            "lng": -73.94634496970849
          },
          "southwest": {
            "lat": 40.78389276970849,
            "lng": -73.9490429302915
          }
        }
      },
      "icon": "https://maps.gstatic.com/mapfiles/place_api/icons/v1/png_71/parking-71.png",
      "icon_background_color": "#7B9EB0",
      "icon_mask_base_uri": "https://maps.gstatic.com/mapfiles/place_api/icons/v2/parking_pinlet",
      "name": "MPG: Manhattan Parking (MP 97)",
      "opening_hours": {
        "open_now": true
      },
      "place_id": "ChIJ23FuCKZYwokRSgroiPF6u1Y",
      "plus_code": {
        "compound_code": "Q3P2+3R New York, NY, USA",
        "global_code": "87G8Q3P2+3R"
      },
      "rating": 3.7,
      "reference": "ChIJ23FuCKZYwokRSgroiPF6u1Y",
      "scope": "GOOGLE",
      "types": [
        "parking",
        "point_of_interest",
        "establishment"
      ],
      "user_ratings_total": 10,
      "vicinity": "215 East 97th Street, New York"
    },
    {
      "business_status": "OPERATIONAL",
      "geometry": {
        "location": {
          "lat": 40.78633999999999,
          "lng": -73.95042370000002
        },
        "viewport": {
          "northeast": {
            "lat": 40.78772248029149,
            "lng": -73.9491275197085
          },
          "southwest": {
            "lat": 40.78502451970849,
            "lng": -73.95182548029152
          }
        }
      },
      "icon": "https://maps.gstatic.com/mapfiles/place_api/icons/v1/png_71/school-71.png",
      "icon_background_color": "#7B9EB0",
      "icon_mask_base_uri": "https://maps.gstatic.com/mapfiles/place_api/icons/v2/school_pinlet",
      "name": "Metrokids Preschool - Lexington Upper East Side School",
      "opening_hours": {
        "open_now": false
      },
      "photos": [
        {
          "height": 4764,
          "html_attributions": [
            "<a href=\"https://maps.google.com/maps/contrib/100611904804505087175\">Metrokids Preschool</a>"
          ],
          "photo_reference": "AeJbb3eEatlxwQ_-gC-ExsWAzZkdBNpAqYA6Q7XDEg3DNA6SaVKQsEPvo634-e0MaUeUAS4nm9DNHqwiGFX6S2u0GSI4EM-js1jUfb850Ljr8FrK6ffy2ZHZmAOMlWVnYF_D3HBRzcYT7cRPUE-LQ8M2NUZD3ghSBtav70RumyubHcvb-kE6",
          "width": 10425
        }
      ],
      "place_id": "ChIJiZlBXqZYwokRgzhVj46_Vi4",
      "plus_code": {
        "compound_code": "Q2PX+GR New York, NY, USA",
        "global_code": "87G8Q2PX+GR"
      },
      "reference": "ChIJiZlBXqZYwokRgzhVj46_Vi4",
      "scope": "GOOGLE",
      "types": [
        "school",
        "point_of_interest",
        "establishment"
      ],
      "vicinity": "1501 Lexington Avenue, New York"
    },
    {
      "business_status": "OPERATIONAL",
      "geometry": {
        "location": {
          "lat": 40.7904958,
          "lng": -73.9458626
        },
        "viewport": {
          "northeast": {
            "lat": 40.7917647302915,
            "lng": -73.94444931970851
          },
          "southwest": {
            "lat": 40.7890667697085,
            "lng": -73.94714728029152
          }
        }
      },
      "icon": "https://maps.gstatic.com/mapfiles/place_api/icons/v1/png_71/restaurant-71.png",
      "icon_background_color": "#FF9E67",
      "icon_mask_base_uri": "https://maps.gstatic.com/mapfiles/place_api/icons/v2/restaurant_pinlet",
      "name": "Taco Bell",
      "opening_hours": {
        "open_now": true
      },
      "photos": [
        {
          "height": 3024,
          "html_attributions": [
            "<a href=\"https://maps.google.com/maps/contrib/100155584989015015572\">Maxime LMA</a>"
          ],
          "photo_reference": "AeJbb3d_n4g8fHS2ZUZ-BW6OYEjkvzWHziqKMOiUUmTYmbxil622IFCEp4Xn04so0zNbbRp6PrMrIgcCIgNtNIwQ5U6_kHSje9qVqelVPZ2WPr6ITdaYIOQViCXpBv1Wmtok0TNGpeFBOJLWr6AHv9zkyQcyieuyJ6w4ddrPSUsznNKQER52",
          "width": 3024
        }
      ],
      "place_id": "ChIJM126kwL2wokROra3Is8PGzk",
      "plus_code": {
        "compound_code": "Q3R3+5M New York, NY, USA",
        "global_code": "87G8Q3R3+5M"
      },
      "price_level": 1,
      "rating": 4,
      "reference": "ChIJM126kwL2wokROra3Is8PGzk",
      "scope": "GOOGLE",
      "types": [
        "meal_takeaway",
        "restaurant",
        "food",
        "point_of_interest",
        "establishment"
      ],
      "user_ratings_total": 484,
      "vicinity": "1884 3rd Avenue, New York"
    },
    {
      "business_status": "OPERATIONAL",
      "geometry": {
        "location": {
          "lat": 40.78507749999999,
          "lng": -73.948358
        },
        "viewport": {
          "northeast": {
            "lat": 40.7865177302915,
            "lng": -73.9464964197085
          },
          "southwest": {
            "lat": 40.7838197697085,
            "lng": -73.9491943802915
          }
        }
      },
      "icon": "https://maps.gstatic.com/mapfiles/place_api/icons/v1/png_71/generic_business-71.png",
      "icon_background_color": "#7B9EB0",
      "icon_mask_base_uri": "https://maps.gstatic.com/mapfiles/place_api/icons/v2/generic_pinlet",
      "name": "One Carnegie Hill",
      "opening_hours": {
        "open_now": true
      },
      "photos": [
        {
          "height": 569,
          "html_attributions": [
            "<a href=\"https://maps.google.com/maps/contrib/105812789722225798107\">One Carnegie Hill</a>"
          ],
          "photo_reference": "AeJbb3cnMDCuFbc9YGvXklKa-HsE7TQLFTh3kLBWcFjfiytnC8twso9R5CgIDHXsfhImvkxg6NbwM5dAqAKUNiaBxLkU7zsChGNP-wdOAD4jaSfQBsuazDQfAVu3KfNa0ol41SsBBJFggNMPsfQN5lugGfVDnHkOpFPVQIIk5dpawsY7_LOA",
          "width": 449
        }
      ],
      "place_id": "ChIJ23FuCKZYwokRxKgWW5zRcdY",
      "plus_code": {
        "compound_code": "Q3P2+2M New York, NY, USA",
        "global_code": "87G8Q3P2+2M"
      },
      "rating": 4.2,
      "reference": "ChIJ23FuCKZYwokRxKgWW5zRcdY",
      "scope": "GOOGLE",
      "types": [
        "real_estate_agency",
        "point_of_interest",
        "establishment"
      ],
      "user_ratings_total": 9,
      "vicinity": "215 East 96th Street, New York"
    },
    {
      "business_status": "OPERATIONAL",
      "geometry": {
        "location": {
          "lat": 40.7863523,
          "lng": -73.9431816
        },
        "viewport": {
          "northeast": {
            "lat": 40.7875922302915,
            "lng": -73.9415506197085
          },
          "southwest": {
            "lat": 40.7848942697085,
            "lng": -73.9442485802915
          }
        }
      },
      "icon": "https://maps.gstatic.com/mapfiles/place_api/icons/v1/png_71/generic_business-71.png",
      "icon_background_color": "#7B9EB0",
      "icon_mask_base_uri": "https://maps.gstatic.com/mapfiles/place_api/icons/v2/generic_pinlet",
      "name": "The Aspen",
      "photos": [
        {
          "height": 4032,
          "html_attributions": [
            "<a href=\"https://maps.google.com/maps/contrib/108818106161550685945\">George Wang</a>"
          ],
          "photo_reference": "AeJbb3fvl2r9cGXQGnaibWIe-PdrNXDT6E61uu0wb7x7MyBVvRgXgjLfkslIZhsWL7OCbp98iQqgdsJ9OzstjW79YDOIzFvnFqkhEM5c-6QQZF4-hqAso-hbZ-HehxP_dN7d7KVXPpV-BXMc4BXrre4BeEYYho5R-VH245nkzmwHsvHwzD-0",
          "width": 3024
        }
      ],
      "place_id": "ChIJtU7idqlYwokRsDY0bpCBvoY",
      "plus_code": {
        "compound_code": "Q3P4+GP New York, NY, USA",
        "global_code": "87G8Q3P4+GP"
      },
      "rating": 2.2,
      "reference": "ChIJtU7idqlYwokRsDY0bpCBvoY",
      "scope": "GOOGLE",
      "types": [
        "point_of_interest",
        "establishment"
      ],
      "user_ratings_total": 12,
      "vicinity": "1955 1st Avenue, New York"
    },
    {
      "business_status": "OPERATIONAL",
      "geometry": {
        "location": {
          "lat": 40.784575,
          "lng": -73.9488803
        },
        "viewport": {
          "northeast": {
            "lat": 40.7860651802915,
            "lng": -73.94739541970849
          },
          "southwest": {
            "lat": 40.7833672197085,
            "lng": -73.95009338029149
          }
        }
      },
      "icon": "https://maps.gstatic.com/mapfiles/place_api/icons/v1/png_71/generic_business-71.png",
      "icon_background_color": "#7B9EB0",
      "icon_mask_base_uri": "https://maps.gstatic.com/mapfiles/place_api/icons/v2/generic_pinlet",
      "name": "Enforce Coverage",
      "opening_hours": {
        "open_now": false
      },
      "place_id": "ChIJkUhO3qVYwokRDx3Pjmc8N44",
      "plus_code": {
        "compound_code": "Q3M2+RC New York, NY, USA",
        "global_code": "87G8Q3M2+RC"
      },
      "reference": "ChIJkUhO3qVYwokRDx3Pjmc8N44",
      "scope": "GOOGLE",
      "types": [
        "insurance_agency",
        "point_of_interest",
        "establishment"
      ],
      "vicinity": "205 East 95th Street, New York"
    },
    {
      "business_status": "OPERATIONAL",
      "geometry": {
        "location": {
          "lat": 40.78435280000001,
          "lng": -73.9480598
        },
        "viewport": {
          "northeast": {
            "lat": 40.7858998302915,
            "lng": -73.94698516970848
          },
          "southwest": {
            "lat": 40.7832018697085,
            "lng": -73.9496831302915
          }
        }
      },
      "icon": "https://maps.gstatic.com/mapfiles/place_api/icons/v1/png_71/generic_business-71.png",
      "icon_background_color": "#7B9EB0",
      "icon_mask_base_uri": "https://maps.gstatic.com/mapfiles/place_api/icons/v2/generic_pinlet",
      "name": "David K. Gwin, MA",
      "place_id": "ChIJkUhO3qVYwokRA1o1TufnkEE",
      "plus_code": {
        "compound_code": "Q3M2+PQ New York, NY, USA",
        "global_code": "87G8Q3M2+PQ"
      },
      "reference": "ChIJkUhO3qVYwokRA1o1TufnkEE",
      "scope": "GOOGLE",
      "types": [
        "health",
        "point_of_interest",
        "establishment"
      ],
      "vicinity": "280 Madison Avenue, New York"
    },
    {
      "business_status": "OPERATIONAL",
      "geometry": {
        "location": {
          "lat": 40.7894337,
          "lng": -73.9448281
        },
        "viewport": {
          "northeast": {
            "lat": 40.7908038802915,
            "lng": -73.9436408697085
          },
          "southwest": {
            "lat": 40.7881059197085,
            "lng": -73.94633883029151
          }
        }
      },
      "icon": "https://maps.gstatic.com/mapfiles/place_api/icons/v1/png_71/school-71.png",
      "icon_background_color": "#7B9EB0",
      "icon_mask_base_uri": "https://maps.gstatic.com/mapfiles/place_api/icons/v2/school_pinlet",
      "name": "Child Care Head Start",
      "place_id": "ChIJJfnEjgL2wokRdQ28z1yRThI",
      "plus_code": {
        "compound_code": "Q3Q4+Q3 New York, NY, USA",
        "global_code": "87G8Q3Q4+Q3"
      },
      "rating": 5,
      "reference": "ChIJJfnEjgL2wokRdQ28z1yRThI",
      "scope": "GOOGLE",
      "types": [
        "point_of_interest",
        "establishment"
      ],
      "user_ratings_total": 1,
      "vicinity": "218 East 104th Street, New York"
    },
    {
      "business_status": "OPERATIONAL",
      "geometry": {
        "location": {
          "lat": 40.7862519,
          "lng": -73.9492546
        },
        "viewport": {
          "northeast": {
            "lat": 40.7875262302915,
            "lng": -73.94796046970849
          },
          "southwest": {
            "lat": 40.7848282697085,
            "lng": -73.95065843029151
          }
        }
      },
      "icon": "https://maps.gstatic.com/mapfiles/place_api/icons/v1/png_71/civic_building-71.png",
      "icon_background_color": "#7B9EB0",
      "icon_mask_base_uri": "https://maps.gstatic.com/mapfiles/place_api/icons/v2/civic-bldg_pinlet",
      "name": "Family & Employment Services",
      "place_id": "ChIJ09CoaqZYwokRasqMVDDMix0",
      "plus_code": {
        "compound_code": "Q3P2+G7 New York, NY, USA",
        "global_code": "87G8Q3P2+G7"
      },
      "reference": "ChIJ09CoaqZYwokRasqMVDDMix0",
      "scope": "GOOGLE",
      "types": [
        "point_of_interest",
        "establishment"
      ],
      "vicinity": "163 East 97th Street, New York"
    },
    {
      "business_status": "OPERATIONAL",
      "geometry": {
        "location": {
          "lat": 40.78805589999999,
          "lng": -73.9417277
        },
        "viewport": {
          "northeast": {
            "lat": 40.78937168029149,
            "lng": -73.94037616970849
          },
          "southwest": {
            "lat": 40.78667371970849,
            "lng": -73.94307413029149
          }
        }
      },
      "icon": "https://maps.gstatic.com/mapfiles/place_api/icons/v1/png_71/restaurant-71.png",
      "icon_background_color": "#FF9E67",
      "icon_mask_base_uri": "https://maps.gstatic.com/mapfiles/place_api/icons/v2/restaurant_pinlet",
      "name": "White Castle",
      "opening_hours": {
        "open_now": true
      },
      "photos": [
        {
          "height": 1744,
          "html_attributions": [
            "<a href=\"https://maps.google.com/maps/contrib/117808460219123378764\">Ruwan J.</a>"
          ],
          "photo_reference": "AeJbb3cA0UTy0xIp6-jJ2-3mZB1k2R4chAYAHH4Z0t_wu9MX7Yu0_IKAYgngl3H5TL4uq1yUrtOW_R3crh52QFFZ0vJeMfUAhrY833xk3yN0PoGucex8sdRrMzEH2oH-FronVMzyToAB6EV7W8mTN_yfURKF76AKzSk-mbjkBuSLFAJHQnhd",
          "width": 1744
        }
      ],
      "place_id": "ChIJX6gV9qlYwokRb44IOUFbw4Q",
      "plus_code": {
        "compound_code": "Q3Q5+68 New York, NY, USA",
        "global_code": "87G8Q3Q5+68"
      },
      "price_level": 1,
      "rating": 3.8,
      "reference": "ChIJX6gV9qlYwokRb44IOUFbw4Q",
      "scope": "GOOGLE",
      "types": [
        "restaurant",
        "food",
        "point_of_interest",
        "establishment"
      ],
      "user_ratings_total": 1985,
      "vicinity": "351 East 103rd Street, New York"
    },
    {
      "business_status": "OPERATIONAL",
      "geometry": {
        "location": {
          "lat": 40.788683,
          "lng": -73.95274200000001
        },
        "viewport": {
          "northeast": {
            "lat": 40.7900733802915,
            "lng": -73.9515307197085
          },
          "southwest": {
            "lat": 40.7873754197085,
            "lng": -73.95422868029152
          }
        }
      },
      "icon": "https://maps.gstatic.com/mapfiles/place_api/icons/v1/png_71/school-71.png",
      "icon_background_color": "#7B9EB0",
      "icon_mask_base_uri": "https://maps.gstatic.com/mapfiles/place_api/icons/v2/school_pinlet",
      "name": "Eric Nestler, MD - Icahn School of Medicine",
      "opening_hours": {
        "open_now": false
      },
      "photos": [
        {
          "height": 700,
          "html_attributions": [
            "<a href=\"https://maps.google.com/maps/contrib/116324970562238970872\">Eric Nestler, MD - Icahn School of Medicine</a>"
          ],
          "photo_reference": "AeJbb3cFh9NbuVQ46mjNb49E27jSm2WfpBlMEceCKLs5Vxj4IvVkxY5wVYy2QIAUWPRI69_QYBa9mp-f_R_sIq05nufzEPO0hApzlqgtV8VPWhuGiS3MBDnYcE7YbOU2OjLO7MAdXCb68e-yCAyw5BoUoFZZCWYUzgXYJ-4azH1rXltjIksI",
          "width": 1920
        }
      ],
      "place_id": "ChIJ1-NkqqBYwokR4PWKUxlZ-w8",
      "plus_code": {
        "compound_code": "Q2QW+FW New York, NY, USA",
        "global_code": "87G8Q2QW+FW"
      },
      "reference": "ChIJ1-NkqqBYwokR4PWKUxlZ-w8",
      "scope": "GOOGLE",
      "types": [
        "doctor",
        "health",
        "point_of_interest",
        "establishment"
      ],
      "vicinity": "1425 Madison Avenue #10, New York"
    },
    {
      "business_status": "OPERATIONAL",
      "geometry": {
        "location": {
          "lat": 40.7859987,
          "lng": -73.9506337
        },
        "viewport": {
          "northeast": {
            "lat": 40.7872934802915,
            "lng": -73.94941006970849
          },
          "southwest": {
            "lat": 40.7845955197085,
            "lng": -73.9521080302915
          }
        }
      },
      "icon": "https://maps.gstatic.com/mapfiles/place_api/icons/v1/png_71/cafe-71.png",
      "icon_background_color": "#FF9E67",
      "icon_mask_base_uri": "https://maps.gstatic.com/mapfiles/place_api/icons/v2/cafe_pinlet",
      "name": "Starbucks",
      "opening_hours": {
        "open_now": true
      },
      "photos": [
        {
          "height": 3024,
          "html_attributions": [
            "<a href=\"https://maps.google.com/maps/contrib/117488375323737491387\">Toys Toys</a>"
          ],
          "photo_reference": "AeJbb3f0pGCRwyX0jO9fc-6SrvMAqsWmmoxJh63CDXJRNlp609gt1O52fTrew7FupFYnxjU-c1zhs6IR1IJPqJJ77_7rXjb-FD7g3kDz9aCXQjHPeEkeIG3FqVS-iLk-Gno1zeLXnQFCkQQ-xVK8ugork_dXR8kl1hBNNQQuFmPL0fndC93q",
          "width": 4032
        }
      ],
      "place_id": "ChIJBVgKiaZYwokRmMiA0bhFd4A",
      "plus_code": {
        "compound_code": "Q2PX+9P New York, NY, USA",
        "global_code": "87G8Q2PX+9P"
      },
      "price_level": 2,
      "rating": 4,
      "reference": "ChIJBVgKiaZYwokRmMiA0bhFd4A",
      "scope": "GOOGLE",
      "types": [
        "cafe",
        "food",
        "store",
        "point_of_interest",
        "establishment"
      ],
      "user_ratings_total": 596,
      "vicinity": "1491 Lexington Avenue, New York"
    },
    {
      "business_status": "OPERATIONAL",
      "geometry": {
        "location": {
          "lat": 40.787,
          "lng": -73.9531111
        },
        "viewport": {
          "northeast": {
            "lat": 40.7882699302915,
            "lng": -73.95182031970849
          },
          "southwest": {
            "lat": 40.78557196970851,
            "lng": -73.95451828029151
          }
        }
      },
      "icon": "https://maps.gstatic.com/mapfiles/place_api/icons/v1/png_71/generic_business-71.png",
      "icon_background_color": "#7B9EB0",
      "icon_mask_base_uri": "https://maps.gstatic.com/mapfiles/place_api/icons/v2/generic_pinlet",
      "name": "Arthur L. Jenkins III, MD",
      "opening_hours": {
        "open_now": false
      },
      "photos": [
        {
          "height": 3744,
          "html_attributions": [
            "<a href=\"https://maps.google.com/maps/contrib/106352440289099163836\">Arthur L. Jenkins III, MD</a>"
          ],
          "photo_reference": "AeJbb3fah0bFcebVuw_4va1b3T95RKpkixIONMJnwTrrTn1KTqLjucGUQZ3f3GhLlxrgM-Z4Q5bl5oIi5kFNy3RS9BMBeej0APEaxWj1WSJ1-OO-96lvr5wFnHTzjTkUQtBuzoM_wNarKlLKK28D5M8c4u6sHxB8p0tFPB6_WBMkMBRTGVmK",
          "width": 5616
        }
      ],
      "place_id": "ChIJ1-NkqqBYwokRGhBAeqeYuSk",
      "plus_code": {
        "compound_code": "Q2PW+RQ New York, NY, USA",
        "global_code": "87G8Q2PW+RQ"
      },
      "rating": 4.4,
      "reference": "ChIJ1-NkqqBYwokRGhBAeqeYuSk",
      "scope": "GOOGLE",
      "types": [
        "doctor",
        "health",
        "point_of_interest",
        "establishment"
      ],
      "user_ratings_total": 18,
      "vicinity": "65 East 96th Street Suite 1B, New York"
    },
    {
      "business_status": "OPERATIONAL",
      "geometry": {
        "location": {
          "lat": 40.7886341,
          "lng": -73.9528119
        },
        "viewport": {
          "northeast": {
            "lat": 40.7900360302915,
            "lng": -73.9515877697085
          },
          "southwest": {
            "lat": 40.7873380697085,
            "lng": -73.95428573029152
          }
        }
      },
      "icon": "https://maps.gstatic.com/mapfiles/place_api/icons/v1/png_71/generic_business-71.png",
      "icon_background_color": "#7B9EB0",
      "icon_mask_base_uri": "https://maps.gstatic.com/mapfiles/place_api/icons/v2/generic_pinlet",
      "name": "Khaim Rafael",
      "place_id": "ChIJSyB-N6dYwokRImlBs22Ugnk",
      "plus_code": {
        "compound_code": "Q2QW+FV New York, NY, USA",
        "global_code": "87G8Q2QW+FV"
      },
      "reference": "ChIJSyB-N6dYwokRImlBs22Ugnk",
      "scope": "GOOGLE",
      "types": [
        "health",
        "point_of_interest",
        "establishment"
      ],
      "vicinity": "1425 Madison Avenue, New York"
    },
    {
      "business_status": "OPERATIONAL",
      "geometry": {
        "location": {
          "lat": 40.78884519999999,
          "lng": -73.95269859999999
        },
        "viewport": {
          "northeast": {
            "lat": 40.79014883029149,
            "lng": -73.95145761970849
          },
          "southwest": {
            "lat": 40.78745086970849,
            "lng": -73.9541555802915
          }
        }
      },
      "icon": "https://maps.gstatic.com/mapfiles/place_api/icons/v1/png_71/generic_business-71.png",
      "icon_background_color": "#7B9EB0",
      "icon_mask_base_uri": "https://maps.gstatic.com/mapfiles/place_api/icons/v2/generic_pinlet",
      "name": "Julie B. Schnur, PhD",
      "place_id": "ChIJSyB-N6dYwokR9GGGm4FlKgw",
      "plus_code": {
        "compound_code": "Q2QW+GW New York, NY, USA",
        "global_code": "87G8Q2QW+GW"
      },
      "reference": "ChIJSyB-N6dYwokR9GGGm4FlKgw",
      "scope": "GOOGLE",
      "types": [
        "doctor",
        "health",
        "point_of_interest",
        "establishment"
      ],
      "vicinity": "1425 Madison Avenue, New York"
    },
    {
      "business_status": "CLOSED_TEMPORARILY",
      "geometry": {
        "location": {
          "lat": 40.7845051,
          "lng": -73.948407
        },
        "viewport": {
          "northeast": {
            "lat": 40.7859708302915,
            "lng": -73.9470757197085
          },
          "southwest": {
            "lat": 40.7832728697085,
            "lng": -73.9497736802915
          }
        }
      },
      "icon": "https://maps.gstatic.com/mapfiles/place_api/icons/v1/png_71/generic_business-71.png",
      "icon_background_color": "#7B9EB0",
      "icon_mask_base_uri": "https://maps.gstatic.com/mapfiles/place_api/icons/v2/generic_pinlet",
      "name": "Eastside Properties",
      "permanently_closed": true,
      "place_id": "ChIJWy9VwbtYwokR4PmJTM6tduo",
      "plus_code": {
        "compound_code": "Q3M2+RJ New York, NY, USA",
        "global_code": "87G8Q3M2+RJ"
      },
      "reference": "ChIJWy9VwbtYwokR4PmJTM6tduo",
      "scope": "GOOGLE",
      "types": [
        "real_estate_agency",
        "point_of_interest",
        "establishment"
      ],
      "vicinity": "225 East 95th Street, New York"
    },
    {
      "business_status": "OPERATIONAL",
      "geometry": {
        "location": {
          "lat": 40.791126,
          "lng": -73.94539999999999
        },
        "viewport": {
          "northeast": {
            "lat": 40.79239723029151,
            "lng": -73.94399261970848
          },
          "southwest": {
            "lat": 40.78969926970851,
            "lng": -73.9466905802915
          }
        }
      },
      "icon": "https://maps.gstatic.com/mapfiles/place_api/icons/v1/png_71/generic_business-71.png",
      "icon_background_color": "#7B9EB0",
      "icon_mask_base_uri": "https://maps.gstatic.com/mapfiles/place_api/icons/v2/generic_pinlet",
      "name": "Specs For Less",
      "opening_hours": {
        "open_now": true
      },
      "photos": [
        {
          "height": 3024,
          "html_attributions": [
            "<a href=\"https://maps.google.com/maps/contrib/104709235469729615491\">Ralffy Morel</a>"
          ],
          "photo_reference": "AeJbb3fhrvKzX6r_5VyhF5nlOJdQpP4ozmlhPe8CWjub74QtEDU9_YbwcS5o4kMd0c6ecCngWv2en7beAM0FXd6TVJcA_gWVM9jVyQRtd5N2oZegLWUrG6jix7g39X2Uhc6bdtWzDeCztEUT3HH2z98bHuaDDBTsGZzbflOpATR7ZyFHv6W4",
          "width": 4032
        }
      ],
      "place_id": "ChIJ53i18AL2wokRv_7_mFC2yYg",
      "plus_code": {
        "compound_code": "Q3R3+FR New York, NY, USA",
        "global_code": "87G8Q3R3+FR"
      },
      "rating": 3.4,
      "reference": "ChIJ53i18AL2wokRv_7_mFC2yYg",
      "scope": "GOOGLE",
      "types": [
        "health",
        "store",
        "point_of_interest",
        "establishment"
      ],
      "user_ratings_total": 55,
      "vicinity": "1904 3rd Avenue, New York"
    },
    {
      "business_status": "OPERATIONAL",
      "geometry": {
        "location": {
          "lat": 40.7875374,
          "lng": -73.9422878
        },
        "viewport": {
          "northeast": {
            "lat": 40.7887662802915,
            "lng": -73.9411359697085
          },
          "southwest": {
            "lat": 40.7860683197085,
            "lng": -73.9438339302915
          }
        }
      },
      "icon": "https://maps.gstatic.com/mapfiles/place_api/icons/v1/png_71/generic_business-71.png",
      "icon_background_color": "#7B9EB0",
      "icon_mask_base_uri": "https://maps.gstatic.com/mapfiles/place_api/icons/v2/generic_pinlet",
      "name": "Glenwood Management Corporation",
      "photos": [
        {
          "height": 3024,
          "html_attributions": [
            "<a href=\"https://maps.google.com/maps/contrib/113489070670827824017\">Maayan Lavie</a>"
          ],
          "photo_reference": "AeJbb3egl5XpUP4NW7CCqKH64FalM2-SHElkDR9BGyOMk21pn9_SOfkU8auUgt6sCHj03tcyuu9-HL_Oq_jju-NPKT6EfnWgZOttSj32bQsGOdDBNY-qbPI1eOjzLAoZgKMRdP-W8We85VwrO15HW22nmLAlTsfrwcYIY9unm5frcbNIu8RL",
          "width": 4032
        }
      ],
      "place_id": "ChIJVahFjalYwokRSTKij2Pm_EI",
      "plus_code": {
        "compound_code": "Q3Q5+23 New York, NY, USA",
        "global_code": "87G8Q3Q5+23"
      },
      "rating": 5,
      "reference": "ChIJVahFjalYwokRSTKij2Pm_EI",
      "scope": "GOOGLE",
      "types": [
        "real_estate_agency",
        "point_of_interest",
        "establishment"
      ],
      "user_ratings_total": 1,
      "vicinity": "333 East 102nd Street B, New York"
    },
    {
      "business_status": "OPERATIONAL",
      "geometry": {
        "location": {
          "lat": 40.7865726,
          "lng": -73.9519652
        },
        "viewport": {
          "northeast": {
            "lat": 40.7878111802915,
            "lng": -73.9506684197085
          },
          "southwest": {
            "lat": 40.7851132197085,
            "lng": -73.95336638029151
          }
        }
      },
      "icon": "https://maps.gstatic.com/mapfiles/place_api/icons/v1/png_71/generic_business-71.png",
      "icon_background_color": "#7B9EB0",
      "icon_mask_base_uri": "https://maps.gstatic.com/mapfiles/place_api/icons/v2/generic_pinlet",
      "name": "Daniel Cammerman, MD",
      "place_id": "ChIJC20ZwKZYwokRWOCmJsrRy7A",
      "plus_code": {
        "compound_code": "Q2PX+J6 New York, NY, USA",
        "global_code": "87G8Q2PX+J6"
      },
      "rating": 5,
      "reference": "ChIJC20ZwKZYwokRWOCmJsrRy7A",
      "scope": "GOOGLE",
      "types": [
        "doctor",
        "health",
        "point_of_interest",
        "establishment"
      ],
      "user_ratings_total": 3,
      "vicinity": "1245 Park Avenue, New York"
    },
    {
      "business_status": "OPERATIONAL",
      "geometry": {
        "location": {
          "lat": 40.784575,
          "lng": -73.9488803
        },
        "viewport": {
          "northeast": {
            "lat": 40.7860651802915,
            "lng": -73.94739541970849
          },
          "southwest": {
            "lat": 40.7833672197085,
            "lng": -73.95009338029149
          }
        }
      },
      "icon": "https://maps.gstatic.com/mapfiles/place_api/icons/v1/png_71/generic_business-71.png",
      "icon_background_color": "#7B9EB0",
      "icon_mask_base_uri": "https://maps.gstatic.com/mapfiles/place_api/icons/v2/generic_pinlet",
      "name": "Dr. Jacque Ciarlo, DO",
      "place_id": "ChIJkUhO3qVYwokRVpr2JhN0nCk",
      "plus_code": {
        "compound_code": "Q3M2+RC New York, NY, USA",
        "global_code": "87G8Q3M2+RC"
      },
      "reference": "ChIJkUhO3qVYwokRVpr2JhN0nCk",
      "scope": "GOOGLE",
      "types": [
        "doctor",
        "health",
        "point_of_interest",
        "establishment"
      ],
      "vicinity": "205 East 95th Street, New York"
    },
    {
      "business_status": "OPERATIONAL",
      "geometry": {
        "location": {
          "lat": 40.784575,
          "lng": -73.9488803
        },
        "viewport": {
          "northeast": {
            "lat": 40.7860651802915,
            "lng": -73.94739541970849
          },
          "southwest": {
            "lat": 40.7833672197085,
            "lng": -73.95009338029149
          }
        }
      },
      "icon": "https://maps.gstatic.com/mapfiles/place_api/icons/v1/png_71/generic_business-71.png",
      "icon_background_color": "#7B9EB0",
      "icon_mask_base_uri": "https://maps.gstatic.com/mapfiles/place_api/icons/v2/generic_pinlet",
      "name": "Dr. Ernesto R. Navarro, MD",
      "place_id": "ChIJkUhO3qVYwokRqrhdhtbgOS0",
      "plus_code": {
        "compound_code": "Q3M2+RC New York, NY, USA",
        "global_code": "87G8Q3M2+RC"
      },
      "reference": "ChIJkUhO3qVYwokRqrhdhtbgOS0",
      "scope": "GOOGLE",
      "types": [
        "doctor",
        "health",
        "point_of_interest",
        "establishment"
      ],
      "vicinity": "205 East 95th Street, New York"
    },
    {
      "business_status": "OPERATIONAL",
      "geometry": {
        "location": {
          "lat": 40.7874647,
          "lng": -73.9443082
        },
        "viewport": {
          "northeast": {
            "lat": 40.7888933302915,
            "lng": -73.9431437697085
          },
          "southwest": {
            "lat": 40.7861953697085,
            "lng": -73.9458417302915
          }
        }
      },
      "icon": "https://maps.gstatic.com/mapfiles/place_api/icons/v1/png_71/shopping-71.png",
      "icon_background_color": "#4B96F3",
      "icon_mask_base_uri": "https://maps.gstatic.com/mapfiles/place_api/icons/v2/shoppingcart_pinlet",
      "name": "Cherry Valley Marketplace",
      "opening_hours": {
        "open_now": true
      },
      "photos": [
        {
          "height": 2988,
          "html_attributions": [
            "<a href=\"https://maps.google.com/maps/contrib/112435112523680212019\">Alan DELACRUZ</a>"
          ],
          "photo_reference": "AeJbb3d-bykc9WY2WH9SNmSmzbK92QuydaKH3-12fDNyjwKFB0I3STYWHW8--iZeE2k8spGdTb-dxgkIZrXyop4_dV_dh_8CrvtHGn3Mzm4PS6lLph-cLyFwmE0bz0N8OYPKIO8-EMXfjGxSPT068J2YZmn6dtpbszUqUrWBX8CzdiqVWu02",
          "width": 5312
        }
      ],
      "place_id": "ChIJN9MCsalYwokR8ADWpO9TH3k",
      "plus_code": {
        "compound_code": "Q3P4+X7 New York, NY, USA",
        "global_code": "87G8Q3P4+X7"
      },
      "rating": 4,
      "reference": "ChIJN9MCsalYwokR8ADWpO9TH3k",
      "scope": "GOOGLE",
      "types": [
        "supermarket",
        "grocery_or_supermarket",
        "food",
        "store",
        "point_of_interest",
        "establishment"
      ],
      "user_ratings_total": 1265,
      "vicinity": "1968 2nd Avenue, New York"
    }
  ],
  "status": "OK"
}