{
  "html_attributions": [],
  "results": [
    {
      "geometry": {
        "location": {
          "lat": 40.7127753,
          "lng": -74.0059728
        },
        "viewport": {
          "northeast": {
            "lat": 40.91757705070789,
            "lng": -73.70027206817629
          },
          "southwest": {
            "lat": 40.47739906045452,
            "lng": -74.25908991427882
          }
        }
      },
      "icon": "https://maps.gstatic.com/mapfiles/place_api/icons/v1/png_71/geocode-71.png",
      "icon_background_color": "#7B9EB0",
      "icon_mask_base_uri": "https://maps.gstatic.com/mapfiles/place_api/icons/v2/generic_pinlet",
      "name": "\u7d10\u7d04",
      "photos": [
        {
          "height": 600,
          "html_attributions": [
            "<a href=\"https://maps.google.com/maps/contrib/102389334567210814614\">Bukurie</a>"
          ],
          "photo_reference": "AeJbb3f_8GFg_HBhZCw9UFM0_JaUsNp8sRAbJAdZEGixgond5puYk80T9rz2SwiWoki-YAR1bl2O75-ohdKxK6gSac7in-wta9cnGauDcuyy68dzm9v71eHo1sLvhRyn9SEnDrIzmSV4yWM9w5yNvZaV-c2sh0KgEoR3lLD99-5q_gcbZjqr",
          "width": 480
        }
      ],
      "place_id": "ChIJOwg_06VPwokRYv534QaPC8g",
      "reference": "ChIJOwg_06VPwokRYv534QaPC8g",
      "scope": "GOOGLE",
      "types": [
        "locality",
        "political"
      ],
      "vicinity": "\u7d10\u7d04"
    },
    {
      "business_status": "OPERATIONAL",
      "geometry": {
        "location": {
          "lat": 40.6719676,
          "lng": -74.0114644
        },
        "viewport": {
          "northeast": {
            "lat": 40.6728187802915,
            "lng": -74.01065776970849
          },
          "southwest": {
            "lat": 40.6701208197085,
            "lng": -74.0133557302915
          }
        }
      },
      "icon": "https://maps.gstatic.com/mapfiles/place_api/icons/v1/png_71/shopping-71.png",
      "icon_background_color": "#4B96F3",
      "icon_mask_base_uri": "https://maps.gstatic.com/mapfiles/place_api/icons/v2/shopping_pinlet",
      "name": "IKEA",
      "opening_hours": {
        "open_now": true
      },
      "photos": [
        {
          "height": 3006,
          "html_attributions": [
            "<a href=\"https://maps.google.com/maps/contrib/115354096318086584445\">Igor Katrach - Director of Photography</a>"
          ],
          "photo_reference": "AeJbb3csMVfBxRDHUFOfV1slHe0mrwCXo0nJYCAQdIz1mXPxSaCLhQQUYGUMQ_b5fX0qvHDClyn3m39GrSWPuSf2pem9gf4ebqaP6095vrO_IoXuUBE8s64X7EoSG23N0jH48djmfWn871GsdJTv7tU5KPApQwur4zmWt3JTJdjfO-HqDy8L",
          "width": 5344
        }
      ],
      "place_id": "ChIJc0CCxY1awokRCjZ4gkpGFpc",
      "plus_code": {
        "compound_code": "MXCQ+QC \u7f8e\u570b\u7d10\u7d04",
        "global_code": "87G7MXCQ+QC"
      },
      "price_level": 1,
      "rating": 4.1,
      "reference": "ChIJc0CCxY1awokRCjZ4gkpGFpc",
      "scope": "GOOGLE",
      "types": [
        "furniture_store",
        "home_goods_store",
        "store",
        "point_of_interest",
        "establishment"
      ],
      "user_ratings_total": 15160,
      "vicinity": "1 Beard Street, Brooklyn"
    },
    {
      "business_status": "OPERATIONAL",
      "geometry": {
        "location": {
          "lat": 40.6771298,
          "lng": -74.0128546
        },
        "viewport": {
          "northeast": {
            "lat": 40.6785303802915,
            "lng": -74.01160406970851
          },
          "southwest": {
            "lat": 40.6758324197085,
            "lng": -74.01430203029152
          }
        }
      },
      "icon": "https://maps.gstatic.com/mapfiles/place_api/icons/v1/png_71/bar-71.png",
      "icon_background_color": "#FF9E67",
      "icon_mask_base_uri": "https://maps.gstatic.com/mapfiles/place_api/icons/v2/bar_pinlet",
      "name": "Fort Defiance",
      "opening_hours": {
        "open_now": false
      },
      "photos": [
        {
          "height": 4096,
          "html_attributions": [
            "<a href=\"https://maps.google.com/maps/contrib/116942996475591907784\">Steve</a>"
          ],
          "photo_reference": "AeJbb3dTA3sv9BoSbqY_GXqSgDGBEaA9fDkSqSHRFRDuYNaWQ_EdiieeCj3Io7eBY6tW4tpmx1MGiwJaXB0oylYeVPNvJvLNTPvMe7hcZ3z_9r7pSk_stbPFqvsCKmqQ1orZqYg_Dd-KcRIFkTEq8kMtlHypfcg-T5LpABV8HV8wO7W6vswc",
          "width": 3072
        }
      ],
      "place_id": "ChIJgbj5QYlawokRnagYGvwiqRI",
      "plus_code": {
        "compound_code": "MXGP+VV \u7f8e\u570b\u7d10\u7d04",
        "global_code": "87G7MXGP+VV"
      },
      "price_level": 2,
      "rating": 4.5,
      "reference": "ChIJgbj5QYlawokRnagYGvwiqRI",
      "scope": "GOOGLE",
      "types": [
        "bar",
        "restaurant",
        "food",
        "point_of_interest",
        "establishment"
      ],
      "user_ratings_total": 471,
      "vicinity": "347 Van Brunt Street, Brooklyn"
    },
    {
      "business_status": "OPERATIONAL",
      "geometry": {
        "location": {
          "lat": 40.6739938,
          "lng": -74.0119136
        },
        "viewport": {
          "northeast": {
            "lat": 40.6753105302915,
            "lng": -74.01063021970849
          },
          "southwest": {
            "lat": 40.6726125697085,
            "lng": -74.01332818029151
          }
        }
      },
      "icon": "https://maps.gstatic.com/mapfiles/place_api/icons/v1/png_71/generic_business-71.png",
      "icon_background_color": "#7B9EB0",
      "icon_mask_base_uri": "https://maps.gstatic.com/mapfiles/place_api/icons/v2/generic_pinlet",
      "name": "Sixpoint Brewery",
      "opening_hours": {
        "open_now": true
      },
      "photos": [
        {
          "height": 6936,
          "html_attributions": [
            "<a href=\"https://maps.google.com/maps/contrib/109783280261570000459\">Jeff Kaplan</a>"
          ],
          "photo_reference": "AeJbb3d9bUJuM39Cy2y0Vn9P1UrSfJa4waQ2TNx5A-qMpKEhe85QjB9tfaJHdrtSbl8B88JsyJts-q2VRdD4YlANjrXYkT0XSEf5uvMMQ6KuQgzPdLimErIG82GH_FEls95w3nbFo-PWceyG-cWK2EAhHyZDlsaLWmbVOKx4hHSZ_bso7WMa",
          "width": 9248
        }
      ],
      "place_id": "ChIJm9GgGIxawokRXI9IjgXT4vE",
      "plus_code": {
        "compound_code": "MXFQ+H6 \u7f8e\u570b\u7d10\u7d04\u5e03\u9c81\u514b\u6797",
        "global_code": "87G7MXFQ+H6"
      },
      "rating": 4.5,
      "reference": "ChIJm9GgGIxawokRXI9IjgXT4vE",
      "scope": "GOOGLE",
      "types": [
        "food",
        "point_of_interest",
        "establishment"
      ],
      "user_ratings_total": 99,
      "vicinity": "40 Van Dyke Street, Brooklyn"
    },
    {
      "business_status": "OPERATIONAL",
      "geometry": {
        "location": {
          "lat": 40.676877,
          "lng": -74.013255
        },
        "viewport": {
          "northeast": {
            "lat": 40.67826058029149,
            "lng": -74.01197311970849
          },
          "southwest": {
            "lat": 40.67556261970849,
            "lng": -74.01467108029149
          }
        }
      },
      "icon": "https://maps.gstatic.com/mapfiles/place_api/icons/v1/png_71/restaurant-71.png",
      "icon_background_color": "#FF9E67",
      "icon_mask_base_uri": "https://maps.gstatic.com/mapfiles/place_api/icons/v2/restaurant_pinlet",
      "name": "Baked",
      "opening_hours": {
        "open_now": true
      },
      "photos": [
        {
          "height": 4024,
          "html_attributions": [
            "<a href=\"https://maps.google.com/maps/contrib/102856687184418917102\">Atsushi Amemiya</a>"
          ],
          "photo_reference": "AeJbb3ctPWxxs5leJl4OYWaLyyQV1tVd5SqOYe4bhW7E5BlkEXVdnW6XFwgeOXOXmJzb5KCpVjVu4PONqgACYrNsMAmKeWW__bnO5BHZtT8K0f0jyfR7czPtVBLXaChPYeCxkeH0lReZBBcYUbEtoVQ928sAJr33rgolYVmsQ-G0-NofWuTj",
          "width": 6024
        }
      ],
      "place_id": "ChIJ863UaIlawokR-B9ie0POupU",
      "plus_code": {
        "compound_code": "MXGP+QM \u7f8e\u570b\u7d10\u7d04\u5e03\u9c81\u514b\u6797",
        "global_code": "87G7MXGP+QM"
      },
      "price_level": 1,
      "rating": 4.5,
      "reference": "ChIJ863UaIlawokR-B9ie0POupU",
      "scope": "GOOGLE",
      "types": [
        "bakery",
        "cafe",
        "store",
        "food",
        "point_of_interest",
        "establishment"
      ],
      "user_ratings_total": 375,
      "vicinity": "359 Van Brunt Street, Brooklyn"
    },
    {
      "business_status": "OPERATIONAL",
      "geometry": {
        "location": {
          "lat": 40.67596500000001,
          "lng": -74.014246
        },
        "viewport": {
          "northeast": {
            "lat": 40.6773501802915,
            "lng": -74.0129885197085
          },
          "southwest": {
            "lat": 40.67465221970851,
            "lng": -74.0156864802915
          }
        }
      },
      "icon": "https://maps.gstatic.com/mapfiles/place_api/icons/v1/png_71/bar-71.png",
      "icon_background_color": "#FF9E67",
      "icon_mask_base_uri": "https://maps.gstatic.com/mapfiles/place_api/icons/v2/bar_pinlet",
      "name": "The Good Fork Pub",
      "opening_hours": {
        "open_now": true
      },
      "photos": [
        {
          "height": 4032,
          "html_attributions": [
            "<a href=\"https://maps.google.com/maps/contrib/104001550627429752126\">Habichuela Con Dulce</a>"
          ],
          "photo_reference": "AeJbb3exa4HlIrBqWzyp5ffncRFuhBS_WV4cBvPVuNQ84Hd2gIIbtzDcKlh-ap9Ct4WfNFWZOPw6h0CxHqh3bUZeA8ShBfEOlZMGHRj9EHs9k-Qy6sCqY5spRGvVJv96bBGgAAF3wP8JH3G1XyNfMUp02ftn0RdZHI7lYDebWS2sMpwC0i5e",
          "width": 2268
        }
      ],
      "place_id": "ChIJqdPcMIlawokRnjb0RFy_o7s",
      "plus_code": {
        "compound_code": "MXGP+98 \u7f8e\u570b\u7d10\u7d04",
        "global_code": "87G7MXGP+98"
      },
      "price_level": 2,
      "rating": 4.3,
      "reference": "ChIJqdPcMIlawokRnjb0RFy_o7s",
      "scope": "GOOGLE",
      "types": [
        "bar",
        "restaurant",
        "food",
        "point_of_interest",
        "establishment"
      ],
      "user_ratings_total": 259,
      "vicinity": "391 Van Brunt Street, Brooklyn"
    },
    {
      "business_status": "OPERATIONAL",
      "geometry": {
        "location": {
          "lat": 40.6740758,
          "lng": -74.00764649999999
        },
        "viewport": {
          "northeast": {
            "lat": 40.6755225802915,
            "lng": -74.0064193197085
          },
          "southwest": {
            "lat": 40.6728246197085,
            "lng": -74.0091172802915
          }
        }
      },
      "icon": "https://maps.gstatic.com/mapfiles/place_api/icons/v1/png_71/generic_business-71.png",
      "icon_background_color": "#7B9EB0",
      "icon_mask_base_uri": "https://maps.gstatic.com/mapfiles/place_api/icons/v2/generic_pinlet",
      "name": "T Moriarty & Son Inc",
      "place_id": "ChIJZdHfsYxawokRWtM2fJVEk30",
      "plus_code": {
        "compound_code": "MXFR+JW \u7f8e\u570b\u7d10\u7d04\u5e03\u9c81\u514b\u6797",
        "global_code": "87G7MXFR+JW"
      },
      "rating": 1.9,
      "reference": "ChIJZdHfsYxawokRWtM2fJVEk30",
      "scope": "GOOGLE",
      "types": [
        "general_contractor",
        "point_of_interest",
        "establishment"
      ],
      "user_ratings_total": 23,
      "vicinity": "63 Creamer Street, Brooklyn"
    },
    {
      "business_status": "CLOSED_TEMPORARILY",
      "geometry": {
        "location": {
          "lat": 40.6792483,
          "lng": -74.012154
        },
        "viewport": {
          "northeast": {
            "lat": 40.6811126802915,
            "lng": -74.00978085
          },
          "southwest": {
            "lat": 40.6784147197085,
            "lng": -74.01294504999998
          }
        }
      },
      "icon": "https://maps.gstatic.com/mapfiles/place_api/icons/v1/png_71/generic_business-71.png",
      "icon_background_color": "#7B9EB0",
      "icon_mask_base_uri": "https://maps.gstatic.com/mapfiles/place_api/icons/v2/generic_pinlet",
      "name": "Pioneer Works",
      "permanently_closed": true,
      "photos": [
        {
          "height": 1500,
          "html_attributions": [
            "<a href=\"https://maps.google.com/maps/contrib/100176809347709171001\">Pioneer Works</a>"
          ],
          "photo_reference": "AeJbb3ebwOsLaxyaYGe0uUATCVKtAEOSOa0OPz8AkMn7CZR_tffmlrM-HyPURsYND1CjQY0WZW9dhxAzPeI4HFQYONxrcK2M9NxQknC1Bnjlqr8a0WS53xNS_WJpGVBS312ov3oUGf2YGPFdUPt5vFt2P86TqL9Zzmc8YAPhXTZDkguJKeA",
          "width": 2000
        }
      ],
      "place_id": "ChIJud-_GopawokRHE3a_eAxhsQ",
      "plus_code": {
        "compound_code": "MXHQ+M4 \u7f8e\u570b\u7d10\u7d04",
        "global_code": "87G7MXHQ+M4"
      },
      "rating": 4.7,
      "reference": "ChIJud-_GopawokRHE3a_eAxhsQ",
      "scope": "GOOGLE",
      "types": [
        "point_of_interest",
        "establishment"
      ],
      "user_ratings_total": 125,
      "vicinity": "159 Pioneer Street, Brooklyn"
    },
    {
      "business_status": "OPERATIONAL",
      "geometry": {
        "location": {
          "lat": 40.676903,
          "lng": -74.0115821
        },
        "viewport": {
          "northeast": {
            "lat": 40.6784353302915,
            "lng": -74.01015681970848
          },
          "southwest": {
            "lat": 40.6757373697085,
            "lng": -74.0128547802915
          }
        }
      },
      "icon": "https://maps.gstatic.com/mapfiles/place_api/icons/v1/png_71/school-71.png",
      "icon_background_color": "#7B9EB0",
      "icon_mask_base_uri": "https://maps.gstatic.com/mapfiles/place_api/icons/v2/school_pinlet",
      "name": "P.S. 015 Patrick F. Daly School",
      "opening_hours": {
        "open_now": false
      },
      "photos": [
        {
          "height": 3096,
          "html_attributions": [
            "<a href=\"https://maps.google.com/maps/contrib/117162178155891415559\">christine quinones</a>"
          ],
          "photo_reference": "AeJbb3fS3NpoLI7xTqD6B8v5K3saxpPOZsqDgPfuF5W6urkrqcLd8R8ibyJ0fP9KjdxRY84nWwpklgZC79L9P6UBAOL0OwfACP-rYNBKA5VXX1jfSEF-c2vvLTa2qZWJIa2VwSSjIXmbqfyyxoIqivwS_20s1VLZKo3HCRRsdznvLP20NxIj",
          "width": 4128
        }
      ],
      "place_id": "ChIJRa1CzotawokRJNhvd8bahYs",
      "plus_code": {
        "compound_code": "MXGQ+Q9 \u7f8e\u570b\u7d10\u7d04",
        "global_code": "87G7MXGQ+Q9"
      },
      "rating": 4,
      "reference": "ChIJRa1CzotawokRJNhvd8bahYs",
      "scope": "GOOGLE",
      "types": [
        "primary_school",
        "school",
        "point_of_interest",
        "establishment"
      ],
      "user_ratings_total": 12,
      "vicinity": "71 Sullivan Street, Brooklyn"
    },
    {
      "business_status": "OPERATIONAL",
      "geometry": {
        "location": {
          "lat": 40.6791667,
          "lng": -74.011045
        },
        "viewport": {
          "northeast": {
            "lat": 40.68046813029149,
            "lng": -74.0096120197085
          },
          "southwest": {
            "lat": 40.6777701697085,
            "lng": -74.0123099802915
          }
        }
      },
      "icon": "https://maps.gstatic.com/mapfiles/place_api/icons/v1/png_71/bar-71.png",
      "icon_background_color": "#FF9E67",
      "icon_mask_base_uri": "https://maps.gstatic.com/mapfiles/place_api/icons/v2/bar_pinlet",
      "name": "Brooklyn Ice House",
      "opening_hours": {
        "open_now": true
      },
      "photos": [
        {
          "height": 1702,
          "html_attributions": [
            "<a href=\"https://maps.google.com/maps/contrib/111333235908693112409\">Brooklyn Ice House</a>"
          ],
          "photo_reference": "AeJbb3fYIUR7eGJLGheKva6rxZTPGFXbC5mlM6oCdxevwxA6Ds4F6ENdZn1QOWh_uy-MDmRarT3GQ1QSMMRDt_-VQlex9_LC-bVTxskeemPHoG8VFBrJdMI6z5cjLpaIA1rB8VtYlHXlXZerQvkwEU1bXVmq9LiTF5-oUoWvLc8r-ZDfS6H7",
          "width": 3024
        }
      ],
      "place_id": "ChIJ_2AHE4pawokRpKXZ6mWSQDE",
      "plus_code": {
        "compound_code": "MXHQ+MH \u7f8e\u570b\u7d10\u7d04\u5e03\u9c81\u514b\u6797",
        "global_code": "87G7MXHQ+MH"
      },
      "price_level": 1,
      "rating": 4.5,
      "reference": "ChIJ_2AHE4pawokRpKXZ6mWSQDE",
      "scope": "GOOGLE",
      "types": [
        "bar",
        "restaurant",
        "food",
        "point_of_interest",
        "establishment"
      ],
      "user_ratings_total": 414,
      "vicinity": "318 Van Brunt Street, Brooklyn"
    },
    {
      "business_status": "OPERATIONAL",
      "geometry": {
        "location": {
          "lat": 40.6724653,
          "lng": -74.00981949999999
        },
        "viewport": {
          "northeast": {
            "lat": 40.6736770802915,
            "lng": -74.00799186970849
          },
          "southwest": {
            "lat": 40.6709791197085,
            "lng": -74.0106898302915
          }
        }
      },
      "icon": "https://maps.gstatic.com/mapfiles/place_api/icons/v1/png_71/generic_business-71.png",
      "icon_background_color": "#7B9EB0",
      "icon_mask_base_uri": "https://maps.gstatic.com/mapfiles/place_api/icons/v2/generic_pinlet",
      "name": "Red Hook Community Farms",
      "photos": [
        {
          "height": 4032,
          "html_attributions": [
            "<a href=\"https://maps.google.com/maps/contrib/103490217941408763213\">Sara A</a>"
          ],
          "photo_reference": "AeJbb3f0m70Izk7dn4wlnSCVwLrF5c1-OFIUoPJDks65TGjkNSp_K7gERNXZApC6lCpCnB-j54dm6nT2iKu_eNpD7x6rcblPftaIm--Zf-arh-agdKHq3PcfCFlnE3ZVxW6WHCpxVYcJVrCTRzzr1XkUYHxELqN6DB0xmDFWFQqFxvCY8gTA",
          "width": 3024
        }
      ],
      "place_id": "ChIJEXW5AI1awokRFQciMpyhb6k",
      "plus_code": {
        "compound_code": "MXCR+X3 \u7f8e\u570b\u7d10\u7d04",
        "global_code": "87G7MXCR+X3"
      },
      "rating": 4.8,
      "reference": "ChIJEXW5AI1awokRFQciMpyhb6k",
      "scope": "GOOGLE",
      "types": [
        "point_of_interest",
        "establishment"
      ],
      "user_ratings_total": 39,
      "vicinity": "560 Columbia Street, Brooklyn"
    },
    {
      "business_status": "OPERATIONAL",
      "geometry": {
        "location": {
          "lat": 40.673691,
          "lng": -74.0105734
        },
        "viewport": {
          "northeast": {
            "lat": 40.6750746302915,
            "lng": -74.0091829697085
          },
          "southwest": {
            "lat": 40.6723766697085,
            "lng": -74.01188093029151
          }
        }
      },
      "icon": "https://maps.gstatic.com/mapfiles/place_api/icons/v1/png_71/generic_business-71.png",
      "icon_background_color": "#7B9EB0",
      "icon_mask_base_uri": "https://maps.gstatic.com/mapfiles/place_api/icons/v2/generic_pinlet",
      "name": "Jofaz Transportation Inc.",
      "opening_hours": {
        "open_now": false
      },
      "photos": [
        {
          "height": 4032,
          "html_attributions": [
            "<a href=\"https://maps.google.com/maps/contrib/114269626214840622735\">Stephanie Gonzales</a>"
          ],
          "photo_reference": "AeJbb3d_T1wXgpYegkZrAaFbBGMU6ZKHqXNaZ2U0VC0jTqbmlZ4gA2TlMiccqJNWYN6bjSt2UT2D3hTZx4OSMHc11O-xRvR8sDfHmUvUana1iWIQCh99mzua6egcJdmzk8PRpDghsqUXaYyS66GG3mtgh5Zw_CzLbBltIrz2t7sjt299VVMo",
          "width": 3024
        }
      ],
      "place_id": "ChIJj2ZYEFpawokRKRLCuOC6he4",
      "plus_code": {
        "compound_code": "MXFQ+FQ \u7f8e\u570b\u7d10\u7d04",
        "global_code": "87G7MXFQ+FQ"
      },
      "rating": 2.5,
      "reference": "ChIJj2ZYEFpawokRKRLCuOC6he4",
      "scope": "GOOGLE",
      "types": [
        "point_of_interest",
        "establishment"
      ],
      "user_ratings_total": 131,
      "vicinity": "1 Coffey Street, Brooklyn"
    },
    {
      "business_status": "OPERATIONAL",
      "geometry": {
        "location": {
          "lat": 40.67762430000001,
          "lng": -74.008479
        },
        "viewport": {
          "northeast": {
            "lat": 40.67994829999999,
            "lng": -74.00548665
          },
          "southwest": {
            "lat": 40.6759151,
            "lng": -74.01092685
          }
        }
      },
      "icon": "https://maps.gstatic.com/mapfiles/place_api/icons/v1/png_71/park-71.png",
      "icon_background_color": "#4DB546",
      "icon_mask_base_uri": "https://maps.gstatic.com/mapfiles/place_api/icons/v2/tree_pinlet",
      "name": "Coffey Park",
      "opening_hours": {
        "open_now": true
      },
      "photos": [
        {
          "height": 1800,
          "html_attributions": [
            "<a href=\"https://maps.google.com/maps/contrib/108808096211916470177\">Coffey Park</a>"
          ],
          "photo_reference": "AeJbb3eWdglDeKAfNpqAJPFFd6Qi13j-rTa3J1LBrevqzYpf4nHNZ-7U1Tw0HvXeg4ZNBFA4okllP2X1bXzMI9NgIjkM3P5x0jFGFiCITCi_T1rIwxwVrBv1urLcf7_5EVbAfZChNJvSytDaPqgA6GGX_TXH1ktGfldYcd-3Fz8egqAeDDCB",
          "width": 2700
        }
      ],
      "place_id": "ChIJo82v5YpawokR6Uc9C9Taokw",
      "plus_code": {
        "compound_code": "MXHR+2J \u7f8e\u570b\u7d10\u7d04",
        "global_code": "87G7MXHR+2J"
      },
      "rating": 4.4,
      "reference": "ChIJo82v5YpawokR6Uc9C9Taokw",
      "scope": "GOOGLE",
      "types": [
        "park",
        "tourist_attraction",
        "point_of_interest",
        "establishment"
      ],
      "user_ratings_total": 644,
      "vicinity": "85 Richards Street, Brooklyn"
    },
    {
      "business_status": "OPERATIONAL",
      "geometry": {
        "location": {
          "lat": 40.6786742,
          "lng": -74.0088193
        },
        "viewport": {
          "northeast": {
            "lat": 40.67995783029149,
            "lng": -74.0075101197085
          },
          "southwest": {
            "lat": 40.67725986970849,
            "lng": -74.0102080802915
          }
        }
      },
      "icon": "https://maps.gstatic.com/mapfiles/place_api/icons/v1/png_71/worship_general-71.png",
      "icon_background_color": "#7B9EB0",
      "icon_mask_base_uri": "https://maps.gstatic.com/mapfiles/place_api/icons/v2/worship_christian_pinlet",
      "name": "Visitation of the Blessed Virgin Mary Roman Catholic Church",
      "opening_hours": {
        "open_now": false
      },
      "photos": [
        {
          "height": 4000,
          "html_attributions": [
            "<a href=\"https://maps.google.com/maps/contrib/100614856252865702012\">Visitation of the Blessed Virgin Mary Church</a>"
          ],
          "photo_reference": "AeJbb3fSCdT2zuldT5bqvqF4FZYw5HxJmg9DiMITZMw9fnC474HOlEf1U8tqEOIO_jwAku0NsqqHrpLXtT1nH23HHtxMmPNJrSpVNosKe0FFR9n21FEhCUHGobIBrxyNn7gPOBgXwgkWAcgC_TawXjnzsbNqyEzySN7pj_PHH9WwJn4oFrS0",
          "width": 6000
        }
      ],
      "place_id": "ChIJT79WjIpawokRP79Q0KGk0Mg",
      "plus_code": {
        "compound_code": "MXHR+FF \u7f8e\u570b\u7d10\u7d04\u5e03\u9c81\u514b\u6797",
        "global_code": "87G7MXHR+FF"
      },
      "rating": 4.8,
      "reference": "ChIJT79WjIpawokRP79Q0KGk0Mg",
      "scope": "GOOGLE",
      "types": [
        "church",
        "place_of_worship",
        "point_of_interest",
        "establishment"
      ],
      "user_ratings_total": 66,
      "vicinity": "98 Richards Street, Brooklyn"
    },
    {
      "business_status": "OPERATIONAL",
      "geometry": {
        "location": {
          "lat": 40.6788053,
          "lng": -74.0069731
        },
        "viewport": {
          "northeast": {
            "lat": 40.68021828029151,
            "lng": -74.00554871970849
          },
          "southwest": {
            "lat": 40.67752031970851,
            "lng": -74.0082466802915
          }
        }
      },
      "icon": "https://maps.gstatic.com/mapfiles/place_api/icons/v1/png_71/generic_business-71.png",
      "icon_background_color": "#7B9EB0",
      "icon_mask_base_uri": "https://maps.gstatic.com/mapfiles/place_api/icons/v2/generic_pinlet",
      "name": "David Shifren",
      "photos": [
        {
          "height": 400,
          "html_attributions": [
            "<a href=\"https://maps.google.com/maps/contrib/108598181313937040022\">David Shifren</a>"
          ],
          "photo_reference": "AeJbb3fBF840HUPumieT2N_0l2tOf4q_eALXA9e6l7_UgQ0Ygz8SkiHtJ6g3jz_SKQHKlbgUqrGl_0UMnsFFTmRP1aFi_yXUAcTxmpEmfwwihdiFQiUNj8B7ml6l66vqMnSsMjRhLTESJ8fiLZs0xdbUAlkrMk4IQfdYqpIYZD-mBXx6p8e1",
          "width": 960
        }
      ],
      "place_id": "ChIJlcnCrYpawokR51O5ar0-5Qc",
      "plus_code": {
        "compound_code": "MXHV+G6 \u7f8e\u570b\u7d10\u7d04",
        "global_code": "87G7MXHV+G6"
      },
      "reference": "ChIJlcnCrYpawokR51O5ar0-5Qc",
      "scope": "GOOGLE",
      "types": [
        "point_of_interest",
        "establishment"
      ],
      "vicinity": "19 Delavan Street, Brooklyn"
    },
    {
      "business_status": "OPERATIONAL",
      "geometry": {
        "location": {
          "lat": 40.67564300000001,
          "lng": -74.014495
        },
        "viewport": {
          "northeast": {
            "lat": 40.67706903029151,
            "lng": -74.0132574197085
          },
          "southwest": {
            "lat": 40.67437106970851,
            "lng": -74.0159553802915
          }
        }
      },
      "icon": "https://maps.gstatic.com/mapfiles/place_api/icons/v1/png_71/generic_business-71.png",
      "icon_background_color": "#7B9EB0",
      "icon_mask_base_uri": "https://maps.gstatic.com/mapfiles/place_api/icons/v2/generic_pinlet",
      "name": "Other People\u2019s Pets",
      "opening_hours": {
        "open_now": false
      },
      "place_id": "ChIJlcnCrYpawokRtQ34o7dCOZU",
      "plus_code": {
        "compound_code": "MXGP+76 \u7f8e\u570b\u7d10\u7d04\u5e03\u9c81\u514b\u6797",
        "global_code": "87G7MXGP+76"
      },
      "rating": 5,
      "reference": "ChIJlcnCrYpawokRtQ34o7dCOZU",
      "scope": "GOOGLE",
      "types": [
        "point_of_interest",
        "establishment"
      ],
      "user_ratings_total": 7,
      "vicinity": "403 Van Brunt Street, Brooklyn"
    },
    {
      "business_status": "OPERATIONAL",
      "geometry": {
        "location": {
          "lat": 40.677824,
          "lng": -74.00996099999999
        },
        "viewport": {
          "northeast": {
            "lat": 40.6791107302915,
            "lng": -74.00852436970848
          },
          "southwest": {
            "lat": 40.6764127697085,
            "lng": -74.01122233029149
          }
        }
      },
      "icon": "https://maps.gstatic.com/mapfiles/place_api/icons/v1/png_71/generic_business-71.png",
      "icon_background_color": "#7B9EB0",
      "icon_mask_base_uri": "https://maps.gstatic.com/mapfiles/place_api/icons/v2/generic_pinlet",
      "name": "The Joseph P. Addabbo Family Health Center",
      "opening_hours": {
        "open_now": true
      },
      "photos": [
        {
          "height": 4032,
          "html_attributions": [
            "<a href=\"https://maps.google.com/maps/contrib/109617336663021821958\">jessica crawford</a>"
          ],
          "photo_reference": "AeJbb3c_IOAb3yV8PdA9JXzqUvt8diNHeSFh7017Lc5mRcZH11dvjr8nqo6fOTb1q_OGU8UuwLrtsTQSdaDHVG-hSqqrEIinhn7s1sHNlW8pa8vKT277ZOgFvd8VhtqfGGpgV-yGb6n-VwDNiX8peyh_Atx5Vly227yn_CpIQwKcCpMM5qRS",
          "width": 3024
        }
      ],
      "place_id": "ChIJoSw5UYpawokR5RezPJ38nzE",
      "plus_code": {
        "compound_code": "MXHR+42 \u7f8e\u570b\u7d10\u7d04",
        "global_code": "87G7MXHR+42"
      },
      "rating": 3.7,
      "reference": "ChIJoSw5UYpawokR5RezPJ38nzE",
      "scope": "GOOGLE",
      "types": [
        "dentist",
        "doctor",
        "pharmacy",
        "health",
        "store",
        "point_of_interest",
        "establishment"
      ],
      "user_ratings_total": 99,
      "vicinity": "120 Richards Street, Brooklyn"
    },
    {
      "business_status": "OPERATIONAL",
      "geometry": {
        "location": {
          "lat": 40.67527799999999,
          "lng": -74.01031929999999
        },
        "viewport": {
          "northeast": {
            "lat": 40.67672208029149,
            "lng": -74.0088976197085
          },
          "southwest": {
            "lat": 40.67402411970849,
            "lng": -74.01159558029151
          }
        }
      },
      "icon": "https://maps.gstatic.com/mapfiles/place_api/icons/v1/png_71/school-71.png",
      "icon_background_color": "#7B9EB0",
      "icon_mask_base_uri": "https://maps.gstatic.com/mapfiles/place_api/icons/v2/school_pinlet",
      "name": "Brooklyn Public Library - Red Hook Branch",
      "opening_hours": {
        "open_now": true
      },
      "photos": [
        {
          "height": 3024,
          "html_attributions": [
            "<a href=\"https://maps.google.com/maps/contrib/103143890705930106489\">Michelle Montalbano</a>"
          ],
          "photo_reference": "AeJbb3dyuEk6I4C1pEXeH8gsOUWkIidRavTUiJ_jyUFCAG4VYp3k3dOQJ4EjhQJPYpur1CzbioFZRNetUHCMd12chec5o-oBvOI2xwgjdaXvlUa-HiIjVmwTp76XjFqwRdLdkzK6YVT6sL00ldD2FEviT-HsSMTPVzYrG9diFtToGdkP--C2",
          "width": 4032
        }
      ],
      "place_id": "ChIJGyuij4tawokRFov_AJ0cjvU",
      "plus_code": {
        "compound_code": "MXGQ+4V \u7f8e\u570b\u7d10\u7d04\u5e03\u9c81\u514b\u6797",
        "global_code": "87G7MXGQ+4V"
      },
      "rating": 4.4,
      "reference": "ChIJGyuij4tawokRFov_AJ0cjvU",
      "scope": "GOOGLE",
      "types": [
        "library",
        "point_of_interest",
        "establishment"
      ],
      "user_ratings_total": 23,
      "vicinity": "7 Wolcott Street, Brooklyn"
    },
    {
      "business_status": "OPERATIONAL",
      "geometry": {
        "location": {
          "lat": 40.674595,
          "lng": -74.014292
        },
        "viewport": {
          "northeast": {
            "lat": 40.67592168029149,
            "lng": -74.01302371970849
          },
          "southwest": {
            "lat": 40.6732237197085,
            "lng": -74.0157216802915
          }
        }
      },
      "icon": "https://maps.gstatic.com/mapfiles/place_api/icons/v1/png_71/shopping-71.png",
      "icon_background_color": "#4B96F3",
      "icon_mask_base_uri": "https://maps.gstatic.com/mapfiles/place_api/icons/v2/shopping_pinlet",
      "name": "M Fried Store Fixtures",
      "opening_hours": {
        "open_now": false
      },
      "photos": [
        {
          "height": 3008,
          "html_attributions": [
            "<a href=\"https://maps.google.com/maps/contrib/112268990441953742434\">M Fried Store Fixtures</a>"
          ],
          "photo_reference": "AeJbb3cGAlCeQU_D62C9xu849PJ-h_s0mUy9mgftybPSgs0IftqvQ3-pWy_82AQ6oX4u6T5h92L16rG7KbZfih88ecAuw_YdMnbgWpIbiqI3t8v0QW5oBo88Cq8jJPYs_pGBHW0a-JEDfcSuc9o4QLdoEy69aqbQWLqLIwT_0ehkRxbnrtmN",
          "width": 5349
        }
      ],
      "place_id": "ChIJzdROZsZbwokRAwWeBHvzF94",
      "plus_code": {
        "compound_code": "MXFP+R7 \u7f8e\u570b\u7d10\u7d04\u5e03\u9c81\u514b\u6797",
        "global_code": "87G7MXFP+R7"
      },
      "rating": 4.8,
      "reference": "ChIJzdROZsZbwokRAwWeBHvzF94",
      "scope": "GOOGLE",
      "types": [
        "furniture_store",
        "home_goods_store",
        "store",
        "point_of_interest",
        "establishment"
      ],
      "user_ratings_total": 230,
      "vicinity": "110 Beard Street, Brooklyn"
    },
    {
      "geometry": {
        "location": {
          "lat": 40.6781784,
          "lng": -73.9441579
        },
        "viewport": {
          "northeast": {
            "lat": 40.73944597129348,
            "lng": -73.83336505117123
          },
          "southwest": {
            "lat": 40.55104197967331,
            "lng": -74.05662998413648
          }
        }
      },
      "icon": "https://maps.gstatic.com/mapfiles/place_api/icons/v1/png_71/geocode-71.png",
      "icon_background_color": "#7B9EB0",
      "icon_mask_base_uri": "https://maps.gstatic.com/mapfiles/place_api/icons/v2/generic_pinlet",
      "name": "\u5e03\u9c81\u514b\u6797",
      "photos": [
        {
          "height": 3024,
          "html_attributions": [
            "<a href=\"https://maps.google.com/maps/contrib/114417859579881743500\">Chengxiang Yuan</a>"
          ],
          "photo_reference": "AeJbb3cgnHTVK17drb_7WIyxxLbH4l26CcMPyJzLbxsSTcNRHrg7-9ymlO0FyPYnwgmlG__DssUmu6Vj4MjZ31ggddkOq_tj6yH52akEr0XeW6aAQIJxb_8PA_J4swae91juumrE8zvOlZOWe-gMeyjqW9kqoPb0M7-EUGH8D8cNMdPHNt8I",
          "width": 4032
        }
      ],
      "place_id": "ChIJCSF8lBZEwokRhngABHRcdoI",
      "reference": "ChIJCSF8lBZEwokRhngABHRcdoI",
      "scope": "GOOGLE",
      "types": [
        "sublocality_level_1",
        "sublocality",
        "political"
      ],
      "vicinity": "\u5e03\u9c81\u514b\u6797"
    },
    {
      "business_status": "OPERATIONAL",
      "geometry": {
        "location": {
          "lat": 40.6791703,
          "lng": -74.0095265
        },
        "viewport": {
          "northeast": {
            "lat": 40.6803902302915,
            "lng": -74.0082272197085
          },
          "southwest": {
            "lat": 40.6776922697085,
            "lng": -74.01092518029152
          }
        }
      },
      "icon": "https://maps.gstatic.com/mapfiles/place_api/icons/v1/png_71/civic_building-71.png",
      "icon_background_color": "#7B9EB0",
      "icon_mask_base_uri": "https://maps.gstatic.com/mapfiles/place_api/icons/v2/civic-bldg_pinlet",
      "name": "Red Hook Community Justice Cnt",
      "opening_hours": {
        "open_now": false
      },
      "photos": [
        {
          "height": 3120,
          "html_attributions": [
            "<a href=\"https://maps.google.com/maps/contrib/108564407547168682654\">Alvin Cheung</a>"
          ],
          "photo_reference": "AeJbb3dJjutQSD2Ru4DtXUiH5rSGLQ_nvyW3GdVs8mnLv8i7EhK6ulK7a8_omXPZw3yhHCSCyxXsV1qXvAey7fpY8DGn_RRHFCN53cH67hFeVyyFRveHCi5pm3xlL4wQcfsJcmhtS3wr5uCNLVz0UGNU7v0JNWywRoumrFvpLeW9lWWA447x",
          "width": 4160
        }
      ],
      "place_id": "ChIJYzNfYopawokRj7TyY7gDvbk",
      "plus_code": {
        "compound_code": "MXHR+M5 Brooklyn, NY, USA",
        "global_code": "87G7MXHR+M5"
      },
      "rating": 4,
      "reference": "ChIJYzNfYopawokRj7TyY7gDvbk",
      "scope": "GOOGLE",
      "types": [
        "courthouse",
        "local_government_office",
        "point_of_interest",
        "establishment"
      ],
      "user_ratings_total": 14,
      "vicinity": "88 Visitation Place, Brooklyn"
    },
    {
      "business_status": "CLOSED_TEMPORARILY",
      "geometry": {
        "location": {
          "lat": 40.67731939999999,
          "lng": -74.0153361
        },
        "viewport": {
          "northeast": {
            "lat": 40.67862738029149,
            "lng": -74.0139270197085
          },
          "southwest": {
            "lat": 40.6759294197085,
            "lng": -74.01662498029151
          }
        }
      },
      "icon": "https://maps.gstatic.com/mapfiles/place_api/icons/v1/png_71/shopping-71.png",
      "icon_background_color": "#4B96F3",
      "icon_mask_base_uri": "https://maps.gstatic.com/mapfiles/place_api/icons/v2/shopping_pinlet",
      "name": "Cacao Prieto",
      "permanently_closed": true,
      "photos": [
        {
          "height": 3024,
          "html_attributions": [
            "<a href=\"https://maps.google.com/maps/contrib/108681261714383211159\">Cassie Hamilton</a>"
          ],
          "photo_reference": "AeJbb3c8Th8XW9pD6c8IROoUWOXYQdeHgCdCj54vUJnBPIh1RJ_4jM5REipgxUkiFR0NTdbz0_i5DpbYp9F8K88ayK9dq58EcIcEyDeMkjtEE9_N5tyGSF0Jrmyplx9pceFkxWksCdBVurNLF751Kc4K34eH7k7ZxcTlW_ckvtzg7M-OmlLk",
          "width": 4032
        }
      ],
      "place_id": "ChIJv-DnHYlawokRGn355CNMAh4",
      "plus_code": {
        "compound_code": "MXGM+WV Brooklyn, NY, USA",
        "global_code": "87G7MXGM+WV"
      },
      "rating": 4.5,
      "reference": "ChIJv-DnHYlawokRGn355CNMAh4",
      "scope": "GOOGLE",
      "types": [
        "liquor_store",
        "food",
        "store",
        "point_of_interest",
        "establishment"
      ],
      "user_ratings_total": 32,
      "vicinity": "218 Conover Street, Brooklyn"
    },
    {
      "business_status": "CLOSED_TEMPORARILY",
      "geometry": {
        "location": {
          "lat": 40.6769356,
          "lng": -74.011926
        },
        "viewport": {
          "northeast": {
            "lat": 40.6784536802915,
            "lng": -74.0103318197085
          },
          "southwest": {
            "lat": 40.6757557197085,
            "lng": -74.0130297802915
          }
        }
      },
      "icon": "https://maps.gstatic.com/mapfiles/place_api/icons/v1/png_71/generic_business-71.png",
      "icon_background_color": "#7B9EB0",
      "icon_mask_base_uri": "https://maps.gstatic.com/mapfiles/place_api/icons/v2/generic_pinlet",
      "name": "Red Hook Community Center",
      "permanently_closed": true,
      "place_id": "ChIJRa1CzotawokRvDwnUhHgdQI",
      "plus_code": {
        "compound_code": "MXGQ+Q6 Brooklyn, NY, USA",
        "global_code": "87G7MXGQ+Q6"
      },
      "rating": 4.6,
      "reference": "ChIJRa1CzotawokRvDwnUhHgdQI",
      "scope": "GOOGLE",
      "types": [
        "point_of_interest",
        "establishment"
      ],
      "user_ratings_total": 5,
      "vicinity": "71 Sullivan Street, Brooklyn"
    },
    {
      "business_status": "OPERATIONAL",
      "geometry": {
        "location": {
          "lat": 40.6758023,
          "lng": -74.0138192
        },
        "viewport": {
          "northeast": {
            "lat": 40.6772123302915,
            "lng": -74.01239831970848
          },
          "southwest": {
            "lat": 40.6745143697085,
            "lng": -74.0150962802915
          }
        }
      },
      "icon": "https://maps.gstatic.com/mapfiles/place_api/icons/v1/png_71/generic_business-71.png",
      "icon_background_color": "#7B9EB0",
      "icon_mask_base_uri": "https://maps.gstatic.com/mapfiles/place_api/icons/v2/generic_pinlet",
      "name": "Dash 7 Design",
      "opening_hours": {
        "open_now": false
      },
      "photos": [
        {
          "height": 1536,
          "html_attributions": [
            "<a href=\"https://maps.google.com/maps/contrib/117166365180189305557\">Dash 7 Design</a>"
          ],
          "photo_reference": "AeJbb3eJHuGwS9uNvEqKrsDTz0rpaE8J_9wHoqXg--Q8T0-TUBK_wsI-0ZtOxmCUNGRXD553PkEkXqIPa8FcoatJkyt3yg7EiKLR9A-4XLM13IR6VKr9d7n73Vh8mDUBhdtDORaUzIaIVUSqgZCAcfLdnvJOLYrfLKuBDvzpUc6PoYhzKi0",
          "width": 2048
        }
      ],
      "place_id": "ChIJr8oqdKhewokRQ4Y46w-gC_U",
      "plus_code": {
        "compound_code": "MXGP+8F Brooklyn, NY, USA",
        "global_code": "87G7MXGP+8F"
      },
      "rating": 4.6,
      "reference": "ChIJr8oqdKhewokRQ4Y46w-gC_U",
      "scope": "GOOGLE",
      "types": [
        "point_of_interest",
        "establishment"
      ],
      "user_ratings_total": 8,
      "vicinity": "99 Coffey Street, Brooklyn"
    },
    {
      "business_status": "OPERATIONAL",
      "geometry": {
        "location": {
          "lat": 40.67783420000001,
          "lng": -74.0099257
        },
        "viewport": {
          "northeast": {
            "lat": 40.67911583029149,
            "lng": -74.00850671970849
          },
          "southwest": {
            "lat": 40.6764178697085,
            "lng": -74.0112046802915
          }
        }
      },
      "icon": "https://maps.gstatic.com/mapfiles/place_api/icons/v1/png_71/pharmacy-71.png",
      "icon_background_color": "#F88181",
      "icon_mask_base_uri": "https://maps.gstatic.com/mapfiles/place_api/icons/v2/pharmacy_pinlet",
      "name": "Ram Drugs Inc.",
      "opening_hours": {
        "open_now": false
      },
      "photos": [
        {
          "height": 723,
          "html_attributions": [
            "<a href=\"https://maps.google.com/maps/contrib/108322394922609632636\">Ram Drugs Inc.</a>"
          ],
          "photo_reference": "AeJbb3dr468V-M4cdSe0RlNK9yeClAqOI4AMp74KQUPu0IMEQ0IyFrTBKm4ae1A_2WdOwsbtUiUOfdL7NobuaVfNpQE4xjRpzoFpQfDwSo-_NhrcadgUqX0TQXV4vTMkkhkgL9DgxMWHIn046ZcrRRWdVFkFNAm727UvMPt9nbd4EiosLvep",
          "width": 1101
        }
      ],
      "place_id": "ChIJoSw5UYpawokR1Sg_CUjgUkA",
      "plus_code": {
        "compound_code": "MXHR+42 Brooklyn, NY, USA",
        "global_code": "87G7MXHR+42"
      },
      "rating": 2.9,
      "reference": "ChIJoSw5UYpawokR1Sg_CUjgUkA",
      "scope": "GOOGLE",
      "types": [
        "pharmacy",
        "health",
        "store",
        "point_of_interest",
        "establishment"
      ],
      "user_ratings_total": 7,
      "vicinity": "120 Richards Street, Brooklyn"
    },
    {
      "business_status": "OPERATIONAL",
      "geometry": {
        "location": {
          "lat": 40.67665549999999,
          "lng": -74.0122269
        },
        "viewport": {
          "northeast": {
            "lat": 40.67811373029149,
            "lng": -74.0109350697085
          },
          "southwest": {
            "lat": 40.67541576970849,
            "lng": -74.0136330302915
          }
        }
      },
      "icon": "https://maps.gstatic.com/mapfiles/place_api/icons/v1/png_71/generic_business-71.png",
      "icon_background_color": "#7B9EB0",
      "icon_mask_base_uri": "https://maps.gstatic.com/mapfiles/place_api/icons/v2/generic_pinlet",
      "name": "Red Hook Homes",
      "place_id": "ChIJfdLD2ItawokRYRlK1UcT48Y",
      "plus_code": {
        "compound_code": "MXGQ+M4 New York, NY, USA",
        "global_code": "87G7MXGQ+M4"
      },
      "reference": "ChIJfdLD2ItawokRYRlK1UcT48Y",
      "scope": "GOOGLE",
      "types": [
        "general_contractor",
        "point_of_interest",
        "establishment"
      ],
      "vicinity": "79 Wolcott Street, Brooklyn"
    },
    {
      "business_status": "OPERATIONAL",
      "geometry": {
        "location": {
          "lat": 40.67449619999999,
          "lng": -74.0119639
        },
        "viewport": {
          "northeast": {
            "lat": 40.6759197302915,
            "lng": -74.01052636970849
          },
          "southwest": {
            "lat": 40.6732217697085,
            "lng": -74.0132243302915
          }
        }
      },
      "icon": "https://maps.gstatic.com/mapfiles/place_api/icons/v1/png_71/generic_business-71.png",
      "icon_background_color": "#7B9EB0",
      "icon_mask_base_uri": "https://maps.gstatic.com/mapfiles/place_api/icons/v2/generic_pinlet",
      "name": "Premium Millwork, Inc.",
      "opening_hours": {
        "open_now": true
      },
      "photos": [
        {
          "height": 1264,
          "html_attributions": [
            "<a href=\"https://maps.google.com/maps/contrib/100370336054898664406\">Premium Millwork, Inc.</a>"
          ],
          "photo_reference": "AeJbb3fIBL-gq3b8ID9BpQ26rS-tMJ4iZKzYW8oZ1dimYvq3xK6i63NXuQg7oc5vZ5ssOGaPTbBJrELvBMKp1cO6gliKvFuFzLdg7p7Ua2OtphL5aXx4fYYz4ziaVeWz9NdomE1dKwPxrmvm9oPxN-6YU7uZ1jo8NnTwnN1_MmYEJxJwYaH2",
          "width": 1800
        }
      ],
      "place_id": "ChIJVz5gG4xawokREXk5fYhXdXE",
      "plus_code": {
        "compound_code": "MXFQ+Q6 Brooklyn, NY, USA",
        "global_code": "87G7MXFQ+Q6"
      },
      "rating": 4,
      "reference": "ChIJVz5gG4xawokREXk5fYhXdXE",
      "scope": "GOOGLE",
      "types": [
        "point_of_interest",
        "establishment"
      ],
      "user_ratings_total": 3,
      "vicinity": "43 Coffey Street, Brooklyn"
    },
    {
      "business_status": "CLOSED_TEMPORARILY",
      "geometry": {
        "location": {
          "lat": 40.676354,
          "lng": -74.01175400000001
        },
        "viewport": {
          "northeast": {
            "lat": 40.6777537802915,
            "lng": -74.01034546970851
          },
          "southwest": {
            "lat": 40.6750558197085,
            "lng": -74.01304343029152
          }
        }
      },
      "icon": "https://maps.gstatic.com/mapfiles/place_api/icons/v1/png_71/generic_business-71.png",
      "icon_background_color": "#7B9EB0",
      "icon_mask_base_uri": "https://maps.gstatic.com/mapfiles/place_api/icons/v2/generic_pinlet",
      "name": "Carter Justera Productions",
      "permanently_closed": true,
      "place_id": "ChIJhZ2L54tawokRe3tUFO-oed8",
      "plus_code": {
        "compound_code": "MXGQ+G7 New York, NY, USA",
        "global_code": "87G7MXGQ+G7"
      },
      "rating": 5,
      "reference": "ChIJhZ2L54tawokRe3tUFO-oed8",
      "scope": "GOOGLE",
      "types": [
        "art_gallery",
        "point_of_interest",
        "establishment"
      ],
      "user_ratings_total": 1,
      "vicinity": "57 Wolcott Street #1517, Brooklyn"
    },
    {
      "business_status": "OPERATIONAL",
      "geometry": {
        "location": {
          "lat": 40.6744699,
          "lng": -74.00852549999999
        },
        "viewport": {
          "northeast": {
            "lat": 40.6757290802915,
            "lng": -74.00685426970848
          },
          "southwest": {
            "lat": 40.6730311197085,
            "lng": -74.00955223029149
          }
        }
      },
      "icon": "https://maps.gstatic.com/mapfiles/place_api/icons/v1/png_71/generic_business-71.png",
      "icon_background_color": "#7B9EB0",
      "icon_mask_base_uri": "https://maps.gstatic.com/mapfiles/place_api/icons/v2/generic_pinlet",
      "name": "Stanly Enterprises",
      "opening_hours": {
        "open_now": true
      },
      "photos": [
        {
          "height": 990,
          "html_attributions": [
            "<a href=\"https://maps.google.com/maps/contrib/112717078664719422130\">Stanly Enterprises</a>"
          ],
          "photo_reference": "AeJbb3dPO4IOOxKB5RSbPouJmhEM5KQ7W3ZFVwmIO8f5wU3oIgUWjoIGsXlQIvfrZ0vjiqwcKINuNFzUiV8bM4p2tBXf1dMmM8MX7TedLVUMqtfMl0xOJmI9bmz1VoYHwlAkF_UjFxeu2mVf2MOY71soiOXwRofn0s1xg07xHQygy3GkfIXP",
          "width": 765
        }
      ],
      "place_id": "ChIJ5VNgX4tawokRuXuILxkiayU",
      "plus_code": {
        "compound_code": "MXFR+QH Brooklyn, NY, USA",
        "global_code": "87G7MXFR+QH"
      },
      "reference": "ChIJ5VNgX4tawokRuXuILxkiayU",
      "scope": "GOOGLE",
      "types": [
        "store",
        "point_of_interest",
        "establishment"
      ],
      "vicinity": "498 Columbia Street, Brooklyn"
    },
    {
      "business_status": "OPERATIONAL",
      "geometry": {
        "location": {
          "lat": 40.6765179,
          "lng": -74.01212819999999
        },
        "viewport": {
          "northeast": {
            "lat": 40.67800553029151,
            "lng": -74.01079571970848
          },
          "southwest": {
            "lat": 40.67530756970851,
            "lng": -74.0134936802915
          }
        }
      },
      "icon": "https://maps.gstatic.com/mapfiles/place_api/icons/v1/png_71/shopping-71.png",
      "icon_background_color": "#4B96F3",
      "icon_mask_base_uri": "https://maps.gstatic.com/mapfiles/place_api/icons/v2/shopping_pinlet",
      "name": "Mika's Decor",
      "opening_hours": {
        "open_now": true
      },
      "photos": [
        {
          "height": 1564,
          "html_attributions": [
            "<a href=\"https://maps.google.com/maps/contrib/101445406244611954439\">Mika&#39;s Decor</a>"
          ],
          "photo_reference": "AeJbb3e51PAuqiVKpdSzRYxfI-pCEfreXiEe3EN1B3PJ9oFsIbuyomWqUsmdMjMiFiU1_tBw0oNu7APwrQVO39Hz92nCj9xemrCwT0kOLfaJ5uk6Q1Ehn70-eWyrhqUlJaWS3YnRDvMO90SRTqRL5993tnOFG1q5RED__p1WyEqdRXujuyUj",
          "width": 1564
        }
      ],
      "place_id": "ChIJV4C82ItawokR54JJtChIow0",
      "plus_code": {
        "compound_code": "MXGQ+J4 New York, NY, USA",
        "global_code": "87G7MXGQ+J4"
      },
      "reference": "ChIJV4C82ItawokR54JJtChIow0",
      "scope": "GOOGLE",
      "types": [
        "store",
        "point_of_interest",
        "establishment"
      ],
      "vicinity": "71 Wolcott Street, Brooklyn"
    },
    {
      "business_status": "OPERATIONAL",
      "geometry": {
        "location": {
          "lat": 40.6767267,
          "lng": -74.00961869999999
        },
        "viewport": {
          "northeast": {
            "lat": 40.6781319302915,
            "lng": -74.0082011197085
          },
          "southwest": {
            "lat": 40.6754339697085,
            "lng": -74.01089908029151
          }
        }
      },
      "icon": "https://maps.gstatic.com/mapfiles/place_api/icons/v1/png_71/generic_business-71.png",
      "icon_background_color": "#13B5C7",
      "icon_mask_base_uri": "https://maps.gstatic.com/mapfiles/place_api/icons/v2/generic_pinlet",
      "name": "Falconworks Artists Group",
      "photos": [
        {
          "height": 4096,
          "html_attributions": [
            "<a href=\"https://maps.google.com/maps/contrib/102335817623764141805\">Yolanda Vializ</a>"
          ],
          "photo_reference": "AeJbb3eq6uGDubpdWz8eaDmOPs4qavv-y0FiDieFrZmoHm0t24AUZmOFsyDl8-0b8eNVTc6ZHt46UTuxCtrD-CEZNmLKUYsWS9VER_LLlPDjdWtHhcaU4T5MDiV79SRY71wEoakgplJ87nldg8AX4g3Qer2fTqr7kz8pWOfCHiZ42h79mO5A",
          "width": 2304
        }
      ],
      "place_id": "ChIJqVxEWopawokREe3b9Xi8KDg",
      "plus_code": {
        "compound_code": "MXGR+M5 New York, NY, USA",
        "global_code": "87G7MXGR+M5"
      },
      "rating": 5,
      "reference": "ChIJqVxEWopawokREe3b9Xi8KDg",
      "scope": "GOOGLE",
      "types": [
        "point_of_interest",
        "establishment"
      ],
      "user_ratings_total": 1,
      "vicinity": "135 Richards Street #9c, Brooklyn"
    },
    {
      "business_status": "OPERATIONAL",
      "geometry": {
        "location": {
          "lat": 40.67419140000001,
          "lng": -74.01084139999999
        },
        "viewport": {
          "northeast": {
            "lat": 40.67548833029151,
            "lng": -74.00955461970848
          },
          "southwest": {
            "lat": 40.67279036970851,
            "lng": -74.01225258029149
          }
        }
      },
      "icon": "https://maps.gstatic.com/mapfiles/place_api/icons/v1/png_71/generic_business-71.png",
      "icon_background_color": "#7B9EB0",
      "icon_mask_base_uri": "https://maps.gstatic.com/mapfiles/place_api/icons/v2/generic_pinlet",
      "name": "C10 Design Woodwork",
      "opening_hours": {
        "open_now": true
      },
      "photos": [
        {
          "height": 968,
          "html_attributions": [
            "<a href=\"https://maps.google.com/maps/contrib/111672897572572197428\">C10 Design Woodwork</a>"
          ],
          "photo_reference": "AeJbb3dPSnBdsiQTbFXX4UVU7DVlaUPDmRhycVPfIXzrn0k52J4_1e_x1g92AxHvXmjjaAYX8nUkeHGbDZjlu04hf5xaTWsr2eF3x_ld-gzgnkd2IuV4vVjkG_MkM3TIxMZMrCE22Dlu7vJpWdzCz6VeVehtq0prYbjOWGG27CSvbl7gM5bk",
          "width": 1500
        }
      ],
      "place_id": "ChIJqSk4sMZbwokRAimpL8pBHHE",
      "plus_code": {
        "compound_code": "MXFQ+MM Brooklyn, NY, USA",
        "global_code": "87G7MXFQ+MM"
      },
      "rating": 5,
      "reference": "ChIJqSk4sMZbwokRAimpL8pBHHE",
      "scope": "GOOGLE",
      "types": [
        "point_of_interest",
        "establishment"
      ],
      "user_ratings_total": 2,
      "vicinity": "20 Coffey Street, Brooklyn"
    },
    {
      "business_status": "OPERATIONAL",
      "geometry": {
        "location": {
          "lat": 40.6733509,
          "lng": -74.0095389
        },
        "viewport": {
          "northeast": {
            "lat": 40.6748307302915,
            "lng": -74.00812646970851
          },
          "southwest": {
            "lat": 40.6721327697085,
            "lng": -74.01082443029152
          }
        }
      },
      "icon": "https://maps.gstatic.com/mapfiles/place_api/icons/v1/png_71/generic_business-71.png",
      "icon_background_color": "#7B9EB0",
      "icon_mask_base_uri": "https://maps.gstatic.com/mapfiles/place_api/icons/v2/generic_pinlet",
      "name": "Fritz Ewins",
      "place_id": "ChIJ0RAKZ4xawokRiFuMnpfMc3I",
      "plus_code": {
        "compound_code": "MXFR+85 Brooklyn, NY, USA",
        "global_code": "87G7MXFR+85"
      },
      "rating": 4,
      "reference": "ChIJ0RAKZ4xawokRiFuMnpfMc3I",
      "scope": "GOOGLE",
      "types": [
        "general_contractor",
        "point_of_interest",
        "establishment"
      ],
      "user_ratings_total": 8,
      "vicinity": "20 Bay Street, Brooklyn"
    },
    {
      "business_status": "OPERATIONAL",
      "geometry": {
        "location": {
          "lat": 40.6742187,
          "lng": -74.00676229999999
        },
        "viewport": {
          "northeast": {
            "lat": 40.67562953029149,
            "lng": -74.00537201970849
          },
          "southwest": {
            "lat": 40.6729315697085,
            "lng": -74.00806998029151
          }
        }
      },
      "icon": "https://maps.gstatic.com/mapfiles/place_api/icons/v1/png_71/school-71.png",
      "icon_background_color": "#7B9EB0",
      "icon_mask_base_uri": "https://maps.gstatic.com/mapfiles/place_api/icons/v2/school_pinlet",
      "name": "Bumble Bees R Us",
      "opening_hours": {
        "open_now": false
      },
      "photos": [
        {
          "height": 2268,
          "html_attributions": [
            "<a href=\"https://maps.google.com/maps/contrib/101774827586792394214\">Bumble Bees R Us</a>"
          ],
          "photo_reference": "AeJbb3ceK1NAzaWGlgzulXNJuPfmfjdJTPnY2FlNF79hZ5tRn9kZ3yN3vJLD1oyFP39xsszLXu6RDp5JO7QrbgSQxd7dhiokK5zlJkYzj-1Nj-N1k4y54ckT-SYqIjwEj6p037-HkQMIAEaTm1dT-VTvDeUYkmwHJcsxaldxbDO63L3SbYlR",
          "width": 4032
        }
      ],
      "place_id": "ChIJfd48qoxawokRo0cKdhZN4SU",
      "plus_code": {
        "compound_code": "MXFV+M7 Brooklyn, NY, USA",
        "global_code": "87G7MXFV+M7"
      },
      "rating": 4.2,
      "reference": "ChIJfd48qoxawokRo0cKdhZN4SU",
      "scope": "GOOGLE",
      "types": [
        "school",
        "point_of_interest",
        "establishment"
      ],
      "user_ratings_total": 17,
      "vicinity": "76 Lorraine Street, Brooklyn"
    },
    {
      "business_status": "OPERATIONAL",
      "geometry": {
        "location": {
          "lat": 40.675476,
          "lng": -74.0134273
        },
        "viewport": {
          "northeast": {
            "lat": 40.6769088802915,
            "lng": -74.0119952197085
          },
          "southwest": {
            "lat": 40.6742109197085,
            "lng": -74.0146931802915
          }
        }
      },
      "icon": "https://maps.gstatic.com/mapfiles/place_api/icons/v1/png_71/generic_business-71.png",
      "icon_background_color": "#7B9EB0",
      "icon_mask_base_uri": "https://maps.gstatic.com/mapfiles/place_api/icons/v2/generic_pinlet",
      "name": "Village Center For Care",
      "place_id": "ChIJi_g1TIlawokRZcN1JdbNrZU",
      "plus_code": {
        "compound_code": "MXGP+5J Brooklyn, NY, USA",
        "global_code": "87G7MXGP+5J"
      },
      "reference": "ChIJi_g1TIlawokRZcN1JdbNrZU",
      "scope": "GOOGLE",
      "types": [
        "doctor",
        "health",
        "point_of_interest",
        "establishment"
      ],
      "vicinity": "83 Coffey Street, Brooklyn"
    },
    {
      "business_status": "OPERATIONAL",
      "geometry": {
        "location": {
          "lat": 40.675219,
          "lng": -74.0122725
        },
        "viewport": {
          "northeast": {
            "lat": 40.6765001802915,
            "lng": -74.01100341970849
          },
          "southwest": {
            "lat": 40.6738022197085,
            "lng": -74.0137013802915
          }
        }
      },
      "icon": "https://maps.gstatic.com/mapfiles/place_api/icons/v1/png_71/generic_business-71.png",
      "icon_background_color": "#7B9EB0",
      "icon_mask_base_uri": "https://maps.gstatic.com/mapfiles/place_api/icons/v2/generic_pinlet",
      "name": "CSScott Enterprises",
      "opening_hours": {
        "open_now": false
      },
      "place_id": "ChIJPXjUAYxawokRcbZh2yY1PtM",
      "plus_code": {
        "compound_code": "MXGQ+33 Brooklyn, NY, USA",
        "global_code": "87G7MXGQ+33"
      },
      "rating": 2.6,
      "reference": "ChIJPXjUAYxawokRcbZh2yY1PtM",
      "scope": "GOOGLE",
      "types": [
        "general_contractor",
        "point_of_interest",
        "establishment"
      ],
      "user_ratings_total": 5,
      "vicinity": "60 Coffey Street, Brooklyn"
    },
    {
      "business_status": "OPERATIONAL",
      "geometry": {
        "location": {
          "lat": 40.678104,
          "lng": -74.01014719999999
        },
        "viewport": {
          "northeast": {
            "lat": 40.6795109802915,
            "lng": -74.0087297697085
          },
          "southwest": {
            "lat": 40.6768130197085,
            "lng": -74.0114277302915
          }
        }
      },
      "icon": "https://maps.gstatic.com/mapfiles/place_api/icons/v1/png_71/generic_business-71.png",
      "icon_background_color": "#7B9EB0",
      "icon_mask_base_uri": "https://maps.gstatic.com/mapfiles/place_api/icons/v2/generic_pinlet",
      "name": "Beau & Bear",
      "place_id": "ChIJL0FNRYpawokRWfGp0ZDVnjI",
      "plus_code": {
        "compound_code": "MXHQ+6W New York, NY, USA",
        "global_code": "87G7MXHQ+6W"
      },
      "reference": "ChIJL0FNRYpawokRWfGp0ZDVnjI",
      "scope": "GOOGLE",
      "types": [
        "general_contractor",
        "point_of_interest",
        "establishment"
      ],
      "vicinity": "97 Pioneer Street, Brooklyn"
    },
    {
      "business_status": "OPERATIONAL",
      "geometry": {
        "location": {
          "lat": 40.67492369999999,
          "lng": -74.01266269999999
        },
        "viewport": {
          "northeast": {
            "lat": 40.67634903029149,
            "lng": -74.0114269197085
          },
          "southwest": {
            "lat": 40.6736510697085,
            "lng": -74.0141248802915
          }
        }
      },
      "icon": "https://maps.gstatic.com/mapfiles/place_api/icons/v1/png_71/generic_business-71.png",
      "icon_background_color": "#7B9EB0",
      "icon_mask_base_uri": "https://maps.gstatic.com/mapfiles/place_api/icons/v2/generic_pinlet",
      "name": "Kenneth J. Schwartz, MD, FABP, FAPA",
      "opening_hours": {
        "open_now": false
      },
      "photos": [
        {
          "height": 1936,
          "html_attributions": [
            "<a href=\"https://maps.google.com/maps/contrib/115295464822179438909\">Kenneth J. Schwartz, MD, FABP, FAPA</a>"
          ],
          "photo_reference": "AeJbb3f2NK-QIY6Xl_eIjkFBO8jAMKQpIuav-VP1i0F8KvPWh29OxsRC3kwAd29-AlyU8-Zo-suOyz0rRdV8tCaiE-9BmgagRyLwZkrrkfpGf08OqixJR-5Xowh5730iaVWdq7jrbD2jYiEAumOjVv-9Na--IZQg96DqiJbYDFAGfbp50ugO",
          "width": 1936
        }
      ],
      "place_id": "ChIJVbttqY5awokR12MqrN0xpZ0",
      "plus_code": {
        "compound_code": "MXFP+XW Brooklyn, NY, USA",
        "global_code": "87G7MXFP+XW"
      },
      "reference": "ChIJVbttqY5awokR12MqrN0xpZ0",
      "scope": "GOOGLE",
      "types": [
        "doctor",
        "health",
        "point_of_interest",
        "establishment"
      ],
      "vicinity": "201 Richards Street #2, Brooklyn"
    },
    {
      "business_status": "CLOSED_TEMPORARILY",
      "geometry": {
        "location": {
          "lat": 40.6751498,
          "lng": -74.0078382
        },
        "viewport": {
          "northeast": {
            "lat": 40.6764571302915,
            "lng": -74.0063463697085
          },
          "southwest": {
            "lat": 40.6737591697085,
            "lng": -74.0090443302915
          }
        }
      },
      "icon": "https://maps.gstatic.com/mapfiles/place_api/icons/v1/png_71/generic_business-71.png",
      "icon_background_color": "#7B9EB0",
      "icon_mask_base_uri": "https://maps.gstatic.com/mapfiles/place_api/icons/v2/generic_pinlet",
      "name": "Sprinkle Co",
      "permanently_closed": true,
      "place_id": "ChIJIU8DSItawokRDr1UTSLpWq0",
      "plus_code": {
        "compound_code": "MXGR+3V Brooklyn, NY, USA",
        "global_code": "87G7MXGR+3V"
      },
      "reference": "ChIJIU8DSItawokRDr1UTSLpWq0",
      "scope": "GOOGLE",
      "types": [
        "general_contractor",
        "point_of_interest",
        "establishment"
      ],
      "vicinity": "486 Columbia Street, Brooklyn"
    },
    {
      "business_status": "OPERATIONAL",
      "geometry": {
        "location": {
          "lat": 40.6747254,
          "lng": -74.0102721
        },
        "viewport": {
          "northeast": {
            "lat": 40.6760743802915,
            "lng": -74.00892311970848
          },
          "southwest": {
            "lat": 40.6733764197085,
            "lng": -74.0116210802915
          }
        }
      },
      "icon": "https://maps.gstatic.com/mapfiles/place_api/icons/v1/png_71/generic_business-71.png",
      "icon_background_color": "#7B9EB0",
      "icon_mask_base_uri": "https://maps.gstatic.com/mapfiles/place_api/icons/v2/generic_pinlet",
      "name": "Aad Construction",
      "opening_hours": {
        "open_now": false
      },
      "place_id": "ChIJ96kKwbFawokRqCTCwtkvKgA",
      "plus_code": {
        "compound_code": "MXFQ+VV New York, NY, USA",
        "global_code": "87G7MXFQ+VV"
      },
      "rating": 5,
      "reference": "ChIJ96kKwbFawokRqCTCwtkvKgA",
      "scope": "GOOGLE",
      "types": [
        "general_contractor",
        "point_of_interest",
        "establishment"
      ],
      "user_ratings_total": 2,
      "vicinity": "141 Dwight Street, Brooklyn"
    },
    {
      "business_status": "OPERATIONAL",
      "geometry": {
        "location": {
          "lat": 40.67325049999999,
          "lng": -74.010408
        },
        "viewport": {
          "northeast": {
            "lat": 40.67461898029148,
            "lng": -74.0091070197085
          },
          "southwest": {
            "lat": 40.67192101970848,
            "lng": -74.0118049802915
          }
        }
      },
      "icon": "https://maps.gstatic.com/mapfiles/place_api/icons/v1/png_71/generic_business-71.png",
      "icon_background_color": "#7B9EB0",
      "icon_mask_base_uri": "https://maps.gstatic.com/mapfiles/place_api/icons/v2/generic_pinlet",
      "name": "Art Frames Furniture Corporation",
      "place_id": "ChIJfcvRRYxawokREbM3p26FSqw",
      "plus_code": {
        "compound_code": "MXFQ+8R Brooklyn, NY, USA",
        "global_code": "87G7MXFQ+8R"
      },
      "reference": "ChIJfcvRRYxawokREbM3p26FSqw",
      "scope": "GOOGLE",
      "types": [
        "general_contractor",
        "point_of_interest",
        "establishment"
      ],
      "vicinity": "79 Otsego Street, Brooklyn"
    },
    {
      "business_status": "OPERATIONAL",
      "geometry": {
        "location": {
          "lat": 40.6753274,
          "lng": -74.0100698
        },
        "viewport": {
          "northeast": {
            "lat": 40.6766763802915,
            "lng": -74.0087208197085
          },
          "southwest": {
            "lat": 40.6739784197085,
            "lng": -74.0114187802915
          }
        }
      },
      "icon": "https://maps.gstatic.com/mapfiles/place_api/icons/v1/png_71/generic_business-71.png",
      "icon_background_color": "#7B9EB0",
      "icon_mask_base_uri": "https://maps.gstatic.com/mapfiles/place_api/icons/v2/generic_pinlet",
      "name": "Citi Bike: Wolcott St & Dwight St",
      "photos": [
        {
          "height": 2448,
          "html_attributions": [
            "<a href=\"https://maps.google.com/maps/contrib/112044392253242445458\">RK Chin</a>"
          ],
          "photo_reference": "AeJbb3eq2DxXrA4SBNEsSHr2wsSZw6Os6eMuYJsS27WX2CdHPmox0RyUHWxM3ixWuvaSRV-qQfnqgNgFnhpzGSCtiC6rY7R7cm9UI_fbln_NZxkTPCZJLVF0_VJucdhiVAQNi5wtzVINNy41kyb2_frA8uDWmvYg6AGdnBb_z0HqEGaEHXb9Xq_tAg",
          "width": 3264
        }
      ],
      "place_id": "ChIJBXCjhYtawokRBXxupnw5xac",
      "plus_code": {
        "compound_code": "MXGQ+4X New York, NY, USA",
        "global_code": "87G7MXGQ+4X"
      },
      "rating": 5,
      "reference": "ChIJBXCjhYtawokRBXxupnw5xac",
      "scope": "GOOGLE",
      "types": [
        "point_of_interest",
        "establishment"
      ],
      "user_ratings_total": 1,
      "vicinity": "Brooklyn"
    },
    {
      "business_status": "OPERATIONAL",
      "geometry": {
        "location": {
          "lat": 40.6749897,
          "lng": -74.0098465
        },
        "viewport": {
          "northeast": {
            "lat": 40.6763479802915,
            "lng": -74.00844981970849
          },
          "southwest": {
            "lat": 40.6736500197085,
            "lng": -74.01114778029151
          }
        }
      },
      "icon": "https://maps.gstatic.com/mapfiles/place_api/icons/v1/png_71/generic_business-71.png",
      "icon_background_color": "#7B9EB0",
      "icon_mask_base_uri": "https://maps.gstatic.com/mapfiles/place_api/icons/v2/generic_pinlet",
      "name": "Alex Magic Touch",
      "opening_hours": {
        "open_now": true
      },
      "photos": [
        {
          "height": 577,
          "html_attributions": [
            "<a href=\"https://maps.google.com/maps/contrib/116018146526240568397\">Alex Magic Touch</a>"
          ],
          "photo_reference": "AeJbb3f-IYLgbLCQKB9H0nyti5DgDWBGatGubmWMs-JEnmCX8i_3u2nUNQWIIxnfsFK9PS_sahF-mixBh-aA4HJq6ZOOmc6iNEIGLanEh-qcelZkxLrcyhKVtCENPm7yRFjOYGnSy_k1lnxcifS_R2TwwS4YSjl99brh0wNN66dgoFPMIbPB",
          "width": 1024
        }
      ],
      "place_id": "ChIJo_kuh4tawokRmPLEe7OWXqE",
      "plus_code": {
        "compound_code": "MXFR+X3 Brooklyn, NY, USA",
        "global_code": "87G7MXFR+X3"
      },
      "rating": 4.8,
      "reference": "ChIJo_kuh4tawokRmPLEe7OWXqE",
      "scope": "GOOGLE",
      "types": [
        "hair_care",
        "health",
        "point_of_interest",
        "establishment"
      ],
      "user_ratings_total": 26,
      "vicinity": "129 Dwight Street, Brooklyn"
    },
    {
      "business_status": "OPERATIONAL",
      "geometry": {
        "location": {
          "lat": 40.67419140000001,
          "lng": -74.01084139999999
        },
        "viewport": {
          "northeast": {
            "lat": 40.67548833029151,
            "lng": -74.00955461970848
          },
          "southwest": {
            "lat": 40.67279036970851,
            "lng": -74.01225258029149
          }
        }
      },
      "icon": "https://maps.gstatic.com/mapfiles/place_api/icons/v1/png_71/generic_business-71.png",
      "icon_background_color": "#7B9EB0",
      "icon_mask_base_uri": "https://maps.gstatic.com/mapfiles/place_api/icons/v2/generic_pinlet",
      "name": "Seetin Design Group Inc.",
      "opening_hours": {
        "open_now": true
      },
      "photos": [
        {
          "height": 1152,
          "html_attributions": [
            "<a href=\"https://maps.google.com/maps/contrib/117589798694319238615\">Seetin Design Group Inc.</a>"
          ],
          "photo_reference": "AeJbb3db0zUrIZ3xT2PLyLtKFzvvKcG9XN-Tx8BqSMCQJ4sJdaFEcNZzEhm7ub8-sFH4RIcWAA95IFWhrXqRQo_mXbXnJ31cdziZ36KNnPUjHw_Of6X2c9HRaZzWbRoDzARpFWD2CQOPovEE0iobXQL3oCWGNa7_rzGI3iCbN5j4wAD8DE8",
          "width": 2048
        }
      ],
      "place_id": "ChIJJ6mwbIxawokRYMJWsMYgmlw",
      "plus_code": {
        "compound_code": "MXFQ+MM Brooklyn, NY, USA",
        "global_code": "87G7MXFQ+MM"
      },
      "rating": 5,
      "reference": "ChIJJ6mwbIxawokRYMJWsMYgmlw",
      "scope": "GOOGLE",
      "types": [
        "point_of_interest",
        "establishment"
      ],
      "user_ratings_total": 2,
      "vicinity": "20 Coffey Street, Brooklyn"
    },
    {
      "business_status": "CLOSED_TEMPORARILY",
      "geometry": {
        "location": {
          "lat": 40.6758894,
          "lng": -74.0117477
        },
        "viewport": {
          "northeast": {
            "lat": 40.6772792302915,
            "lng": -74.01043896970849
          },
          "southwest": {
            "lat": 40.6745812697085,
            "lng": -74.01313693029151
          }
        }
      },
      "icon": "https://maps.gstatic.com/mapfiles/place_api/icons/v1/png_71/shopping-71.png",
      "icon_background_color": "#4B96F3",
      "icon_mask_base_uri": "https://maps.gstatic.com/mapfiles/place_api/icons/v2/shopping_pinlet",
      "name": "La Luz, Inc",
      "permanently_closed": true,
      "place_id": "ChIJwejz74tawokRDaadja9FIe0",
      "plus_code": {
        "compound_code": "MXGQ+98 Brooklyn, NY, USA",
        "global_code": "87G7MXGQ+98"
      },
      "reference": "ChIJwejz74tawokRDaadja9FIe0",
      "scope": "GOOGLE",
      "types": [
        "home_goods_store",
        "store",
        "point_of_interest",
        "establishment"
      ],
      "vicinity": "179 Richards Street, Brooklyn"
    },
    {
      "business_status": "OPERATIONAL",
      "geometry": {
        "location": {
          "lat": 40.6741953,
          "lng": -74.01141199999999
        },
        "viewport": {
          "northeast": {
            "lat": 40.6756048302915,
            "lng": -74.01000761970849
          },
          "southwest": {
            "lat": 40.6729068697085,
            "lng": -74.0127055802915
          }
        }
      },
      "icon": "https://maps.gstatic.com/mapfiles/place_api/icons/v1/png_71/school-71.png",
      "icon_background_color": "#7B9EB0",
      "icon_mask_base_uri": "https://maps.gstatic.com/mapfiles/place_api/icons/v2/school_pinlet",
      "name": "She-Weld",
      "photos": [
        {
          "height": 2048,
          "html_attributions": [
            "<a href=\"https://maps.google.com/maps/contrib/102779649376650958106\">Lou Shack</a>"
          ],
          "photo_reference": "AeJbb3e0VoyUHrKyfkihDqhfx-PIKUDkVbFuCNPup0Yk0yL41PTURm0kqOIX6V0jGBK2aTfhNxAIlKl4zYLaY9eEonahZn5A5XkteInhe19Ncu7VAYa71v7Qy0bblMXH7xNrrDAF59ttiNwweenQE8S09srYG4d-CKv4qSvZ3bNOgQq_CCz6",
          "width": 1536
        }
      ],
      "place_id": "ChIJV-ybhIhawokRwtatw2Wj19k",
      "plus_code": {
        "compound_code": "MXFQ+MC Brooklyn, NY, USA",
        "global_code": "87G7MXFQ+MC"
      },
      "rating": 4.9,
      "reference": "ChIJV-ybhIhawokRwtatw2Wj19k",
      "scope": "GOOGLE",
      "types": [
        "store",
        "point_of_interest",
        "establishment"
      ],
      "user_ratings_total": 34,
      "vicinity": "27 Coffey Street, Brooklyn"
    },
    {
      "business_status": "OPERATIONAL",
      "geometry": {
        "location": {
          "lat": 40.6737666,
          "lng": -74.0091358
        },
        "viewport": {
          "northeast": {
            "lat": 40.6750169302915,
            "lng": -74.00784716970848
          },
          "southwest": {
            "lat": 40.6723189697085,
            "lng": -74.01054513029149
          }
        }
      },
      "icon": "https://maps.gstatic.com/mapfiles/place_api/icons/v1/png_71/generic_business-71.png",
      "icon_background_color": "#7B9EB0",
      "icon_mask_base_uri": "https://maps.gstatic.com/mapfiles/place_api/icons/v2/generic_pinlet",
      "name": "MSR Electrical Construction Corp.",
      "place_id": "ChIJLQHti4xawokRJZg0kONcHl8",
      "plus_code": {
        "compound_code": "MXFR+G8 Brooklyn, NY, USA",
        "global_code": "87G7MXFR+G8"
      },
      "reference": "ChIJLQHti4xawokRJZg0kONcHl8",
      "scope": "GOOGLE",
      "types": [
        "point_of_interest",
        "establishment"
      ],
      "vicinity": "31 Bay Street, Brooklyn"
    },
    {
      "business_status": "OPERATIONAL",
      "geometry": {
        "location": {
          "lat": 40.6741833,
          "lng": -74.0081333
        },
        "viewport": {
          "northeast": {
            "lat": 40.6755076802915,
            "lng": -74.00669596970849
          },
          "southwest": {
            "lat": 40.6728097197085,
            "lng": -74.0093939302915
          }
        }
      },
      "icon": "https://maps.gstatic.com/mapfiles/place_api/icons/v1/png_71/generic_business-71.png",
      "icon_background_color": "#7B9EB0",
      "icon_mask_base_uri": "https://maps.gstatic.com/mapfiles/place_api/icons/v2/generic_pinlet",
      "name": "Gendis Marketing",
      "place_id": "ChIJ9Zf7mIxawokRvICLpgV5aQg",
      "plus_code": {
        "compound_code": "MXFR+MP Brooklyn, NY, USA",
        "global_code": "87G7MXFR+MP"
      },
      "reference": "ChIJ9Zf7mIxawokRvICLpgV5aQg",
      "scope": "GOOGLE",
      "types": [
        "point_of_interest",
        "establishment"
      ],
      "vicinity": "498 Columbia Street, Brooklyn"
    },
    {
      "business_status": "OPERATIONAL",
      "geometry": {
        "location": {
          "lat": 40.6765191,
          "lng": -74.0121264
        },
        "viewport": {
          "northeast": {
            "lat": 40.67800613029151,
            "lng": -74.01079561970849
          },
          "southwest": {
            "lat": 40.67530816970851,
            "lng": -74.0134935802915
          }
        }
      },
      "icon": "https://maps.gstatic.com/mapfiles/place_api/icons/v1/png_71/generic_business-71.png",
      "icon_background_color": "#7B9EB0",
      "icon_mask_base_uri": "https://maps.gstatic.com/mapfiles/place_api/icons/v2/generic_pinlet",
      "name": "DLVRY Company\u2122",
      "opening_hours": {
        "open_now": true
      },
      "photos": [
        {
          "height": 577,
          "html_attributions": [
            "<a href=\"https://maps.google.com/maps/contrib/102921856025852232711\">DLVRY Company\u2122</a>"
          ],
          "photo_reference": "AeJbb3eNALP2hD_ZPcgX5GOro5-m2hlUAZfqH6VLd8xr6eJKRa7ncggoOgWyD6MIEDCuupRWV70F7JkaPasnhAnbjzXZxALD4cQO8AA-RRR1_JqTZw-lvoo4q4FHUGBhhcPS18HbkLJtwMNqHj77YKHeg781AemNAmlFBfQnMDR9b3vwFlZA",
          "width": 1080
        }
      ],
      "place_id": "ChIJfUjeYYlawokRzbUGEksbS88",
      "plus_code": {
        "compound_code": "MXGQ+J4 Brooklyn, NY, USA",
        "global_code": "87G7MXGQ+J4"
      },
      "rating": 5,
      "reference": "ChIJfUjeYYlawokRzbUGEksbS88",
      "scope": "GOOGLE",
      "types": [
        "storage",
        "moving_company",
        "point_of_interest",
        "establishment"
      ],
      "user_ratings_total": 7,
      "vicinity": "71 Wolcott Street, Brooklyn"
    },
    {
      "business_status": "OPERATIONAL",
      "geometry": {
        "location": {
          "lat": 40.6733616,
          "lng": -74.0102471
        },
        "viewport": {
          "northeast": {
            "lat": 40.6746459302915,
            "lng": -74.0088795197085
          },
          "southwest": {
            "lat": 40.6719479697085,
            "lng": -74.0115774802915
          }
        }
      },
      "icon": "https://maps.gstatic.com/mapfiles/place_api/icons/v1/png_71/generic_business-71.png",
      "icon_background_color": "#7B9EB0",
      "icon_mask_base_uri": "https://maps.gstatic.com/mapfiles/place_api/icons/v2/generic_pinlet",
      "name": "BRT Printshop",
      "opening_hours": {
        "open_now": false
      },
      "place_id": "ChIJKUa2RIxawokRUpfeAPKPg_E",
      "plus_code": {
        "compound_code": "MXFQ+8W Brooklyn, NY, USA",
        "global_code": "87G7MXFQ+8W"
      },
      "rating": 5,
      "reference": "ChIJKUa2RIxawokRUpfeAPKPg_E",
      "scope": "GOOGLE",
      "types": [
        "point_of_interest",
        "establishment"
      ],
      "user_ratings_total": 4,
      "vicinity": "5 Sigourney Street, Brooklyn"
    },
    {
      "business_status": "OPERATIONAL",
      "geometry": {
        "location": {
          "lat": 40.6772802,
          "lng": -74.0094471
        },
        "viewport": {
          "northeast": {
            "lat": 40.6785024802915,
            "lng": -74.00824956970848
          },
          "southwest": {
            "lat": 40.6758045197085,
            "lng": -74.0109475302915
          }
        }
      },
      "icon": "https://maps.gstatic.com/mapfiles/place_api/icons/v1/png_71/generic_business-71.png",
      "icon_background_color": "#7B9EB0",
      "icon_mask_base_uri": "https://maps.gstatic.com/mapfiles/place_api/icons/v2/generic_pinlet",
      "name": "SK Visual",
      "place_id": "ChIJpS60CuyBt4cRXU-qSwURTgw",
      "plus_code": {
        "compound_code": "MXGR+W6 Brooklyn, NY, USA",
        "global_code": "87G7MXGR+W6"
      },
      "reference": "ChIJpS60CuyBt4cRXU-qSwURTgw",
      "scope": "GOOGLE",
      "types": [
        "point_of_interest",
        "establishment"
      ],
      "vicinity": "90 First PI, 4, Brooklyn"
    },
    {
      "business_status": "CLOSED_TEMPORARILY",
      "geometry": {
        "location": {
          "lat": 40.6772802,
          "lng": -74.009447
        },
        "viewport": {
          "northeast": {
            "lat": 40.6785024802915,
            "lng": -74.00824946970849
          },
          "southwest": {
            "lat": 40.6758045197085,
            "lng": -74.0109474302915
          }
        }
      },
      "icon": "https://maps.gstatic.com/mapfiles/place_api/icons/v1/png_71/generic_business-71.png",
      "icon_background_color": "#7B9EB0",
      "icon_mask_base_uri": "https://maps.gstatic.com/mapfiles/place_api/icons/v2/generic_pinlet",
      "name": "Intelligent Burro Productions",
      "permanently_closed": true,
      "place_id": "ChIJ_f___4pawokRCuaUUpsczh4",
      "plus_code": {
        "compound_code": "MXGR+W6 Brooklyn, NY, USA",
        "global_code": "87G7MXGR+W6"
      },
      "reference": "ChIJ_f___4pawokRCuaUUpsczh4",
      "scope": "GOOGLE",
      "types": [
        "point_of_interest",
        "establishment"
      ],
      "vicinity": "32 Luquer Street, Brooklyn"
    },
    {
      "business_status": "CLOSED_TEMPORARILY",
      "geometry": {
        "location": {
          "lat": 40.6749237,
          "lng": -74.01266260000001
        },
        "viewport": {
          "northeast": {
            "lat": 40.67634903029149,
            "lng": -74.0114268697085
          },
          "southwest": {
            "lat": 40.6736510697085,
            "lng": -74.01412483029151
          }
        }
      },
      "icon": "https://maps.gstatic.com/mapfiles/place_api/icons/v1/png_71/generic_business-71.png",
      "icon_background_color": "#7B9EB0",
      "icon_mask_base_uri": "https://maps.gstatic.com/mapfiles/place_api/icons/v2/generic_pinlet",
      "name": "Bengal Fierro",
      "permanently_closed": true,
      "place_id": "ChIJj3hdqY5awokRoiBtSmgiT_c",
      "plus_code": {
        "compound_code": "MXFP+XW New York, NY, USA",
        "global_code": "87G7MXFP+XW"
      },
      "reference": "ChIJj3hdqY5awokRoiBtSmgiT_c",
      "scope": "GOOGLE",
      "types": [
        "general_contractor",
        "point_of_interest",
        "establishment"
      ],
      "vicinity": "201 Richards Street, Brooklyn"
    },
    {
      "business_status": "CLOSED_TEMPORARILY",
      "geometry": {
        "location": {
          "lat": 40.67492379999999,
          "lng": -74.01266269999999
        },
        "viewport": {
          "northeast": {
            "lat": 40.6763605302915,
            "lng": -74.0112103197085
          },
          "southwest": {
            "lat": 40.6736625697085,
            "lng": -74.0139082802915
          }
        }
      },
      "icon": "https://maps.gstatic.com/mapfiles/place_api/icons/v1/png_71/generic_business-71.png",
      "icon_background_color": "#7B9EB0",
      "icon_mask_base_uri": "https://maps.gstatic.com/mapfiles/place_api/icons/v2/generic_pinlet",
      "name": "boles studio",
      "permanently_closed": true,
      "place_id": "ChIJqctAqo5awokRhS-6Fwm1xFQ",
      "plus_code": {
        "compound_code": "MXFP+XW New York, NY, USA",
        "global_code": "87G7MXFP+XW"
      },
      "rating": 1,
      "reference": "ChIJqctAqo5awokRhS-6Fwm1xFQ",
      "scope": "GOOGLE",
      "types": [
        "general_contractor",
        "point_of_interest",
        "establishment"
      ],
      "user_ratings_total": 1,
      "vicinity": "59 Coffey Street, Brooklyn"
    },
    {
      "business_status": "OPERATIONAL",
      "geometry": {
        "location": {
          "lat": 40.6736161,
          "lng": -74.01147069999999
        },
        "viewport": {
          "northeast": {
            "lat": 40.6749743802915,
            "lng": -74.01020991970849
          },
          "southwest": {
            "lat": 40.6722764197085,
            "lng": -74.0129078802915
          }
        }
      },
      "icon": "https://maps.gstatic.com/mapfiles/place_api/icons/v1/png_71/generic_business-71.png",
      "icon_background_color": "#7B9EB0",
      "icon_mask_base_uri": "https://maps.gstatic.com/mapfiles/place_api/icons/v2/generic_pinlet",
      "name": "Movers, Not Shakers!",
      "opening_hours": {
        "open_now": true
      },
      "photos": [
        {
          "height": 4032,
          "html_attributions": [
            "<a href=\"https://maps.google.com/maps/contrib/104680769791194032058\">Marilin Moya</a>"
          ],
          "photo_reference": "AeJbb3faTKMIoFcxGPonivxwcMpyUt44XHOBaPVjZmi02ItCUictr3_pXFRJ7odLGaS6st3EQQMBpaeYZNMEazo18CkW2N_2j_Li9WacyvK2bXxkk4YYoRhbPMuZA5yUnPNx0xJyN3hIn_4rMsSMxoHvwxVYLZVOEZkuWAWa3mEflZNWHmdi",
          "width": 3024
        }
      ],
      "place_id": "ChIJe7Wfg_hawokRP5Q8R6EpgsM",
      "plus_code": {
        "compound_code": "MXFQ+CC New York, NY, USA",
        "global_code": "87G7MXFQ+CC"
      },
      "rating": 4,
      "reference": "ChIJe7Wfg_hawokRP5Q8R6EpgsM",
      "scope": "GOOGLE",
      "types": [
        "moving_company",
        "point_of_interest",
        "establishment"
      ],
      "user_ratings_total": 148,
      "vicinity": "177 Dwight Street, Brooklyn"
    },
    {
      "business_status": "OPERATIONAL",
      "geometry": {
        "location": {
          "lat": 40.6733547,
          "lng": -74.0109524
        },
        "viewport": {
          "northeast": {
            "lat": 40.6746362302915,
            "lng": -74.00967626970848
          },
          "southwest": {
            "lat": 40.6719382697085,
            "lng": -74.0123742302915
          }
        }
      },
      "icon": "https://maps.gstatic.com/mapfiles/place_api/icons/v1/png_71/shopping-71.png",
      "icon_background_color": "#4B96F3",
      "icon_mask_base_uri": "https://maps.gstatic.com/mapfiles/place_api/icons/v2/shopping_pinlet",
      "name": "Keino Cycles",
      "opening_hours": {
        "open_now": false
      },
      "photos": [
        {
          "height": 4032,
          "html_attributions": [
            "<a href=\"https://maps.google.com/maps/contrib/104731553249280434877\">Michael Vicario</a>"
          ],
          "photo_reference": "AeJbb3e6N4kUiHxqZ5pR555nsRJFsJ5a6UBL4DbjxZq8ZBHzRhxjBM5MjJlIVxWV7xRGooRK59SAO6dSpdOcf0C047GUjj5R3zb7V4-oTq31hpdSnSUZ3lVlt6XcaugPhqcjZRnfQjcz3YzUdpKaF-3Hl9UBFMexKROefrlHc_XekSbxIeOP",
          "width": 3024
        }
      ],
      "place_id": "ChIJ31IjzF1awokRbvvYUD0n0Sk",
      "plus_code": {
        "compound_code": "MXFQ+8J Brooklyn, NY, USA",
        "global_code": "87G7MXFQ+8J"
      },
      "rating": 5,
      "reference": "ChIJ31IjzF1awokRbvvYUD0n0Sk",
      "scope": "GOOGLE",
      "types": [
        "store",
        "point_of_interest",
        "establishment"
      ],
      "user_ratings_total": 8,
      "vicinity": "12 Van Dyke Street, Brooklyn"
    },
    {
      "business_status": "OPERATIONAL",
      "geometry": {
        "location": {
          "lat": 40.6744669,
          "lng": -74.00747179999999
        },
        "viewport": {
          "northeast": {
            "lat": 40.6758591802915,
            "lng": -74.00612901970848
          },
          "southwest": {
            "lat": 40.6731612197085,
            "lng": -74.0088269802915
          }
        }
      },
      "icon": "https://maps.gstatic.com/mapfiles/place_api/icons/v1/png_71/restaurant-71.png",
      "icon_background_color": "#FF9E67",
      "icon_mask_base_uri": "https://maps.gstatic.com/mapfiles/place_api/icons/v2/restaurant_pinlet",
      "name": "Edward Lunch & restaurant",
      "opening_hours": {
        "open_now": true
      },
      "photos": [
        {
          "height": 480,
          "html_attributions": [
            "<a href=\"https://maps.google.com/maps/contrib/107225187171084756967\">Edward Lunch &amp; restaurant</a>"
          ],
          "photo_reference": "AeJbb3cxbATdAQ3xqkdoFRg8MUm1w5CsYde5T5Tpelv70EaiVgz_WuPJ6Y6O1Ohg1TjuasRLxXmjdcNyRduw8pKGYwsJyRaexMLDvGXrmOGXIWCMl4a6CLS28ogjK_YUZdUb2KTervpgVg4OtGjmU3YnXSaSfHNJ2W8cPdi4lKpBwOVFuDXk",
          "width": 640
        }
      ],
      "place_id": "ChIJJ9sSp4xawokR5uCnDYKgp_I",
      "plus_code": {
        "compound_code": "MXFV+Q2 Brooklyn, NY, USA",
        "global_code": "87G7MXFV+Q2"
      },
      "price_level": 1,
      "rating": 4.1,
      "reference": "ChIJJ9sSp4xawokR5uCnDYKgp_I",
      "scope": "GOOGLE",
      "types": [
        "restaurant",
        "food",
        "point_of_interest",
        "establishment"
      ],
      "user_ratings_total": 118,
      "vicinity": "56 Lorraine Street, Brooklyn"
    },
    {
      "business_status": "OPERATIONAL",
      "geometry": {
        "location": {
          "lat": 40.67493129999999,
          "lng": -74.01289109999999
        },
        "viewport": {
          "northeast": {
            "lat": 40.67631193029149,
            "lng": -74.01158906970849
          },
          "southwest": {
            "lat": 40.67361396970849,
            "lng": -74.01428703029151
          }
        }
      },
      "icon": "https://maps.gstatic.com/mapfiles/place_api/icons/v1/png_71/generic_business-71.png",
      "icon_background_color": "#7B9EB0",
      "icon_mask_base_uri": "https://maps.gstatic.com/mapfiles/place_api/icons/v2/generic_pinlet",
      "name": "Alfred Stadler Lifestyle",
      "opening_hours": {
        "open_now": false
      },
      "photos": [
        {
          "height": 655,
          "html_attributions": [
            "<a href=\"https://maps.google.com/maps/contrib/113728539452311627493\">Alfred Stadler Lifestyle</a>"
          ],
          "photo_reference": "AeJbb3cEvdsF7DBAN_ju3PclcLug1Tt1b3MjtPv5_67BhdaOrQSCaQ3KndlvT-E23hyX-cRJeRjskRegpRnfF7Xa1haJlBdskGm77EMB2ALCr8gBXlyJx7_Hc_6iURno02ZpwZ8VFbyhzfE34LeAzLfscuxvVtnX-dyO_9zxPRuasSsa0V9P",
          "width": 881
        }
      ],
      "place_id": "ChIJVUJQqY5awokRr6cTNVqEMVE",
      "plus_code": {
        "compound_code": "MXFP+XR New York, NY, USA",
        "global_code": "87G7MXFP+XR"
      },
      "reference": "ChIJVUJQqY5awokRr6cTNVqEMVE",
      "scope": "GOOGLE",
      "types": [
        "general_contractor",
        "furniture_store",
        "home_goods_store",
        "store",
        "point_of_interest",
        "establishment"
      ],
      "vicinity": "201 Richards Street Suite 206, Brooklyn"
    },
    {
      "business_status": "OPERATIONAL",
      "geometry": {
        "location": {
          "lat": 40.67363549999999,
          "lng": -74.0119556
        },
        "viewport": {
          "northeast": {
            "lat": 40.67498448029149,
            "lng": -74.0106066197085
          },
          "southwest": {
            "lat": 40.67228651970849,
            "lng": -74.0133045802915
          }
        }
      },
      "icon": "https://maps.gstatic.com/mapfiles/place_api/icons/v1/png_71/generic_business-71.png",
      "icon_background_color": "#7B9EB0",
      "icon_mask_base_uri": "https://maps.gstatic.com/mapfiles/place_api/icons/v2/generic_pinlet",
      "name": "Citi Bike: Dwight St & Van Dyke St",
      "photos": [
        {
          "height": 2448,
          "html_attributions": [
            "<a href=\"https://maps.google.com/maps/contrib/112044392253242445458\">RK Chin</a>"
          ],
          "photo_reference": "AeJbb3ehQzxGhwZKjKE38ZaSSyUzQIHe05sOwvutAa1j4hyj507hb658SkCIKp8qyEUeVbFPgI16jNzJKtMe5g4LyU7_r2aR47eyPxlz37j3c4ddCFdBBJ-o9pG02x3RYGGSOzG-eJxNPlsStJvVOhEbxVmkp-WqpWnIgokTGgm61WqOTGhg3OKyvA",
          "width": 3264
        }
      ],
      "place_id": "ChIJ3TTxI4xawokR47TFG8fHQ2A",
      "plus_code": {
        "compound_code": "MXFQ+F6 New York, NY, USA",
        "global_code": "87G7MXFQ+F6"
      },
      "rating": 5,
      "reference": "ChIJ3TTxI4xawokR47TFG8fHQ2A",
      "scope": "GOOGLE",
      "types": [
        "point_of_interest",
        "establishment"
      ],
      "user_ratings_total": 1,
      "vicinity": "Brooklyn"
    },
    {
      "business_status": "OPERATIONAL",
      "geometry": {
        "location": {
          "lat": 40.6742565,
          "lng": -74.0074731
        },
        "viewport": {
          "northeast": {
            "lat": 40.6757400802915,
            "lng": -74.00605296970849
          },
          "southwest": {
            "lat": 40.6730421197085,
            "lng": -74.0087509302915
          }
        }
      },
      "icon": "https://maps.gstatic.com/mapfiles/place_api/icons/v1/png_71/shopping-71.png",
      "icon_background_color": "#4B96F3",
      "icon_mask_base_uri": "https://maps.gstatic.com/mapfiles/place_api/icons/v2/shoppingcart_pinlet",
      "name": "Associated Supermarkets of Red Hook",
      "opening_hours": {
        "open_now": true
      },
      "photos": [
        {
          "height": 1200,
          "html_attributions": [
            "<a href=\"https://maps.google.com/maps/contrib/106697966091947543669\">Associated Supermarkets of Red Hook</a>"
          ],
          "photo_reference": "AeJbb3eiRL7XDIn7hQ4Gjpkpa-llEBQXvyjm7g5czCPJSWE99pwDVxBDdJiRZNmPMy2mO2PHclDEzSYDtaTkmSdRaZABm0GmQmj69Z_O1Teu02h2OTV9kNsPTgnEZm-dgGB8z7kgwpgabNbnQFNglMqr30Yv6Prh0gwtLTzVjTACvszplKxV",
          "width": 1600
        }
      ],
      "place_id": "ChIJ0_-PpoxawokRuxEliQTQi7U",
      "plus_code": {
        "compound_code": "MXFV+P2 New York, NY, USA",
        "global_code": "87G7MXFV+P2"
      },
      "rating": 3.9,
      "reference": "ChIJ0_-PpoxawokRuxEliQTQi7U",
      "scope": "GOOGLE",
      "types": [
        "supermarket",
        "grocery_or_supermarket",
        "store",
        "food",
        "point_of_interest",
        "establishment"
      ],
      "user_ratings_total": 145,
      "vicinity": "58 Lorraine Street, Brooklyn"
    }
  ],
  "status": "OK"
}