{
  "html_attributions": [],
  "results": [
    {
      "geometry": {
        "location": {
          "lat": 40.7127753,
          "lng": -74.0059728
        },
        "viewport": {
          "northeast": {
            "lat": 40.91757705070789,
            "lng": -73.70027206817629
          },
          "southwest": {
            "lat": 40.47739906045452,
            "lng": -74.25908991427882
          }
        }
      },
      "icon": "https://maps.gstatic.com/mapfiles/place_api/icons/v1/png_71/geocode-71.png",
      "icon_background_color": "#7B9EB0",
      "icon_mask_base_uri": "https://maps.gstatic.com/mapfiles/place_api/icons/v2/generic_pinlet",
      "name": "\u7d10\u7d04",
      "photos": [
        {
          "height": 600,
          "html_attributions": [
            "<a href=\"https://maps.google.com/maps/contrib/102389334567210814614\">Bukurie</a>"
          ],
          "photo_reference": "AeJbb3fUVrJv8XlaCF944RHmkSeRAjsA7IZW6orODLpDavReXcEO2TNdyEGqGc27lX1SH_GraACYVeW-d_TJAheSeHHCjHEM8qnJi-WefntrlBJvwfqDO949mb1fJpMGv2fEO-oSIJFXHQtomMBqj8wwNM7c7IivR3L7NFHwz6M83A6AA66K",
          "width": 480
        }
      ],
      "place_id": "ChIJOwg_06VPwokRYv534QaPC8g",
      "reference": "ChIJOwg_06VPwokRYv534QaPC8g",
      "scope": "GOOGLE",
      "types": [
        "locality",
        "political"
      ],
      "vicinity": "\u7d10\u7d04"
    },
    {
      "business_status": "OPERATIONAL",
      "geometry": {
        "location": {
          "lat": 40.78907170000001,
          "lng": -73.9538601
        },
        "viewport": {
          "northeast": {
            "lat": 40.79031988029151,
            "lng": -73.95258536970849
          },
          "southwest": {
            "lat": 40.78762191970851,
            "lng": -73.9552833302915
          }
        }
      },
      "icon": "https://maps.gstatic.com/mapfiles/place_api/icons/v1/png_71/generic_business-71.png",
      "icon_background_color": "#7B9EB0",
      "icon_mask_base_uri": "https://maps.gstatic.com/mapfiles/place_api/icons/v2/generic_pinlet",
      "name": "Ear, Nose, and Throat/Head and Neck Surgery",
      "opening_hours": {
        "open_now": false
      },
      "photos": [
        {
          "height": 727,
          "html_attributions": [
            "<a href=\"https://maps.google.com/maps/contrib/117035260164520942511\">Ear, Nose, and Throat/Head and Neck Surgery</a>"
          ],
          "photo_reference": "AeJbb3cmZ2LiY4w6SALRQVMsJKVqoO2Wt5ToZDArg75dXmE1BDdytlLimGwYGgu-6Z6w4YGD_zvdkkC3Qp7bnW5M6Ke3SjZMR4HiOPMu7cGerTLXSs7KwhOvcid1PUjjiTm0yPutE3KXMpUON7GeWLMEnn0AUWHrhjH2KPfr13Qlu8JvQDdB",
          "width": 727
        }
      ],
      "place_id": "ChIJf0SSxqBYwokRkhQOHlDbzfA",
      "plus_code": {
        "compound_code": "Q2QW+JF \u7f8e\u570b\u7d10\u7d04",
        "global_code": "87G8Q2QW+JF"
      },
      "rating": 5,
      "reference": "ChIJf0SSxqBYwokRkhQOHlDbzfA",
      "scope": "GOOGLE",
      "types": [
        "doctor",
        "health",
        "point_of_interest",
        "establishment"
      ],
      "user_ratings_total": 1,
      "vicinity": "5 East 98th Street #8, New York"
    },
    {
      "business_status": "OPERATIONAL",
      "geometry": {
        "location": {
          "lat": 40.78599940000001,
          "lng": -73.9542425
        },
        "viewport": {
          "northeast": {
            "lat": 40.7870690302915,
            "lng": -73.95292736970849
          },
          "southwest": {
            "lat": 40.7843710697085,
            "lng": -73.9556253302915
          }
        }
      },
      "icon": "https://maps.gstatic.com/mapfiles/place_api/icons/v1/png_71/school-71.png",
      "icon_background_color": "#7B9EB0",
      "icon_mask_base_uri": "https://maps.gstatic.com/mapfiles/place_api/icons/v2/school_pinlet",
      "name": "\u4ea8\u7279\u5b78\u9662\u9ad8\u4e2d",
      "photos": [
        {
          "height": 3024,
          "html_attributions": [
            "<a href=\"https://maps.google.com/maps/contrib/107027219067900036250\">nunu cowley</a>"
          ],
          "photo_reference": "AeJbb3c1pAOUJw9FeZx8yJ1BTQSmHpkb6qSIkv20_FI0xmDB4TgxnxgWmwZvdVW2FJHzAp4QKAavWzuGEpp9KKM5Lj4cE_zByUA9Kfg1HX3CywmymvnrYErpNPIUEiIc8hBge8voxThnAgkLy0kV7xe2mJLUevg_V0dRUTJwdOK0KsHTwVYa",
          "width": 4032
        }
      ],
      "place_id": "ChIJD9BtWKFYwokRuU6zx7fSZIs",
      "plus_code": {
        "compound_code": "Q2PW+98 \u7f8e\u570b\u7d10\u7d04",
        "global_code": "87G8Q2PW+98"
      },
      "rating": 4.5,
      "reference": "ChIJD9BtWKFYwokRuU6zx7fSZIs",
      "scope": "GOOGLE",
      "types": [
        "school",
        "primary_school",
        "point_of_interest",
        "establishment"
      ],
      "user_ratings_total": 71,
      "vicinity": "71 East 94th Street, New York"
    },
    {
      "business_status": "OPERATIONAL",
      "geometry": {
        "location": {
          "lat": 40.78907170000001,
          "lng": -73.9538601
        },
        "viewport": {
          "northeast": {
            "lat": 40.79031988029151,
            "lng": -73.95258536970849
          },
          "southwest": {
            "lat": 40.78762191970851,
            "lng": -73.9552833302915
          }
        }
      },
      "icon": "https://maps.gstatic.com/mapfiles/place_api/icons/v1/png_71/generic_business-71.png",
      "icon_background_color": "#7B9EB0",
      "icon_mask_base_uri": "https://maps.gstatic.com/mapfiles/place_api/icons/v2/generic_pinlet",
      "name": "Mark Lebwohl, MD",
      "opening_hours": {
        "open_now": false
      },
      "photos": [
        {
          "height": 250,
          "html_attributions": [
            "<a href=\"https://maps.google.com/maps/contrib/110489885449772336807\">Mark Lebwohl, MD</a>"
          ],
          "photo_reference": "AeJbb3cPrBBBCtZzR6OupLC9dzF9hHKk-2VaMNDaxoCTYr4iUTTnke0wT-L6kp7ZMNhrD0ApS0nQNyZt-goV3a9Fa2Ni-XYAs-c55iaLfCghCTl8ZJ33GBovBWESYGxaLUupDacwX4DpZRnbLH4XWOVOkrOQairn4bIQ1bdgHi56bQ9lQCi2",
          "width": 250
        }
      ],
      "place_id": "ChIJf0SSxqBYwokRWoKlJdW8fyY",
      "plus_code": {
        "compound_code": "Q2QW+JF \u7f8e\u570b\u7d10\u7d04",
        "global_code": "87G8Q2QW+JF"
      },
      "rating": 3.5,
      "reference": "ChIJf0SSxqBYwokRWoKlJdW8fyY",
      "scope": "GOOGLE",
      "types": [
        "doctor",
        "health",
        "point_of_interest",
        "establishment"
      ],
      "user_ratings_total": 8,
      "vicinity": "5 East 98th St 5th Fl, New York"
    },
    {
      "business_status": "OPERATIONAL",
      "geometry": {
        "location": {
          "lat": 40.7881597,
          "lng": -73.9539533
        },
        "viewport": {
          "northeast": {
            "lat": 40.7894628802915,
            "lng": -73.95265051970848
          },
          "southwest": {
            "lat": 40.7867649197085,
            "lng": -73.9553484802915
          }
        }
      },
      "icon": "https://maps.gstatic.com/mapfiles/place_api/icons/v1/png_71/generic_business-71.png",
      "icon_background_color": "#7B9EB0",
      "icon_mask_base_uri": "https://maps.gstatic.com/mapfiles/place_api/icons/v2/generic_pinlet",
      "name": "Karin B. Wexler, Ph.D.",
      "opening_hours": {
        "open_now": true
      },
      "place_id": "ChIJH6IcYRX2wokRVVDb3kzlB1E",
      "plus_code": {
        "compound_code": "Q2QW+7C \u7f8e\u570b\u7d10\u7d04",
        "global_code": "87G8Q2QW+7C"
      },
      "reference": "ChIJH6IcYRX2wokRVVDb3kzlB1E",
      "scope": "GOOGLE",
      "types": [
        "health",
        "point_of_interest",
        "establishment"
      ],
      "vicinity": "17 East 97th Street #1A, New York"
    },
    {
      "business_status": "OPERATIONAL",
      "geometry": {
        "location": {
          "lat": 40.78906409999999,
          "lng": -73.95385639999999
        },
        "viewport": {
          "northeast": {
            "lat": 40.79031458029149,
            "lng": -73.95257996970848
          },
          "southwest": {
            "lat": 40.78761661970849,
            "lng": -73.95527793029149
          }
        }
      },
      "icon": "https://maps.gstatic.com/mapfiles/place_api/icons/v1/png_71/generic_business-71.png",
      "icon_background_color": "#7B9EB0",
      "icon_mask_base_uri": "https://maps.gstatic.com/mapfiles/place_api/icons/v2/generic_pinlet",
      "name": "Stotsky Michael S MD",
      "opening_hours": {
        "open_now": false
      },
      "place_id": "ChIJf0SSxqBYwokRqbid_BRMzzE",
      "plus_code": {
        "compound_code": "Q2QW+JF \u7f8e\u570b\u7d10\u7d04",
        "global_code": "87G8Q2QW+JF"
      },
      "rating": 5,
      "reference": "ChIJf0SSxqBYwokRqbid_BRMzzE",
      "scope": "GOOGLE",
      "types": [
        "doctor",
        "health",
        "point_of_interest",
        "establishment"
      ],
      "user_ratings_total": 1,
      "vicinity": "5 East 98th Street, New York"
    },
    {
      "business_status": "OPERATIONAL",
      "geometry": {
        "location": {
          "lat": 40.78907170000001,
          "lng": -73.9538601
        },
        "viewport": {
          "northeast": {
            "lat": 40.79035753029149,
            "lng": -73.9526745197085
          },
          "southwest": {
            "lat": 40.7876595697085,
            "lng": -73.9553724802915
          }
        }
      },
      "icon": "https://maps.gstatic.com/mapfiles/place_api/icons/v1/png_71/generic_business-71.png",
      "icon_background_color": "#7B9EB0",
      "icon_mask_base_uri": "https://maps.gstatic.com/mapfiles/place_api/icons/v2/generic_pinlet",
      "name": "Mount Sinai RMTI Transplantation Institute",
      "opening_hours": {
        "open_now": true
      },
      "photos": [
        {
          "height": 640,
          "html_attributions": [
            "<a href=\"https://maps.google.com/maps/contrib/104995425389877929795\">Damaris Rodriguez</a>"
          ],
          "photo_reference": "AeJbb3fbH-wSMggn5rieE6bBxaMyuM1k-E60WeMq-vB3w5F0bbsyK4goGcb7Ov4FRvKyaZzJWuW62MlM0RjcovcT8TI0CQuPnUsPd9NFRVhN3JQWb-LN1kdlVLsMY5odV-XY3gnIGAg9icm_fuKpxJeQgGfgc1Ir62v2OqpQIn4wHMWUVK_x",
          "width": 640
        }
      ],
      "place_id": "ChIJf0SSxqBYwokRGU3RFXESC9o",
      "plus_code": {
        "compound_code": "Q2QW+JF \u7f8e\u570b\u7d10\u7d04",
        "global_code": "87G8Q2QW+JF"
      },
      "rating": 3.9,
      "reference": "ChIJf0SSxqBYwokRGU3RFXESC9o",
      "scope": "GOOGLE",
      "types": [
        "health",
        "point_of_interest",
        "establishment"
      ],
      "user_ratings_total": 7,
      "vicinity": "5 East 98th Street, New York"
    },
    {
      "business_status": "OPERATIONAL",
      "geometry": {
        "location": {
          "lat": 40.7875273,
          "lng": -73.9555603
        },
        "viewport": {
          "northeast": {
            "lat": 40.7889541802915,
            "lng": -73.95440061970848
          },
          "southwest": {
            "lat": 40.7862562197085,
            "lng": -73.9570985802915
          }
        }
      },
      "icon": "https://maps.gstatic.com/mapfiles/place_api/icons/v1/png_71/generic_business-71.png",
      "icon_background_color": "#7B9EB0",
      "icon_mask_base_uri": "https://maps.gstatic.com/mapfiles/place_api/icons/v2/generic_pinlet",
      "name": "Rashmi Gulati, MD",
      "opening_hours": {
        "open_now": false
      },
      "place_id": "ChIJwzshOANZwokRIDf8azA5u98",
      "plus_code": {
        "compound_code": "Q2QV+2Q \u7f8e\u570b\u7d10\u7d04",
        "global_code": "87G8Q2QV+2Q"
      },
      "rating": 4.1,
      "reference": "ChIJwzshOANZwokRIDf8azA5u98",
      "scope": "GOOGLE",
      "types": [
        "doctor",
        "health",
        "point_of_interest",
        "establishment"
      ],
      "user_ratings_total": 9,
      "vicinity": "1148 5th Avenue #1b, New York"
    },
    {
      "business_status": "OPERATIONAL",
      "geometry": {
        "location": {
          "lat": 40.78662690000001,
          "lng": -73.9500944
        },
        "viewport": {
          "northeast": {
            "lat": 40.78802098029151,
            "lng": -73.94885456970849
          },
          "southwest": {
            "lat": 40.78532301970851,
            "lng": -73.9515525302915
          }
        }
      },
      "icon": "https://maps.gstatic.com/mapfiles/place_api/icons/v1/png_71/restaurant-71.png",
      "icon_background_color": "#FF9E67",
      "icon_mask_base_uri": "https://maps.gstatic.com/mapfiles/place_api/icons/v2/restaurant_pinlet",
      "name": "Judys Spanish Restaurant",
      "opening_hours": {
        "open_now": true
      },
      "photos": [
        {
          "height": 4032,
          "html_attributions": [
            "<a href=\"https://maps.google.com/maps/contrib/113111313476293205437\">Akeel Nelson</a>"
          ],
          "photo_reference": "AeJbb3euh0naVkh3-Xdu11ya3TbRGXbKK4T-lBwbBK36YfX_8RRimWDiO47MIKo5ExLVQoSitE2rFVIwUQ6Qvtr77vfeOvTG--_0xwsTG6BUxy2R8V3XhreQ0vHju5srdreJvTo1vNZFHj9321XqhTO6ePx1S-WftaECBM3daSGRxvH4EYba",
          "width": 3024
        }
      ],
      "place_id": "ChIJ_3uxW6ZYwokRjIJ1i6u3fYQ",
      "plus_code": {
        "compound_code": "Q2PX+MX \u7f8e\u570b\u7d10\u7d04",
        "global_code": "87G8Q2PX+MX"
      },
      "price_level": 1,
      "rating": 2.9,
      "reference": "ChIJ_3uxW6ZYwokRjIJ1i6u3fYQ",
      "scope": "GOOGLE",
      "types": [
        "restaurant",
        "food",
        "point_of_interest",
        "establishment"
      ],
      "user_ratings_total": 135,
      "vicinity": "1505 Lexington Avenue, New York"
    },
    {
      "business_status": "OPERATIONAL",
      "geometry": {
        "location": {
          "lat": 40.7853826,
          "lng": -73.9542132
        },
        "viewport": {
          "northeast": {
            "lat": 40.7867963302915,
            "lng": -73.95281646970848
          },
          "southwest": {
            "lat": 40.78409836970851,
            "lng": -73.9555144302915
          }
        }
      },
      "icon": "https://maps.gstatic.com/mapfiles/place_api/icons/v1/png_71/generic_business-71.png",
      "icon_background_color": "#7B9EB0",
      "icon_mask_base_uri": "https://maps.gstatic.com/mapfiles/place_api/icons/v2/generic_pinlet",
      "name": "Walker Communications",
      "place_id": "ChIJx9QMFP9YwokRFn0fOmt3qNc",
      "plus_code": {
        "compound_code": "Q2PW+58 \u7f8e\u570b\u7d10\u7d04",
        "global_code": "87G8Q2PW+58"
      },
      "reference": "ChIJx9QMFP9YwokRFn0fOmt3qNc",
      "scope": "GOOGLE",
      "types": [
        "point_of_interest",
        "establishment"
      ],
      "vicinity": "1192 Park Avenue Suite 9A, New York"
    },
    {
      "business_status": "OPERATIONAL",
      "geometry": {
        "location": {
          "lat": 40.789064,
          "lng": -73.95385639999999
        },
        "viewport": {
          "northeast": {
            "lat": 40.79031448029149,
            "lng": -73.9525799197085
          },
          "southwest": {
            "lat": 40.78761651970849,
            "lng": -73.95527788029152
          }
        }
      },
      "icon": "https://maps.gstatic.com/mapfiles/place_api/icons/v1/png_71/generic_business-71.png",
      "icon_background_color": "#7B9EB0",
      "icon_mask_base_uri": "https://maps.gstatic.com/mapfiles/place_api/icons/v2/generic_pinlet",
      "name": "Corinne Goldsmith Dickinson Center for MS at Mount Sinai",
      "opening_hours": {
        "open_now": false
      },
      "place_id": "ChIJTTftxqBYwokReXS8k91MZpM",
      "plus_code": {
        "compound_code": "Q2QW+JF \u7f8e\u570b\u7d10\u7d04",
        "global_code": "87G8Q2QW+JF"
      },
      "rating": 3.7,
      "reference": "ChIJTTftxqBYwokReXS8k91MZpM",
      "scope": "GOOGLE",
      "types": [
        "doctor",
        "health",
        "point_of_interest",
        "establishment"
      ],
      "user_ratings_total": 6,
      "vicinity": "5 East 98th Street, New York"
    },
    {
      "business_status": "OPERATIONAL",
      "geometry": {
        "location": {
          "lat": 40.789064,
          "lng": -73.95385639999999
        },
        "viewport": {
          "northeast": {
            "lat": 40.79031448029149,
            "lng": -73.9525799197085
          },
          "southwest": {
            "lat": 40.78761651970849,
            "lng": -73.95527788029152
          }
        }
      },
      "icon": "https://maps.gstatic.com/mapfiles/place_api/icons/v1/png_71/generic_business-71.png",
      "icon_background_color": "#7B9EB0",
      "icon_mask_base_uri": "https://maps.gstatic.com/mapfiles/place_api/icons/v2/generic_pinlet",
      "name": "Mount Sinai Brain Tumor Program",
      "opening_hours": {
        "open_now": false
      },
      "place_id": "ChIJTTftxqBYwokRf2-ifYhkrH8",
      "plus_code": {
        "compound_code": "Q2QW+JF \u7f8e\u570b\u7d10\u7d04",
        "global_code": "87G8Q2QW+JF"
      },
      "rating": 5,
      "reference": "ChIJTTftxqBYwokRf2-ifYhkrH8",
      "scope": "GOOGLE",
      "types": [
        "doctor",
        "health",
        "point_of_interest",
        "establishment"
      ],
      "user_ratings_total": 1,
      "vicinity": "5 East 98th Street, New York"
    },
    {
      "business_status": "OPERATIONAL",
      "geometry": {
        "location": {
          "lat": 40.78907170000001,
          "lng": -73.9538601
        },
        "viewport": {
          "northeast": {
            "lat": 40.79031988029151,
            "lng": -73.95258536970849
          },
          "southwest": {
            "lat": 40.78762191970851,
            "lng": -73.9552833302915
          }
        }
      },
      "icon": "https://maps.gstatic.com/mapfiles/place_api/icons/v1/png_71/generic_business-71.png",
      "icon_background_color": "#7B9EB0",
      "icon_mask_base_uri": "https://maps.gstatic.com/mapfiles/place_api/icons/v2/generic_pinlet",
      "name": "Robert & John M. Bendheim Parkinson & Movement Disorders Center at Mount Sinai",
      "opening_hours": {
        "open_now": false
      },
      "place_id": "ChIJTTftxqBYwokRwy0StkhPUlw",
      "plus_code": {
        "compound_code": "Q2QW+JF \u7f8e\u570b\u7d10\u7d04",
        "global_code": "87G8Q2QW+JF"
      },
      "reference": "ChIJTTftxqBYwokRwy0StkhPUlw",
      "scope": "GOOGLE",
      "types": [
        "doctor",
        "health",
        "point_of_interest",
        "establishment"
      ],
      "vicinity": "5 East 98th Street #1st, New York"
    },
    {
      "business_status": "OPERATIONAL",
      "geometry": {
        "location": {
          "lat": 40.78906309999999,
          "lng": -73.9538554
        },
        "viewport": {
          "northeast": {
            "lat": 40.7903137802915,
            "lng": -73.95257881970849
          },
          "southwest": {
            "lat": 40.7876158197085,
            "lng": -73.9552767802915
          }
        }
      },
      "icon": "https://maps.gstatic.com/mapfiles/place_api/icons/v1/png_71/generic_business-71.png",
      "icon_background_color": "#7B9EB0",
      "icon_mask_base_uri": "https://maps.gstatic.com/mapfiles/place_api/icons/v2/generic_pinlet",
      "name": "Dr. Ketan K. Badani, MD",
      "photos": [
        {
          "height": 2048,
          "html_attributions": [
            "<a href=\"https://maps.google.com/maps/contrib/100001620388304863040\">Dr. Ketan K. Badani, MD</a>"
          ],
          "photo_reference": "AeJbb3cdteaSON5jLgrTztsmzrVqMSfmas0Pv4R8tDh2EZuCpl44rgEkGkCbmwFycxaioZVDiTxFko_9ixykjf1hOJVzew3HxQZU-K2pue5-TiGbybcAb-jD6aBPM-29OABiU62kBRyvQ3zhwic5Sv_XMbljanCEDZd1wU1U-pN6OVjDnh0H",
          "width": 1365
        }
      ],
      "place_id": "ChIJW2D3c5v2wokRvUngTCALjys",
      "plus_code": {
        "compound_code": "Q2QW+JF \u7f8e\u570b\u7d10\u7d04",
        "global_code": "87G8Q2QW+JF"
      },
      "rating": 4,
      "reference": "ChIJW2D3c5v2wokRvUngTCALjys",
      "scope": "GOOGLE",
      "types": [
        "doctor",
        "health",
        "point_of_interest",
        "establishment"
      ],
      "user_ratings_total": 20,
      "vicinity": "5 East 98th Street, New York"
    },
    {
      "business_status": "OPERATIONAL",
      "geometry": {
        "location": {
          "lat": 40.7900581,
          "lng": -73.9538601
        },
        "viewport": {
          "northeast": {
            "lat": 40.7914591802915,
            "lng": -73.95263506970849
          },
          "southwest": {
            "lat": 40.7887612197085,
            "lng": -73.9553330302915
          }
        }
      },
      "icon": "https://maps.gstatic.com/mapfiles/place_api/icons/v1/png_71/generic_business-71.png",
      "icon_background_color": "#7B9EB0",
      "icon_mask_base_uri": "https://maps.gstatic.com/mapfiles/place_api/icons/v2/generic_pinlet",
      "name": "Nissim Julie A MD",
      "place_id": "ChIJ1-NkqqBYwokRaoT1UKsCihQ",
      "plus_code": {
        "compound_code": "Q2RW+2F \u7f8e\u570b\u7d10\u7d04",
        "global_code": "87G8Q2RW+2F"
      },
      "rating": 5,
      "reference": "ChIJ1-NkqqBYwokRaoT1UKsCihQ",
      "scope": "GOOGLE",
      "types": [
        "doctor",
        "health",
        "point_of_interest",
        "establishment"
      ],
      "user_ratings_total": 3,
      "vicinity": "1 Gustave L. Levy Place # 504, New York"
    },
    {
      "business_status": "OPERATIONAL",
      "geometry": {
        "location": {
          "lat": 40.7890329,
          "lng": -73.95384589999999
        },
        "viewport": {
          "northeast": {
            "lat": 40.7902935802915,
            "lng": -73.95263771970848
          },
          "southwest": {
            "lat": 40.7875956197085,
            "lng": -73.9553356802915
          }
        }
      },
      "icon": "https://maps.gstatic.com/mapfiles/place_api/icons/v1/png_71/generic_business-71.png",
      "icon_background_color": "#7B9EB0",
      "icon_mask_base_uri": "https://maps.gstatic.com/mapfiles/place_api/icons/v2/generic_pinlet",
      "name": "Burschtin Omar E MD",
      "place_id": "ChIJWQHW9KZZwokRFCyEBeKEGks",
      "plus_code": {
        "compound_code": "Q2QW+JF \u7f8e\u570b\u7d10\u7d04",
        "global_code": "87G8Q2QW+JF"
      },
      "reference": "ChIJWQHW9KZZwokRFCyEBeKEGks",
      "scope": "GOOGLE",
      "types": [
        "doctor",
        "health",
        "point_of_interest",
        "establishment"
      ],
      "vicinity": "5 East 98th Street 3rd Floor, New York"
    },
    {
      "business_status": "OPERATIONAL",
      "geometry": {
        "location": {
          "lat": 40.789064,
          "lng": -73.95385639999999
        },
        "viewport": {
          "northeast": {
            "lat": 40.79031448029149,
            "lng": -73.9525799197085
          },
          "southwest": {
            "lat": 40.78761651970849,
            "lng": -73.95527788029152
          }
        }
      },
      "icon": "https://maps.gstatic.com/mapfiles/place_api/icons/v1/png_71/generic_business-71.png",
      "icon_background_color": "#7B9EB0",
      "icon_mask_base_uri": "https://maps.gstatic.com/mapfiles/place_api/icons/v2/generic_pinlet",
      "name": "Dr. David Kriegel, MD",
      "opening_hours": {
        "open_now": false
      },
      "place_id": "ChIJ7UntxqBYwokRyZq6ieLmqPw",
      "plus_code": {
        "compound_code": "Q2QW+JF \u7f8e\u570b\u7d10\u7d04",
        "global_code": "87G8Q2QW+JF"
      },
      "rating": 1,
      "reference": "ChIJ7UntxqBYwokRyZq6ieLmqPw",
      "scope": "GOOGLE",
      "types": [
        "doctor",
        "health",
        "point_of_interest",
        "establishment"
      ],
      "user_ratings_total": 1,
      "vicinity": "5 East 98th Street, New York"
    },
    {
      "business_status": "OPERATIONAL",
      "geometry": {
        "location": {
          "lat": 40.7900357,
          "lng": -73.95384589999999
        },
        "viewport": {
          "northeast": {
            "lat": 40.7914417302915,
            "lng": -73.9526325697085
          },
          "southwest": {
            "lat": 40.7887437697085,
            "lng": -73.9553305302915
          }
        }
      },
      "icon": "https://maps.gstatic.com/mapfiles/place_api/icons/v1/png_71/generic_business-71.png",
      "icon_background_color": "#7B9EB0",
      "icon_mask_base_uri": "https://maps.gstatic.com/mapfiles/place_api/icons/v2/generic_pinlet",
      "name": "Virginia N. Walther, LCSW",
      "place_id": "ChIJ1-NkqqBYwokRltAJ_EY5U_E",
      "plus_code": {
        "compound_code": "Q2RW+2F \u7f8e\u570b\u7d10\u7d04",
        "global_code": "87G8Q2RW+2F"
      },
      "reference": "ChIJ1-NkqqBYwokRltAJ_EY5U_E",
      "scope": "GOOGLE",
      "types": [
        "point_of_interest",
        "establishment"
      ],
      "vicinity": "\u7d10\u7d04"
    },
    {
      "business_status": "OPERATIONAL",
      "geometry": {
        "location": {
          "lat": 40.7891401,
          "lng": -73.95398209999999
        },
        "viewport": {
          "northeast": {
            "lat": 40.79038183029149,
            "lng": -73.95271216970849
          },
          "southwest": {
            "lat": 40.78768386970849,
            "lng": -73.9554101302915
          }
        }
      },
      "icon": "https://maps.gstatic.com/mapfiles/place_api/icons/v1/png_71/generic_business-71.png",
      "icon_background_color": "#7B9EB0",
      "icon_mask_base_uri": "https://maps.gstatic.com/mapfiles/place_api/icons/v2/generic_pinlet",
      "name": "Dr. Emma Guttman Director of Occupational & Contact Dermatitis Clinic",
      "opening_hours": {
        "open_now": false
      },
      "place_id": "ChIJsTftxqBYwokRyMfNYhjcc9c",
      "plus_code": {
        "compound_code": "Q2QW+MC \u7f8e\u570b\u7d10\u7d04",
        "global_code": "87G8Q2QW+MC"
      },
      "rating": 3.5,
      "reference": "ChIJsTftxqBYwokRyMfNYhjcc9c",
      "scope": "GOOGLE",
      "types": [
        "hospital",
        "doctor",
        "health",
        "point_of_interest",
        "establishment"
      ],
      "user_ratings_total": 11,
      "vicinity": "5 East 98th Street, New York"
    },
    {
      "geometry": {
        "location": {
          "lat": 40.8240478,
          "lng": -73.9447643
        },
        "viewport": {
          "northeast": {
            "lat": 40.87822003591612,
            "lng": -73.91064591328563
          },
          "southwest": {
            "lat": 40.78278392408598,
            "lng": -73.97119006413347
          }
        }
      },
      "icon": "https://maps.gstatic.com/mapfiles/place_api/icons/v1/png_71/geocode-71.png",
      "icon_background_color": "#7B9EB0",
      "icon_mask_base_uri": "https://maps.gstatic.com/mapfiles/place_api/icons/v2/generic_pinlet",
      "name": "\u66fc\u54c8\u9813\u4e0a\u57ce",
      "photos": [
        {
          "height": 4000,
          "html_attributions": [
            "<a href=\"https://maps.google.com/maps/contrib/108665206705263687409\">Chris Lidstone</a>"
          ],
          "photo_reference": "AeJbb3emuXcuf1amIDaQ_msIyCpPxviw8l_eyRkpC4NfwRxj_wU9jA8_r4-V0r9Gl-ln14RAoJcAZpUZBVrLjq8K4M9HzUZeCdcZ6VjxUAgcWVVnhJTLDJp4KuJfKLij559ECD4zLfbSP1lRHoxN1HSh3u2FViNyoqJzRod7caY0DLRHPzR5",
          "width": 3000
        }
      ],
      "place_id": "ChIJY50xHxP2wokR7WhhDNRmgRU",
      "reference": "ChIJY50xHxP2wokR7WhhDNRmgRU",
      "scope": "GOOGLE",
      "types": [
        "neighborhood",
        "political"
      ],
      "vicinity": "\u66fc\u54c8\u9813"
    },
    {
      "business_status": "OPERATIONAL",
      "geometry": {
        "location": {
          "lat": 40.78907170000001,
          "lng": -73.9538601
        },
        "viewport": {
          "northeast": {
            "lat": 40.79031988029151,
            "lng": -73.95258536970849
          },
          "southwest": {
            "lat": 40.78762191970851,
            "lng": -73.9552833302915
          }
        }
      },
      "icon": "https://maps.gstatic.com/mapfiles/place_api/icons/v1/png_71/generic_business-71.png",
      "icon_background_color": "#7B9EB0",
      "icon_mask_base_uri": "https://maps.gstatic.com/mapfiles/place_api/icons/v2/generic_pinlet",
      "name": "Marsha Gordon, MD",
      "photos": [
        {
          "height": 250,
          "html_attributions": [
            "<a href=\"https://maps.google.com/maps/contrib/107547679798725744755\">Marsha Gordon, MD</a>"
          ],
          "photo_reference": "AeJbb3c0gP6uwXhR8r4g9bMpEPC2UPNIWyCID4cK0_AGrfGy8BUvQPH-fMs-gkOxPx1eMJ1JSbknzIh_TGsYiObIkWjOOq5Tkk5xrSOLVfmO6lnLfdY6JvBBqbFkKlsDuldDhpb3BfaBQdvyEtLfNMejPaZki5qOULTmzZLsqW6zVTVaTA47",
          "width": 250
        }
      ],
      "place_id": "ChIJf0SSxqBYwokRA8x86UmwhL4",
      "plus_code": {
        "compound_code": "Q2QW+JF New York, NY, USA",
        "global_code": "87G8Q2QW+JF"
      },
      "reference": "ChIJf0SSxqBYwokRA8x86UmwhL4",
      "scope": "GOOGLE",
      "types": [
        "doctor",
        "health",
        "point_of_interest",
        "establishment"
      ],
      "vicinity": "5 East 98th St 5th Fl, New York"
    },
    {
      "business_status": "OPERATIONAL",
      "geometry": {
        "location": {
          "lat": 40.7891585,
          "lng": -73.9543283
        },
        "viewport": {
          "northeast": {
            "lat": 40.79044948029149,
            "lng": -73.9530358697085
          },
          "southwest": {
            "lat": 40.78775151970849,
            "lng": -73.9557338302915
          }
        }
      },
      "icon": "https://maps.gstatic.com/mapfiles/place_api/icons/v1/png_71/generic_business-71.png",
      "icon_background_color": "#7B9EB0",
      "icon_mask_base_uri": "https://maps.gstatic.com/mapfiles/place_api/icons/v2/generic_pinlet",
      "name": "Peter Taub, MD",
      "opening_hours": {
        "open_now": false
      },
      "place_id": "ChIJf0SSxqBYwokRjGVTkXqxICA",
      "plus_code": {
        "compound_code": "Q2QW+M7 New York, NY, USA",
        "global_code": "87G8Q2QW+M7"
      },
      "rating": 4.7,
      "reference": "ChIJf0SSxqBYwokRjGVTkXqxICA",
      "scope": "GOOGLE",
      "types": [
        "doctor",
        "health",
        "point_of_interest",
        "establishment"
      ],
      "user_ratings_total": 13,
      "vicinity": "5 East 98th St 8th Fl, New York"
    },
    {
      "business_status": "OPERATIONAL",
      "geometry": {
        "location": {
          "lat": 40.78907170000001,
          "lng": -73.9538601
        },
        "viewport": {
          "northeast": {
            "lat": 40.79031988029151,
            "lng": -73.95258536970849
          },
          "southwest": {
            "lat": 40.78762191970851,
            "lng": -73.9552833302915
          }
        }
      },
      "icon": "https://maps.gstatic.com/mapfiles/place_api/icons/v1/png_71/generic_business-71.png",
      "icon_background_color": "#7B9EB0",
      "icon_mask_base_uri": "https://maps.gstatic.com/mapfiles/place_api/icons/v2/generic_pinlet",
      "name": "Cunningham-Rundles Charlotte Dr",
      "place_id": "ChIJf0SSxqBYwokRm2bfEaFXxi4",
      "plus_code": {
        "compound_code": "Q2QW+JF New York, NY, USA",
        "global_code": "87G8Q2QW+JF"
      },
      "reference": "ChIJf0SSxqBYwokRm2bfEaFXxi4",
      "scope": "GOOGLE",
      "types": [
        "doctor",
        "health",
        "point_of_interest",
        "establishment"
      ],
      "vicinity": "5 East 98th Street, New York"
    },
    {
      "business_status": "OPERATIONAL",
      "geometry": {
        "location": {
          "lat": 40.790264,
          "lng": -73.9525967
        },
        "viewport": {
          "northeast": {
            "lat": 40.7914930302915,
            "lng": -73.9509947197085
          },
          "southwest": {
            "lat": 40.7887950697085,
            "lng": -73.95369268029151
          }
        }
      },
      "icon": "https://maps.gstatic.com/mapfiles/place_api/icons/v1/png_71/generic_business-71.png",
      "icon_background_color": "#7B9EB0",
      "icon_mask_base_uri": "https://maps.gstatic.com/mapfiles/place_api/icons/v2/generic_pinlet",
      "name": "Anthony Manasia, MD",
      "opening_hours": {
        "open_now": false
      },
      "place_id": "ChIJT1R9W6dYwokRqI2KN4nuslY",
      "plus_code": {
        "compound_code": "Q2RW+4X New York, NY, USA",
        "global_code": "87G8Q2RW+4X"
      },
      "reference": "ChIJT1R9W6dYwokRqI2KN4nuslY",
      "scope": "GOOGLE",
      "types": [
        "doctor",
        "health",
        "point_of_interest",
        "establishment"
      ],
      "vicinity": "1468 Madison Avenue 6th Fl, New York"
    },
    {
      "business_status": "OPERATIONAL",
      "geometry": {
        "location": {
          "lat": 40.7883287,
          "lng": -73.9531906
        },
        "viewport": {
          "northeast": {
            "lat": 40.78963883029149,
            "lng": -73.9519089197085
          },
          "southwest": {
            "lat": 40.7869408697085,
            "lng": -73.95460688029151
          }
        }
      },
      "icon": "https://maps.gstatic.com/mapfiles/place_api/icons/v1/png_71/generic_business-71.png",
      "icon_background_color": "#7B9EB0",
      "icon_mask_base_uri": "https://maps.gstatic.com/mapfiles/place_api/icons/v2/generic_pinlet",
      "name": "Dr. Lori G. Zbar, MD",
      "place_id": "ChIJf0SSxqBYwokRM47K9wgb2Gg",
      "plus_code": {
        "compound_code": "Q2QW+8P New York, NY, USA",
        "global_code": "87G8Q2QW+8P"
      },
      "reference": "ChIJf0SSxqBYwokRM47K9wgb2Gg",
      "scope": "GOOGLE",
      "types": [
        "doctor",
        "health",
        "point_of_interest",
        "establishment"
      ],
      "vicinity": "5 East 98th Street, New York"
    },
    {
      "business_status": "OPERATIONAL",
      "geometry": {
        "location": {
          "lat": 40.78907170000001,
          "lng": -73.9538601
        },
        "viewport": {
          "northeast": {
            "lat": 40.79031988029151,
            "lng": -73.9526448197085
          },
          "southwest": {
            "lat": 40.78762191970851,
            "lng": -73.9553427802915
          }
        }
      },
      "icon": "https://maps.gstatic.com/mapfiles/place_api/icons/v1/png_71/generic_business-71.png",
      "icon_background_color": "#7B9EB0",
      "icon_mask_base_uri": "https://maps.gstatic.com/mapfiles/place_api/icons/v2/generic_pinlet",
      "name": "Scott Nguyen, MD",
      "opening_hours": {
        "open_now": false
      },
      "place_id": "ChIJf0SSxqBYwokRXITwDnnZB5Q",
      "plus_code": {
        "compound_code": "Q2QW+JF New York, NY, USA",
        "global_code": "87G8Q2QW+JF"
      },
      "rating": 5,
      "reference": "ChIJf0SSxqBYwokRXITwDnnZB5Q",
      "scope": "GOOGLE",
      "types": [
        "doctor",
        "health",
        "point_of_interest",
        "establishment"
      ],
      "user_ratings_total": 19,
      "vicinity": "5 East 98th Street 14th Floor, Ste A, New York"
    },
    {
      "business_status": "OPERATIONAL",
      "geometry": {
        "location": {
          "lat": 40.78907170000001,
          "lng": -73.9538601
        },
        "viewport": {
          "northeast": {
            "lat": 40.79031988029151,
            "lng": -73.95258536970849
          },
          "southwest": {
            "lat": 40.78762191970851,
            "lng": -73.9552833302915
          }
        }
      },
      "icon": "https://maps.gstatic.com/mapfiles/place_api/icons/v1/png_71/generic_business-71.png",
      "icon_background_color": "#7B9EB0",
      "icon_mask_base_uri": "https://maps.gstatic.com/mapfiles/place_api/icons/v2/generic_pinlet",
      "name": "Neil Grafstein, MD",
      "opening_hours": {
        "open_now": false
      },
      "photos": [
        {
          "height": 727,
          "html_attributions": [
            "<a href=\"https://maps.google.com/maps/contrib/115317608042748103768\">Neil Grafstein, MD</a>"
          ],
          "photo_reference": "AeJbb3f2BIEtMvtbjKZ_Ab_YFFCZCjOt0JcURdhmi2f6w8xeEH1zAwk7fJbCz03NabrrKNmhWeAkRFKH3EHijJ-93HN_uEP9jE9VLjKuncAhKP5UxS6bgdMifhr-1PvJXbpKoGQytPJCBJcypAJiWk33-6NjtezoKrIvYoA5pPZtufo_xrYg",
          "width": 727
        }
      ],
      "place_id": "ChIJf0SSxqBYwokReOmGkcrbzxc",
      "plus_code": {
        "compound_code": "Q2QW+JF New York, NY, USA",
        "global_code": "87G8Q2QW+JF"
      },
      "rating": 1.7,
      "reference": "ChIJf0SSxqBYwokReOmGkcrbzxc",
      "scope": "GOOGLE",
      "types": [
        "doctor",
        "health",
        "point_of_interest",
        "establishment"
      ],
      "user_ratings_total": 6,
      "vicinity": "5 East 98th Street 6th Fl, New York"
    },
    {
      "business_status": "OPERATIONAL",
      "geometry": {
        "location": {
          "lat": 40.7890329,
          "lng": -73.95384589999999
        },
        "viewport": {
          "northeast": {
            "lat": 40.7902935802915,
            "lng": -73.95256196970848
          },
          "southwest": {
            "lat": 40.7875956197085,
            "lng": -73.95525993029149
          }
        }
      },
      "icon": "https://maps.gstatic.com/mapfiles/place_api/icons/v1/png_71/generic_business-71.png",
      "icon_background_color": "#7B9EB0",
      "icon_mask_base_uri": "https://maps.gstatic.com/mapfiles/place_api/icons/v2/generic_pinlet",
      "name": "Dr. Tracy L. Breen, MD",
      "place_id": "ChIJf0SSxqBYwokRmMXSlUTn1XM",
      "plus_code": {
        "compound_code": "Q2QW+JF New York, NY, USA",
        "global_code": "87G8Q2QW+JF"
      },
      "reference": "ChIJf0SSxqBYwokRmMXSlUTn1XM",
      "scope": "GOOGLE",
      "types": [
        "doctor",
        "health",
        "point_of_interest",
        "establishment"
      ],
      "vicinity": "5 East 98th Street, New York"
    },
    {
      "business_status": "OPERATIONAL",
      "geometry": {
        "location": {
          "lat": 40.78907170000001,
          "lng": -73.9538601
        },
        "viewport": {
          "northeast": {
            "lat": 40.79031988029151,
            "lng": -73.95258536970849
          },
          "southwest": {
            "lat": 40.78762191970851,
            "lng": -73.9552833302915
          }
        }
      },
      "icon": "https://maps.gstatic.com/mapfiles/place_api/icons/v1/png_71/generic_business-71.png",
      "icon_background_color": "#7B9EB0",
      "icon_mask_base_uri": "https://maps.gstatic.com/mapfiles/place_api/icons/v2/generic_pinlet",
      "name": "Charles Ascher-Walsh, MD",
      "opening_hours": {
        "open_now": false
      },
      "photos": [
        {
          "height": 500,
          "html_attributions": [
            "<a href=\"https://maps.google.com/maps/contrib/113008020770634568343\">Charles Ascher-Walsh, MD</a>"
          ],
          "photo_reference": "AeJbb3e0meYQ6fVnpAjEZ2E_t43aWcEzSDrihteiITMHV4w4CU4SD-7tw0MK_ToP4lShjnNGRITqY6n4M7c8ffyOQI0KEacHXMupxvvYn8Yrp8VpJZoaYDXltvsZnIMjb1euXJRpwZiukQN2GQUL9zvb8p7Ovv4ejgNRZGYTqO0z4LpD_wy_",
          "width": 500
        }
      ],
      "place_id": "ChIJf0SSxqBYwokRE-GqreaupVI",
      "plus_code": {
        "compound_code": "Q2QW+JF New York, NY, USA",
        "global_code": "87G8Q2QW+JF"
      },
      "rating": 4.3,
      "reference": "ChIJf0SSxqBYwokRE-GqreaupVI",
      "scope": "GOOGLE",
      "types": [
        "doctor",
        "health",
        "point_of_interest",
        "establishment"
      ],
      "user_ratings_total": 20,
      "vicinity": "5 East 98th Street 2nd Fl, New York"
    },
    {
      "business_status": "OPERATIONAL",
      "geometry": {
        "location": {
          "lat": 40.78907170000001,
          "lng": -73.9538601
        },
        "viewport": {
          "northeast": {
            "lat": 40.79031988029151,
            "lng": -73.95258536970849
          },
          "southwest": {
            "lat": 40.78762191970851,
            "lng": -73.9552833302915
          }
        }
      },
      "icon": "https://maps.gstatic.com/mapfiles/place_api/icons/v1/png_71/generic_business-71.png",
      "icon_background_color": "#7B9EB0",
      "icon_mask_base_uri": "https://maps.gstatic.com/mapfiles/place_api/icons/v2/generic_pinlet",
      "name": "Joanne Stone, MD, MS",
      "opening_hours": {
        "open_now": false
      },
      "photos": [
        {
          "height": 500,
          "html_attributions": [
            "<a href=\"https://maps.google.com/maps/contrib/112514365114592961292\">Joanne Stone, MD, MS</a>"
          ],
          "photo_reference": "AeJbb3czPYRYRtNWXy5YxN4LQAZmzsXIKZJr83dFJxVeYGBtpQ9Xmbgnt5t50wsjWVePfr6p31wN9uJ9cRdrznZdHTtTJprFHoQLBzPSvkmPN4TO-2DURIsTuo1-u-ih5x-SpntudXcTfaL3BDvhQoQXQU_wKi_rG0c6vfb-tqt6luXtG_UR",
          "width": 500
        }
      ],
      "place_id": "ChIJf0SSxqBYwokR7UkSlxOZ-bQ",
      "plus_code": {
        "compound_code": "Q2QW+JF New York, NY, USA",
        "global_code": "87G8Q2QW+JF"
      },
      "rating": 5,
      "reference": "ChIJf0SSxqBYwokR7UkSlxOZ-bQ",
      "scope": "GOOGLE",
      "types": [
        "doctor",
        "health",
        "point_of_interest",
        "establishment"
      ],
      "user_ratings_total": 2,
      "vicinity": "5 East 98th Street 2nd Fl, New York"
    },
    {
      "business_status": "OPERATIONAL",
      "geometry": {
        "location": {
          "lat": 40.78907170000001,
          "lng": -73.9538601
        },
        "viewport": {
          "northeast": {
            "lat": 40.79031988029151,
            "lng": -73.9526448197085
          },
          "southwest": {
            "lat": 40.78762191970851,
            "lng": -73.9553427802915
          }
        }
      },
      "icon": "https://maps.gstatic.com/mapfiles/place_api/icons/v1/png_71/hospital-71.png",
      "icon_background_color": "#F88181",
      "icon_mask_base_uri": "https://maps.gstatic.com/mapfiles/place_api/icons/v2/hospital-H_pinlet",
      "name": "Scoliosis and Spine Associates",
      "opening_hours": {
        "open_now": false
      },
      "place_id": "ChIJR_RD1BxZwokRO8bTbZ4Hrts",
      "plus_code": {
        "compound_code": "Q2QW+JF New York, NY, USA",
        "global_code": "87G8Q2QW+JF"
      },
      "rating": 4.8,
      "reference": "ChIJR_RD1BxZwokRO8bTbZ4Hrts",
      "scope": "GOOGLE",
      "types": [
        "hospital",
        "doctor",
        "health",
        "point_of_interest",
        "establishment"
      ],
      "user_ratings_total": 20,
      "vicinity": "5 East 98th Street 4th floor, New York"
    },
    {
      "business_status": "OPERATIONAL",
      "geometry": {
        "location": {
          "lat": 40.789056,
          "lng": -73.9538508
        },
        "viewport": {
          "northeast": {
            "lat": 40.7903086302915,
            "lng": -73.9525727697085
          },
          "southwest": {
            "lat": 40.7876106697085,
            "lng": -73.9552707302915
          }
        }
      },
      "icon": "https://maps.gstatic.com/mapfiles/place_api/icons/v1/png_71/generic_business-71.png",
      "icon_background_color": "#7B9EB0",
      "icon_mask_base_uri": "https://maps.gstatic.com/mapfiles/place_api/icons/v2/generic_pinlet",
      "name": "Benkov Keith J MD",
      "place_id": "ChIJf0SSxqBYwokRNvHIVGaLxkQ",
      "plus_code": {
        "compound_code": "Q2QW+JF New York, NY, USA",
        "global_code": "87G8Q2QW+JF"
      },
      "rating": 3.9,
      "reference": "ChIJf0SSxqBYwokRNvHIVGaLxkQ",
      "scope": "GOOGLE",
      "types": [
        "doctor",
        "health",
        "point_of_interest",
        "establishment"
      ],
      "user_ratings_total": 8,
      "vicinity": "5 East 98th Street, New York"
    },
    {
      "business_status": "OPERATIONAL",
      "geometry": {
        "location": {
          "lat": 40.78907170000001,
          "lng": -73.9538601
        },
        "viewport": {
          "northeast": {
            "lat": 40.79031988029151,
            "lng": -73.95258536970849
          },
          "southwest": {
            "lat": 40.78762191970851,
            "lng": -73.9552833302915
          }
        }
      },
      "icon": "https://maps.gstatic.com/mapfiles/place_api/icons/v1/png_71/generic_business-71.png",
      "icon_background_color": "#7B9EB0",
      "icon_mask_base_uri": "https://maps.gstatic.com/mapfiles/place_api/icons/v2/generic_pinlet",
      "name": "Parag Sheth, MD",
      "opening_hours": {
        "open_now": false
      },
      "photos": [
        {
          "height": 727,
          "html_attributions": [
            "<a href=\"https://maps.google.com/maps/contrib/107729001159717798723\">Parag Sheth, MD</a>"
          ],
          "photo_reference": "AeJbb3cSWOFz4P0cAYxYgcWrvLEJAP8QaVmtlbgxpPd-ALJrDm2WhEkHMrQCfveNch4iwGQAySADRVToa06Ubd7RvYTL9FdtbxFVcPDYePfleCWWwYWzTmOkN4-bQaT-_eBgcuMwNrbnyUf_K3xXpeMN8sgPfRuRd6JSJP54eW8VFJyZtFmF",
          "width": 727
        }
      ],
      "place_id": "ChIJf0SSxqBYwokR-8mnp7wLHMc",
      "plus_code": {
        "compound_code": "Q2QW+JF New York, NY, USA",
        "global_code": "87G8Q2QW+JF"
      },
      "rating": 5,
      "reference": "ChIJf0SSxqBYwokR-8mnp7wLHMc",
      "scope": "GOOGLE",
      "types": [
        "doctor",
        "health",
        "point_of_interest",
        "establishment"
      ],
      "user_ratings_total": 1,
      "vicinity": "5 East 98th Street 6th Fl, New York"
    },
    {
      "business_status": "OPERATIONAL",
      "geometry": {
        "location": {
          "lat": 40.78907170000001,
          "lng": -73.9538601
        },
        "viewport": {
          "northeast": {
            "lat": 40.79031988029151,
            "lng": -73.95258536970849
          },
          "southwest": {
            "lat": 40.78762191970851,
            "lng": -73.9552833302915
          }
        }
      },
      "icon": "https://maps.gstatic.com/mapfiles/place_api/icons/v1/png_71/generic_business-71.png",
      "icon_background_color": "#7B9EB0",
      "icon_mask_base_uri": "https://maps.gstatic.com/mapfiles/place_api/icons/v2/generic_pinlet",
      "name": "Premenstrual Syndrome",
      "place_id": "ChIJf0SSxqBYwokRTqXnLkNgMzw",
      "plus_code": {
        "compound_code": "Q2QW+JF New York, NY, USA",
        "global_code": "87G8Q2QW+JF"
      },
      "reference": "ChIJf0SSxqBYwokRTqXnLkNgMzw",
      "scope": "GOOGLE",
      "types": [
        "point_of_interest",
        "establishment"
      ],
      "vicinity": "5 East 98th Street, New York"
    },
    {
      "business_status": "OPERATIONAL",
      "geometry": {
        "location": {
          "lat": 40.7892026,
          "lng": -73.954456
        },
        "viewport": {
          "northeast": {
            "lat": 40.79049688029149,
            "lng": -73.95314006970848
          },
          "southwest": {
            "lat": 40.78779891970849,
            "lng": -73.9558380302915
          }
        }
      },
      "icon": "https://maps.gstatic.com/mapfiles/place_api/icons/v1/png_71/generic_business-71.png",
      "icon_background_color": "#7B9EB0",
      "icon_mask_base_uri": "https://maps.gstatic.com/mapfiles/place_api/icons/v2/generic_pinlet",
      "name": "Celia Divino, MD",
      "opening_hours": {
        "open_now": false
      },
      "place_id": "ChIJf0SSxqBYwokRYM0mqCZ6rfA",
      "plus_code": {
        "compound_code": "Q2QW+M6 New York, NY, USA",
        "global_code": "87G8Q2QW+M6"
      },
      "rating": 3,
      "reference": "ChIJf0SSxqBYwokRYM0mqCZ6rfA",
      "scope": "GOOGLE",
      "types": [
        "doctor",
        "health",
        "point_of_interest",
        "establishment"
      ],
      "user_ratings_total": 2,
      "vicinity": "5 East 98th St 14th Fl, New York"
    },
    {
      "business_status": "OPERATIONAL",
      "geometry": {
        "location": {
          "lat": 40.78907170000001,
          "lng": -73.9538601
        },
        "viewport": {
          "northeast": {
            "lat": 40.79031988029151,
            "lng": -73.95258536970849
          },
          "southwest": {
            "lat": 40.78762191970851,
            "lng": -73.9552833302915
          }
        }
      },
      "icon": "https://maps.gstatic.com/mapfiles/place_api/icons/v1/png_71/generic_business-71.png",
      "icon_background_color": "#7B9EB0",
      "icon_mask_base_uri": "https://maps.gstatic.com/mapfiles/place_api/icons/v2/generic_pinlet",
      "name": "William Lawson, MD, DDS",
      "opening_hours": {
        "open_now": false
      },
      "photos": [
        {
          "height": 4160,
          "html_attributions": [
            "<a href=\"https://maps.google.com/maps/contrib/104263483849555676432\">Erika Kish</a>"
          ],
          "photo_reference": "AeJbb3d4YkiWVW3Rt02cDZwgypjctIc12wtwBF_c1ulkgSNkfDh0JtR5vS-GNUdmB12MN8oM3tp5uOi1ZRLy5Jp8hgPf67DCMZxqenZqv0Gkxj9AuOfDtVEGQ_N8G2BKd9Dy9oSaFlq192qlekZNYcFfpxFvz92BTgcvy_-DwG4qDqFV9U5g",
          "width": 3120
        }
      ],
      "place_id": "ChIJf0SSxqBYwokRtGxKBA1lQOQ",
      "plus_code": {
        "compound_code": "Q2QW+JF New York, NY, USA",
        "global_code": "87G8Q2QW+JF"
      },
      "rating": 3,
      "reference": "ChIJf0SSxqBYwokRtGxKBA1lQOQ",
      "scope": "GOOGLE",
      "types": [
        "doctor",
        "health",
        "point_of_interest",
        "establishment"
      ],
      "user_ratings_total": 6,
      "vicinity": "Faculty Practice Associates, 5 East 98th Street, New York"
    },
    {
      "business_status": "OPERATIONAL",
      "geometry": {
        "location": {
          "lat": 40.7890874,
          "lng": -73.9540628
        },
        "viewport": {
          "northeast": {
            "lat": 40.79036223029151,
            "lng": -73.9527684697085
          },
          "southwest": {
            "lat": 40.78766426970851,
            "lng": -73.95546643029151
          }
        }
      },
      "icon": "https://maps.gstatic.com/mapfiles/place_api/icons/v1/png_71/generic_business-71.png",
      "icon_background_color": "#7B9EB0",
      "icon_mask_base_uri": "https://maps.gstatic.com/mapfiles/place_api/icons/v2/generic_pinlet",
      "name": "Ilya Iofin, MD",
      "opening_hours": {
        "open_now": false
      },
      "photos": [
        {
          "height": 727,
          "html_attributions": [
            "<a href=\"https://maps.google.com/maps/contrib/110245274554841856655\">Ilya Iofin, MD</a>"
          ],
          "photo_reference": "AeJbb3dv8XeaPftAgCg2HKZdrFSLJrhhm2PHMnB2V_5A6Jk2WkM9ByQxVnCf6Onmp6AAOYHFb9Zt34SKMZeiVBZKDIUj27UVEhqJ6EvlSPsAP7Gtdsq0dCMyqwHuE9qic8wGbrZ7w-VT0YfihNIdSFVUjN8TesA6-Yg0gb0XXqUjzDuDwNbb",
          "width": 727
        }
      ],
      "place_id": "ChIJf0SSxqBYwokRKzdrG3BWto8",
      "plus_code": {
        "compound_code": "Q2QW+J9 New York, NY, USA",
        "global_code": "87G8Q2QW+J9"
      },
      "rating": 4.5,
      "reference": "ChIJf0SSxqBYwokRKzdrG3BWto8",
      "scope": "GOOGLE",
      "types": [
        "doctor",
        "health",
        "point_of_interest",
        "establishment"
      ],
      "user_ratings_total": 19,
      "vicinity": "5 East 98th St 7th Fl, New York"
    },
    {
      "business_status": "OPERATIONAL",
      "geometry": {
        "location": {
          "lat": 40.7890329,
          "lng": -73.95384589999999
        },
        "viewport": {
          "northeast": {
            "lat": 40.7902935802915,
            "lng": -73.95256196970848
          },
          "southwest": {
            "lat": 40.7875956197085,
            "lng": -73.95525993029149
          }
        }
      },
      "icon": "https://maps.gstatic.com/mapfiles/place_api/icons/v1/png_71/generic_business-71.png",
      "icon_background_color": "#7B9EB0",
      "icon_mask_base_uri": "https://maps.gstatic.com/mapfiles/place_api/icons/v2/generic_pinlet",
      "name": "Dr. Scott H. Sicherer, MD",
      "place_id": "ChIJf0SSxqBYwokRDehYx4XaZE8",
      "plus_code": {
        "compound_code": "Q2QW+JF New York, NY, USA",
        "global_code": "87G8Q2QW+JF"
      },
      "reference": "ChIJf0SSxqBYwokRDehYx4XaZE8",
      "scope": "GOOGLE",
      "types": [
        "doctor",
        "health",
        "point_of_interest",
        "establishment"
      ],
      "vicinity": "5 East 98th Street, New York"
    },
    {
      "business_status": "OPERATIONAL",
      "geometry": {
        "location": {
          "lat": 40.78907170000001,
          "lng": -73.9538601
        },
        "viewport": {
          "northeast": {
            "lat": 40.79031988029151,
            "lng": -73.95258536970849
          },
          "southwest": {
            "lat": 40.78762191970851,
            "lng": -73.9552833302915
          }
        }
      },
      "icon": "https://maps.gstatic.com/mapfiles/place_api/icons/v1/png_71/generic_business-71.png",
      "icon_background_color": "#7B9EB0",
      "icon_mask_base_uri": "https://maps.gstatic.com/mapfiles/place_api/icons/v2/generic_pinlet",
      "name": "Corn Beth Eve MD",
      "opening_hours": {
        "open_now": false
      },
      "place_id": "ChIJf0SSxqBYwokRIqNkmuUdWdQ",
      "plus_code": {
        "compound_code": "Q2QW+JF New York, NY, USA",
        "global_code": "87G8Q2QW+JF"
      },
      "rating": 5,
      "reference": "ChIJf0SSxqBYwokRIqNkmuUdWdQ",
      "scope": "GOOGLE",
      "types": [
        "doctor",
        "health",
        "point_of_interest",
        "establishment"
      ],
      "user_ratings_total": 4,
      "vicinity": "5 East 98th Street, New York"
    },
    {
      "business_status": "OPERATIONAL",
      "geometry": {
        "location": {
          "lat": 40.78907700000001,
          "lng": -73.954008
        },
        "viewport": {
          "northeast": {
            "lat": 40.79034698029151,
            "lng": -73.9527187697085
          },
          "southwest": {
            "lat": 40.78764901970851,
            "lng": -73.9554167302915
          }
        }
      },
      "icon": "https://maps.gstatic.com/mapfiles/place_api/icons/v1/png_71/generic_business-71.png",
      "icon_background_color": "#7B9EB0",
      "icon_mask_base_uri": "https://maps.gstatic.com/mapfiles/place_api/icons/v2/generic_pinlet",
      "name": "David Forsh, MD",
      "photos": [
        {
          "height": 1192,
          "html_attributions": [
            "<a href=\"https://maps.google.com/maps/contrib/106409790864802619112\">David Forsh, MD</a>"
          ],
          "photo_reference": "AeJbb3fTLalpZug8JGmnLgMojjl6GW46PTlNsxnO-_8UuRXPmwBgd1PbwO11pmKA1xNqPK_lDQMx-ZxDrHjhbWcVXPdiyui1g6Xt95dmc8_1q4BxWNzHi67jM3IslogcmVKqdUhvQYnOHm_tUj9gTCLt-X47-3tAMOJoVzQwrBCQguONJbjk",
          "width": 2119
        }
      ],
      "place_id": "ChIJf0SSxqBYwokRbtAIPlEqcZg",
      "plus_code": {
        "compound_code": "Q2QW+J9 New York, NY, USA",
        "global_code": "87G8Q2QW+J9"
      },
      "rating": 4.6,
      "reference": "ChIJf0SSxqBYwokRbtAIPlEqcZg",
      "scope": "GOOGLE",
      "types": [
        "doctor",
        "health",
        "point_of_interest",
        "establishment"
      ],
      "user_ratings_total": 25,
      "vicinity": "5 East 98th St 7th Fl, New York"
    },
    {
      "business_status": "OPERATIONAL",
      "geometry": {
        "location": {
          "lat": 40.78907170000001,
          "lng": -73.9538601
        },
        "viewport": {
          "northeast": {
            "lat": 40.79031988029151,
            "lng": -73.95258536970849
          },
          "southwest": {
            "lat": 40.78762191970851,
            "lng": -73.9552833302915
          }
        }
      },
      "icon": "https://maps.gstatic.com/mapfiles/place_api/icons/v1/png_71/generic_business-71.png",
      "icon_background_color": "#7B9EB0",
      "icon_mask_base_uri": "https://maps.gstatic.com/mapfiles/place_api/icons/v2/generic_pinlet",
      "name": "Jimenez Jennifer",
      "place_id": "ChIJf0SSxqBYwokRPScbl9nVHL0",
      "plus_code": {
        "compound_code": "Q2QW+JF New York, NY, USA",
        "global_code": "87G8Q2QW+JF"
      },
      "reference": "ChIJf0SSxqBYwokRPScbl9nVHL0",
      "scope": "GOOGLE",
      "types": [
        "health",
        "point_of_interest",
        "establishment"
      ],
      "vicinity": "5 East 98th Street, New York"
    },
    {
      "business_status": "OPERATIONAL",
      "geometry": {
        "location": {
          "lat": 40.78907170000001,
          "lng": -73.9538601
        },
        "viewport": {
          "northeast": {
            "lat": 40.79031988029151,
            "lng": -73.95258536970849
          },
          "southwest": {
            "lat": 40.78762191970851,
            "lng": -73.9552833302915
          }
        }
      },
      "icon": "https://maps.gstatic.com/mapfiles/place_api/icons/v1/png_71/generic_business-71.png",
      "icon_background_color": "#7B9EB0",
      "icon_mask_base_uri": "https://maps.gstatic.com/mapfiles/place_api/icons/v2/generic_pinlet",
      "name": "Priya Grewal, MD",
      "opening_hours": {
        "open_now": false
      },
      "place_id": "ChIJf0SSxqBYwokRhPO4JxSFHaQ",
      "plus_code": {
        "compound_code": "Q2QW+JF New York, NY, USA",
        "global_code": "87G8Q2QW+JF"
      },
      "rating": 5,
      "reference": "ChIJf0SSxqBYwokRhPO4JxSFHaQ",
      "scope": "GOOGLE",
      "types": [
        "doctor",
        "health",
        "point_of_interest",
        "establishment"
      ],
      "user_ratings_total": 5,
      "vicinity": "5 East 98th Street 12th Fl, New York"
    },
    {
      "business_status": "OPERATIONAL",
      "geometry": {
        "location": {
          "lat": 40.78907170000001,
          "lng": -73.9538601
        },
        "viewport": {
          "northeast": {
            "lat": 40.79031988029151,
            "lng": -73.95258536970849
          },
          "southwest": {
            "lat": 40.78762191970851,
            "lng": -73.9552833302915
          }
        }
      },
      "icon": "https://maps.gstatic.com/mapfiles/place_api/icons/v1/png_71/generic_business-71.png",
      "icon_background_color": "#7B9EB0",
      "icon_mask_base_uri": "https://maps.gstatic.com/mapfiles/place_api/icons/v2/generic_pinlet",
      "name": "Dr. Eliza B. Geer, MD",
      "place_id": "ChIJf0SSxqBYwokRBx2F-X_7cyM",
      "plus_code": {
        "compound_code": "Q2QW+JF New York, NY, USA",
        "global_code": "87G8Q2QW+JF"
      },
      "rating": 1,
      "reference": "ChIJf0SSxqBYwokRBx2F-X_7cyM",
      "scope": "GOOGLE",
      "types": [
        "doctor",
        "health",
        "point_of_interest",
        "establishment"
      ],
      "user_ratings_total": 3,
      "vicinity": "5 East 98th Street, New York"
    },
    {
      "business_status": "OPERATIONAL",
      "geometry": {
        "location": {
          "lat": 40.7890329,
          "lng": -73.95384589999999
        },
        "viewport": {
          "northeast": {
            "lat": 40.7902935802915,
            "lng": -73.95256196970848
          },
          "southwest": {
            "lat": 40.7875956197085,
            "lng": -73.95525993029149
          }
        }
      },
      "icon": "https://maps.gstatic.com/mapfiles/place_api/icons/v1/png_71/generic_business-71.png",
      "icon_background_color": "#7B9EB0",
      "icon_mask_base_uri": "https://maps.gstatic.com/mapfiles/place_api/icons/v2/generic_pinlet",
      "name": "Scott L. Friedman, MD, Dean for Therapeutic Discovery, Icahn School of Medicine",
      "photos": [
        {
          "height": 300,
          "html_attributions": [
            "<a href=\"https://maps.google.com/maps/contrib/116826345756902400462\">Scott L. Friedman, MD, Dean for Therapeutic Discovery, Icahn School of Medicine</a>"
          ],
          "photo_reference": "AeJbb3fKqGDn0iPQeu1-Z1eUFfRKPYNZowfwGbqRKB5W6xtasmxcBmxxSDKHlWmcHe_QO0qJ1ehZMa1izcIU7rFzx62J06BqDxxYYkwqjdzmaIkf7hxA1zLql6VoRDTkoCfxi5JK1Af_56bz0sw64aY-gnnK1dmXaTHh0rDCyLAX67QH0-nV",
          "width": 300
        }
      ],
      "place_id": "ChIJf0SSxqBYwokRSY4hiXLtJQ0",
      "plus_code": {
        "compound_code": "Q2QW+JF New York, NY, USA",
        "global_code": "87G8Q2QW+JF"
      },
      "reference": "ChIJf0SSxqBYwokRSY4hiXLtJQ0",
      "scope": "GOOGLE",
      "types": [
        "doctor",
        "health",
        "point_of_interest",
        "establishment"
      ],
      "vicinity": "5 East 98th Street, New York"
    },
    {
      "business_status": "OPERATIONAL",
      "geometry": {
        "location": {
          "lat": 40.78906409999999,
          "lng": -73.95385639999999
        },
        "viewport": {
          "northeast": {
            "lat": 40.79031458029149,
            "lng": -73.95257996970848
          },
          "southwest": {
            "lat": 40.78761661970849,
            "lng": -73.95527793029149
          }
        }
      },
      "icon": "https://maps.gstatic.com/mapfiles/place_api/icons/v1/png_71/generic_business-71.png",
      "icon_background_color": "#7B9EB0",
      "icon_mask_base_uri": "https://maps.gstatic.com/mapfiles/place_api/icons/v2/generic_pinlet",
      "name": "Jaime Uribarri, MD",
      "opening_hours": {
        "open_now": false
      },
      "place_id": "ChIJf0SSxqBYwokRexDdz0AnuQs",
      "plus_code": {
        "compound_code": "Q2QW+JF New York, NY, USA",
        "global_code": "87G8Q2QW+JF"
      },
      "reference": "ChIJf0SSxqBYwokRexDdz0AnuQs",
      "scope": "GOOGLE",
      "types": [
        "doctor",
        "health",
        "point_of_interest",
        "establishment"
      ],
      "vicinity": "5 East 98th Street #11, New York"
    },
    {
      "business_status": "OPERATIONAL",
      "geometry": {
        "location": {
          "lat": 40.7890329,
          "lng": -73.95384589999999
        },
        "viewport": {
          "northeast": {
            "lat": 40.7902935802915,
            "lng": -73.95256196970848
          },
          "southwest": {
            "lat": 40.7875956197085,
            "lng": -73.95525993029149
          }
        }
      },
      "icon": "https://maps.gstatic.com/mapfiles/place_api/icons/v1/png_71/generic_business-71.png",
      "icon_background_color": "#7B9EB0",
      "icon_mask_base_uri": "https://maps.gstatic.com/mapfiles/place_api/icons/v2/generic_pinlet",
      "name": "Dr. Men-Jean Lee, MD",
      "place_id": "ChIJf0SSxqBYwokRk8e_jpqlBqM",
      "plus_code": {
        "compound_code": "Q2QW+JF New York, NY, USA",
        "global_code": "87G8Q2QW+JF"
      },
      "reference": "ChIJf0SSxqBYwokRk8e_jpqlBqM",
      "scope": "GOOGLE",
      "types": [
        "doctor",
        "health",
        "point_of_interest",
        "establishment"
      ],
      "vicinity": "5 East 98th Street, New York"
    },
    {
      "business_status": "OPERATIONAL",
      "geometry": {
        "location": {
          "lat": 40.7890329,
          "lng": -73.95384589999999
        },
        "viewport": {
          "northeast": {
            "lat": 40.7902935802915,
            "lng": -73.95256196970848
          },
          "southwest": {
            "lat": 40.7875956197085,
            "lng": -73.95525993029149
          }
        }
      },
      "icon": "https://maps.gstatic.com/mapfiles/place_api/icons/v1/png_71/generic_business-71.png",
      "icon_background_color": "#7B9EB0",
      "icon_mask_base_uri": "https://maps.gstatic.com/mapfiles/place_api/icons/v2/generic_pinlet",
      "name": "Tarr Diane E MD",
      "place_id": "ChIJCYIswaBYwokRCERxHv3gF2o",
      "plus_code": {
        "compound_code": "Q2QW+JF New York, NY, USA",
        "global_code": "87G8Q2QW+JF"
      },
      "reference": "ChIJCYIswaBYwokRCERxHv3gF2o",
      "scope": "GOOGLE",
      "types": [
        "doctor",
        "health",
        "point_of_interest",
        "establishment"
      ],
      "vicinity": "5 East 98th Street, New York"
    },
    {
      "business_status": "OPERATIONAL",
      "geometry": {
        "location": {
          "lat": 40.78907170000001,
          "lng": -73.9538601
        },
        "viewport": {
          "northeast": {
            "lat": 40.79031988029151,
            "lng": -73.95258536970849
          },
          "southwest": {
            "lat": 40.78762191970851,
            "lng": -73.9552833302915
          }
        }
      },
      "icon": "https://maps.gstatic.com/mapfiles/place_api/icons/v1/png_71/generic_business-71.png",
      "icon_background_color": "#7B9EB0",
      "icon_mask_base_uri": "https://maps.gstatic.com/mapfiles/place_api/icons/v2/generic_pinlet",
      "name": "Busse Paula MD",
      "place_id": "ChIJf0SSxqBYwokRf4cQDPV-udc",
      "plus_code": {
        "compound_code": "Q2QW+JF New York, NY, USA",
        "global_code": "87G8Q2QW+JF"
      },
      "rating": 3,
      "reference": "ChIJf0SSxqBYwokRf4cQDPV-udc",
      "scope": "GOOGLE",
      "types": [
        "doctor",
        "health",
        "point_of_interest",
        "establishment"
      ],
      "user_ratings_total": 6,
      "vicinity": "5 East 98th Street, New York"
    },
    {
      "business_status": "OPERATIONAL",
      "geometry": {
        "location": {
          "lat": 40.78907170000001,
          "lng": -73.9538601
        },
        "viewport": {
          "northeast": {
            "lat": 40.79031988029151,
            "lng": -73.95258536970849
          },
          "southwest": {
            "lat": 40.78762191970851,
            "lng": -73.9552833302915
          }
        }
      },
      "icon": "https://maps.gstatic.com/mapfiles/place_api/icons/v1/png_71/generic_business-71.png",
      "icon_background_color": "#7B9EB0",
      "icon_mask_base_uri": "https://maps.gstatic.com/mapfiles/place_api/icons/v2/generic_pinlet",
      "name": "Aledort Louis M MD",
      "place_id": "ChIJf0SSxqBYwokRy1VGWbKqLyo",
      "plus_code": {
        "compound_code": "Q2QW+JF New York, NY, USA",
        "global_code": "87G8Q2QW+JF"
      },
      "rating": 3.7,
      "reference": "ChIJf0SSxqBYwokRy1VGWbKqLyo",
      "scope": "GOOGLE",
      "types": [
        "doctor",
        "health",
        "point_of_interest",
        "establishment"
      ],
      "user_ratings_total": 3,
      "vicinity": "5 East 98th Street, New York"
    },
    {
      "business_status": "OPERATIONAL",
      "geometry": {
        "location": {
          "lat": 40.78907170000001,
          "lng": -73.9538601
        },
        "viewport": {
          "northeast": {
            "lat": 40.79031988029151,
            "lng": -73.95258536970849
          },
          "southwest": {
            "lat": 40.78762191970851,
            "lng": -73.9552833302915
          }
        }
      },
      "icon": "https://maps.gstatic.com/mapfiles/place_api/icons/v1/png_71/generic_business-71.png",
      "icon_background_color": "#7B9EB0",
      "icon_mask_base_uri": "https://maps.gstatic.com/mapfiles/place_api/icons/v2/generic_pinlet",
      "name": "Vinita Sehgal, MD",
      "opening_hours": {
        "open_now": false
      },
      "place_id": "ChIJf0SSxqBYwokRXb3KS4eV_4I",
      "plus_code": {
        "compound_code": "Q2QW+JF New York, NY, USA",
        "global_code": "87G8Q2QW+JF"
      },
      "rating": 5,
      "reference": "ChIJf0SSxqBYwokRXb3KS4eV_4I",
      "scope": "GOOGLE",
      "types": [
        "doctor",
        "health",
        "point_of_interest",
        "establishment"
      ],
      "user_ratings_total": 1,
      "vicinity": "5 East 98th Street 12th Fl, New York"
    },
    {
      "business_status": "OPERATIONAL",
      "geometry": {
        "location": {
          "lat": 40.78907170000001,
          "lng": -73.9538601
        },
        "viewport": {
          "northeast": {
            "lat": 40.79031988029151,
            "lng": -73.95258536970849
          },
          "southwest": {
            "lat": 40.78762191970851,
            "lng": -73.9552833302915
          }
        }
      },
      "icon": "https://maps.gstatic.com/mapfiles/place_api/icons/v1/png_71/generic_business-71.png",
      "icon_background_color": "#7B9EB0",
      "icon_mask_base_uri": "https://maps.gstatic.com/mapfiles/place_api/icons/v2/generic_pinlet",
      "name": "Teodorescu Victoria J MD",
      "place_id": "ChIJf0SSxqBYwokRImqHhbpJZq8",
      "plus_code": {
        "compound_code": "Q2QW+JF New York, NY, USA",
        "global_code": "87G8Q2QW+JF"
      },
      "rating": 3,
      "reference": "ChIJf0SSxqBYwokRImqHhbpJZq8",
      "scope": "GOOGLE",
      "types": [
        "doctor",
        "health",
        "point_of_interest",
        "establishment"
      ],
      "user_ratings_total": 1,
      "vicinity": "5 East 98th Street, New York"
    },
    {
      "business_status": "OPERATIONAL",
      "geometry": {
        "location": {
          "lat": 40.7890329,
          "lng": -73.95384589999999
        },
        "viewport": {
          "northeast": {
            "lat": 40.7902935802915,
            "lng": -73.95256196970848
          },
          "southwest": {
            "lat": 40.7875956197085,
            "lng": -73.95525993029149
          }
        }
      },
      "icon": "https://maps.gstatic.com/mapfiles/place_api/icons/v1/png_71/generic_business-71.png",
      "icon_background_color": "#7B9EB0",
      "icon_mask_base_uri": "https://maps.gstatic.com/mapfiles/place_api/icons/v2/generic_pinlet",
      "name": "Dr. Jeffrey M. Saland, MD",
      "place_id": "ChIJf0SSxqBYwokRcGTAccqSKzQ",
      "plus_code": {
        "compound_code": "Q2QW+JF New York, NY, USA",
        "global_code": "87G8Q2QW+JF"
      },
      "rating": 3.7,
      "reference": "ChIJf0SSxqBYwokRcGTAccqSKzQ",
      "scope": "GOOGLE",
      "types": [
        "doctor",
        "health",
        "point_of_interest",
        "establishment"
      ],
      "user_ratings_total": 3,
      "vicinity": "5 East 98th Street, New York"
    },
    {
      "business_status": "OPERATIONAL",
      "geometry": {
        "location": {
          "lat": 40.7891416,
          "lng": -73.9538145
        },
        "viewport": {
          "northeast": {
            "lat": 40.7903548302915,
            "lng": -73.95256256970849
          },
          "southwest": {
            "lat": 40.7876568697085,
            "lng": -73.95526053029151
          }
        }
      },
      "icon": "https://maps.gstatic.com/mapfiles/place_api/icons/v1/png_71/generic_business-71.png",
      "icon_background_color": "#7B9EB0",
      "icon_mask_base_uri": "https://maps.gstatic.com/mapfiles/place_api/icons/v2/generic_pinlet",
      "name": "Shradha Agarwal, MD",
      "place_id": "ChIJf0SSxqBYwokRu7QN423OXcM",
      "plus_code": {
        "compound_code": "Q2QW+MF New York, NY, USA",
        "global_code": "87G8Q2QW+MF"
      },
      "rating": 4.5,
      "reference": "ChIJf0SSxqBYwokRu7QN423OXcM",
      "scope": "GOOGLE",
      "types": [
        "doctor",
        "health",
        "point_of_interest",
        "establishment"
      ],
      "user_ratings_total": 8,
      "vicinity": "5 East 98th Street 11th Fl, New York"
    },
    {
      "business_status": "OPERATIONAL",
      "geometry": {
        "location": {
          "lat": 40.78907170000001,
          "lng": -73.9538601
        },
        "viewport": {
          "northeast": {
            "lat": 40.79031988029151,
            "lng": -73.95258536970849
          },
          "southwest": {
            "lat": 40.78762191970851,
            "lng": -73.9552833302915
          }
        }
      },
      "icon": "https://maps.gstatic.com/mapfiles/place_api/icons/v1/png_71/generic_business-71.png",
      "icon_background_color": "#7B9EB0",
      "icon_mask_base_uri": "https://maps.gstatic.com/mapfiles/place_api/icons/v2/generic_pinlet",
      "name": "Kolker Dov MD",
      "place_id": "ChIJf0SSxqBYwokRQ7A3hBmUn_U",
      "plus_code": {
        "compound_code": "Q2QW+JF New York, NY, USA",
        "global_code": "87G8Q2QW+JF"
      },
      "rating": 5,
      "reference": "ChIJf0SSxqBYwokRQ7A3hBmUn_U",
      "scope": "GOOGLE",
      "types": [
        "doctor",
        "health",
        "point_of_interest",
        "establishment"
      ],
      "user_ratings_total": 1,
      "vicinity": "5 East 98th Street, New York"
    },
    {
      "business_status": "OPERATIONAL",
      "geometry": {
        "location": {
          "lat": 40.789064,
          "lng": -73.95385639999999
        },
        "viewport": {
          "northeast": {
            "lat": 40.79031448029149,
            "lng": -73.9525799197085
          },
          "southwest": {
            "lat": 40.78761651970849,
            "lng": -73.95527788029152
          }
        }
      },
      "icon": "https://maps.gstatic.com/mapfiles/place_api/icons/v1/png_71/generic_business-71.png",
      "icon_background_color": "#7B9EB0",
      "icon_mask_base_uri": "https://maps.gstatic.com/mapfiles/place_api/icons/v2/generic_pinlet",
      "name": "Dr. Corinne Benchimol, DO",
      "place_id": "ChIJf0SSxqBYwokRfbrDQPDsIRQ",
      "plus_code": {
        "compound_code": "Q2QW+JF New York, NY, USA",
        "global_code": "87G8Q2QW+JF"
      },
      "rating": 5,
      "reference": "ChIJf0SSxqBYwokRfbrDQPDsIRQ",
      "scope": "GOOGLE",
      "types": [
        "doctor",
        "health",
        "point_of_interest",
        "establishment"
      ],
      "user_ratings_total": 1,
      "vicinity": "5 East 98th Street, New York"
    },
    {
      "business_status": "OPERATIONAL",
      "geometry": {
        "location": {
          "lat": 40.78907170000001,
          "lng": -73.9538601
        },
        "viewport": {
          "northeast": {
            "lat": 40.79031988029151,
            "lng": -73.95258536970849
          },
          "southwest": {
            "lat": 40.78762191970851,
            "lng": -73.9552833302915
          }
        }
      },
      "icon": "https://maps.gstatic.com/mapfiles/place_api/icons/v1/png_71/generic_business-71.png",
      "icon_background_color": "#7B9EB0",
      "icon_mask_base_uri": "https://maps.gstatic.com/mapfiles/place_api/icons/v2/generic_pinlet",
      "name": "Lynn Abigail K MD",
      "place_id": "ChIJf0SSxqBYwokR0syV4WPXdlA",
      "plus_code": {
        "compound_code": "Q2QW+JF New York, NY, USA",
        "global_code": "87G8Q2QW+JF"
      },
      "reference": "ChIJf0SSxqBYwokR0syV4WPXdlA",
      "scope": "GOOGLE",
      "types": [
        "doctor",
        "health",
        "point_of_interest",
        "establishment"
      ],
      "vicinity": "5 East 98th Street, New York"
    },
    {
      "business_status": "OPERATIONAL",
      "geometry": {
        "location": {
          "lat": 40.7890329,
          "lng": -73.95384589999999
        },
        "viewport": {
          "northeast": {
            "lat": 40.7902935802915,
            "lng": -73.95256196970848
          },
          "southwest": {
            "lat": 40.7875956197085,
            "lng": -73.95525993029149
          }
        }
      },
      "icon": "https://maps.gstatic.com/mapfiles/place_api/icons/v1/png_71/generic_business-71.png",
      "icon_background_color": "#7B9EB0",
      "icon_mask_base_uri": "https://maps.gstatic.com/mapfiles/place_api/icons/v2/generic_pinlet",
      "name": "Dr. Christina M. Wyatt, MD",
      "place_id": "ChIJf0SSxqBYwokRcfQVtDQEImY",
      "plus_code": {
        "compound_code": "Q2QW+JF New York, NY, USA",
        "global_code": "87G8Q2QW+JF"
      },
      "reference": "ChIJf0SSxqBYwokRcfQVtDQEImY",
      "scope": "GOOGLE",
      "types": [
        "doctor",
        "health",
        "point_of_interest",
        "establishment"
      ],
      "vicinity": "5 East 98th Street, New York"
    },
    {
      "business_status": "OPERATIONAL",
      "geometry": {
        "location": {
          "lat": 40.78907170000001,
          "lng": -73.9538601
        },
        "viewport": {
          "northeast": {
            "lat": 40.79031988029151,
            "lng": -73.95258536970849
          },
          "southwest": {
            "lat": 40.78762191970851,
            "lng": -73.9552833302915
          }
        }
      },
      "icon": "https://maps.gstatic.com/mapfiles/place_api/icons/v1/png_71/generic_business-71.png",
      "icon_background_color": "#7B9EB0",
      "icon_mask_base_uri": "https://maps.gstatic.com/mapfiles/place_api/icons/v2/generic_pinlet",
      "name": "Dr. David M. Simpson, MD",
      "place_id": "ChIJf0SSxqBYwokRO1Vq0Gf_GDc",
      "plus_code": {
        "compound_code": "Q2QW+JF New York, NY, USA",
        "global_code": "87G8Q2QW+JF"
      },
      "rating": 2,
      "reference": "ChIJf0SSxqBYwokRO1Vq0Gf_GDc",
      "scope": "GOOGLE",
      "types": [
        "doctor",
        "health",
        "point_of_interest",
        "establishment"
      ],
      "user_ratings_total": 4,
      "vicinity": "5 East 98th Street, New York"
    },
    {
      "business_status": "OPERATIONAL",
      "geometry": {
        "location": {
          "lat": 40.7890768,
          "lng": -73.9539282
        },
        "viewport": {
          "northeast": {
            "lat": 40.79033398029149,
            "lng": -73.95264686970849
          },
          "southwest": {
            "lat": 40.78763601970849,
            "lng": -73.9553448302915
          }
        }
      },
      "icon": "https://maps.gstatic.com/mapfiles/place_api/icons/v1/png_71/generic_business-71.png",
      "icon_background_color": "#7B9EB0",
      "icon_mask_base_uri": "https://maps.gstatic.com/mapfiles/place_api/icons/v2/generic_pinlet",
      "name": "Aaron Miller, MD",
      "opening_hours": {
        "open_now": false
      },
      "place_id": "ChIJf0SSxqBYwokRWkxxLCbBt-k",
      "plus_code": {
        "compound_code": "Q2QW+JC New York, NY, USA",
        "global_code": "87G8Q2QW+JC"
      },
      "rating": 5,
      "reference": "ChIJf0SSxqBYwokRWkxxLCbBt-k",
      "scope": "GOOGLE",
      "types": [
        "doctor",
        "health",
        "point_of_interest",
        "establishment"
      ],
      "user_ratings_total": 2,
      "vicinity": "5 East 98th Street 1st Fl, New York"
    },
    {
      "business_status": "OPERATIONAL",
      "geometry": {
        "location": {
          "lat": 40.78907170000001,
          "lng": -73.9538601
        },
        "viewport": {
          "northeast": {
            "lat": 40.79031988029151,
            "lng": -73.95258536970849
          },
          "southwest": {
            "lat": 40.78762191970851,
            "lng": -73.9552833302915
          }
        }
      },
      "icon": "https://maps.gstatic.com/mapfiles/place_api/icons/v1/png_71/generic_business-71.png",
      "icon_background_color": "#7B9EB0",
      "icon_mask_base_uri": "https://maps.gstatic.com/mapfiles/place_api/icons/v2/generic_pinlet",
      "name": "Dr. Jessica Robinson-Papp, MD",
      "place_id": "ChIJf0SSxqBYwokRfisv5nz2_cY",
      "plus_code": {
        "compound_code": "Q2QW+JF New York, NY, USA",
        "global_code": "87G8Q2QW+JF"
      },
      "reference": "ChIJf0SSxqBYwokRfisv5nz2_cY",
      "scope": "GOOGLE",
      "types": [
        "doctor",
        "health",
        "point_of_interest",
        "establishment"
      ],
      "vicinity": "5 East 98th Street, New York"
    }
  ],
  "status": "OK"
}