{
  "html_attributions": [],
  "results": [
    {
      "geometry": {
        "location": {
          "lat": 40.7127753,
          "lng": -74.0059728
        },
        "viewport": {
          "northeast": {
            "lat": 40.91757705070789,
            "lng": -73.70027206817629
          },
          "southwest": {
            "lat": 40.47739906045452,
            "lng": -74.25908991427882
          }
        }
      },
      "icon": "https://maps.gstatic.com/mapfiles/place_api/icons/v1/png_71/geocode-71.png",
      "icon_background_color": "#7B9EB0",
      "icon_mask_base_uri": "https://maps.gstatic.com/mapfiles/place_api/icons/v2/generic_pinlet",
      "name": "\u7d10\u7d04",
      "photos": [
        {
          "height": 600,
          "html_attributions": [
            "<a href=\"https://maps.google.com/maps/contrib/102389334567210814614\">Bukurie</a>"
          ],
          "photo_reference": "AeJbb3e_8z3kdHwNm_i-hboagWf_BiTnjKd_fNZshYQhVwKSXAbGHhH-eyfUiGqtLBoq-s8_mJnrr9EBmxFr-TMq1QWjISmJNvCWHnt-MGTSYBc2HGSAUnFq55ZfVTss3peR8IkQ8tcmue2SUGp9sglJLZAj1LrseBsxsAXEY660-7-xCPPi",
          "width": 480
        }
      ],
      "place_id": "ChIJOwg_06VPwokRYv534QaPC8g",
      "reference": "ChIJOwg_06VPwokRYv534QaPC8g",
      "scope": "GOOGLE",
      "types": [
        "locality",
        "political"
      ],
      "vicinity": "\u7d10\u7d04"
    },
    {
      "business_status": "OPERATIONAL",
      "geometry": {
        "location": {
          "lat": 40.7924939,
          "lng": -73.95190889999999
        },
        "viewport": {
          "northeast": {
            "lat": 40.7938168802915,
            "lng": -73.95064371970848
          },
          "southwest": {
            "lat": 40.7911189197085,
            "lng": -73.9533416802915
          }
        }
      },
      "icon": "https://maps.gstatic.com/mapfiles/place_api/icons/v1/png_71/museum-71.png",
      "icon_background_color": "#13B5C7",
      "icon_mask_base_uri": "https://maps.gstatic.com/mapfiles/place_api/icons/v2/museum_pinlet",
      "name": "\u7d10\u7d04\u5e02\u535a\u7269\u9928",
      "opening_hours": {
        "open_now": true
      },
      "photos": [
        {
          "height": 3024,
          "html_attributions": [
            "<a href=\"https://maps.google.com/maps/contrib/112990590824397063622\">Tony Yu</a>"
          ],
          "photo_reference": "AeJbb3e45Xb6TGxEkkoULEZhLyGednzDlKSP3jZGi28Y8OjAGYv9j3Sm6O9Zz4lj3rd_tOTEX-Q1VNS_j92ICdkPSASW9rrGHYkI87IYS6nId-ojI85-4r_HMZohgZcfKvLB_ZyO-TiZbMcSfjFIrZv_FVc5dgGIF7gA_Bfl8_T3KMC_0WWR",
          "width": 4032
        }
      ],
      "place_id": "ChIJi4hYtB32wokR1Npx_Tv7phk",
      "plus_code": {
        "compound_code": "Q2RX+X6 \u7f8e\u570b\u7d10\u7d04",
        "global_code": "87G8Q2RX+X6"
      },
      "price_level": 1,
      "rating": 4.5,
      "reference": "ChIJi4hYtB32wokR1Npx_Tv7phk",
      "scope": "GOOGLE",
      "types": [
        "tourist_attraction",
        "museum",
        "point_of_interest",
        "establishment"
      ],
      "user_ratings_total": 4291,
      "vicinity": "1220 5th Avenue, New York"
    },
    {
      "business_status": "OPERATIONAL",
      "geometry": {
        "location": {
          "lat": 40.78907170000001,
          "lng": -73.9538601
        },
        "viewport": {
          "northeast": {
            "lat": 40.79031988029151,
            "lng": -73.95258536970849
          },
          "southwest": {
            "lat": 40.78762191970851,
            "lng": -73.9552833302915
          }
        }
      },
      "icon": "https://maps.gstatic.com/mapfiles/place_api/icons/v1/png_71/generic_business-71.png",
      "icon_background_color": "#7B9EB0",
      "icon_mask_base_uri": "https://maps.gstatic.com/mapfiles/place_api/icons/v2/generic_pinlet",
      "name": "Ear, Nose, and Throat/Head and Neck Surgery",
      "opening_hours": {
        "open_now": false
      },
      "photos": [
        {
          "height": 727,
          "html_attributions": [
            "<a href=\"https://maps.google.com/maps/contrib/117035260164520942511\">Ear, Nose, and Throat/Head and Neck Surgery</a>"
          ],
          "photo_reference": "AeJbb3f7UyatgOfl2myb0gLpkrxfyV_mG6Dey8RItVHMMwbKsz4aOCKT7SPkAdBeMIXm-QzZmB8Fbjxlfj4wqx-BoJRp6tJY6jOLtcu-LjZlVLYu7bEeJ643-oZ4K9us94eLMHts45t__ExlmVxFQrK1KnyjBSi3ifbhdy5OR8dA4J0fG9LR",
          "width": 727
        }
      ],
      "place_id": "ChIJf0SSxqBYwokRkhQOHlDbzfA",
      "plus_code": {
        "compound_code": "Q2QW+JF \u7f8e\u570b\u7d10\u7d04",
        "global_code": "87G8Q2QW+JF"
      },
      "rating": 5,
      "reference": "ChIJf0SSxqBYwokRkhQOHlDbzfA",
      "scope": "GOOGLE",
      "types": [
        "point_of_interest",
        "doctor",
        "health",
        "establishment"
      ],
      "user_ratings_total": 1,
      "vicinity": "5 East 98th Street #8, New York"
    },
    {
      "business_status": "OPERATIONAL",
      "geometry": {
        "location": {
          "lat": 40.78907170000001,
          "lng": -73.9538601
        },
        "viewport": {
          "northeast": {
            "lat": 40.79031988029151,
            "lng": -73.95258536970849
          },
          "southwest": {
            "lat": 40.78762191970851,
            "lng": -73.9552833302915
          }
        }
      },
      "icon": "https://maps.gstatic.com/mapfiles/place_api/icons/v1/png_71/generic_business-71.png",
      "icon_background_color": "#7B9EB0",
      "icon_mask_base_uri": "https://maps.gstatic.com/mapfiles/place_api/icons/v2/generic_pinlet",
      "name": "Mark Lebwohl, MD",
      "opening_hours": {
        "open_now": false
      },
      "photos": [
        {
          "height": 250,
          "html_attributions": [
            "<a href=\"https://maps.google.com/maps/contrib/110489885449772336807\">Mark Lebwohl, MD</a>"
          ],
          "photo_reference": "AeJbb3crRVqxxQb7wozGqQxvewIP8l9D-DK7IfVMGJrgIc24ovk2iHjgtekeRepE8BV-USXX24DbFjE-C-zLw_j-bdIEutaxvj25kdWKAPcXraVEYaN8a6hJYGwnG6f6yWgxjRHsrgiXWVPzdaoJpjvcRrQs9gzwc-SpJfAe25z36Je4xqAI",
          "width": 250
        }
      ],
      "place_id": "ChIJf0SSxqBYwokRWoKlJdW8fyY",
      "plus_code": {
        "compound_code": "Q2QW+JF \u7f8e\u570b\u7d10\u7d04",
        "global_code": "87G8Q2QW+JF"
      },
      "rating": 3.5,
      "reference": "ChIJf0SSxqBYwokRWoKlJdW8fyY",
      "scope": "GOOGLE",
      "types": [
        "point_of_interest",
        "doctor",
        "health",
        "establishment"
      ],
      "user_ratings_total": 8,
      "vicinity": "5 East 98th St 5th Fl, New York"
    },
    {
      "business_status": "OPERATIONAL",
      "geometry": {
        "location": {
          "lat": 40.7881597,
          "lng": -73.9539533
        },
        "viewport": {
          "northeast": {
            "lat": 40.7894628802915,
            "lng": -73.95265051970848
          },
          "southwest": {
            "lat": 40.7867649197085,
            "lng": -73.9553484802915
          }
        }
      },
      "icon": "https://maps.gstatic.com/mapfiles/place_api/icons/v1/png_71/generic_business-71.png",
      "icon_background_color": "#7B9EB0",
      "icon_mask_base_uri": "https://maps.gstatic.com/mapfiles/place_api/icons/v2/generic_pinlet",
      "name": "Karin B. Wexler, Ph.D.",
      "opening_hours": {
        "open_now": true
      },
      "place_id": "ChIJH6IcYRX2wokRVVDb3kzlB1E",
      "plus_code": {
        "compound_code": "Q2QW+7C \u7f8e\u570b\u7d10\u7d04",
        "global_code": "87G8Q2QW+7C"
      },
      "reference": "ChIJH6IcYRX2wokRVVDb3kzlB1E",
      "scope": "GOOGLE",
      "types": [
        "point_of_interest",
        "health",
        "establishment"
      ],
      "vicinity": "17 East 97th Street #1A, New York"
    },
    {
      "business_status": "OPERATIONAL",
      "geometry": {
        "location": {
          "lat": 40.78599940000001,
          "lng": -73.9542425
        },
        "viewport": {
          "northeast": {
            "lat": 40.7870690302915,
            "lng": -73.95292736970849
          },
          "southwest": {
            "lat": 40.7843710697085,
            "lng": -73.9556253302915
          }
        }
      },
      "icon": "https://maps.gstatic.com/mapfiles/place_api/icons/v1/png_71/school-71.png",
      "icon_background_color": "#7B9EB0",
      "icon_mask_base_uri": "https://maps.gstatic.com/mapfiles/place_api/icons/v2/school_pinlet",
      "name": "\u4ea8\u7279\u5b78\u9662\u9ad8\u4e2d",
      "photos": [
        {
          "height": 3024,
          "html_attributions": [
            "<a href=\"https://maps.google.com/maps/contrib/107027219067900036250\">nunu cowley</a>"
          ],
          "photo_reference": "AeJbb3cGPNuSKE8w-CQnvE9D5IhUNsu2OToI5UhnymcGz51p93IDZRN9bsQN0qO0Yi6BM5q1HdZPq4kZudJ5x0q7P7t9rMxyAa-ZfuSZpGpRLkqtMKVECLaccf621Taqnx1KBmcTCUqf8tJYx9mJQolBESDdmfgSfoY7Xst6KpproLL4kEIc",
          "width": 4032
        }
      ],
      "place_id": "ChIJD9BtWKFYwokRuU6zx7fSZIs",
      "plus_code": {
        "compound_code": "Q2PW+98 \u7f8e\u570b\u7d10\u7d04",
        "global_code": "87G8Q2PW+98"
      },
      "rating": 4.5,
      "reference": "ChIJD9BtWKFYwokRuU6zx7fSZIs",
      "scope": "GOOGLE",
      "types": [
        "school",
        "primary_school",
        "point_of_interest",
        "establishment"
      ],
      "user_ratings_total": 71,
      "vicinity": "71 East 94th Street, New York"
    },
    {
      "business_status": "OPERATIONAL",
      "geometry": {
        "location": {
          "lat": 40.78906409999999,
          "lng": -73.95385639999999
        },
        "viewport": {
          "northeast": {
            "lat": 40.79031458029149,
            "lng": -73.95257996970848
          },
          "southwest": {
            "lat": 40.78761661970849,
            "lng": -73.95527793029149
          }
        }
      },
      "icon": "https://maps.gstatic.com/mapfiles/place_api/icons/v1/png_71/generic_business-71.png",
      "icon_background_color": "#7B9EB0",
      "icon_mask_base_uri": "https://maps.gstatic.com/mapfiles/place_api/icons/v2/generic_pinlet",
      "name": "Stotsky Michael S MD",
      "opening_hours": {
        "open_now": false
      },
      "place_id": "ChIJf0SSxqBYwokRqbid_BRMzzE",
      "plus_code": {
        "compound_code": "Q2QW+JF \u7f8e\u570b\u7d10\u7d04",
        "global_code": "87G8Q2QW+JF"
      },
      "rating": 5,
      "reference": "ChIJf0SSxqBYwokRqbid_BRMzzE",
      "scope": "GOOGLE",
      "types": [
        "point_of_interest",
        "doctor",
        "health",
        "establishment"
      ],
      "user_ratings_total": 1,
      "vicinity": "5 East 98th Street, New York"
    },
    {
      "business_status": "OPERATIONAL",
      "geometry": {
        "location": {
          "lat": 40.78907170000001,
          "lng": -73.9538601
        },
        "viewport": {
          "northeast": {
            "lat": 40.79035753029149,
            "lng": -73.9526745197085
          },
          "southwest": {
            "lat": 40.7876595697085,
            "lng": -73.9553724802915
          }
        }
      },
      "icon": "https://maps.gstatic.com/mapfiles/place_api/icons/v1/png_71/generic_business-71.png",
      "icon_background_color": "#7B9EB0",
      "icon_mask_base_uri": "https://maps.gstatic.com/mapfiles/place_api/icons/v2/generic_pinlet",
      "name": "Mount Sinai RMTI Transplantation Institute",
      "opening_hours": {
        "open_now": true
      },
      "photos": [
        {
          "height": 640,
          "html_attributions": [
            "<a href=\"https://maps.google.com/maps/contrib/104995425389877929795\">Damaris Rodriguez</a>"
          ],
          "photo_reference": "AeJbb3ejxpmYvs3zcWedT6AoepaLpar7MU-AvKa547XA_6Hjczig133x0bmMPDE0cm0lECppCniwvKQ_f9T2Z1GQMgATb38YfdSbJQfIZLzTCXjCn-sO2Q-hUcFA-4s-bzej_5KlP1UaMoZji3t19rkunUkOauPq-hCe_3xmFpdV08UFTOzw",
          "width": 640
        }
      ],
      "place_id": "ChIJf0SSxqBYwokRGU3RFXESC9o",
      "plus_code": {
        "compound_code": "Q2QW+JF \u7f8e\u570b\u7d10\u7d04",
        "global_code": "87G8Q2QW+JF"
      },
      "rating": 3.9,
      "reference": "ChIJf0SSxqBYwokRGU3RFXESC9o",
      "scope": "GOOGLE",
      "types": [
        "point_of_interest",
        "health",
        "establishment"
      ],
      "user_ratings_total": 7,
      "vicinity": "5 East 98th Street, New York"
    },
    {
      "business_status": "OPERATIONAL",
      "geometry": {
        "location": {
          "lat": 40.7875273,
          "lng": -73.9555603
        },
        "viewport": {
          "northeast": {
            "lat": 40.7889541802915,
            "lng": -73.95440061970848
          },
          "southwest": {
            "lat": 40.7862562197085,
            "lng": -73.9570985802915
          }
        }
      },
      "icon": "https://maps.gstatic.com/mapfiles/place_api/icons/v1/png_71/generic_business-71.png",
      "icon_background_color": "#7B9EB0",
      "icon_mask_base_uri": "https://maps.gstatic.com/mapfiles/place_api/icons/v2/generic_pinlet",
      "name": "Rashmi Gulati, MD",
      "opening_hours": {
        "open_now": false
      },
      "place_id": "ChIJwzshOANZwokRIDf8azA5u98",
      "plus_code": {
        "compound_code": "Q2QV+2Q \u7f8e\u570b\u7d10\u7d04",
        "global_code": "87G8Q2QV+2Q"
      },
      "rating": 4.1,
      "reference": "ChIJwzshOANZwokRIDf8azA5u98",
      "scope": "GOOGLE",
      "types": [
        "point_of_interest",
        "doctor",
        "health",
        "establishment"
      ],
      "user_ratings_total": 9,
      "vicinity": "1148 5th Avenue #1b, New York"
    },
    {
      "business_status": "OPERATIONAL",
      "geometry": {
        "location": {
          "lat": 40.789064,
          "lng": -73.95385639999999
        },
        "viewport": {
          "northeast": {
            "lat": 40.79031448029149,
            "lng": -73.9525799197085
          },
          "southwest": {
            "lat": 40.78761651970849,
            "lng": -73.95527788029152
          }
        }
      },
      "icon": "https://maps.gstatic.com/mapfiles/place_api/icons/v1/png_71/generic_business-71.png",
      "icon_background_color": "#7B9EB0",
      "icon_mask_base_uri": "https://maps.gstatic.com/mapfiles/place_api/icons/v2/generic_pinlet",
      "name": "Corinne Goldsmith Dickinson Center for MS at Mount Sinai",
      "opening_hours": {
        "open_now": false
      },
      "place_id": "ChIJTTftxqBYwokReXS8k91MZpM",
      "plus_code": {
        "compound_code": "Q2QW+JF \u7f8e\u570b\u7d10\u7d04",
        "global_code": "87G8Q2QW+JF"
      },
      "rating": 3.7,
      "reference": "ChIJTTftxqBYwokReXS8k91MZpM",
      "scope": "GOOGLE",
      "types": [
        "point_of_interest",
        "doctor",
        "health",
        "establishment"
      ],
      "user_ratings_total": 6,
      "vicinity": "5 East 98th Street, New York"
    },
    {
      "business_status": "OPERATIONAL",
      "geometry": {
        "location": {
          "lat": 40.789064,
          "lng": -73.95385639999999
        },
        "viewport": {
          "northeast": {
            "lat": 40.79031448029149,
            "lng": -73.9525799197085
          },
          "southwest": {
            "lat": 40.78761651970849,
            "lng": -73.95527788029152
          }
        }
      },
      "icon": "https://maps.gstatic.com/mapfiles/place_api/icons/v1/png_71/generic_business-71.png",
      "icon_background_color": "#7B9EB0",
      "icon_mask_base_uri": "https://maps.gstatic.com/mapfiles/place_api/icons/v2/generic_pinlet",
      "name": "Mount Sinai Brain Tumor Program",
      "opening_hours": {
        "open_now": false
      },
      "place_id": "ChIJTTftxqBYwokRf2-ifYhkrH8",
      "plus_code": {
        "compound_code": "Q2QW+JF \u7f8e\u570b\u7d10\u7d04",
        "global_code": "87G8Q2QW+JF"
      },
      "rating": 5,
      "reference": "ChIJTTftxqBYwokRf2-ifYhkrH8",
      "scope": "GOOGLE",
      "types": [
        "point_of_interest",
        "doctor",
        "health",
        "establishment"
      ],
      "user_ratings_total": 1,
      "vicinity": "5 East 98th Street, New York"
    },
    {
      "business_status": "OPERATIONAL",
      "geometry": {
        "location": {
          "lat": 40.78907170000001,
          "lng": -73.9538601
        },
        "viewport": {
          "northeast": {
            "lat": 40.79031988029151,
            "lng": -73.95258536970849
          },
          "southwest": {
            "lat": 40.78762191970851,
            "lng": -73.9552833302915
          }
        }
      },
      "icon": "https://maps.gstatic.com/mapfiles/place_api/icons/v1/png_71/generic_business-71.png",
      "icon_background_color": "#7B9EB0",
      "icon_mask_base_uri": "https://maps.gstatic.com/mapfiles/place_api/icons/v2/generic_pinlet",
      "name": "Robert & John M. Bendheim Parkinson & Movement Disorders Center at Mount Sinai",
      "opening_hours": {
        "open_now": false
      },
      "place_id": "ChIJTTftxqBYwokRwy0StkhPUlw",
      "plus_code": {
        "compound_code": "Q2QW+JF \u7f8e\u570b\u7d10\u7d04",
        "global_code": "87G8Q2QW+JF"
      },
      "reference": "ChIJTTftxqBYwokRwy0StkhPUlw",
      "scope": "GOOGLE",
      "types": [
        "point_of_interest",
        "doctor",
        "health",
        "establishment"
      ],
      "vicinity": "5 East 98th Street #1st, New York"
    },
    {
      "business_status": "OPERATIONAL",
      "geometry": {
        "location": {
          "lat": 40.78662690000001,
          "lng": -73.9500944
        },
        "viewport": {
          "northeast": {
            "lat": 40.78802098029151,
            "lng": -73.94885456970849
          },
          "southwest": {
            "lat": 40.78532301970851,
            "lng": -73.9515525302915
          }
        }
      },
      "icon": "https://maps.gstatic.com/mapfiles/place_api/icons/v1/png_71/restaurant-71.png",
      "icon_background_color": "#FF9E67",
      "icon_mask_base_uri": "https://maps.gstatic.com/mapfiles/place_api/icons/v2/restaurant_pinlet",
      "name": "Judys Spanish Restaurant",
      "opening_hours": {
        "open_now": true
      },
      "photos": [
        {
          "height": 4032,
          "html_attributions": [
            "<a href=\"https://maps.google.com/maps/contrib/113111313476293205437\">Akeel Nelson</a>"
          ],
          "photo_reference": "AeJbb3dghGwct5g92HPuij637CycWVTJ_YhdEizLFaC9rurFrFlylYrQs27Zonwbx_YpfthPUGzKWx9hVOfAuRt7W_D5qyBsbXIAlwz2IQ2zD5MvwsKg51rTSmLlEfCJWeleQLu31lxpmx8drXESNmJrLivgebf3QC70vOlCb_iWkwbp8YNk",
          "width": 3024
        }
      ],
      "place_id": "ChIJ_3uxW6ZYwokRjIJ1i6u3fYQ",
      "plus_code": {
        "compound_code": "Q2PX+MX \u7f8e\u570b\u7d10\u7d04",
        "global_code": "87G8Q2PX+MX"
      },
      "price_level": 1,
      "rating": 2.9,
      "reference": "ChIJ_3uxW6ZYwokRjIJ1i6u3fYQ",
      "scope": "GOOGLE",
      "types": [
        "restaurant",
        "food",
        "point_of_interest",
        "establishment"
      ],
      "user_ratings_total": 135,
      "vicinity": "1505 Lexington Avenue, New York"
    },
    {
      "business_status": "OPERATIONAL",
      "geometry": {
        "location": {
          "lat": 40.78906309999999,
          "lng": -73.9538554
        },
        "viewport": {
          "northeast": {
            "lat": 40.7903137802915,
            "lng": -73.95257881970849
          },
          "southwest": {
            "lat": 40.7876158197085,
            "lng": -73.9552767802915
          }
        }
      },
      "icon": "https://maps.gstatic.com/mapfiles/place_api/icons/v1/png_71/generic_business-71.png",
      "icon_background_color": "#7B9EB0",
      "icon_mask_base_uri": "https://maps.gstatic.com/mapfiles/place_api/icons/v2/generic_pinlet",
      "name": "Dr. Ketan K. Badani, MD",
      "photos": [
        {
          "height": 2048,
          "html_attributions": [
            "<a href=\"https://maps.google.com/maps/contrib/100001620388304863040\">Dr. Ketan K. Badani, MD</a>"
          ],
          "photo_reference": "AeJbb3cT3NF2WJx_24P7CpAL6yrMCKSi5oEjd51JVkScMVXR_zBU1beXeArBsIdYDpP0VteaIzG1OWUakvQYjgkX1i_rFRrv9S6KN4A5JPhXEXwbEYcDnVIWkYzZ_KbKFUVVN9EhJ4_P7KUJcEssXja-w3UVTraoQeZ-oF0QzCJSjrDFTzCQ",
          "width": 1365
        }
      ],
      "place_id": "ChIJW2D3c5v2wokRvUngTCALjys",
      "plus_code": {
        "compound_code": "Q2QW+JF \u7f8e\u570b\u7d10\u7d04",
        "global_code": "87G8Q2QW+JF"
      },
      "rating": 4,
      "reference": "ChIJW2D3c5v2wokRvUngTCALjys",
      "scope": "GOOGLE",
      "types": [
        "point_of_interest",
        "doctor",
        "health",
        "establishment"
      ],
      "user_ratings_total": 20,
      "vicinity": "5 East 98th Street, New York"
    },
    {
      "business_status": "OPERATIONAL",
      "geometry": {
        "location": {
          "lat": 40.7900581,
          "lng": -73.9538601
        },
        "viewport": {
          "northeast": {
            "lat": 40.7914591802915,
            "lng": -73.95263506970849
          },
          "southwest": {
            "lat": 40.7887612197085,
            "lng": -73.9553330302915
          }
        }
      },
      "icon": "https://maps.gstatic.com/mapfiles/place_api/icons/v1/png_71/generic_business-71.png",
      "icon_background_color": "#7B9EB0",
      "icon_mask_base_uri": "https://maps.gstatic.com/mapfiles/place_api/icons/v2/generic_pinlet",
      "name": "Nissim Julie A MD",
      "place_id": "ChIJ1-NkqqBYwokRaoT1UKsCihQ",
      "plus_code": {
        "compound_code": "Q2RW+2F \u7f8e\u570b\u7d10\u7d04",
        "global_code": "87G8Q2RW+2F"
      },
      "rating": 5,
      "reference": "ChIJ1-NkqqBYwokRaoT1UKsCihQ",
      "scope": "GOOGLE",
      "types": [
        "doctor",
        "point_of_interest",
        "health",
        "establishment"
      ],
      "user_ratings_total": 3,
      "vicinity": "1 Gustave L. Levy Place # 504, New York"
    },
    {
      "business_status": "OPERATIONAL",
      "geometry": {
        "location": {
          "lat": 40.7890329,
          "lng": -73.95384589999999
        },
        "viewport": {
          "northeast": {
            "lat": 40.7902935802915,
            "lng": -73.95263771970848
          },
          "southwest": {
            "lat": 40.7875956197085,
            "lng": -73.9553356802915
          }
        }
      },
      "icon": "https://maps.gstatic.com/mapfiles/place_api/icons/v1/png_71/generic_business-71.png",
      "icon_background_color": "#7B9EB0",
      "icon_mask_base_uri": "https://maps.gstatic.com/mapfiles/place_api/icons/v2/generic_pinlet",
      "name": "Burschtin Omar E MD",
      "place_id": "ChIJWQHW9KZZwokRFCyEBeKEGks",
      "plus_code": {
        "compound_code": "Q2QW+JF \u7f8e\u570b\u7d10\u7d04",
        "global_code": "87G8Q2QW+JF"
      },
      "reference": "ChIJWQHW9KZZwokRFCyEBeKEGks",
      "scope": "GOOGLE",
      "types": [
        "doctor",
        "point_of_interest",
        "health",
        "establishment"
      ],
      "vicinity": "5 East 98th Street 3rd Floor, New York"
    },
    {
      "business_status": "OPERATIONAL",
      "geometry": {
        "location": {
          "lat": 40.7900357,
          "lng": -73.95384589999999
        },
        "viewport": {
          "northeast": {
            "lat": 40.7914417302915,
            "lng": -73.9526325697085
          },
          "southwest": {
            "lat": 40.7887437697085,
            "lng": -73.9553305302915
          }
        }
      },
      "icon": "https://maps.gstatic.com/mapfiles/place_api/icons/v1/png_71/generic_business-71.png",
      "icon_background_color": "#7B9EB0",
      "icon_mask_base_uri": "https://maps.gstatic.com/mapfiles/place_api/icons/v2/generic_pinlet",
      "name": "Virginia N. Walther, LCSW",
      "place_id": "ChIJ1-NkqqBYwokRltAJ_EY5U_E",
      "plus_code": {
        "compound_code": "Q2RW+2F \u7f8e\u570b\u7d10\u7d04",
        "global_code": "87G8Q2RW+2F"
      },
      "reference": "ChIJ1-NkqqBYwokRltAJ_EY5U_E",
      "scope": "GOOGLE",
      "types": [
        "point_of_interest",
        "establishment"
      ],
      "vicinity": "\u7d10\u7d04"
    },
    {
      "business_status": "OPERATIONAL",
      "geometry": {
        "location": {
          "lat": 40.789064,
          "lng": -73.95385639999999
        },
        "viewport": {
          "northeast": {
            "lat": 40.79031448029149,
            "lng": -73.9525799197085
          },
          "southwest": {
            "lat": 40.78761651970849,
            "lng": -73.95527788029152
          }
        }
      },
      "icon": "https://maps.gstatic.com/mapfiles/place_api/icons/v1/png_71/generic_business-71.png",
      "icon_background_color": "#7B9EB0",
      "icon_mask_base_uri": "https://maps.gstatic.com/mapfiles/place_api/icons/v2/generic_pinlet",
      "name": "Dr. David Kriegel, MD",
      "opening_hours": {
        "open_now": false
      },
      "place_id": "ChIJ7UntxqBYwokRyZq6ieLmqPw",
      "plus_code": {
        "compound_code": "Q2QW+JF \u7f8e\u570b\u7d10\u7d04",
        "global_code": "87G8Q2QW+JF"
      },
      "rating": 1,
      "reference": "ChIJ7UntxqBYwokRyZq6ieLmqPw",
      "scope": "GOOGLE",
      "types": [
        "point_of_interest",
        "doctor",
        "health",
        "establishment"
      ],
      "user_ratings_total": 1,
      "vicinity": "5 East 98th Street, New York"
    },
    {
      "business_status": "OPERATIONAL",
      "geometry": {
        "location": {
          "lat": 40.7891401,
          "lng": -73.95398209999999
        },
        "viewport": {
          "northeast": {
            "lat": 40.79038183029149,
            "lng": -73.95271216970849
          },
          "southwest": {
            "lat": 40.78768386970849,
            "lng": -73.9554101302915
          }
        }
      },
      "icon": "https://maps.gstatic.com/mapfiles/place_api/icons/v1/png_71/generic_business-71.png",
      "icon_background_color": "#7B9EB0",
      "icon_mask_base_uri": "https://maps.gstatic.com/mapfiles/place_api/icons/v2/generic_pinlet",
      "name": "Dr. Emma Guttman Director of Occupational & Contact Dermatitis Clinic",
      "opening_hours": {
        "open_now": false
      },
      "place_id": "ChIJsTftxqBYwokRyMfNYhjcc9c",
      "plus_code": {
        "compound_code": "Q2QW+MC \u7f8e\u570b\u7d10\u7d04",
        "global_code": "87G8Q2QW+MC"
      },
      "rating": 3.5,
      "reference": "ChIJsTftxqBYwokRyMfNYhjcc9c",
      "scope": "GOOGLE",
      "types": [
        "hospital",
        "point_of_interest",
        "doctor",
        "health",
        "establishment"
      ],
      "user_ratings_total": 11,
      "vicinity": "5 East 98th Street, New York"
    },
    {
      "geometry": {
        "location": {
          "lat": 40.8240478,
          "lng": -73.9447643
        },
        "viewport": {
          "northeast": {
            "lat": 40.87822003591612,
            "lng": -73.91064591328563
          },
          "southwest": {
            "lat": 40.78278392408598,
            "lng": -73.97119006413347
          }
        }
      },
      "icon": "https://maps.gstatic.com/mapfiles/place_api/icons/v1/png_71/geocode-71.png",
      "icon_background_color": "#7B9EB0",
      "icon_mask_base_uri": "https://maps.gstatic.com/mapfiles/place_api/icons/v2/generic_pinlet",
      "name": "\u66fc\u54c8\u9813\u4e0a\u57ce",
      "photos": [
        {
          "height": 4000,
          "html_attributions": [
            "<a href=\"https://maps.google.com/maps/contrib/108665206705263687409\">Chris Lidstone</a>"
          ],
          "photo_reference": "AeJbb3ejwstdaxadsIx37Ycb5I7Cn0tGW-MXr_gFn6L-qLt0XuHyikOgO7IU9gobz0rxLOrn6vhNMVdBIziqn83S-5wbrgitb53VfOGtj3pvrH58Q-U0cH9bBZUWZiMG-xyhroe-xAJrROGISApQ9ZYf3ORndCUeIX0hWdgO-qSV2RAyDsjq",
          "width": 3000
        }
      ],
      "place_id": "ChIJY50xHxP2wokR7WhhDNRmgRU",
      "reference": "ChIJY50xHxP2wokR7WhhDNRmgRU",
      "scope": "GOOGLE",
      "types": [
        "neighborhood",
        "political"
      ],
      "vicinity": "\u66fc\u54c8\u9813"
    },
    {
      "business_status": "OPERATIONAL",
      "geometry": {
        "location": {
          "lat": 40.78907170000001,
          "lng": -73.9538601
        },
        "viewport": {
          "northeast": {
            "lat": 40.79031988029151,
            "lng": -73.95258536970849
          },
          "southwest": {
            "lat": 40.78762191970851,
            "lng": -73.9552833302915
          }
        }
      },
      "icon": "https://maps.gstatic.com/mapfiles/place_api/icons/v1/png_71/generic_business-71.png",
      "icon_background_color": "#7B9EB0",
      "icon_mask_base_uri": "https://maps.gstatic.com/mapfiles/place_api/icons/v2/generic_pinlet",
      "name": "Marsha Gordon, MD",
      "photos": [
        {
          "height": 250,
          "html_attributions": [
            "<a href=\"https://maps.google.com/maps/contrib/107547679798725744755\">Marsha Gordon, MD</a>"
          ],
          "photo_reference": "AeJbb3fZpDryTYLtAAiTrt1bte0R_kc_WnPYrB1jUbX14N7vw9YIq-AicsF3miuhpaUfTHdRLbpz3PCex66qCWwqJtOPSi_ODJG4l9A_PzODKQHJRgdsURhEKM_MUI-srvNSWZqYim3xOX1jE0mjK-wFxvdeiTdHcaAmkA002QyCXFq5W15h",
          "width": 250
        }
      ],
      "place_id": "ChIJf0SSxqBYwokRA8x86UmwhL4",
      "plus_code": {
        "compound_code": "Q2QW+JF New York, NY, USA",
        "global_code": "87G8Q2QW+JF"
      },
      "reference": "ChIJf0SSxqBYwokRA8x86UmwhL4",
      "scope": "GOOGLE",
      "types": [
        "doctor",
        "health",
        "point_of_interest",
        "establishment"
      ],
      "vicinity": "5 East 98th St 5th Fl, New York"
    },
    {
      "business_status": "OPERATIONAL",
      "geometry": {
        "location": {
          "lat": 40.7891585,
          "lng": -73.9543283
        },
        "viewport": {
          "northeast": {
            "lat": 40.79044948029149,
            "lng": -73.9530358697085
          },
          "southwest": {
            "lat": 40.78775151970849,
            "lng": -73.9557338302915
          }
        }
      },
      "icon": "https://maps.gstatic.com/mapfiles/place_api/icons/v1/png_71/generic_business-71.png",
      "icon_background_color": "#7B9EB0",
      "icon_mask_base_uri": "https://maps.gstatic.com/mapfiles/place_api/icons/v2/generic_pinlet",
      "name": "Peter Taub, MD",
      "opening_hours": {
        "open_now": false
      },
      "place_id": "ChIJf0SSxqBYwokRjGVTkXqxICA",
      "plus_code": {
        "compound_code": "Q2QW+M7 New York, NY, USA",
        "global_code": "87G8Q2QW+M7"
      },
      "rating": 4.7,
      "reference": "ChIJf0SSxqBYwokRjGVTkXqxICA",
      "scope": "GOOGLE",
      "types": [
        "doctor",
        "health",
        "point_of_interest",
        "establishment"
      ],
      "user_ratings_total": 13,
      "vicinity": "5 East 98th St 8th Fl, New York"
    },
    {
      "business_status": "OPERATIONAL",
      "geometry": {
        "location": {
          "lat": 40.78907170000001,
          "lng": -73.9538601
        },
        "viewport": {
          "northeast": {
            "lat": 40.79031988029151,
            "lng": -73.95258536970849
          },
          "southwest": {
            "lat": 40.78762191970851,
            "lng": -73.9552833302915
          }
        }
      },
      "icon": "https://maps.gstatic.com/mapfiles/place_api/icons/v1/png_71/generic_business-71.png",
      "icon_background_color": "#7B9EB0",
      "icon_mask_base_uri": "https://maps.gstatic.com/mapfiles/place_api/icons/v2/generic_pinlet",
      "name": "Cunningham-Rundles Charlotte Dr",
      "place_id": "ChIJf0SSxqBYwokRm2bfEaFXxi4",
      "plus_code": {
        "compound_code": "Q2QW+JF New York, NY, USA",
        "global_code": "87G8Q2QW+JF"
      },
      "reference": "ChIJf0SSxqBYwokRm2bfEaFXxi4",
      "scope": "GOOGLE",
      "types": [
        "doctor",
        "health",
        "point_of_interest",
        "establishment"
      ],
      "vicinity": "5 East 98th Street, New York"
    },
    {
      "business_status": "OPERATIONAL",
      "geometry": {
        "location": {
          "lat": 40.7914868,
          "lng": -73.95203430000001
        },
        "viewport": {
          "northeast": {
            "lat": 40.7928904302915,
            "lng": -73.95092291970849
          },
          "southwest": {
            "lat": 40.7901924697085,
            "lng": -73.9536208802915
          }
        }
      },
      "icon": "https://maps.gstatic.com/mapfiles/place_api/icons/v1/png_71/generic_business-71.png",
      "icon_background_color": "#7B9EB0",
      "icon_mask_base_uri": "https://maps.gstatic.com/mapfiles/place_api/icons/v2/generic_pinlet",
      "name": "Mount Sinai Doctors - Optometry",
      "opening_hours": {
        "open_now": false
      },
      "place_id": "ChIJfXW2lR32wokRe-yUL76tWBw",
      "plus_code": {
        "compound_code": "Q2RX+H5 New York, NY, USA",
        "global_code": "87G8Q2RX+H5"
      },
      "reference": "ChIJfXW2lR32wokRe-yUL76tWBw",
      "scope": "GOOGLE",
      "types": [
        "accounting",
        "finance",
        "health",
        "point_of_interest",
        "establishment"
      ],
      "vicinity": "17 East 102nd Street, New York"
    },
    {
      "business_status": "OPERATIONAL",
      "geometry": {
        "location": {
          "lat": 40.790264,
          "lng": -73.9525967
        },
        "viewport": {
          "northeast": {
            "lat": 40.7914930302915,
            "lng": -73.9509947197085
          },
          "southwest": {
            "lat": 40.7887950697085,
            "lng": -73.95369268029151
          }
        }
      },
      "icon": "https://maps.gstatic.com/mapfiles/place_api/icons/v1/png_71/generic_business-71.png",
      "icon_background_color": "#7B9EB0",
      "icon_mask_base_uri": "https://maps.gstatic.com/mapfiles/place_api/icons/v2/generic_pinlet",
      "name": "Anthony Manasia, MD",
      "opening_hours": {
        "open_now": false
      },
      "place_id": "ChIJT1R9W6dYwokRqI2KN4nuslY",
      "plus_code": {
        "compound_code": "Q2RW+4X New York, NY, USA",
        "global_code": "87G8Q2RW+4X"
      },
      "reference": "ChIJT1R9W6dYwokRqI2KN4nuslY",
      "scope": "GOOGLE",
      "types": [
        "doctor",
        "health",
        "point_of_interest",
        "establishment"
      ],
      "vicinity": "1468 Madison Avenue 6th Fl, New York"
    },
    {
      "business_status": "OPERATIONAL",
      "geometry": {
        "location": {
          "lat": 40.7914868,
          "lng": -73.95203430000001
        },
        "viewport": {
          "northeast": {
            "lat": 40.7928904302915,
            "lng": -73.95092291970849
          },
          "southwest": {
            "lat": 40.7901924697085,
            "lng": -73.9536208802915
          }
        }
      },
      "icon": "https://maps.gstatic.com/mapfiles/place_api/icons/v1/png_71/generic_business-71.png",
      "icon_background_color": "#7B9EB0",
      "icon_mask_base_uri": "https://maps.gstatic.com/mapfiles/place_api/icons/v2/generic_pinlet",
      "name": "Dr. Henry A. Futterman, MD",
      "place_id": "ChIJfXW2lR32wokRhhw9AdaS6i0",
      "plus_code": {
        "compound_code": "Q2RX+H5 New York, NY, USA",
        "global_code": "87G8Q2RX+H5"
      },
      "reference": "ChIJfXW2lR32wokRhhw9AdaS6i0",
      "scope": "GOOGLE",
      "types": [
        "doctor",
        "health",
        "point_of_interest",
        "establishment"
      ],
      "vicinity": "17 East 102nd Street, New York"
    },
    {
      "business_status": "OPERATIONAL",
      "geometry": {
        "location": {
          "lat": 40.7914868,
          "lng": -73.95203430000001
        },
        "viewport": {
          "northeast": {
            "lat": 40.7928904302915,
            "lng": -73.95092291970849
          },
          "southwest": {
            "lat": 40.7901924697085,
            "lng": -73.9536208802915
          }
        }
      },
      "icon": "https://maps.gstatic.com/mapfiles/place_api/icons/v1/png_71/generic_business-71.png",
      "icon_background_color": "#7B9EB0",
      "icon_mask_base_uri": "https://maps.gstatic.com/mapfiles/place_api/icons/v2/generic_pinlet",
      "name": "Dr. Daniel S. Fierer, MD",
      "place_id": "ChIJfXW2lR32wokRAwgIbwiRGnE",
      "plus_code": {
        "compound_code": "Q2RX+H5 New York, NY, USA",
        "global_code": "87G8Q2RX+H5"
      },
      "reference": "ChIJfXW2lR32wokRAwgIbwiRGnE",
      "scope": "GOOGLE",
      "types": [
        "doctor",
        "health",
        "point_of_interest",
        "establishment"
      ],
      "vicinity": "17 East 102nd Street, New York"
    },
    {
      "business_status": "OPERATIONAL",
      "geometry": {
        "location": {
          "lat": 40.79146679999999,
          "lng": -73.9519846
        },
        "viewport": {
          "northeast": {
            "lat": 40.7928804302915,
            "lng": -73.95089806970849
          },
          "southwest": {
            "lat": 40.7901824697085,
            "lng": -73.95359603029151
          }
        }
      },
      "icon": "https://maps.gstatic.com/mapfiles/place_api/icons/v1/png_71/generic_business-71.png",
      "icon_background_color": "#7B9EB0",
      "icon_mask_base_uri": "https://maps.gstatic.com/mapfiles/place_api/icons/v2/generic_pinlet",
      "name": "Edward L Raab, MD",
      "opening_hours": {
        "open_now": false
      },
      "photos": [
        {
          "height": 727,
          "html_attributions": [
            "<a href=\"https://maps.google.com/maps/contrib/106659623909771409983\">Edward L Raab, MD</a>"
          ],
          "photo_reference": "AeJbb3fko0vHbTMDAlV2WZ3z9MDnRf4tF58fffc1yThbyNomNoxjVfPr3AdkC8DIS058HMmJZPAtGeY2CqmHWaShspKFEM7zj1u7PhoTP44jqtF7lR5Tq2j-5Pi0PwF5QTOEZoibD8r_3UGBfP66dqPFyj6Xwwmc9eyN6Cst3qBNg6kvwLbM",
          "width": 727
        }
      ],
      "place_id": "ChIJfXW2lR32wokRVpYzxB7rbKc",
      "plus_code": {
        "compound_code": "Q2RX+H6 New York, NY, USA",
        "global_code": "87G8Q2RX+H6"
      },
      "rating": 2.7,
      "reference": "ChIJfXW2lR32wokRVpYzxB7rbKc",
      "scope": "GOOGLE",
      "types": [
        "doctor",
        "health",
        "point_of_interest",
        "establishment"
      ],
      "user_ratings_total": 6,
      "vicinity": "17 East 102nd Street 8th floor, New York"
    },
    {
      "business_status": "OPERATIONAL",
      "geometry": {
        "location": {
          "lat": 40.78907170000001,
          "lng": -73.9538601
        },
        "viewport": {
          "northeast": {
            "lat": 40.79031988029151,
            "lng": -73.9526448197085
          },
          "southwest": {
            "lat": 40.78762191970851,
            "lng": -73.9553427802915
          }
        }
      },
      "icon": "https://maps.gstatic.com/mapfiles/place_api/icons/v1/png_71/generic_business-71.png",
      "icon_background_color": "#7B9EB0",
      "icon_mask_base_uri": "https://maps.gstatic.com/mapfiles/place_api/icons/v2/generic_pinlet",
      "name": "Scott Nguyen, MD",
      "opening_hours": {
        "open_now": false
      },
      "place_id": "ChIJf0SSxqBYwokRXITwDnnZB5Q",
      "plus_code": {
        "compound_code": "Q2QW+JF New York, NY, USA",
        "global_code": "87G8Q2QW+JF"
      },
      "rating": 5,
      "reference": "ChIJf0SSxqBYwokRXITwDnnZB5Q",
      "scope": "GOOGLE",
      "types": [
        "doctor",
        "health",
        "point_of_interest",
        "establishment"
      ],
      "user_ratings_total": 19,
      "vicinity": "5 East 98th Street 14th Floor, Ste A, New York"
    },
    {
      "business_status": "OPERATIONAL",
      "geometry": {
        "location": {
          "lat": 40.7883287,
          "lng": -73.9531906
        },
        "viewport": {
          "northeast": {
            "lat": 40.78963883029149,
            "lng": -73.9519089197085
          },
          "southwest": {
            "lat": 40.7869408697085,
            "lng": -73.95460688029151
          }
        }
      },
      "icon": "https://maps.gstatic.com/mapfiles/place_api/icons/v1/png_71/generic_business-71.png",
      "icon_background_color": "#7B9EB0",
      "icon_mask_base_uri": "https://maps.gstatic.com/mapfiles/place_api/icons/v2/generic_pinlet",
      "name": "Dr. Lori G. Zbar, MD",
      "place_id": "ChIJf0SSxqBYwokRM47K9wgb2Gg",
      "plus_code": {
        "compound_code": "Q2QW+8P New York, NY, USA",
        "global_code": "87G8Q2QW+8P"
      },
      "reference": "ChIJf0SSxqBYwokRM47K9wgb2Gg",
      "scope": "GOOGLE",
      "types": [
        "doctor",
        "health",
        "point_of_interest",
        "establishment"
      ],
      "vicinity": "5 East 98th Street, New York"
    },
    {
      "business_status": "OPERATIONAL",
      "geometry": {
        "location": {
          "lat": 40.78907170000001,
          "lng": -73.9538601
        },
        "viewport": {
          "northeast": {
            "lat": 40.79031988029151,
            "lng": -73.95258536970849
          },
          "southwest": {
            "lat": 40.78762191970851,
            "lng": -73.9552833302915
          }
        }
      },
      "icon": "https://maps.gstatic.com/mapfiles/place_api/icons/v1/png_71/generic_business-71.png",
      "icon_background_color": "#7B9EB0",
      "icon_mask_base_uri": "https://maps.gstatic.com/mapfiles/place_api/icons/v2/generic_pinlet",
      "name": "Neil Grafstein, MD",
      "opening_hours": {
        "open_now": false
      },
      "photos": [
        {
          "height": 727,
          "html_attributions": [
            "<a href=\"https://maps.google.com/maps/contrib/115317608042748103768\">Neil Grafstein, MD</a>"
          ],
          "photo_reference": "AeJbb3fBfhNdJEvjasZiT4gUD0lZMpAOyg6mAGE2cBmhCdyLmQk3NQajSwfNSsOBfYKdRU0im6PZ3xPpvlkha5SEw7DidTkBxJFzpHW744lZc64Tyw7YZ7-niTuw0kgZ2AOdJ9TujUJXF0FVYnRUlDegkYLAVAm6fIF4t5GXXKARKiyN4FAD",
          "width": 727
        }
      ],
      "place_id": "ChIJf0SSxqBYwokReOmGkcrbzxc",
      "plus_code": {
        "compound_code": "Q2QW+JF New York, NY, USA",
        "global_code": "87G8Q2QW+JF"
      },
      "rating": 1.7,
      "reference": "ChIJf0SSxqBYwokReOmGkcrbzxc",
      "scope": "GOOGLE",
      "types": [
        "doctor",
        "health",
        "point_of_interest",
        "establishment"
      ],
      "user_ratings_total": 6,
      "vicinity": "5 East 98th Street 6th Fl, New York"
    },
    {
      "business_status": "OPERATIONAL",
      "geometry": {
        "location": {
          "lat": 40.7890329,
          "lng": -73.95384589999999
        },
        "viewport": {
          "northeast": {
            "lat": 40.7902935802915,
            "lng": -73.95256196970848
          },
          "southwest": {
            "lat": 40.7875956197085,
            "lng": -73.95525993029149
          }
        }
      },
      "icon": "https://maps.gstatic.com/mapfiles/place_api/icons/v1/png_71/generic_business-71.png",
      "icon_background_color": "#7B9EB0",
      "icon_mask_base_uri": "https://maps.gstatic.com/mapfiles/place_api/icons/v2/generic_pinlet",
      "name": "Dr. Tracy L. Breen, MD",
      "place_id": "ChIJf0SSxqBYwokRmMXSlUTn1XM",
      "plus_code": {
        "compound_code": "Q2QW+JF New York, NY, USA",
        "global_code": "87G8Q2QW+JF"
      },
      "reference": "ChIJf0SSxqBYwokRmMXSlUTn1XM",
      "scope": "GOOGLE",
      "types": [
        "doctor",
        "health",
        "point_of_interest",
        "establishment"
      ],
      "vicinity": "5 East 98th Street, New York"
    },
    {
      "business_status": "OPERATIONAL",
      "geometry": {
        "location": {
          "lat": 40.78907170000001,
          "lng": -73.9538601
        },
        "viewport": {
          "northeast": {
            "lat": 40.79031988029151,
            "lng": -73.95258536970849
          },
          "southwest": {
            "lat": 40.78762191970851,
            "lng": -73.9552833302915
          }
        }
      },
      "icon": "https://maps.gstatic.com/mapfiles/place_api/icons/v1/png_71/generic_business-71.png",
      "icon_background_color": "#7B9EB0",
      "icon_mask_base_uri": "https://maps.gstatic.com/mapfiles/place_api/icons/v2/generic_pinlet",
      "name": "Charles Ascher-Walsh, MD",
      "opening_hours": {
        "open_now": false
      },
      "photos": [
        {
          "height": 500,
          "html_attributions": [
            "<a href=\"https://maps.google.com/maps/contrib/113008020770634568343\">Charles Ascher-Walsh, MD</a>"
          ],
          "photo_reference": "AeJbb3fLKn5wKGcP7PBdGTpuqEISke4aa9MCcDwFu6NzCHdxhDrHK_jVB76AQCEvChqDahyTkxTQhx4LVSXe8cVC9Z69eY5cTBmRgAYf5Yan4B0ZSShtqQnrf7AH-_X7S3om0YFRyRoL3SP-1_ue2DG9v2F2mFmW-WZGqqoPIjjMEd7YOiJf",
          "width": 500
        }
      ],
      "place_id": "ChIJf0SSxqBYwokRE-GqreaupVI",
      "plus_code": {
        "compound_code": "Q2QW+JF New York, NY, USA",
        "global_code": "87G8Q2QW+JF"
      },
      "rating": 4.3,
      "reference": "ChIJf0SSxqBYwokRE-GqreaupVI",
      "scope": "GOOGLE",
      "types": [
        "doctor",
        "health",
        "point_of_interest",
        "establishment"
      ],
      "user_ratings_total": 20,
      "vicinity": "5 East 98th Street 2nd Fl, New York"
    },
    {
      "business_status": "OPERATIONAL",
      "geometry": {
        "location": {
          "lat": 40.78907170000001,
          "lng": -73.9538601
        },
        "viewport": {
          "northeast": {
            "lat": 40.79031988029151,
            "lng": -73.95258536970849
          },
          "southwest": {
            "lat": 40.78762191970851,
            "lng": -73.9552833302915
          }
        }
      },
      "icon": "https://maps.gstatic.com/mapfiles/place_api/icons/v1/png_71/generic_business-71.png",
      "icon_background_color": "#7B9EB0",
      "icon_mask_base_uri": "https://maps.gstatic.com/mapfiles/place_api/icons/v2/generic_pinlet",
      "name": "Joanne Stone, MD, MS",
      "opening_hours": {
        "open_now": false
      },
      "photos": [
        {
          "height": 500,
          "html_attributions": [
            "<a href=\"https://maps.google.com/maps/contrib/112514365114592961292\">Joanne Stone, MD, MS</a>"
          ],
          "photo_reference": "AeJbb3fXJF5BisDL6K_ZJeKeKNV_HzIhxPZsZYaEGWEOcgiPyrknuIjB73qxxqfbUUFF7__UPJPtX8kE834CsDcuQfr6EW8TzB-502xV8qxmcOgv-bI4kZCbjhHaPJP0nvoHRYlN24GjVDWBuQXw4lZjQXOcqF3ugAHL9TvovuYfVYlXlhFC",
          "width": 500
        }
      ],
      "place_id": "ChIJf0SSxqBYwokR7UkSlxOZ-bQ",
      "plus_code": {
        "compound_code": "Q2QW+JF New York, NY, USA",
        "global_code": "87G8Q2QW+JF"
      },
      "rating": 5,
      "reference": "ChIJf0SSxqBYwokR7UkSlxOZ-bQ",
      "scope": "GOOGLE",
      "types": [
        "doctor",
        "health",
        "point_of_interest",
        "establishment"
      ],
      "user_ratings_total": 2,
      "vicinity": "5 East 98th Street 2nd Fl, New York"
    },
    {
      "business_status": "OPERATIONAL",
      "geometry": {
        "location": {
          "lat": 40.78907170000001,
          "lng": -73.9538601
        },
        "viewport": {
          "northeast": {
            "lat": 40.79031988029151,
            "lng": -73.9526448197085
          },
          "southwest": {
            "lat": 40.78762191970851,
            "lng": -73.9553427802915
          }
        }
      },
      "icon": "https://maps.gstatic.com/mapfiles/place_api/icons/v1/png_71/hospital-71.png",
      "icon_background_color": "#F88181",
      "icon_mask_base_uri": "https://maps.gstatic.com/mapfiles/place_api/icons/v2/hospital-H_pinlet",
      "name": "Scoliosis and Spine Associates",
      "opening_hours": {
        "open_now": false
      },
      "place_id": "ChIJR_RD1BxZwokRO8bTbZ4Hrts",
      "plus_code": {
        "compound_code": "Q2QW+JF New York, NY, USA",
        "global_code": "87G8Q2QW+JF"
      },
      "rating": 4.8,
      "reference": "ChIJR_RD1BxZwokRO8bTbZ4Hrts",
      "scope": "GOOGLE",
      "types": [
        "hospital",
        "doctor",
        "health",
        "point_of_interest",
        "establishment"
      ],
      "user_ratings_total": 20,
      "vicinity": "5 East 98th Street 4th floor, New York"
    },
    {
      "business_status": "OPERATIONAL",
      "geometry": {
        "location": {
          "lat": 40.789056,
          "lng": -73.9538508
        },
        "viewport": {
          "northeast": {
            "lat": 40.7903086302915,
            "lng": -73.9525727697085
          },
          "southwest": {
            "lat": 40.7876106697085,
            "lng": -73.9552707302915
          }
        }
      },
      "icon": "https://maps.gstatic.com/mapfiles/place_api/icons/v1/png_71/generic_business-71.png",
      "icon_background_color": "#7B9EB0",
      "icon_mask_base_uri": "https://maps.gstatic.com/mapfiles/place_api/icons/v2/generic_pinlet",
      "name": "Benkov Keith J MD",
      "place_id": "ChIJf0SSxqBYwokRNvHIVGaLxkQ",
      "plus_code": {
        "compound_code": "Q2QW+JF New York, NY, USA",
        "global_code": "87G8Q2QW+JF"
      },
      "rating": 3.9,
      "reference": "ChIJf0SSxqBYwokRNvHIVGaLxkQ",
      "scope": "GOOGLE",
      "types": [
        "doctor",
        "health",
        "point_of_interest",
        "establishment"
      ],
      "user_ratings_total": 8,
      "vicinity": "5 East 98th Street, New York"
    },
    {
      "business_status": "OPERATIONAL",
      "geometry": {
        "location": {
          "lat": 40.78907170000001,
          "lng": -73.9538601
        },
        "viewport": {
          "northeast": {
            "lat": 40.79031988029151,
            "lng": -73.95258536970849
          },
          "southwest": {
            "lat": 40.78762191970851,
            "lng": -73.9552833302915
          }
        }
      },
      "icon": "https://maps.gstatic.com/mapfiles/place_api/icons/v1/png_71/generic_business-71.png",
      "icon_background_color": "#7B9EB0",
      "icon_mask_base_uri": "https://maps.gstatic.com/mapfiles/place_api/icons/v2/generic_pinlet",
      "name": "Parag Sheth, MD",
      "opening_hours": {
        "open_now": false
      },
      "photos": [
        {
          "height": 727,
          "html_attributions": [
            "<a href=\"https://maps.google.com/maps/contrib/107729001159717798723\">Parag Sheth, MD</a>"
          ],
          "photo_reference": "AeJbb3dH1ZlHnMUc2bHJU23dOwMuNshP5-pwDxwzgQeqsF0cj51azIDsJhGvitZjNhf-OXmzJd5s-m38d3nPPi0PvnNN8JdSa5DBaB8lApp4JezLjZb-YsBQVQa_YJjVJ9ReYkQ5vIDbaOfPVvDJZRk8TnryieCC38AcpnhZuQqo1Smt2j9v",
          "width": 727
        }
      ],
      "place_id": "ChIJf0SSxqBYwokR-8mnp7wLHMc",
      "plus_code": {
        "compound_code": "Q2QW+JF New York, NY, USA",
        "global_code": "87G8Q2QW+JF"
      },
      "rating": 5,
      "reference": "ChIJf0SSxqBYwokR-8mnp7wLHMc",
      "scope": "GOOGLE",
      "types": [
        "doctor",
        "health",
        "point_of_interest",
        "establishment"
      ],
      "user_ratings_total": 1,
      "vicinity": "5 East 98th Street 6th Fl, New York"
    },
    {
      "business_status": "OPERATIONAL",
      "geometry": {
        "location": {
          "lat": 40.78907170000001,
          "lng": -73.9538601
        },
        "viewport": {
          "northeast": {
            "lat": 40.79031988029151,
            "lng": -73.95258536970849
          },
          "southwest": {
            "lat": 40.78762191970851,
            "lng": -73.9552833302915
          }
        }
      },
      "icon": "https://maps.gstatic.com/mapfiles/place_api/icons/v1/png_71/generic_business-71.png",
      "icon_background_color": "#7B9EB0",
      "icon_mask_base_uri": "https://maps.gstatic.com/mapfiles/place_api/icons/v2/generic_pinlet",
      "name": "Premenstrual Syndrome",
      "place_id": "ChIJf0SSxqBYwokRTqXnLkNgMzw",
      "plus_code": {
        "compound_code": "Q2QW+JF New York, NY, USA",
        "global_code": "87G8Q2QW+JF"
      },
      "reference": "ChIJf0SSxqBYwokRTqXnLkNgMzw",
      "scope": "GOOGLE",
      "types": [
        "point_of_interest",
        "establishment"
      ],
      "vicinity": "5 East 98th Street, New York"
    },
    {
      "business_status": "OPERATIONAL",
      "geometry": {
        "location": {
          "lat": 40.7892026,
          "lng": -73.954456
        },
        "viewport": {
          "northeast": {
            "lat": 40.79049688029149,
            "lng": -73.95314006970848
          },
          "southwest": {
            "lat": 40.78779891970849,
            "lng": -73.9558380302915
          }
        }
      },
      "icon": "https://maps.gstatic.com/mapfiles/place_api/icons/v1/png_71/generic_business-71.png",
      "icon_background_color": "#7B9EB0",
      "icon_mask_base_uri": "https://maps.gstatic.com/mapfiles/place_api/icons/v2/generic_pinlet",
      "name": "Celia Divino, MD",
      "opening_hours": {
        "open_now": false
      },
      "place_id": "ChIJf0SSxqBYwokRYM0mqCZ6rfA",
      "plus_code": {
        "compound_code": "Q2QW+M6 New York, NY, USA",
        "global_code": "87G8Q2QW+M6"
      },
      "rating": 3,
      "reference": "ChIJf0SSxqBYwokRYM0mqCZ6rfA",
      "scope": "GOOGLE",
      "types": [
        "doctor",
        "health",
        "point_of_interest",
        "establishment"
      ],
      "user_ratings_total": 2,
      "vicinity": "5 East 98th St 14th Fl, New York"
    },
    {
      "business_status": "OPERATIONAL",
      "geometry": {
        "location": {
          "lat": 40.78907170000001,
          "lng": -73.9538601
        },
        "viewport": {
          "northeast": {
            "lat": 40.79031988029151,
            "lng": -73.95258536970849
          },
          "southwest": {
            "lat": 40.78762191970851,
            "lng": -73.9552833302915
          }
        }
      },
      "icon": "https://maps.gstatic.com/mapfiles/place_api/icons/v1/png_71/generic_business-71.png",
      "icon_background_color": "#7B9EB0",
      "icon_mask_base_uri": "https://maps.gstatic.com/mapfiles/place_api/icons/v2/generic_pinlet",
      "name": "William Lawson, MD, DDS",
      "opening_hours": {
        "open_now": false
      },
      "photos": [
        {
          "height": 4160,
          "html_attributions": [
            "<a href=\"https://maps.google.com/maps/contrib/104263483849555676432\">Erika Kish</a>"
          ],
          "photo_reference": "AeJbb3eZlkJmQNFAo1WLIFH6WdSfio5bX2_hTeLDjNUKzXiLShkR9WBr29FmSLo22DrZ3_9823pdEmbyzr9XlBX6v388K7cRMOjiirFPgcN4TBy4NpddYRA2PNRSkhbLsE_rM-dcP0WmXlp-WcT6Jq3_9tXYt4--RSLrLUk_xoaEAOK_sNuX",
          "width": 3120
        }
      ],
      "place_id": "ChIJf0SSxqBYwokRtGxKBA1lQOQ",
      "plus_code": {
        "compound_code": "Q2QW+JF New York, NY, USA",
        "global_code": "87G8Q2QW+JF"
      },
      "rating": 3,
      "reference": "ChIJf0SSxqBYwokRtGxKBA1lQOQ",
      "scope": "GOOGLE",
      "types": [
        "doctor",
        "health",
        "point_of_interest",
        "establishment"
      ],
      "user_ratings_total": 6,
      "vicinity": "Faculty Practice Associates, 5 East 98th Street, New York"
    },
    {
      "business_status": "OPERATIONAL",
      "geometry": {
        "location": {
          "lat": 40.7915202,
          "lng": -73.95198669999999
        },
        "viewport": {
          "northeast": {
            "lat": 40.7927887302915,
            "lng": -73.9506965197085
          },
          "southwest": {
            "lat": 40.7900907697085,
            "lng": -73.95339448029151
          }
        }
      },
      "icon": "https://maps.gstatic.com/mapfiles/place_api/icons/v1/png_71/generic_business-71.png",
      "icon_background_color": "#7B9EB0",
      "icon_mask_base_uri": "https://maps.gstatic.com/mapfiles/place_api/icons/v2/generic_pinlet",
      "name": "Bryan Markinson, DPM",
      "opening_hours": {
        "open_now": false
      },
      "photos": [
        {
          "height": 1192,
          "html_attributions": [
            "<a href=\"https://maps.google.com/maps/contrib/114004077826888861317\">Bryan Markinson, DPM</a>"
          ],
          "photo_reference": "AeJbb3cvFH5OCCA0QXVfhJzgy7vH8QL5P5e0XvlKWVsc7IeSLU12b9N0GBx7iiYLOVGYFUf-ZGLn_4GgNgglrIxRZIgvEDyho5BTjqSf7ONba2v8E21Kn5LxUy0tRDwkWGTa-4lK3Xdy-8hmvI4Di3ePSUn3bVCMDD7jQ-3QgNzRZF6DRmcH",
          "width": 2119
        }
      ],
      "place_id": "ChIJf0SSxqBYwokRhTxmtiNXCEY",
      "plus_code": {
        "compound_code": "Q2RX+J6 New York, NY, USA",
        "global_code": "87G8Q2RX+J6"
      },
      "rating": 3.9,
      "reference": "ChIJf0SSxqBYwokRhTxmtiNXCEY",
      "scope": "GOOGLE",
      "types": [
        "doctor",
        "health",
        "point_of_interest",
        "establishment"
      ],
      "user_ratings_total": 14,
      "vicinity": "17 East 102nd Street 4th Fl, New York"
    },
    {
      "business_status": "OPERATIONAL",
      "geometry": {
        "location": {
          "lat": 40.7890874,
          "lng": -73.9540628
        },
        "viewport": {
          "northeast": {
            "lat": 40.79036223029151,
            "lng": -73.9527684697085
          },
          "southwest": {
            "lat": 40.78766426970851,
            "lng": -73.95546643029151
          }
        }
      },
      "icon": "https://maps.gstatic.com/mapfiles/place_api/icons/v1/png_71/generic_business-71.png",
      "icon_background_color": "#7B9EB0",
      "icon_mask_base_uri": "https://maps.gstatic.com/mapfiles/place_api/icons/v2/generic_pinlet",
      "name": "Ilya Iofin, MD",
      "opening_hours": {
        "open_now": false
      },
      "photos": [
        {
          "height": 727,
          "html_attributions": [
            "<a href=\"https://maps.google.com/maps/contrib/110245274554841856655\">Ilya Iofin, MD</a>"
          ],
          "photo_reference": "AeJbb3cNM8SFDLWYpDUc48yon5KQ6R_KFZgCw30rPVcBDIvnu3ATYho9Q5AtWuLZMyrPPJiYwZHmDGkpNvECuMRYQkzMRn0phhMnpg3zXX5BxQ_nzRvZ5-GtfXFFP8V3x5HNHyRxHPBHVx9lGjqFFwJ1Xp_MPkPvQVmhryuRjUC-GJTbY6pp",
          "width": 727
        }
      ],
      "place_id": "ChIJf0SSxqBYwokRKzdrG3BWto8",
      "plus_code": {
        "compound_code": "Q2QW+J9 New York, NY, USA",
        "global_code": "87G8Q2QW+J9"
      },
      "rating": 4.5,
      "reference": "ChIJf0SSxqBYwokRKzdrG3BWto8",
      "scope": "GOOGLE",
      "types": [
        "doctor",
        "health",
        "point_of_interest",
        "establishment"
      ],
      "user_ratings_total": 19,
      "vicinity": "5 East 98th St 7th Fl, New York"
    },
    {
      "business_status": "OPERATIONAL",
      "geometry": {
        "location": {
          "lat": 40.7890329,
          "lng": -73.95384589999999
        },
        "viewport": {
          "northeast": {
            "lat": 40.7902935802915,
            "lng": -73.95256196970848
          },
          "southwest": {
            "lat": 40.7875956197085,
            "lng": -73.95525993029149
          }
        }
      },
      "icon": "https://maps.gstatic.com/mapfiles/place_api/icons/v1/png_71/generic_business-71.png",
      "icon_background_color": "#7B9EB0",
      "icon_mask_base_uri": "https://maps.gstatic.com/mapfiles/place_api/icons/v2/generic_pinlet",
      "name": "Dr. Scott H. Sicherer, MD",
      "place_id": "ChIJf0SSxqBYwokRDehYx4XaZE8",
      "plus_code": {
        "compound_code": "Q2QW+JF New York, NY, USA",
        "global_code": "87G8Q2QW+JF"
      },
      "reference": "ChIJf0SSxqBYwokRDehYx4XaZE8",
      "scope": "GOOGLE",
      "types": [
        "doctor",
        "health",
        "point_of_interest",
        "establishment"
      ],
      "vicinity": "5 East 98th Street, New York"
    },
    {
      "business_status": "OPERATIONAL",
      "geometry": {
        "location": {
          "lat": 40.78907170000001,
          "lng": -73.9538601
        },
        "viewport": {
          "northeast": {
            "lat": 40.79031988029151,
            "lng": -73.95258536970849
          },
          "southwest": {
            "lat": 40.78762191970851,
            "lng": -73.9552833302915
          }
        }
      },
      "icon": "https://maps.gstatic.com/mapfiles/place_api/icons/v1/png_71/generic_business-71.png",
      "icon_background_color": "#7B9EB0",
      "icon_mask_base_uri": "https://maps.gstatic.com/mapfiles/place_api/icons/v2/generic_pinlet",
      "name": "Corn Beth Eve MD",
      "opening_hours": {
        "open_now": false
      },
      "place_id": "ChIJf0SSxqBYwokRIqNkmuUdWdQ",
      "plus_code": {
        "compound_code": "Q2QW+JF New York, NY, USA",
        "global_code": "87G8Q2QW+JF"
      },
      "rating": 5,
      "reference": "ChIJf0SSxqBYwokRIqNkmuUdWdQ",
      "scope": "GOOGLE",
      "types": [
        "doctor",
        "health",
        "point_of_interest",
        "establishment"
      ],
      "user_ratings_total": 4,
      "vicinity": "5 East 98th Street, New York"
    },
    {
      "business_status": "OPERATIONAL",
      "geometry": {
        "location": {
          "lat": 40.78907700000001,
          "lng": -73.954008
        },
        "viewport": {
          "northeast": {
            "lat": 40.79034698029151,
            "lng": -73.9527187697085
          },
          "southwest": {
            "lat": 40.78764901970851,
            "lng": -73.9554167302915
          }
        }
      },
      "icon": "https://maps.gstatic.com/mapfiles/place_api/icons/v1/png_71/generic_business-71.png",
      "icon_background_color": "#7B9EB0",
      "icon_mask_base_uri": "https://maps.gstatic.com/mapfiles/place_api/icons/v2/generic_pinlet",
      "name": "David Forsh, MD",
      "photos": [
        {
          "height": 1192,
          "html_attributions": [
            "<a href=\"https://maps.google.com/maps/contrib/106409790864802619112\">David Forsh, MD</a>"
          ],
          "photo_reference": "AeJbb3cDWlXWmopJ8ns02449DcLR4D6mJ5nPNDUitwB7TENcpMzgl9255k10T95-fC1MTruu7hpv4JPgHUj9saebetQ4ICm5tgCwi8qSqfTz7X5Ft3Ju41OFw-7foxkNszffx3tlZGd5-oJ_Q6nj_Y3LE6Aw4piFzfzuZgkOKPnc1nF3947S",
          "width": 2119
        }
      ],
      "place_id": "ChIJf0SSxqBYwokRbtAIPlEqcZg",
      "plus_code": {
        "compound_code": "Q2QW+J9 New York, NY, USA",
        "global_code": "87G8Q2QW+J9"
      },
      "rating": 4.6,
      "reference": "ChIJf0SSxqBYwokRbtAIPlEqcZg",
      "scope": "GOOGLE",
      "types": [
        "doctor",
        "health",
        "point_of_interest",
        "establishment"
      ],
      "user_ratings_total": 25,
      "vicinity": "5 East 98th St 7th Fl, New York"
    },
    {
      "business_status": "OPERATIONAL",
      "geometry": {
        "location": {
          "lat": 40.78907170000001,
          "lng": -73.9538601
        },
        "viewport": {
          "northeast": {
            "lat": 40.79031988029151,
            "lng": -73.95258536970849
          },
          "southwest": {
            "lat": 40.78762191970851,
            "lng": -73.9552833302915
          }
        }
      },
      "icon": "https://maps.gstatic.com/mapfiles/place_api/icons/v1/png_71/generic_business-71.png",
      "icon_background_color": "#7B9EB0",
      "icon_mask_base_uri": "https://maps.gstatic.com/mapfiles/place_api/icons/v2/generic_pinlet",
      "name": "Jimenez Jennifer",
      "place_id": "ChIJf0SSxqBYwokRPScbl9nVHL0",
      "plus_code": {
        "compound_code": "Q2QW+JF New York, NY, USA",
        "global_code": "87G8Q2QW+JF"
      },
      "reference": "ChIJf0SSxqBYwokRPScbl9nVHL0",
      "scope": "GOOGLE",
      "types": [
        "health",
        "point_of_interest",
        "establishment"
      ],
      "vicinity": "5 East 98th Street, New York"
    },
    {
      "business_status": "OPERATIONAL",
      "geometry": {
        "location": {
          "lat": 40.78907170000001,
          "lng": -73.9538601
        },
        "viewport": {
          "northeast": {
            "lat": 40.79031988029151,
            "lng": -73.95258536970849
          },
          "southwest": {
            "lat": 40.78762191970851,
            "lng": -73.9552833302915
          }
        }
      },
      "icon": "https://maps.gstatic.com/mapfiles/place_api/icons/v1/png_71/generic_business-71.png",
      "icon_background_color": "#7B9EB0",
      "icon_mask_base_uri": "https://maps.gstatic.com/mapfiles/place_api/icons/v2/generic_pinlet",
      "name": "Priya Grewal, MD",
      "opening_hours": {
        "open_now": false
      },
      "place_id": "ChIJf0SSxqBYwokRhPO4JxSFHaQ",
      "plus_code": {
        "compound_code": "Q2QW+JF New York, NY, USA",
        "global_code": "87G8Q2QW+JF"
      },
      "rating": 5,
      "reference": "ChIJf0SSxqBYwokRhPO4JxSFHaQ",
      "scope": "GOOGLE",
      "types": [
        "doctor",
        "health",
        "point_of_interest",
        "establishment"
      ],
      "user_ratings_total": 5,
      "vicinity": "5 East 98th Street 12th Fl, New York"
    },
    {
      "business_status": "OPERATIONAL",
      "geometry": {
        "location": {
          "lat": 40.78907170000001,
          "lng": -73.9538601
        },
        "viewport": {
          "northeast": {
            "lat": 40.79031988029151,
            "lng": -73.95258536970849
          },
          "southwest": {
            "lat": 40.78762191970851,
            "lng": -73.9552833302915
          }
        }
      },
      "icon": "https://maps.gstatic.com/mapfiles/place_api/icons/v1/png_71/generic_business-71.png",
      "icon_background_color": "#7B9EB0",
      "icon_mask_base_uri": "https://maps.gstatic.com/mapfiles/place_api/icons/v2/generic_pinlet",
      "name": "Dr. Eliza B. Geer, MD",
      "place_id": "ChIJf0SSxqBYwokRBx2F-X_7cyM",
      "plus_code": {
        "compound_code": "Q2QW+JF New York, NY, USA",
        "global_code": "87G8Q2QW+JF"
      },
      "rating": 1,
      "reference": "ChIJf0SSxqBYwokRBx2F-X_7cyM",
      "scope": "GOOGLE",
      "types": [
        "doctor",
        "health",
        "point_of_interest",
        "establishment"
      ],
      "user_ratings_total": 3,
      "vicinity": "5 East 98th Street, New York"
    },
    {
      "business_status": "OPERATIONAL",
      "geometry": {
        "location": {
          "lat": 40.790264,
          "lng": -73.9525967
        },
        "viewport": {
          "northeast": {
            "lat": 40.7914930302915,
            "lng": -73.9509947197085
          },
          "southwest": {
            "lat": 40.7887950697085,
            "lng": -73.95369268029151
          }
        }
      },
      "icon": "https://maps.gstatic.com/mapfiles/place_api/icons/v1/png_71/generic_business-71.png",
      "icon_background_color": "#7B9EB0",
      "icon_mask_base_uri": "https://maps.gstatic.com/mapfiles/place_api/icons/v2/generic_pinlet",
      "name": "Madeline Fields, MD",
      "opening_hours": {
        "open_now": false
      },
      "place_id": "ChIJf0SSxqBYwokREeKjNBUEj7s",
      "plus_code": {
        "compound_code": "Q2RW+4X New York, NY, USA",
        "global_code": "87G8Q2RW+4X"
      },
      "rating": 4.9,
      "reference": "ChIJf0SSxqBYwokREeKjNBUEj7s",
      "scope": "GOOGLE",
      "types": [
        "doctor",
        "health",
        "point_of_interest",
        "establishment"
      ],
      "user_ratings_total": 9,
      "vicinity": "1468 Madison Avenue 2nd Fl, New York"
    },
    {
      "business_status": "OPERATIONAL",
      "geometry": {
        "location": {
          "lat": 40.78906409999999,
          "lng": -73.95385639999999
        },
        "viewport": {
          "northeast": {
            "lat": 40.79031458029149,
            "lng": -73.95257996970848
          },
          "southwest": {
            "lat": 40.78761661970849,
            "lng": -73.95527793029149
          }
        }
      },
      "icon": "https://maps.gstatic.com/mapfiles/place_api/icons/v1/png_71/generic_business-71.png",
      "icon_background_color": "#7B9EB0",
      "icon_mask_base_uri": "https://maps.gstatic.com/mapfiles/place_api/icons/v2/generic_pinlet",
      "name": "Jaime Uribarri, MD",
      "opening_hours": {
        "open_now": false
      },
      "place_id": "ChIJf0SSxqBYwokRexDdz0AnuQs",
      "plus_code": {
        "compound_code": "Q2QW+JF New York, NY, USA",
        "global_code": "87G8Q2QW+JF"
      },
      "reference": "ChIJf0SSxqBYwokRexDdz0AnuQs",
      "scope": "GOOGLE",
      "types": [
        "doctor",
        "health",
        "point_of_interest",
        "establishment"
      ],
      "vicinity": "5 East 98th Street #11, New York"
    },
    {
      "business_status": "OPERATIONAL",
      "geometry": {
        "location": {
          "lat": 40.7890329,
          "lng": -73.95384589999999
        },
        "viewport": {
          "northeast": {
            "lat": 40.7902935802915,
            "lng": -73.95256196970848
          },
          "southwest": {
            "lat": 40.7875956197085,
            "lng": -73.95525993029149
          }
        }
      },
      "icon": "https://maps.gstatic.com/mapfiles/place_api/icons/v1/png_71/generic_business-71.png",
      "icon_background_color": "#7B9EB0",
      "icon_mask_base_uri": "https://maps.gstatic.com/mapfiles/place_api/icons/v2/generic_pinlet",
      "name": "Scott L. Friedman, MD, Dean for Therapeutic Discovery, Icahn School of Medicine",
      "photos": [
        {
          "height": 300,
          "html_attributions": [
            "<a href=\"https://maps.google.com/maps/contrib/116826345756902400462\">Scott L. Friedman, MD, Dean for Therapeutic Discovery, Icahn School of Medicine</a>"
          ],
          "photo_reference": "AeJbb3cxnR5hnU8vSGTiNj3qEZ02N4v0N67vOZ6_TXBoMWe16C0CHbq4uEuyAqpKbA6p-UWiEJR6jMngDjH1QBs_8-dp1cBQT7wNZrZSkkhUcwWVhFHv3eeXU9OB28CHLJZIFlgMvXEXHJ1H5BtBdDUdKtDSnf4ih3WptcHPGXtuGniPw0M8",
          "width": 300
        }
      ],
      "place_id": "ChIJf0SSxqBYwokRSY4hiXLtJQ0",
      "plus_code": {
        "compound_code": "Q2QW+JF New York, NY, USA",
        "global_code": "87G8Q2QW+JF"
      },
      "reference": "ChIJf0SSxqBYwokRSY4hiXLtJQ0",
      "scope": "GOOGLE",
      "types": [
        "doctor",
        "health",
        "point_of_interest",
        "establishment"
      ],
      "vicinity": "5 East 98th Street, New York"
    },
    {
      "business_status": "OPERATIONAL",
      "geometry": {
        "location": {
          "lat": 40.7890329,
          "lng": -73.95384589999999
        },
        "viewport": {
          "northeast": {
            "lat": 40.7902935802915,
            "lng": -73.95256196970848
          },
          "southwest": {
            "lat": 40.7875956197085,
            "lng": -73.95525993029149
          }
        }
      },
      "icon": "https://maps.gstatic.com/mapfiles/place_api/icons/v1/png_71/generic_business-71.png",
      "icon_background_color": "#7B9EB0",
      "icon_mask_base_uri": "https://maps.gstatic.com/mapfiles/place_api/icons/v2/generic_pinlet",
      "name": "Dr. Men-Jean Lee, MD",
      "place_id": "ChIJf0SSxqBYwokRk8e_jpqlBqM",
      "plus_code": {
        "compound_code": "Q2QW+JF New York, NY, USA",
        "global_code": "87G8Q2QW+JF"
      },
      "reference": "ChIJf0SSxqBYwokRk8e_jpqlBqM",
      "scope": "GOOGLE",
      "types": [
        "doctor",
        "health",
        "point_of_interest",
        "establishment"
      ],
      "vicinity": "5 East 98th Street, New York"
    },
    {
      "business_status": "OPERATIONAL",
      "geometry": {
        "location": {
          "lat": 40.7890329,
          "lng": -73.95384589999999
        },
        "viewport": {
          "northeast": {
            "lat": 40.7902935802915,
            "lng": -73.95256196970848
          },
          "southwest": {
            "lat": 40.7875956197085,
            "lng": -73.95525993029149
          }
        }
      },
      "icon": "https://maps.gstatic.com/mapfiles/place_api/icons/v1/png_71/generic_business-71.png",
      "icon_background_color": "#7B9EB0",
      "icon_mask_base_uri": "https://maps.gstatic.com/mapfiles/place_api/icons/v2/generic_pinlet",
      "name": "Tarr Diane E MD",
      "place_id": "ChIJCYIswaBYwokRCERxHv3gF2o",
      "plus_code": {
        "compound_code": "Q2QW+JF New York, NY, USA",
        "global_code": "87G8Q2QW+JF"
      },
      "reference": "ChIJCYIswaBYwokRCERxHv3gF2o",
      "scope": "GOOGLE",
      "types": [
        "doctor",
        "health",
        "point_of_interest",
        "establishment"
      ],
      "vicinity": "5 East 98th Street, New York"
    },
    {
      "business_status": "OPERATIONAL",
      "geometry": {
        "location": {
          "lat": 40.78907170000001,
          "lng": -73.9538601
        },
        "viewport": {
          "northeast": {
            "lat": 40.79031988029151,
            "lng": -73.95258536970849
          },
          "southwest": {
            "lat": 40.78762191970851,
            "lng": -73.9552833302915
          }
        }
      },
      "icon": "https://maps.gstatic.com/mapfiles/place_api/icons/v1/png_71/generic_business-71.png",
      "icon_background_color": "#7B9EB0",
      "icon_mask_base_uri": "https://maps.gstatic.com/mapfiles/place_api/icons/v2/generic_pinlet",
      "name": "Busse Paula MD",
      "place_id": "ChIJf0SSxqBYwokRf4cQDPV-udc",
      "plus_code": {
        "compound_code": "Q2QW+JF New York, NY, USA",
        "global_code": "87G8Q2QW+JF"
      },
      "rating": 3,
      "reference": "ChIJf0SSxqBYwokRf4cQDPV-udc",
      "scope": "GOOGLE",
      "types": [
        "doctor",
        "health",
        "point_of_interest",
        "establishment"
      ],
      "user_ratings_total": 6,
      "vicinity": "5 East 98th Street, New York"
    },
    {
      "business_status": "OPERATIONAL",
      "geometry": {
        "location": {
          "lat": 40.78907170000001,
          "lng": -73.9538601
        },
        "viewport": {
          "northeast": {
            "lat": 40.79031988029151,
            "lng": -73.95258536970849
          },
          "southwest": {
            "lat": 40.78762191970851,
            "lng": -73.9552833302915
          }
        }
      },
      "icon": "https://maps.gstatic.com/mapfiles/place_api/icons/v1/png_71/generic_business-71.png",
      "icon_background_color": "#7B9EB0",
      "icon_mask_base_uri": "https://maps.gstatic.com/mapfiles/place_api/icons/v2/generic_pinlet",
      "name": "Aledort Louis M MD",
      "place_id": "ChIJf0SSxqBYwokRy1VGWbKqLyo",
      "plus_code": {
        "compound_code": "Q2QW+JF New York, NY, USA",
        "global_code": "87G8Q2QW+JF"
      },
      "rating": 3.7,
      "reference": "ChIJf0SSxqBYwokRy1VGWbKqLyo",
      "scope": "GOOGLE",
      "types": [
        "doctor",
        "health",
        "point_of_interest",
        "establishment"
      ],
      "user_ratings_total": 3,
      "vicinity": "5 East 98th Street, New York"
    },
    {
      "business_status": "OPERATIONAL",
      "geometry": {
        "location": {
          "lat": 40.78907170000001,
          "lng": -73.9538601
        },
        "viewport": {
          "northeast": {
            "lat": 40.79031988029151,
            "lng": -73.95258536970849
          },
          "southwest": {
            "lat": 40.78762191970851,
            "lng": -73.9552833302915
          }
        }
      },
      "icon": "https://maps.gstatic.com/mapfiles/place_api/icons/v1/png_71/generic_business-71.png",
      "icon_background_color": "#7B9EB0",
      "icon_mask_base_uri": "https://maps.gstatic.com/mapfiles/place_api/icons/v2/generic_pinlet",
      "name": "Vinita Sehgal, MD",
      "opening_hours": {
        "open_now": false
      },
      "place_id": "ChIJf0SSxqBYwokRXb3KS4eV_4I",
      "plus_code": {
        "compound_code": "Q2QW+JF New York, NY, USA",
        "global_code": "87G8Q2QW+JF"
      },
      "rating": 5,
      "reference": "ChIJf0SSxqBYwokRXb3KS4eV_4I",
      "scope": "GOOGLE",
      "types": [
        "doctor",
        "health",
        "point_of_interest",
        "establishment"
      ],
      "user_ratings_total": 1,
      "vicinity": "5 East 98th Street 12th Fl, New York"
    },
    {
      "business_status": "OPERATIONAL",
      "geometry": {
        "location": {
          "lat": 40.78907170000001,
          "lng": -73.9538601
        },
        "viewport": {
          "northeast": {
            "lat": 40.79031988029151,
            "lng": -73.95258536970849
          },
          "southwest": {
            "lat": 40.78762191970851,
            "lng": -73.9552833302915
          }
        }
      },
      "icon": "https://maps.gstatic.com/mapfiles/place_api/icons/v1/png_71/generic_business-71.png",
      "icon_background_color": "#7B9EB0",
      "icon_mask_base_uri": "https://maps.gstatic.com/mapfiles/place_api/icons/v2/generic_pinlet",
      "name": "Teodorescu Victoria J MD",
      "place_id": "ChIJf0SSxqBYwokRImqHhbpJZq8",
      "plus_code": {
        "compound_code": "Q2QW+JF New York, NY, USA",
        "global_code": "87G8Q2QW+JF"
      },
      "rating": 3,
      "reference": "ChIJf0SSxqBYwokRImqHhbpJZq8",
      "scope": "GOOGLE",
      "types": [
        "doctor",
        "health",
        "point_of_interest",
        "establishment"
      ],
      "user_ratings_total": 1,
      "vicinity": "5 East 98th Street, New York"
    },
    {
      "business_status": "OPERATIONAL",
      "geometry": {
        "location": {
          "lat": 40.7891416,
          "lng": -73.9538145
        },
        "viewport": {
          "northeast": {
            "lat": 40.7903548302915,
            "lng": -73.95256256970849
          },
          "southwest": {
            "lat": 40.7876568697085,
            "lng": -73.95526053029151
          }
        }
      },
      "icon": "https://maps.gstatic.com/mapfiles/place_api/icons/v1/png_71/generic_business-71.png",
      "icon_background_color": "#7B9EB0",
      "icon_mask_base_uri": "https://maps.gstatic.com/mapfiles/place_api/icons/v2/generic_pinlet",
      "name": "Shradha Agarwal, MD",
      "place_id": "ChIJf0SSxqBYwokRu7QN423OXcM",
      "plus_code": {
        "compound_code": "Q2QW+MF New York, NY, USA",
        "global_code": "87G8Q2QW+MF"
      },
      "rating": 4.5,
      "reference": "ChIJf0SSxqBYwokRu7QN423OXcM",
      "scope": "GOOGLE",
      "types": [
        "doctor",
        "health",
        "point_of_interest",
        "establishment"
      ],
      "user_ratings_total": 8,
      "vicinity": "5 East 98th Street 11th Fl, New York"
    },
    {
      "business_status": "OPERATIONAL",
      "geometry": {
        "location": {
          "lat": 40.7890329,
          "lng": -73.95384589999999
        },
        "viewport": {
          "northeast": {
            "lat": 40.7902935802915,
            "lng": -73.95256196970848
          },
          "southwest": {
            "lat": 40.7875956197085,
            "lng": -73.95525993029149
          }
        }
      },
      "icon": "https://maps.gstatic.com/mapfiles/place_api/icons/v1/png_71/generic_business-71.png",
      "icon_background_color": "#7B9EB0",
      "icon_mask_base_uri": "https://maps.gstatic.com/mapfiles/place_api/icons/v2/generic_pinlet",
      "name": "Dr. Jeffrey M. Saland, MD",
      "place_id": "ChIJf0SSxqBYwokRcGTAccqSKzQ",
      "plus_code": {
        "compound_code": "Q2QW+JF New York, NY, USA",
        "global_code": "87G8Q2QW+JF"
      },
      "rating": 3.7,
      "reference": "ChIJf0SSxqBYwokRcGTAccqSKzQ",
      "scope": "GOOGLE",
      "types": [
        "doctor",
        "health",
        "point_of_interest",
        "establishment"
      ],
      "user_ratings_total": 3,
      "vicinity": "5 East 98th Street, New York"
    },
    {
      "business_status": "OPERATIONAL",
      "geometry": {
        "location": {
          "lat": 40.78907170000001,
          "lng": -73.9538601
        },
        "viewport": {
          "northeast": {
            "lat": 40.79031988029151,
            "lng": -73.95258536970849
          },
          "southwest": {
            "lat": 40.78762191970851,
            "lng": -73.9552833302915
          }
        }
      },
      "icon": "https://maps.gstatic.com/mapfiles/place_api/icons/v1/png_71/generic_business-71.png",
      "icon_background_color": "#7B9EB0",
      "icon_mask_base_uri": "https://maps.gstatic.com/mapfiles/place_api/icons/v2/generic_pinlet",
      "name": "Kolker Dov MD",
      "place_id": "ChIJf0SSxqBYwokRQ7A3hBmUn_U",
      "plus_code": {
        "compound_code": "Q2QW+JF New York, NY, USA",
        "global_code": "87G8Q2QW+JF"
      },
      "rating": 5,
      "reference": "ChIJf0SSxqBYwokRQ7A3hBmUn_U",
      "scope": "GOOGLE",
      "types": [
        "doctor",
        "health",
        "point_of_interest",
        "establishment"
      ],
      "user_ratings_total": 1,
      "vicinity": "5 East 98th Street, New York"
    }
  ],
  "status": "OK"
}