{
  "html_attributions": [],
  "results": [
    {
      "geometry": {
        "location": {
          "lat": 40.7127753,
          "lng": -74.0059728
        },
        "viewport": {
          "northeast": {
            "lat": 40.91757705070789,
            "lng": -73.70027206817629
          },
          "southwest": {
            "lat": 40.47739906045452,
            "lng": -74.25908991427882
          }
        }
      },
      "icon": "https://maps.gstatic.com/mapfiles/place_api/icons/v1/png_71/geocode-71.png",
      "icon_background_color": "#7B9EB0",
      "icon_mask_base_uri": "https://maps.gstatic.com/mapfiles/place_api/icons/v2/generic_pinlet",
      "name": "\u7d10\u7d04",
      "photos": [
        {
          "height": 600,
          "html_attributions": [
            "<a href=\"https://maps.google.com/maps/contrib/102389334567210814614\">Bukurie</a>"
          ],
          "photo_reference": "AeJbb3e9rbpMPqMzeniF1eczpQAIyeuO1h6aJU8ike0_a7D4MqUj-wCdiFXyadrUi_tdBLRkTBlJiUIFpxFi5jKb3iMAH70B4x8yyt6F781Pdb2Uqmgc4g_-v1IiVczP3YEWLX5Md7MARn2u2aISXu1q0UgQjZkN0kCoBsh3B5Qe-WCTJSda",
          "width": 480
        }
      ],
      "place_id": "ChIJOwg_06VPwokRYv534QaPC8g",
      "reference": "ChIJOwg_06VPwokRYv534QaPC8g",
      "scope": "GOOGLE",
      "types": [
        "locality",
        "political"
      ],
      "vicinity": "\u7d10\u7d04"
    },
    {
      "business_status": "OPERATIONAL",
      "geometry": {
        "location": {
          "lat": 40.798684,
          "lng": -73.96665300000001
        },
        "viewport": {
          "northeast": {
            "lat": 40.8000571302915,
            "lng": -73.9655140697085
          },
          "southwest": {
            "lat": 40.79735916970851,
            "lng": -73.96821203029151
          }
        }
      },
      "icon": "https://maps.gstatic.com/mapfiles/place_api/icons/v1/png_71/lodging-71.png",
      "icon_background_color": "#909CE1",
      "icon_mask_base_uri": "https://maps.gstatic.com/mapfiles/place_api/icons/v2/hotel_pinlet",
      "name": "HI New York City Hostel",
      "opening_hours": {
        "open_now": true
      },
      "photos": [
        {
          "height": 424,
          "html_attributions": [
            "<a href=\"https://maps.google.com/maps/contrib/105729003964565177505\">HI New York City Hostel</a>"
          ],
          "photo_reference": "AeJbb3fn9wxjic68rCaoxFIQQX7vCFAOL49-Z-pKE3XUysfMFo8f_phHCJ4qQvnNBay3UB1MiitczWPPsm-ZawAoPVftZViiy6mAtfoolr7XAwuPxtS4Ijw6yVg8Ywhcw9KE_WKaYmNhBF7Hd69qjxxh1etaDgAb5JpwmIri6H-sVK61Cjs2",
          "width": 640
        }
      ],
      "place_id": "ChIJOwc3aCT2wokRZGbII0D83Mk",
      "plus_code": {
        "compound_code": "Q2XM+F8 \u7f8e\u570b\u7d10\u7d04",
        "global_code": "87G8Q2XM+F8"
      },
      "rating": 4.4,
      "reference": "ChIJOwc3aCT2wokRZGbII0D83Mk",
      "scope": "GOOGLE",
      "types": [
        "lodging",
        "point_of_interest",
        "establishment"
      ],
      "user_ratings_total": 3086,
      "vicinity": "891 Amsterdam Avenue, New York"
    },
    {
      "business_status": "OPERATIONAL",
      "geometry": {
        "location": {
          "lat": 40.8019385,
          "lng": -73.9666342
        },
        "viewport": {
          "northeast": {
            "lat": 40.8031965302915,
            "lng": -73.9653378197085
          },
          "southwest": {
            "lat": 40.8004985697085,
            "lng": -73.9680357802915
          }
        }
      },
      "icon": "https://maps.gstatic.com/mapfiles/place_api/icons/v1/png_71/lodging-71.png",
      "icon_background_color": "#909CE1",
      "icon_mask_base_uri": "https://maps.gstatic.com/mapfiles/place_api/icons/v2/hotel_pinlet",
      "name": "Hotel Morningside Inn de Nueva York",
      "opening_hours": {
        "open_now": true
      },
      "photos": [
        {
          "height": 3456,
          "html_attributions": [
            "<a href=\"https://maps.google.com/maps/contrib/106758885539033928340\">Randy Patrigeon</a>"
          ],
          "photo_reference": "AeJbb3ccnJeJqOV-bc8j2EYLjtuoBBx4ULfvL7MovA7Yjt8YLobjB9iyqr9VpISvkIm6pgeWpLsoixH2bKG4fZWLOoC8-arv-Do7Us993hrSqfR-v5Io2JUuw6jt3ImxLK5lFO9aQhm_e-3A80NdbKgyrxG7f-r8qc98GcYD95oq1_3_kA-F",
          "width": 4608
        }
      ],
      "place_id": "ChIJdcuBtiT2wokRlaX9jgeuwx4",
      "plus_code": {
        "compound_code": "R22M+Q8 \u7f8e\u570b\u7d10\u7d04",
        "global_code": "87G8R22M+Q8"
      },
      "rating": 2.6,
      "reference": "ChIJdcuBtiT2wokRlaX9jgeuwx4",
      "scope": "GOOGLE",
      "types": [
        "lodging",
        "point_of_interest",
        "establishment"
      ],
      "user_ratings_total": 493,
      "vicinity": "235 West 107th Street #3020, New York"
    },
    {
      "business_status": "OPERATIONAL",
      "geometry": {
        "location": {
          "lat": 40.80118229999999,
          "lng": -73.9684079
        },
        "viewport": {
          "northeast": {
            "lat": 40.80250168029149,
            "lng": -73.9668741197085
          },
          "southwest": {
            "lat": 40.79980371970849,
            "lng": -73.96957208029151
          }
        }
      },
      "icon": "https://maps.gstatic.com/mapfiles/place_api/icons/v1/png_71/bar-71.png",
      "icon_background_color": "#FF9E67",
      "icon_mask_base_uri": "https://maps.gstatic.com/mapfiles/place_api/icons/v2/bar_pinlet",
      "name": "Smoke Jazz & Supper Club",
      "opening_hours": {
        "open_now": false
      },
      "photos": [
        {
          "height": 3264,
          "html_attributions": [
            "<a href=\"https://maps.google.com/maps/contrib/111379034607492249256\">Marinella Marchiori</a>"
          ],
          "photo_reference": "AeJbb3dRhf_OWVs-QZLU482bfJ2U19zr-rHUhVAMkt4w7xBLPUxpeqFXeQ-UWOccH6eWH8_397jMgNLL0ccHR1zAusEdyZqBYv-sdOo8qO20_mBg6rIH0RYuCEwSWhs_uj-TD3p3jmTOsc9DGaTO-zcPdGywgvAE0Af_uJFzsf46m-TOg65o",
          "width": 1836
        }
      ],
      "place_id": "ChIJS_7f3yT2wokR4dsAb0bTwDo",
      "plus_code": {
        "compound_code": "R22J+FJ \u7f8e\u570b\u7d10\u7d04",
        "global_code": "87G8R22J+FJ"
      },
      "price_level": 2,
      "rating": 4.4,
      "reference": "ChIJS_7f3yT2wokR4dsAb0bTwDo",
      "scope": "GOOGLE",
      "types": [
        "night_club",
        "bar",
        "restaurant",
        "food",
        "point_of_interest",
        "establishment"
      ],
      "user_ratings_total": 856,
      "vicinity": "2751 Broadway, New York"
    },
    {
      "business_status": "OPERATIONAL",
      "geometry": {
        "location": {
          "lat": 40.8025065,
          "lng": -73.9674142
        },
        "viewport": {
          "northeast": {
            "lat": 40.80386698029151,
            "lng": -73.9661804197085
          },
          "southwest": {
            "lat": 40.80116901970851,
            "lng": -73.9688783802915
          }
        }
      },
      "icon": "https://maps.gstatic.com/mapfiles/place_api/icons/v1/png_71/restaurant-71.png",
      "icon_background_color": "#FF9E67",
      "icon_mask_base_uri": "https://maps.gstatic.com/mapfiles/place_api/icons/v2/restaurant_pinlet",
      "name": "Absolute Bagels",
      "opening_hours": {
        "open_now": true
      },
      "photos": [
        {
          "height": 2528,
          "html_attributions": [
            "<a href=\"https://maps.google.com/maps/contrib/117808460219123378764\">Ruwan J.</a>"
          ],
          "photo_reference": "AeJbb3ePjjTn38-IzMoygFOeW-q18uijDMzRzF7BMOrnbuC1xosozUGJjxXLemCPcpD6QCyTQYN3HwWYF7YtkPoql6lYeusauIuBofIgVgL7Y2RyUQu14PJPf3dE_fO569Gy9HiDJW35egzrK5ju9zmOiYoAPX69KzcPdjFKFj0OhgwZ74lu",
          "width": 2381
        }
      ],
      "place_id": "ChIJLW3vMzv2wokRGt6nI1lYw8A",
      "plus_code": {
        "compound_code": "R23M+22 \u7f8e\u570b\u7d10\u7d04",
        "global_code": "87G8R23M+22"
      },
      "price_level": 1,
      "rating": 4.6,
      "reference": "ChIJLW3vMzv2wokRGt6nI1lYw8A",
      "scope": "GOOGLE",
      "types": [
        "bakery",
        "food",
        "point_of_interest",
        "store",
        "establishment"
      ],
      "user_ratings_total": 2582,
      "vicinity": "2788 Broadway, New York"
    },
    {
      "business_status": "OPERATIONAL",
      "geometry": {
        "location": {
          "lat": 40.8001204,
          "lng": -73.9683901
        },
        "viewport": {
          "northeast": {
            "lat": 40.80137653029151,
            "lng": -73.9669498697085
          },
          "southwest": {
            "lat": 40.79867856970851,
            "lng": -73.9696478302915
          }
        }
      },
      "icon": "https://maps.gstatic.com/mapfiles/place_api/icons/v1/png_71/shopping-71.png",
      "icon_background_color": "#4B96F3",
      "icon_mask_base_uri": "https://maps.gstatic.com/mapfiles/place_api/icons/v2/shopping_pinlet",
      "name": "AT&T Store",
      "opening_hours": {
        "open_now": true
      },
      "photos": [
        {
          "height": 4032,
          "html_attributions": [
            "<a href=\"https://maps.google.com/maps/contrib/109048084333781558163\">AT&amp;T Store</a>"
          ],
          "photo_reference": "AeJbb3dJ76R1LnNDlDB4kRI16XkLfWo_jkt7kdDVQXVNPHYwMlN76KjWB452J79h6akZlQvIBB_ubEvStlaTfmrNVaJ7T5fG48t3-jnURR8zL_VRRd9AU71DFH2kyqadjvm7r37r0vSdEkxMWG5coJhxDglSQc1jtMAQPrBKCnCvwY5DyBDx",
          "width": 3024
        }
      ],
      "place_id": "ChIJfaz7ASX2wokRWp1xJXvRlpk",
      "plus_code": {
        "compound_code": "R22J+2J \u7f8e\u570b\u7d10\u7d04",
        "global_code": "87G8R22J+2J"
      },
      "price_level": 2,
      "rating": 4.7,
      "reference": "ChIJfaz7ASX2wokRWp1xJXvRlpk",
      "scope": "GOOGLE",
      "types": [
        "point_of_interest",
        "store",
        "establishment"
      ],
      "user_ratings_total": 350,
      "vicinity": "2727 Broadway, New York"
    },
    {
      "business_status": "OPERATIONAL",
      "geometry": {
        "location": {
          "lat": 40.800712,
          "lng": -73.965273
        },
        "viewport": {
          "northeast": {
            "lat": 40.80210773029149,
            "lng": -73.9640190697085
          },
          "southwest": {
            "lat": 40.79940976970849,
            "lng": -73.96671703029152
          }
        }
      },
      "icon": "https://maps.gstatic.com/mapfiles/place_api/icons/v1/png_71/restaurant-71.png",
      "icon_background_color": "#FF9E67",
      "icon_mask_base_uri": "https://maps.gstatic.com/mapfiles/place_api/icons/v2/restaurant_pinlet",
      "name": "Awash Ethiopian Restaurant",
      "opening_hours": {
        "open_now": false
      },
      "photos": [
        {
          "height": 3024,
          "html_attributions": [
            "<a href=\"https://maps.google.com/maps/contrib/100627893970968707991\">Ruth</a>"
          ],
          "photo_reference": "AeJbb3cLHIbLYLogXVGsBQUGkpwwSU8YxNfDnpNBjGPni9fxA-YjZjINyp5mPGBIrCYaS_m0GPo3pSkMC2NSet6J4W_u-2WKx4V16M5j_BAu2h27tR9r6zD9HB1EfuqDjAbzXTUC0nNYY-qeTLya4eWKVLIAjs68Tq0vDH_l0QBgpiKMQrBQ",
          "width": 4032
        }
      ],
      "place_id": "ChIJTxiNYCP2wokRz8bUSToPz-k",
      "plus_code": {
        "compound_code": "R22M+7V \u7f8e\u570b\u7d10\u7d04",
        "global_code": "87G8R22M+7V"
      },
      "price_level": 2,
      "rating": 4.4,
      "reference": "ChIJTxiNYCP2wokRz8bUSToPz-k",
      "scope": "GOOGLE",
      "types": [
        "meal_takeaway",
        "restaurant",
        "food",
        "point_of_interest",
        "establishment"
      ],
      "user_ratings_total": 509,
      "vicinity": "947 Amsterdam Avenue, New York"
    },
    {
      "business_status": "OPERATIONAL",
      "geometry": {
        "location": {
          "lat": 40.8013889,
          "lng": -73.9652778
        },
        "viewport": {
          "northeast": {
            "lat": 40.8027033302915,
            "lng": -73.9638445197085
          },
          "southwest": {
            "lat": 40.8000053697085,
            "lng": -73.96654248029151
          }
        }
      },
      "icon": "https://maps.gstatic.com/mapfiles/place_api/icons/v1/png_71/restaurant-71.png",
      "icon_background_color": "#FF9E67",
      "icon_mask_base_uri": "https://maps.gstatic.com/mapfiles/place_api/icons/v2/restaurant_pinlet",
      "name": "Thai Market",
      "opening_hours": {
        "open_now": true
      },
      "photos": [
        {
          "height": 3024,
          "html_attributions": [
            "<a href=\"https://maps.google.com/maps/contrib/111235591949053359479\">Walter Ho</a>"
          ],
          "photo_reference": "AeJbb3d7uiXayvJM3meAhzBKQrbsUyBn1STzdu4iUQfBCvCwZeS_bRwwq59WBaVffVoEu459uXOc6KhTNW_morArKZMTdTCljfs5LkGVMUGEhGGxLscACFVFZZl7qNAJ1-OHIpzyNLpmHQEVB6OS7XQ3nnybumg7Xwt43cSVOR5w2hHD5Rwn",
          "width": 4032
        }
      ],
      "place_id": "ChIJ8yYSWCP2wokRym-2HUHMJuI",
      "plus_code": {
        "compound_code": "R22M+HV \u7f8e\u570b\u7d10\u7d04",
        "global_code": "87G8R22M+HV"
      },
      "price_level": 2,
      "rating": 4.3,
      "reference": "ChIJ8yYSWCP2wokRym-2HUHMJuI",
      "scope": "GOOGLE",
      "types": [
        "restaurant",
        "food",
        "point_of_interest",
        "establishment"
      ],
      "user_ratings_total": 914,
      "vicinity": "960 Amsterdam Avenue, New York"
    },
    {
      "business_status": "OPERATIONAL",
      "geometry": {
        "location": {
          "lat": 40.802287,
          "lng": -73.968289
        },
        "viewport": {
          "northeast": {
            "lat": 40.8036131302915,
            "lng": -73.9668840697085
          },
          "southwest": {
            "lat": 40.8009151697085,
            "lng": -73.9695820302915
          }
        }
      },
      "icon": "https://maps.gstatic.com/mapfiles/place_api/icons/v1/png_71/generic_business-71.png",
      "icon_background_color": "#13B5C7",
      "icon_mask_base_uri": "https://maps.gstatic.com/mapfiles/place_api/icons/v2/generic_pinlet",
      "name": "The West End Lounge",
      "opening_hours": {
        "open_now": false
      },
      "photos": [
        {
          "height": 318,
          "html_attributions": [
            "<a href=\"https://maps.google.com/maps/contrib/104884198324908092428\">The West End Lounge</a>"
          ],
          "photo_reference": "AeJbb3fV7eSWbXH4NP4oQ9XoRrpN5gsvsudvyHw_k9yRZMyLiXHLpkgFTAWODM28NufgAfsf40fZH95YTy6Mwhu1JKU37_IyZP2LJFx_D32ljd4EHCpAR7lJPU7FYWEvmLh4gYiuxLIXK04WdtlP-42RJKtkciZTzKUHLGW5VWk64IWwhU4j",
          "width": 854
        }
      ],
      "place_id": "ChIJBbFa1ST2wokRUOm-6Uua0Rg",
      "plus_code": {
        "compound_code": "R22J+WM \u7f8e\u570b\u7d10\u7d04",
        "global_code": "87G8R22J+WM"
      },
      "rating": 3.9,
      "reference": "ChIJBbFa1ST2wokRUOm-6Uua0Rg",
      "scope": "GOOGLE",
      "types": [
        "night_club",
        "bar",
        "restaurant",
        "food",
        "point_of_interest",
        "establishment"
      ],
      "user_ratings_total": 197,
      "vicinity": "955 West End Avenue, New York"
    },
    {
      "business_status": "OPERATIONAL",
      "geometry": {
        "location": {
          "lat": 40.8039113,
          "lng": -73.96743
        },
        "viewport": {
          "northeast": {
            "lat": 40.80515533029151,
            "lng": -73.9660716697085
          },
          "southwest": {
            "lat": 40.80245736970851,
            "lng": -73.9687696302915
          }
        }
      },
      "icon": "https://maps.gstatic.com/mapfiles/place_api/icons/v1/png_71/bank-71.png",
      "icon_background_color": "#909CE1",
      "icon_mask_base_uri": "https://maps.gstatic.com/mapfiles/place_api/icons/v2/bank-intl_pinlet",
      "name": "TD Bank",
      "opening_hours": {
        "open_now": false
      },
      "photos": [
        {
          "height": 4050,
          "html_attributions": [
            "<a href=\"https://maps.google.com/maps/contrib/108154320930585751379\">Ndeye Anta Niang</a>"
          ],
          "photo_reference": "AeJbb3eQs1Z3SjaHfK0YEY7ouHPnLl5naeX2tF9vlPa8ZmnuleDnERzYnCnIhx78CmGGEkTJoCZ9yaMsLgqD8VrX7-307ivewCB8puctkDSosx_Ucpt_qN5tkP3xaWL2_Ij4vLhT_erQNZ1EDYvl_G7yGzSiFdaAePQpsYqBAJWT7jcHntmu",
          "width": 3120
        }
      ],
      "place_id": "ChIJ-fd9ETv2wokRtNtQxFgUYLM",
      "plus_code": {
        "compound_code": "R23M+H2 \u7f8e\u570b\u7d10\u7d04",
        "global_code": "87G8R23M+H2"
      },
      "rating": 3.5,
      "reference": "ChIJ-fd9ETv2wokRtNtQxFgUYLM",
      "scope": "GOOGLE",
      "types": [
        "bank",
        "atm",
        "finance",
        "point_of_interest",
        "establishment"
      ],
      "user_ratings_total": 34,
      "vicinity": "2831 Broadway, New York"
    },
    {
      "business_status": "OPERATIONAL",
      "geometry": {
        "location": {
          "lat": 40.8001586,
          "lng": -73.9654426
        },
        "viewport": {
          "northeast": {
            "lat": 40.8015578802915,
            "lng": -73.96405556970849
          },
          "southwest": {
            "lat": 40.79885991970851,
            "lng": -73.9667535302915
          }
        }
      },
      "icon": "https://maps.gstatic.com/mapfiles/place_api/icons/v1/png_71/shopping-71.png",
      "icon_background_color": "#4B96F3",
      "icon_mask_base_uri": "https://maps.gstatic.com/mapfiles/place_api/icons/v2/shopping_pinlet",
      "name": "Morra Designs",
      "opening_hours": {
        "open_now": false
      },
      "place_id": "ChIJtfAlsP9YwokRme6BfAuzdMw",
      "plus_code": {
        "compound_code": "R22M+3R \u7f8e\u570b\u7d10\u7d04",
        "global_code": "87G8R22M+3R"
      },
      "rating": 5,
      "reference": "ChIJtfAlsP9YwokRme6BfAuzdMw",
      "scope": "GOOGLE",
      "types": [
        "jewelry_store",
        "point_of_interest",
        "store",
        "establishment"
      ],
      "user_ratings_total": 3,
      "vicinity": "160 West 106th Street, New York"
    },
    {
      "business_status": "OPERATIONAL",
      "geometry": {
        "location": {
          "lat": 40.8024063,
          "lng": -73.9616521
        },
        "viewport": {
          "northeast": {
            "lat": 40.8035509802915,
            "lng": -73.96019766970849
          },
          "southwest": {
            "lat": 40.80085301970851,
            "lng": -73.9628956302915
          }
        }
      },
      "icon": "https://maps.gstatic.com/mapfiles/place_api/icons/v1/png_71/generic_business-71.png",
      "icon_background_color": "#7B9EB0",
      "icon_mask_base_uri": "https://maps.gstatic.com/mapfiles/place_api/icons/v2/generic_pinlet",
      "name": "Avalon Morningside Park",
      "opening_hours": {
        "open_now": true
      },
      "photos": [
        {
          "height": 560,
          "html_attributions": [
            "<a href=\"https://maps.google.com/maps/contrib/117368280717897685945\">Avalon Morningside Park</a>"
          ],
          "photo_reference": "AeJbb3eYnSZcpQe2beLVy3fIY776F7R3Vug2X65gJuqgDD2ygQOwry39AXbGb4ZsueKVua0ZkuFvWZCUmU03c7U6EFs_3pYewjITZoQC4abRXY7ddZKCR73SwG0c63rcu8EPcI3N7sP1OEC8Ffi7dtJEKqw9i4nm9Ev1rfjaAsQofVYjTUiD",
          "width": 900
        }
      ],
      "place_id": "ChIJRcjxOT32wokR9QI_21QACNs",
      "plus_code": {
        "compound_code": "R22Q+X8 \u7f8e\u570b\u7d10\u7d04",
        "global_code": "87G8R22Q+X8"
      },
      "rating": 4.9,
      "reference": "ChIJRcjxOT32wokR9QI_21QACNs",
      "scope": "GOOGLE",
      "types": [
        "real_estate_agency",
        "point_of_interest",
        "establishment"
      ],
      "user_ratings_total": 164,
      "vicinity": "1 Morningside Drive, New York"
    },
    {
      "business_status": "OPERATIONAL",
      "geometry": {
        "location": {
          "lat": 40.7994158,
          "lng": -73.9679373
        },
        "viewport": {
          "northeast": {
            "lat": 40.8008651302915,
            "lng": -73.96651491970849
          },
          "southwest": {
            "lat": 40.7981671697085,
            "lng": -73.96921288029151
          }
        }
      },
      "icon": "https://maps.gstatic.com/mapfiles/place_api/icons/v1/png_71/school-71.png",
      "icon_background_color": "#7B9EB0",
      "icon_mask_base_uri": "https://maps.gstatic.com/mapfiles/place_api/icons/v2/school_pinlet",
      "name": "New York Language Center",
      "opening_hours": {
        "open_now": false
      },
      "photos": [
        {
          "height": 2142,
          "html_attributions": [
            "<a href=\"https://maps.google.com/maps/contrib/116541213602512632803\">New York Language Center</a>"
          ],
          "photo_reference": "AeJbb3cGynIr0Dq-Xqy-EbQDEHdq4-R1eGQlSlcAa8Qjqt0KlYTKBUSKI9yg1aqL4GrTJNTKpop0M2sm4Mf0he92484MY2Ecmt1Mal90T82goCeMQ7_FX0DyMMDqgju1lVoXfJipCDgRYYhYKrUQwhIeQlvi0YrvhFUX8_Fk2zL0VImo4XBV",
          "width": 3363
        }
      ],
      "place_id": "ChIJEUhCDib2wokRCOwyKyFmOt4",
      "plus_code": {
        "compound_code": "Q2XJ+QR \u7f8e\u570b\u7d10\u7d04",
        "global_code": "87G8Q2XJ+QR"
      },
      "rating": 4.7,
      "reference": "ChIJEUhCDib2wokRCOwyKyFmOt4",
      "scope": "GOOGLE",
      "types": [
        "school",
        "point_of_interest",
        "establishment"
      ],
      "user_ratings_total": 138,
      "vicinity": "2710 Broadway 2nd Floor, New York"
    },
    {
      "business_status": "OPERATIONAL",
      "geometry": {
        "location": {
          "lat": 40.7978438,
          "lng": -73.9699242
        },
        "viewport": {
          "northeast": {
            "lat": 40.7991344302915,
            "lng": -73.96844586970849
          },
          "southwest": {
            "lat": 40.7964364697085,
            "lng": -73.97114383029151
          }
        }
      },
      "icon": "https://maps.gstatic.com/mapfiles/place_api/icons/v1/png_71/restaurant-71.png",
      "icon_background_color": "#FF9E67",
      "icon_mask_base_uri": "https://maps.gstatic.com/mapfiles/place_api/icons/v2/restaurant_pinlet",
      "name": "Flor de Mayo",
      "opening_hours": {
        "open_now": true
      },
      "photos": [
        {
          "height": 2160,
          "html_attributions": [
            "<a href=\"https://maps.google.com/maps/contrib/106315897177838432705\">Sergio Morel</a>"
          ],
          "photo_reference": "AeJbb3dnP01_fEI5FVI6Vfq3BCE8emZVNCmXursNdBNBvZzqyxJrm_zmuRbJ3MlXH4mProI0uioh3cnC0SinEpj6spvFMy_sz_Z1tK45w3y4uM0XQR71dsFApnGnkbu3Z5r26xnRuspqCcOK94GckAhX-cX1cVGrOeI7usolVFm5hpGwbzZL",
          "width": 3840
        }
      ],
      "place_id": "ChIJccb94CX2wokRETIajBqC4tE",
      "plus_code": {
        "compound_code": "Q2XJ+42 \u7f8e\u570b\u7d10\u7d04",
        "global_code": "87G8Q2XJ+42"
      },
      "price_level": 2,
      "rating": 4.4,
      "reference": "ChIJccb94CX2wokRETIajBqC4tE",
      "scope": "GOOGLE",
      "types": [
        "restaurant",
        "food",
        "point_of_interest",
        "establishment"
      ],
      "user_ratings_total": 2457,
      "vicinity": "2651 Broadway, New York"
    },
    {
      "business_status": "OPERATIONAL",
      "geometry": {
        "location": {
          "lat": 40.8035931,
          "lng": -73.96675859999999
        },
        "viewport": {
          "northeast": {
            "lat": 40.8049871802915,
            "lng": -73.96551266970849
          },
          "southwest": {
            "lat": 40.8022892197085,
            "lng": -73.9682106302915
          }
        }
      },
      "icon": "https://maps.gstatic.com/mapfiles/place_api/icons/v1/png_71/generic_business-71.png",
      "icon_background_color": "#7B9EB0",
      "icon_mask_base_uri": "https://maps.gstatic.com/mapfiles/place_api/icons/v2/generic_pinlet",
      "name": "Right To Play USA",
      "place_id": "ChIJ6ZswEMdZwokRy8IFfXfyfbc",
      "plus_code": {
        "compound_code": "R23M+C7 \u7f8e\u570b\u7d10\u7d04",
        "global_code": "87G8R23M+C7"
      },
      "reference": "ChIJ6ZswEMdZwokRy8IFfXfyfbc",
      "scope": "GOOGLE",
      "types": [
        "point_of_interest",
        "establishment"
      ],
      "vicinity": "26 Broadway Suite 365, New York"
    },
    {
      "business_status": "OPERATIONAL",
      "geometry": {
        "location": {
          "lat": 40.8035812,
          "lng": -73.9636934
        },
        "viewport": {
          "northeast": {
            "lat": 40.80486758029149,
            "lng": -73.96224206970848
          },
          "southwest": {
            "lat": 40.80216961970849,
            "lng": -73.9649400302915
          }
        }
      },
      "icon": "https://maps.gstatic.com/mapfiles/place_api/icons/v1/png_71/restaurant-71.png",
      "icon_background_color": "#FF9E67",
      "icon_mask_base_uri": "https://maps.gstatic.com/mapfiles/place_api/icons/v2/restaurant_pinlet",
      "name": "The Hungarian Pastry Shop",
      "opening_hours": {
        "open_now": true
      },
      "photos": [
        {
          "height": 2000,
          "html_attributions": [
            "<a href=\"https://maps.google.com/maps/contrib/118353526232132698175\">Andrew Scholtz</a>"
          ],
          "photo_reference": "AeJbb3flcdbw2u-H-UK5okfvJStVutfPOIpHr4uIsscUUiEsnBH40Bg984ko8muIA7N7wXqF_5w9QBB9m-YSTJg6HXJEz4uOlQkN3s6p67iomIX5-xWeAvtqHyjssY3zMSJxhmI1-d3oJkVtnwj16UWNTZ7jl1gTpddUEJwMo8kVeGxasZN5",
          "width": 2385
        }
      ],
      "place_id": "ChIJJ08I7Tz2wokRe5Z0jqyF3F0",
      "plus_code": {
        "compound_code": "R23P+CG \u7f8e\u570b\u7d10\u7d04",
        "global_code": "87G8R23P+CG"
      },
      "price_level": 1,
      "rating": 4.6,
      "reference": "ChIJJ08I7Tz2wokRe5Z0jqyF3F0",
      "scope": "GOOGLE",
      "types": [
        "bakery",
        "cafe",
        "food",
        "point_of_interest",
        "store",
        "establishment"
      ],
      "user_ratings_total": 1618,
      "vicinity": "1030 Amsterdam Avenue, New York"
    },
    {
      "business_status": "OPERATIONAL",
      "geometry": {
        "location": {
          "lat": 40.80381959999999,
          "lng": -73.9661861
        },
        "viewport": {
          "northeast": {
            "lat": 40.80527923029149,
            "lng": -73.9650897697085
          },
          "southwest": {
            "lat": 40.80258126970849,
            "lng": -73.9677877302915
          }
        }
      },
      "icon": "https://maps.gstatic.com/mapfiles/place_api/icons/v1/png_71/school-71.png",
      "icon_background_color": "#7B9EB0",
      "icon_mask_base_uri": "https://maps.gstatic.com/mapfiles/place_api/icons/v2/school_pinlet",
      "name": "The School at Columbia University",
      "opening_hours": {
        "open_now": false
      },
      "photos": [
        {
          "height": 2988,
          "html_attributions": [
            "<a href=\"https://maps.google.com/maps/contrib/105002658274383848830\">Eric Andersen</a>"
          ],
          "photo_reference": "AeJbb3fGScYzszvbvMAR1hhJbeeeXztp37J8NSrd5QR7ozBNG9xXwPKsp5AyukuE43WBo3pqw0XCs5oIkbo3CjFRUigX2CQmCRD4Qk5e-ZvOcSOZJukG_qzrwvQYzC_TkiTTHmhbl62Ao0-8pa2GpZUEKrvZdVidYPwIxL14u0eY9hrfS_an",
          "width": 5312
        }
      ],
      "place_id": "ChIJ2x-SZTv2wokR_VzkB4rtEak",
      "plus_code": {
        "compound_code": "R23M+GG \u7f8e\u570b\u7d10\u7d04",
        "global_code": "87G8R23M+GG"
      },
      "rating": 4.8,
      "reference": "ChIJ2x-SZTv2wokR_VzkB4rtEak",
      "scope": "GOOGLE",
      "types": [
        "primary_school",
        "school",
        "point_of_interest",
        "establishment"
      ],
      "user_ratings_total": 6,
      "vicinity": "556 West 110th Street, New York"
    },
    {
      "business_status": "OPERATIONAL",
      "geometry": {
        "location": {
          "lat": 40.80451499999999,
          "lng": -73.96679999999999
        },
        "viewport": {
          "northeast": {
            "lat": 40.8057723802915,
            "lng": -73.9656486697085
          },
          "southwest": {
            "lat": 40.8030744197085,
            "lng": -73.9683466302915
          }
        }
      },
      "icon": "https://maps.gstatic.com/mapfiles/place_api/icons/v1/png_71/restaurant-71.png",
      "icon_background_color": "#FF9E67",
      "icon_mask_base_uri": "https://maps.gstatic.com/mapfiles/place_api/icons/v2/restaurant_pinlet",
      "name": "Chipotle Mexican Grill",
      "opening_hours": {
        "open_now": true
      },
      "photos": [
        {
          "height": 4032,
          "html_attributions": [
            "<a href=\"https://maps.google.com/maps/contrib/111625983714797235353\">Andrew Norton</a>"
          ],
          "photo_reference": "AeJbb3ffXuH0sagoJx7ATEr6qetIZo5RYCILYQGd5am78kLKsDqkzqYUyjZFBNzpBxiZwKW2g-egURUaDLrFIFxzgm_Oy78YQsCGSz4o45H5K-QdLyLb9sgbMbJYoa8Zvhjna5lT53iLyREs1CdwDmioH9r43lvF9Gr4GXtCh8tou791SFLm",
          "width": 3024
        }
      ],
      "place_id": "ChIJw2Rhczv2wokR3EcQiDiRHvc",
      "plus_code": {
        "compound_code": "R23M+R7 \u7f8e\u570b\u7d10\u7d04",
        "global_code": "87G8R23M+R7"
      },
      "price_level": 1,
      "rating": 4,
      "reference": "ChIJw2Rhczv2wokR3EcQiDiRHvc",
      "scope": "GOOGLE",
      "types": [
        "restaurant",
        "food",
        "point_of_interest",
        "establishment"
      ],
      "user_ratings_total": 896,
      "vicinity": "2843 Broadway, New York"
    },
    {
      "business_status": "OPERATIONAL",
      "geometry": {
        "location": {
          "lat": 40.7980397,
          "lng": -73.968969
        },
        "viewport": {
          "northeast": {
            "lat": 40.7992334302915,
            "lng": -73.96773236970849
          },
          "southwest": {
            "lat": 40.7965354697085,
            "lng": -73.97043033029149
          }
        }
      },
      "icon": "https://maps.gstatic.com/mapfiles/place_api/icons/v1/png_71/restaurant-71.png",
      "icon_background_color": "#FF9E67",
      "icon_mask_base_uri": "https://maps.gstatic.com/mapfiles/place_api/icons/v2/restaurant_pinlet",
      "name": "Broadway Restaurant",
      "opening_hours": {
        "open_now": true
      },
      "photos": [
        {
          "height": 3024,
          "html_attributions": [
            "<a href=\"https://maps.google.com/maps/contrib/102368380120665232172\">Damian Brooker</a>"
          ],
          "photo_reference": "AeJbb3dXpZqVBvHArtCiD2nC_iy3OyCYBBXVekglgUTOTg_AaOxRus8x6R76g4refGM2FXfP8jdvFDB9aTsdZ_ZEjzF-1Ud4XS2I-SRkVjEkuhCDmGg2YImbJym2TPI0rM0LumXmALSoe-K4hcmSRSnXjoXn7Mi4CmXnpu5X_2JSRIGt1gJn",
          "width": 4032
        }
      ],
      "place_id": "ChIJOSry2iX2wokRJ9svUmQZBQQ",
      "plus_code": {
        "compound_code": "Q2XJ+6C \u7f8e\u570b\u7d10\u7d04",
        "global_code": "87G8Q2XJ+6C"
      },
      "price_level": 1,
      "rating": 4.3,
      "reference": "ChIJOSry2iX2wokRJ9svUmQZBQQ",
      "scope": "GOOGLE",
      "types": [
        "restaurant",
        "food",
        "point_of_interest",
        "establishment"
      ],
      "user_ratings_total": 432,
      "vicinity": "2664 Broadway, New York"
    },
    {
      "geometry": {
        "location": {
          "lat": 40.8240478,
          "lng": -73.9447643
        },
        "viewport": {
          "northeast": {
            "lat": 40.87822003591612,
            "lng": -73.91064591328563
          },
          "southwest": {
            "lat": 40.78278392408598,
            "lng": -73.97119006413347
          }
        }
      },
      "icon": "https://maps.gstatic.com/mapfiles/place_api/icons/v1/png_71/geocode-71.png",
      "icon_background_color": "#7B9EB0",
      "icon_mask_base_uri": "https://maps.gstatic.com/mapfiles/place_api/icons/v2/generic_pinlet",
      "name": "\u66fc\u54c8\u9813\u4e0a\u57ce",
      "photos": [
        {
          "height": 4000,
          "html_attributions": [
            "<a href=\"https://maps.google.com/maps/contrib/108665206705263687409\">Chris Lidstone</a>"
          ],
          "photo_reference": "AeJbb3ciGXTcqiOni_Zl7q4fNIKULP8Fi5In6CTOBiDu54XoIG3luyzk7BlnN1vGOOJRphNpY1T936C_FjqGvyTS2G5iPxg5ol4lIYWNJZYJLAfmZcCC6WlJv40MhZqpTtGY3Qagkg24qc5BCHBk4exs1rmqYghdnsfcBhWFSdnDN0UdK683",
          "width": 3000
        }
      ],
      "place_id": "ChIJY50xHxP2wokR7WhhDNRmgRU",
      "reference": "ChIJY50xHxP2wokR7WhhDNRmgRU",
      "scope": "GOOGLE",
      "types": [
        "neighborhood",
        "political"
      ],
      "vicinity": "\u66fc\u54c8\u9813"
    },
    {
      "business_status": "OPERATIONAL",
      "geometry": {
        "location": {
          "lat": 40.8000562,
          "lng": -73.9684479
        },
        "viewport": {
          "northeast": {
            "lat": 40.8013404802915,
            "lng": -73.96711311970849
          },
          "southwest": {
            "lat": 40.79864251970851,
            "lng": -73.96981108029149
          }
        }
      },
      "icon": "https://maps.gstatic.com/mapfiles/place_api/icons/v1/png_71/restaurant-71.png",
      "icon_background_color": "#FF9E67",
      "icon_mask_base_uri": "https://maps.gstatic.com/mapfiles/place_api/icons/v2/restaurant_pinlet",
      "name": "Cafe Du Soleil",
      "opening_hours": {
        "open_now": true
      },
      "photos": [
        {
          "height": 1563,
          "html_attributions": [
            "<a href=\"https://maps.google.com/maps/contrib/109473970338954049092\">Cafe Du Soleil</a>"
          ],
          "photo_reference": "AeJbb3eQWFpy73z2C5mNocXAqDvzO4IhUDpxdEEIXno81dpYl1ZM7z48tUhj6C_0CBXIhMCQb4Wze0U-wHuUdYirIp04kKXRKR1s-U-E8GvyDTGXlWI5mjVdqB6nIFWlWVex9NTXdXFh71kiVoe0CZtGi5MQAj2OaYQXOnOQm853pcj1B8ve",
          "width": 2777
        }
      ],
      "place_id": "ChIJdSjF_yT2wokRGIi9gbkjZPw",
      "plus_code": {
        "compound_code": "R22J+2J New York, NY, USA",
        "global_code": "87G8R22J+2J"
      },
      "price_level": 2,
      "rating": 4.2,
      "reference": "ChIJdSjF_yT2wokRGIi9gbkjZPw",
      "scope": "GOOGLE",
      "types": [
        "bar",
        "restaurant",
        "food",
        "point_of_interest",
        "establishment"
      ],
      "user_ratings_total": 770,
      "vicinity": "2723 Broadway, New York"
    },
    {
      "business_status": "OPERATIONAL",
      "geometry": {
        "location": {
          "lat": 40.7996265,
          "lng": -73.9686711
        },
        "viewport": {
          "northeast": {
            "lat": 40.80094378029149,
            "lng": -73.9672069197085
          },
          "southwest": {
            "lat": 40.79824581970849,
            "lng": -73.96990488029151
          }
        }
      },
      "icon": "https://maps.gstatic.com/mapfiles/place_api/icons/v1/png_71/restaurant-71.png",
      "icon_background_color": "#FF9E67",
      "icon_mask_base_uri": "https://maps.gstatic.com/mapfiles/place_api/icons/v2/restaurant_pinlet",
      "name": "Broadway Pizza",
      "opening_hours": {
        "open_now": true
      },
      "photos": [
        {
          "height": 1080,
          "html_attributions": [
            "<a href=\"https://maps.google.com/maps/contrib/107244735303439399069\">Alexander L</a>"
          ],
          "photo_reference": "AeJbb3fr7jeLrG-0OThOTm7F061Zi_arjeyKXAw8I8zTgI6-AzjA-cPm6R0AsPOULt7mnUWRXvTGD9g0A6BW4pENa-JAk2zYtCitjBURXVAEfsHqS9NHkLiXUH8C6zA_6smv822WeLEju9blnZV_CKVFhAzsz03zy_HI_t8Iz4PCx1qV3W6v",
          "width": 1920
        }
      ],
      "place_id": "ChIJ9_E9rCX2wokRA-KHf2-flk8",
      "plus_code": {
        "compound_code": "Q2XJ+VG New York, NY, USA",
        "global_code": "87G8Q2XJ+VG"
      },
      "price_level": 1,
      "rating": 4.3,
      "reference": "ChIJ9_E9rCX2wokRA-KHf2-flk8",
      "scope": "GOOGLE",
      "types": [
        "restaurant",
        "food",
        "point_of_interest",
        "establishment"
      ],
      "user_ratings_total": 160,
      "vicinity": "2709 Broadway, New York"
    },
    {
      "business_status": "OPERATIONAL",
      "geometry": {
        "location": {
          "lat": 40.8006305,
          "lng": -73.9701204
        },
        "viewport": {
          "northeast": {
            "lat": 40.80197733029151,
            "lng": -73.9687729697085
          },
          "southwest": {
            "lat": 40.79927936970851,
            "lng": -73.97147093029152
          }
        }
      },
      "icon": "https://maps.gstatic.com/mapfiles/place_api/icons/v1/png_71/generic_business-71.png",
      "icon_background_color": "#7B9EB0",
      "icon_mask_base_uri": "https://maps.gstatic.com/mapfiles/place_api/icons/v2/generic_pinlet",
      "name": "Theater Resources Unlimited",
      "opening_hours": {
        "open_now": false
      },
      "place_id": "ChIJQR0PKpJZwokReWFAZxMCalk",
      "plus_code": {
        "compound_code": "R22H+7X New York, NY, USA",
        "global_code": "87G8R22H+7X"
      },
      "rating": 5,
      "reference": "ChIJQR0PKpJZwokReWFAZxMCalk",
      "scope": "GOOGLE",
      "types": [
        "point_of_interest",
        "establishment"
      ],
      "user_ratings_total": 2,
      "vicinity": "309 West 104th Street #1D, New York"
    },
    {
      "business_status": "OPERATIONAL",
      "geometry": {
        "location": {
          "lat": 40.79953889999999,
          "lng": -73.9641548
        },
        "viewport": {
          "northeast": {
            "lat": 40.8009386302915,
            "lng": -73.9626900197085
          },
          "southwest": {
            "lat": 40.7982406697085,
            "lng": -73.96538798029151
          }
        }
      },
      "icon": "https://maps.gstatic.com/mapfiles/place_api/icons/v1/png_71/generic_business-71.png",
      "icon_background_color": "#7B9EB0",
      "icon_mask_base_uri": "https://maps.gstatic.com/mapfiles/place_api/icons/v2/generic_pinlet",
      "name": "Dr. Hans Stohrer, MD",
      "place_id": "ChIJY2yHCyP2wokRTehPHDKgd-8",
      "plus_code": {
        "compound_code": "Q2XP+R8 New York, NY, USA",
        "global_code": "87G8Q2XP+R8"
      },
      "reference": "ChIJY2yHCyP2wokRTehPHDKgd-8",
      "scope": "GOOGLE",
      "types": [
        "doctor",
        "health",
        "point_of_interest",
        "establishment"
      ],
      "vicinity": "120 West 106th Street, New York"
    },
    {
      "business_status": "CLOSED_TEMPORARILY",
      "geometry": {
        "location": {
          "lat": 40.79953889999999,
          "lng": -73.9641548
        },
        "viewport": {
          "northeast": {
            "lat": 40.8009386302915,
            "lng": -73.9626900197085
          },
          "southwest": {
            "lat": 40.7982406697085,
            "lng": -73.96538798029151
          }
        }
      },
      "icon": "https://maps.gstatic.com/mapfiles/place_api/icons/v1/png_71/generic_business-71.png",
      "icon_background_color": "#7B9EB0",
      "icon_mask_base_uri": "https://maps.gstatic.com/mapfiles/place_api/icons/v2/generic_pinlet",
      "name": "Mathew Shiny M",
      "permanently_closed": true,
      "place_id": "ChIJY2yHCyP2wokRHRQZjKLdT6w",
      "plus_code": {
        "compound_code": "Q2XP+R8 New York, NY, USA",
        "global_code": "87G8Q2XP+R8"
      },
      "reference": "ChIJY2yHCyP2wokRHRQZjKLdT6w",
      "scope": "GOOGLE",
      "types": [
        "point_of_interest",
        "establishment"
      ],
      "vicinity": "120 West 106th Street, New York"
    },
    {
      "business_status": "OPERATIONAL",
      "geometry": {
        "location": {
          "lat": 40.79953889999999,
          "lng": -73.9641548
        },
        "viewport": {
          "northeast": {
            "lat": 40.80096398029149,
            "lng": -73.96275031970849
          },
          "southwest": {
            "lat": 40.79826601970849,
            "lng": -73.9654482802915
          }
        }
      },
      "icon": "https://maps.gstatic.com/mapfiles/place_api/icons/v1/png_71/generic_business-71.png",
      "icon_background_color": "#7B9EB0",
      "icon_mask_base_uri": "https://maps.gstatic.com/mapfiles/place_api/icons/v2/generic_pinlet",
      "name": "Senior Health Partners",
      "place_id": "ChIJcSCXdCP2wokRx8lqzLSuQ80",
      "plus_code": {
        "compound_code": "Q2XP+R8 New York, NY, USA",
        "global_code": "87G8Q2XP+R8"
      },
      "rating": 4,
      "reference": "ChIJcSCXdCP2wokRx8lqzLSuQ80",
      "scope": "GOOGLE",
      "types": [
        "point_of_interest",
        "establishment"
      ],
      "user_ratings_total": 1,
      "vicinity": "120 West 106th Street, New York"
    },
    {
      "business_status": "OPERATIONAL",
      "geometry": {
        "location": {
          "lat": 40.7983829,
          "lng": -73.969439
        },
        "viewport": {
          "northeast": {
            "lat": 40.7997328802915,
            "lng": -73.96799321970849
          },
          "southwest": {
            "lat": 40.7970349197085,
            "lng": -73.9706911802915
          }
        }
      },
      "icon": "https://maps.gstatic.com/mapfiles/place_api/icons/v1/png_71/restaurant-71.png",
      "icon_background_color": "#FF9E67",
      "icon_mask_base_uri": "https://maps.gstatic.com/mapfiles/place_api/icons/v2/restaurant_pinlet",
      "name": "Sal and Carmine Pizza",
      "opening_hours": {
        "open_now": true
      },
      "photos": [
        {
          "height": 2448,
          "html_attributions": [
            "<a href=\"https://maps.google.com/maps/contrib/114592143269096100906\">Jesse Spector</a>"
          ],
          "photo_reference": "AeJbb3clB7_Eg5IyQj7MYOBXazn7aNkNlp788_6xGlzIFSMuKSkPHzNCaX_jCSNnelFobDHM5yqJrEtJY1mwwkKOqt5qI83wpQVY5m4N0nil65FNZX8wKzS58DnaoboGlwSrEitYu8_Xe60wmrpAnUY5qitvtvB4wbPkGZziYTZtlIMfc2sn",
          "width": 2448
        }
      ],
      "place_id": "ChIJs4RhwyX2wokRZ_3DWlaukaE",
      "plus_code": {
        "compound_code": "Q2XJ+96 New York, NY, USA",
        "global_code": "87G8Q2XJ+96"
      },
      "price_level": 1,
      "rating": 4.4,
      "reference": "ChIJs4RhwyX2wokRZ_3DWlaukaE",
      "scope": "GOOGLE",
      "types": [
        "restaurant",
        "food",
        "point_of_interest",
        "establishment"
      ],
      "user_ratings_total": 497,
      "vicinity": "2671 Broadway, New York"
    },
    {
      "business_status": "OPERATIONAL",
      "geometry": {
        "location": {
          "lat": 40.79953889999999,
          "lng": -73.9641548
        },
        "viewport": {
          "northeast": {
            "lat": 40.8009386302915,
            "lng": -73.9626900197085
          },
          "southwest": {
            "lat": 40.7982406697085,
            "lng": -73.96538798029151
          }
        }
      },
      "icon": "https://maps.gstatic.com/mapfiles/place_api/icons/v1/png_71/generic_business-71.png",
      "icon_background_color": "#7B9EB0",
      "icon_mask_base_uri": "https://maps.gstatic.com/mapfiles/place_api/icons/v2/generic_pinlet",
      "name": "Dr. Martha N. Krenn, MD",
      "place_id": "ChIJY2yHCyP2wokRbayzIJAQJ3Y",
      "plus_code": {
        "compound_code": "Q2XP+R8 New York, NY, USA",
        "global_code": "87G8Q2XP+R8"
      },
      "reference": "ChIJY2yHCyP2wokRbayzIJAQJ3Y",
      "scope": "GOOGLE",
      "types": [
        "doctor",
        "health",
        "point_of_interest",
        "establishment"
      ],
      "vicinity": "120 West 106th Street, New York"
    },
    {
      "business_status": "OPERATIONAL",
      "geometry": {
        "location": {
          "lat": 40.8042106,
          "lng": -73.9628315
        },
        "viewport": {
          "northeast": {
            "lat": 40.8055816802915,
            "lng": -73.9615345197085
          },
          "southwest": {
            "lat": 40.8028837197085,
            "lng": -73.9642324802915
          }
        }
      },
      "icon": "https://maps.gstatic.com/mapfiles/place_api/icons/v1/png_71/generic_business-71.png",
      "icon_background_color": "#7B9EB0",
      "icon_mask_base_uri": "https://maps.gstatic.com/mapfiles/place_api/icons/v2/generic_pinlet",
      "name": "Rockdup Productions",
      "photos": [
        {
          "height": 4032,
          "html_attributions": [
            "<a href=\"https://maps.google.com/maps/contrib/107678749735717243432\">William Brown</a>"
          ],
          "photo_reference": "AeJbb3cl7egjpxRqvtr84Fi9P9QQSVcCtgL-6Yvqk2rkkwTbq3fd7eXDt5tHb9ZNZ7nBTpaQeRtwUB-8o0Z1dISU7CMJb0TNlSkdBBx3q-slY8G1j28wKf3GrP1ppff8f-1A4uQscFRc7kdIlqMTTv-mbePAHP_6MkHV76LwUwXQlYkyEfAt",
          "width": 3024
        }
      ],
      "place_id": "ChIJZYBYVjz2wokRJdZP9L1Zjeg",
      "plus_code": {
        "compound_code": "R23P+MV New York, NY, USA",
        "global_code": "87G8R23P+MV"
      },
      "reference": "ChIJZYBYVjz2wokRJdZP9L1Zjeg",
      "scope": "GOOGLE",
      "types": [
        "point_of_interest",
        "establishment"
      ],
      "vicinity": "1049 Amsterdam Avenue, New York"
    },
    {
      "business_status": "OPERATIONAL",
      "geometry": {
        "location": {
          "lat": 40.8019525,
          "lng": -73.964247
        },
        "viewport": {
          "northeast": {
            "lat": 40.80336618029149,
            "lng": -73.96304871970851
          },
          "southwest": {
            "lat": 40.8006682197085,
            "lng": -73.96574668029152
          }
        }
      },
      "icon": "https://maps.gstatic.com/mapfiles/place_api/icons/v1/png_71/generic_business-71.png",
      "icon_background_color": "#7B9EB0",
      "icon_mask_base_uri": "https://maps.gstatic.com/mapfiles/place_api/icons/v2/generic_pinlet",
      "name": "Sherman David M MD",
      "place_id": "ChIJjRpyy_VYwokR8fvKiDnKQNc",
      "plus_code": {
        "compound_code": "R22P+Q8 New York, NY, USA",
        "global_code": "87G8R22P+Q8"
      },
      "rating": 5,
      "reference": "ChIJjRpyy_VYwokR8fvKiDnKQNc",
      "scope": "GOOGLE",
      "types": [
        "doctor",
        "health",
        "point_of_interest",
        "establishment"
      ],
      "user_ratings_total": 1,
      "vicinity": "989 Amsterdam Avenue #5A, New York"
    },
    {
      "business_status": "OPERATIONAL",
      "geometry": {
        "location": {
          "lat": 40.803982,
          "lng": -73.96562229999999
        },
        "viewport": {
          "northeast": {
            "lat": 40.80524868029151,
            "lng": -73.96432471970849
          },
          "southwest": {
            "lat": 40.80255071970851,
            "lng": -73.96702268029149
          }
        }
      },
      "icon": "https://maps.gstatic.com/mapfiles/place_api/icons/v1/png_71/generic_business-71.png",
      "icon_background_color": "#7B9EB0",
      "icon_mask_base_uri": "https://maps.gstatic.com/mapfiles/place_api/icons/v2/generic_pinlet",
      "name": "Bertie Bregman MD",
      "opening_hours": {
        "open_now": true
      },
      "place_id": "ChIJQdO-fDv2wokRb7sUmkOg_PQ",
      "plus_code": {
        "compound_code": "R23M+HQ New York, NY, USA",
        "global_code": "87G8R23M+HQ"
      },
      "rating": 3.9,
      "reference": "ChIJQdO-fDv2wokRb7sUmkOg_PQ",
      "scope": "GOOGLE",
      "types": [
        "doctor",
        "health",
        "point_of_interest",
        "establishment"
      ],
      "user_ratings_total": 17,
      "vicinity": "535 West 110th Street #1E, New York"
    },
    {
      "business_status": "OPERATIONAL",
      "geometry": {
        "location": {
          "lat": 40.801047,
          "lng": -73.9618424
        },
        "viewport": {
          "northeast": {
            "lat": 40.80230003029151,
            "lng": -73.96041121970849
          },
          "southwest": {
            "lat": 40.79960206970851,
            "lng": -73.96310918029151
          }
        }
      },
      "icon": "https://maps.gstatic.com/mapfiles/place_api/icons/v1/png_71/restaurant-71.png",
      "icon_background_color": "#FF9E67",
      "icon_mask_base_uri": "https://maps.gstatic.com/mapfiles/place_api/icons/v2/restaurant_pinlet",
      "name": "Crepes On Columbus",
      "opening_hours": {
        "open_now": true
      },
      "photos": [
        {
          "height": 3000,
          "html_attributions": [
            "<a href=\"https://maps.google.com/maps/contrib/108545088326612066334\">Crepes On Columbus</a>"
          ],
          "photo_reference": "AeJbb3dBDnZzDLUoq-hBqlyOEbDektAWgcQTq4dzu6SbmjlYGw7tBqN-S949CnFRTcyIl0PNTaKSkfVnw5Yv1lH-ARBtew67XZNt8ncROrjVYPEyHTCCjx0HGiyr62OWkWgb57R2ww_iQf-Itbz7J-pkO7fiD3GKKI1rp2QDNAXg62iJY_Kp",
          "width": 4000
        }
      ],
      "place_id": "ChIJ5wPq0SL2wokRWumRNSRyUis",
      "plus_code": {
        "compound_code": "R22Q+C7 New York, NY, USA",
        "global_code": "87G8R22Q+C7"
      },
      "price_level": 2,
      "rating": 4.4,
      "reference": "ChIJ5wPq0SL2wokRWumRNSRyUis",
      "scope": "GOOGLE",
      "types": [
        "store",
        "restaurant",
        "food",
        "point_of_interest",
        "establishment"
      ],
      "user_ratings_total": 540,
      "vicinity": "990 Columbus Avenue, New York"
    },
    {
      "business_status": "OPERATIONAL",
      "geometry": {
        "location": {
          "lat": 40.8023682,
          "lng": -73.9670553
        },
        "viewport": {
          "northeast": {
            "lat": 40.80384983029149,
            "lng": -73.96560586970848
          },
          "southwest": {
            "lat": 40.8011518697085,
            "lng": -73.96830383029149
          }
        }
      },
      "icon": "https://maps.gstatic.com/mapfiles/place_api/icons/v1/png_71/generic_business-71.png",
      "icon_background_color": "#7B9EB0",
      "icon_mask_base_uri": "https://maps.gstatic.com/mapfiles/place_api/icons/v2/generic_pinlet",
      "name": "The Bridge",
      "photos": [
        {
          "height": 3264,
          "html_attributions": [
            "<a href=\"https://maps.google.com/maps/contrib/109353218524855187395\">David Emanuel</a>"
          ],
          "photo_reference": "AeJbb3f4YujrOwbIuYA8gKE9aPR4oUIQ4LgGQ83sj_OE37tHnU90OevcVk0qibFWQgmcZCX1ZktZWFbsJCNRUGvi9yhbEyCiyT7O9Vfpbe9s1YWOvjjPqX36ca04ptb_Rmt7kj8tnCk1Rv5p8j-hbxOvqY-1ke5Vgl1zr0Z8lVQ8544nCIzj",
          "width": 2448
        }
      ],
      "place_id": "ChIJRwAONjv2wokRbRsnVApOlTY",
      "plus_code": {
        "compound_code": "R22M+W5 New York, NY, USA",
        "global_code": "87G8R22M+W5"
      },
      "rating": 3.3,
      "reference": "ChIJRwAONjv2wokRbRsnVApOlTY",
      "scope": "GOOGLE",
      "types": [
        "doctor",
        "health",
        "point_of_interest",
        "establishment"
      ],
      "user_ratings_total": 22,
      "vicinity": "248 West 108th Street, New York"
    },
    {
      "business_status": "OPERATIONAL",
      "geometry": {
        "location": {
          "lat": 40.8000562,
          "lng": -73.9684479
        },
        "viewport": {
          "northeast": {
            "lat": 40.8013404802915,
            "lng": -73.96711311970849
          },
          "southwest": {
            "lat": 40.79864251970851,
            "lng": -73.96981108029149
          }
        }
      },
      "icon": "https://maps.gstatic.com/mapfiles/place_api/icons/v1/png_71/school-71.png",
      "icon_background_color": "#7B9EB0",
      "icon_mask_base_uri": "https://maps.gstatic.com/mapfiles/place_api/icons/v2/school_pinlet",
      "name": "New York City Housing Authority's Douglass II Day Care Center",
      "place_id": "ChIJUY15zCb2wokRk4ig60iNBTI",
      "plus_code": {
        "compound_code": "R22J+2J New York, NY, USA",
        "global_code": "87G8R22J+2J"
      },
      "rating": 1,
      "reference": "ChIJUY15zCb2wokRk4ig60iNBTI",
      "scope": "GOOGLE",
      "types": [
        "point_of_interest",
        "establishment"
      ],
      "user_ratings_total": 1,
      "vicinity": "820 Columbus Avenue, New York"
    },
    {
      "business_status": "OPERATIONAL",
      "geometry": {
        "location": {
          "lat": 40.802815,
          "lng": -73.966707
        },
        "viewport": {
          "northeast": {
            "lat": 40.8040709302915,
            "lng": -73.9654262197085
          },
          "southwest": {
            "lat": 40.8013729697085,
            "lng": -73.96812418029151
          }
        }
      },
      "icon": "https://maps.gstatic.com/mapfiles/place_api/icons/v1/png_71/generic_business-71.png",
      "icon_background_color": "#7B9EB0",
      "icon_mask_base_uri": "https://maps.gstatic.com/mapfiles/place_api/icons/v2/generic_pinlet",
      "name": "Target Smarts",
      "place_id": "ChIJw5gwSDv2wokR0BrFfh-5xps",
      "plus_code": {
        "compound_code": "R23M+48 New York, NY, USA",
        "global_code": "87G8R23M+48"
      },
      "reference": "ChIJw5gwSDv2wokR0BrFfh-5xps",
      "scope": "GOOGLE",
      "types": [
        "point_of_interest",
        "establishment"
      ],
      "vicinity": "241 West 108th Street #1d, New York"
    },
    {
      "business_status": "OPERATIONAL",
      "geometry": {
        "location": {
          "lat": 40.7990707,
          "lng": -73.9688887
        },
        "viewport": {
          "northeast": {
            "lat": 40.80042598029149,
            "lng": -73.96745686970849
          },
          "southwest": {
            "lat": 40.79772801970849,
            "lng": -73.9701548302915
          }
        }
      },
      "icon": "https://maps.gstatic.com/mapfiles/place_api/icons/v1/png_71/school-71.png",
      "icon_background_color": "#7B9EB0",
      "icon_mask_base_uri": "https://maps.gstatic.com/mapfiles/place_api/icons/v2/school_pinlet",
      "name": "Purple Circle Early Childhood Program",
      "opening_hours": {
        "open_now": false
      },
      "photos": [
        {
          "height": 3024,
          "html_attributions": [
            "<a href=\"https://maps.google.com/maps/contrib/106957645679868456968\">Purple Circle Early Childhood Program</a>"
          ],
          "photo_reference": "AeJbb3dET5L4Vtf2G1lexcRlrBM9DPUdfBql1dR4e8IH31Nou8l9Kokr8t2_GHBoDOeEDuENy_9Pjeh8hDy4UHXWWxMSZxbSwzNPLXeRAwlM7WEW1O0QZvEr4s-_z6eB0Qo0pwR9mvNFhiL-ctGaresTNKUZGwnz-NjRmcRdo68tP9estXb_",
          "width": 4032
        }
      ],
      "place_id": "ChIJN_AWByb2wokRCQQgU7l9uWI",
      "plus_code": {
        "compound_code": "Q2XJ+JC New York, NY, USA",
        "global_code": "87G8Q2XJ+JC"
      },
      "reference": "ChIJN_AWByb2wokRCQQgU7l9uWI",
      "scope": "GOOGLE",
      "types": [
        "school",
        "point_of_interest",
        "establishment"
      ],
      "vicinity": "2697 Broadway, New York"
    },
    {
      "business_status": "CLOSED_TEMPORARILY",
      "geometry": {
        "location": {
          "lat": 40.8014285,
          "lng": -73.96466869999999
        },
        "viewport": {
          "northeast": {
            "lat": 40.8028269802915,
            "lng": -73.96346606970849
          },
          "southwest": {
            "lat": 40.8001290197085,
            "lng": -73.96616403029151
          }
        }
      },
      "icon": "https://maps.gstatic.com/mapfiles/place_api/icons/v1/png_71/restaurant-71.png",
      "icon_background_color": "#FF9E67",
      "icon_mask_base_uri": "https://maps.gstatic.com/mapfiles/place_api/icons/v2/restaurant_pinlet",
      "name": "Subway",
      "permanently_closed": true,
      "photos": [
        {
          "height": 4032,
          "html_attributions": [
            "<a href=\"https://maps.google.com/maps/contrib/110229398390276187005\">Vignesh M</a>"
          ],
          "photo_reference": "AeJbb3dEb22EVBTPQ-_iWIQMv9Vv9Og8WNf1nfYHiUa2qGWo2yMibrR_JYhfoH8FwmflMaHmTxFrqtcvDdfHWYi2sIdDKjD8hw6GqZtAzyADPyKpzH5FnMZYusPxJzk3l7xPlO79Iqid9ek2PXJjFMET13MMPACA15eeYaB_v1LLfKn2qMLi",
          "width": 3024
        }
      ],
      "place_id": "ChIJfWvnUCP2wokRmNwFXtY1yAo",
      "plus_code": {
        "compound_code": "R22P+H4 New York, NY, USA",
        "global_code": "87G8R22P+H4"
      },
      "price_level": 1,
      "rating": 3.5,
      "reference": "ChIJfWvnUCP2wokRmNwFXtY1yAo",
      "scope": "GOOGLE",
      "types": [
        "meal_takeaway",
        "restaurant",
        "food",
        "point_of_interest",
        "establishment"
      ],
      "user_ratings_total": 44,
      "vicinity": "971 Amsterdam Avenue Store 1, New York"
    },
    {
      "business_status": "OPERATIONAL",
      "geometry": {
        "location": {
          "lat": 40.79713090000001,
          "lng": -73.96678320000001
        },
        "viewport": {
          "northeast": {
            "lat": 40.7986411802915,
            "lng": -73.96532491970852
          },
          "southwest": {
            "lat": 40.79594321970851,
            "lng": -73.96802288029153
          }
        }
      },
      "icon": "https://maps.gstatic.com/mapfiles/place_api/icons/v1/png_71/school-71.png",
      "icon_background_color": "#7B9EB0",
      "icon_mask_base_uri": "https://maps.gstatic.com/mapfiles/place_api/icons/v2/school_pinlet",
      "name": "Edward A. Reynolds West Side High School",
      "photos": [
        {
          "height": 2304,
          "html_attributions": [
            "<a href=\"https://maps.google.com/maps/contrib/106384655658724557680\">Anton G</a>"
          ],
          "photo_reference": "AeJbb3fPMSQlkIPV3bNeLgBsSUygdSabJYNEp3RmEw1vJzUvoPZkmae9RND8fzLh96-6uuixBaoprwYkHKfdI0lnw66QIgMamR5K6xemv0cSuG3Vybc9q1z1WhntiOfXensyIMb-YBG4DkojissW38abSeiqFslbuVndDr6402niaUUdzjVP",
          "width": 3072
        }
      ],
      "place_id": "ChIJD97GmCb2wokRJDtn8K6uVzc",
      "plus_code": {
        "compound_code": "Q2WM+V7 New York, NY, USA",
        "global_code": "87G8Q2WM+V7"
      },
      "rating": 3.9,
      "reference": "ChIJD97GmCb2wokRJDtn8K6uVzc",
      "scope": "GOOGLE",
      "types": [
        "secondary_school",
        "school",
        "point_of_interest",
        "establishment"
      ],
      "user_ratings_total": 14,
      "vicinity": "140 West 102nd Street, New York"
    },
    {
      "business_status": "OPERATIONAL",
      "geometry": {
        "location": {
          "lat": 40.79953889999999,
          "lng": -73.9641548
        },
        "viewport": {
          "northeast": {
            "lat": 40.8009386302915,
            "lng": -73.9626900197085
          },
          "southwest": {
            "lat": 40.7982406697085,
            "lng": -73.96538798029151
          }
        }
      },
      "icon": "https://maps.gstatic.com/mapfiles/place_api/icons/v1/png_71/generic_business-71.png",
      "icon_background_color": "#7B9EB0",
      "icon_mask_base_uri": "https://maps.gstatic.com/mapfiles/place_api/icons/v2/generic_pinlet",
      "name": "Dr. Maria-Jose F. Camargo, MD",
      "place_id": "ChIJY2yHCyP2wokRHJ9s-LIC_wE",
      "plus_code": {
        "compound_code": "Q2XP+R8 New York, NY, USA",
        "global_code": "87G8Q2XP+R8"
      },
      "reference": "ChIJY2yHCyP2wokRHJ9s-LIC_wE",
      "scope": "GOOGLE",
      "types": [
        "doctor",
        "health",
        "point_of_interest",
        "establishment"
      ],
      "vicinity": "120 West 106th Street, New York"
    },
    {
      "business_status": "OPERATIONAL",
      "geometry": {
        "location": {
          "lat": 40.7995561,
          "lng": -73.9640141
        },
        "viewport": {
          "northeast": {
            "lat": 40.8009463302915,
            "lng": -73.9626196697085
          },
          "southwest": {
            "lat": 40.7982483697085,
            "lng": -73.96531763029151
          }
        }
      },
      "icon": "https://maps.gstatic.com/mapfiles/place_api/icons/v1/png_71/generic_business-71.png",
      "icon_background_color": "#7B9EB0",
      "icon_mask_base_uri": "https://maps.gstatic.com/mapfiles/place_api/icons/v2/generic_pinlet",
      "name": "Dr. Judith M. Frank, MD",
      "place_id": "ChIJY2yHCyP2wokRfDYdMVxfkh4",
      "plus_code": {
        "compound_code": "Q2XP+R9 New York, NY, USA",
        "global_code": "87G8Q2XP+R9"
      },
      "reference": "ChIJY2yHCyP2wokRfDYdMVxfkh4",
      "scope": "GOOGLE",
      "types": [
        "doctor",
        "health",
        "point_of_interest",
        "establishment"
      ],
      "vicinity": "120 West 106th Street, New York"
    },
    {
      "business_status": "OPERATIONAL",
      "geometry": {
        "location": {
          "lat": 40.8004274,
          "lng": -73.9710637
        },
        "viewport": {
          "northeast": {
            "lat": 40.8018309802915,
            "lng": -73.96984836970849
          },
          "southwest": {
            "lat": 40.7991330197085,
            "lng": -73.97254633029151
          }
        }
      },
      "icon": "https://maps.gstatic.com/mapfiles/place_api/icons/v1/png_71/shopping-71.png",
      "icon_background_color": "#4B96F3",
      "icon_mask_base_uri": "https://maps.gstatic.com/mapfiles/place_api/icons/v2/shopping_pinlet",
      "name": "ILANA LOBET FRAMING STUDIO",
      "opening_hours": {
        "open_now": true
      },
      "photos": [
        {
          "height": 600,
          "html_attributions": [
            "<a href=\"https://maps.google.com/maps/contrib/115046768569298865528\">ILANA LOBET FRAMING STUDIO</a>"
          ],
          "photo_reference": "AeJbb3eK8qWsxn9R6r-EILBT83pFpK5CpIXw9blLYF8Jh5cReNTwRR_CsU1S6Aa7TZshrFlKW52ZHWOgpz8mlz6iJaFnHfbyYevCG_r7LB2AOM90GEAG_CeWZnZBK79x5BJbH69Ldo43ewB_gZxryn6F5sF9fqp46C3tI3g_ERMoqDTJgF8B",
          "width": 400
        }
      ],
      "place_id": "ChIJFxj9aiT2wokR5oNhD1CWYAc",
      "plus_code": {
        "compound_code": "R22H+5H New York, NY, USA",
        "global_code": "87G8R22H+5H"
      },
      "rating": 5,
      "reference": "ChIJFxj9aiT2wokR5oNhD1CWYAc",
      "scope": "GOOGLE",
      "types": [
        "point_of_interest",
        "store",
        "establishment"
      ],
      "user_ratings_total": 3,
      "vicinity": "310 Riverside Drive suite 201-1, New York"
    },
    {
      "business_status": "OPERATIONAL",
      "geometry": {
        "location": {
          "lat": 40.803322,
          "lng": -73.964146
        },
        "viewport": {
          "northeast": {
            "lat": 40.80460893029149,
            "lng": -73.9628537697085
          },
          "southwest": {
            "lat": 40.8019109697085,
            "lng": -73.96555173029151
          }
        }
      },
      "icon": "https://maps.gstatic.com/mapfiles/place_api/icons/v1/png_71/generic_business-71.png",
      "icon_background_color": "#7B9EB0",
      "icon_mask_base_uri": "https://maps.gstatic.com/mapfiles/place_api/icons/v2/generic_pinlet",
      "name": "Nan Melville Photography",
      "place_id": "ChIJuw3T-YlYwokRkvulqUrTSNE",
      "plus_code": {
        "compound_code": "R23P+88 New York, NY, USA",
        "global_code": "87G8R23P+88"
      },
      "reference": "ChIJuw3T-YlYwokRkvulqUrTSNE",
      "scope": "GOOGLE",
      "types": [
        "point_of_interest",
        "establishment"
      ],
      "vicinity": "501 West 110th Street #6f, New York"
    },
    {
      "business_status": "OPERATIONAL",
      "geometry": {
        "location": {
          "lat": 40.79912720000001,
          "lng": -73.9680115
        },
        "viewport": {
          "northeast": {
            "lat": 40.80054938029151,
            "lng": -73.9668505697085
          },
          "southwest": {
            "lat": 40.79785141970851,
            "lng": -73.96954853029152
          }
        }
      },
      "icon": "https://maps.gstatic.com/mapfiles/place_api/icons/v1/png_71/generic_business-71.png",
      "icon_background_color": "#7B9EB0",
      "icon_mask_base_uri": "https://maps.gstatic.com/mapfiles/place_api/icons/v2/generic_pinlet",
      "name": "Columbia University: Broadway Apartments",
      "place_id": "ChIJyQ3Tlj72wokRjrgY7CYi5oI",
      "plus_code": {
        "compound_code": "Q2XJ+MQ New York, NY, USA",
        "global_code": "87G8Q2XJ+MQ"
      },
      "rating": 5,
      "reference": "ChIJyQ3Tlj72wokRjrgY7CYi5oI",
      "scope": "GOOGLE",
      "types": [
        "real_estate_agency",
        "point_of_interest",
        "establishment"
      ],
      "user_ratings_total": 2,
      "vicinity": "2700 Broadway, New York"
    },
    {
      "business_status": "OPERATIONAL",
      "geometry": {
        "location": {
          "lat": 40.797765,
          "lng": -73.96895099999999
        },
        "viewport": {
          "northeast": {
            "lat": 40.7990682302915,
            "lng": -73.96766136970848
          },
          "southwest": {
            "lat": 40.7963702697085,
            "lng": -73.97035933029149
          }
        }
      },
      "icon": "https://maps.gstatic.com/mapfiles/place_api/icons/v1/png_71/generic_business-71.png",
      "icon_background_color": "#7B9EB0",
      "icon_mask_base_uri": "https://maps.gstatic.com/mapfiles/place_api/icons/v2/generic_pinlet",
      "name": "NYCleaners",
      "opening_hours": {
        "open_now": true
      },
      "photos": [
        {
          "height": 667,
          "html_attributions": [
            "<a href=\"https://maps.google.com/maps/contrib/109065550841515205320\">NYCleaners</a>"
          ],
          "photo_reference": "AeJbb3fILAPfZYrYjsQ4MWLGMGxbYwE-Mc2MwYNuBapZHqLIT7o8os0O18JHhr651YJZuiy09BAEQsjKp7mLClA6f-4wdDB1h5EGKUSjFRUoZPgEKu1B2a-Dd3NoyF72A-eM3CEc2HxwETIXL-BuFunCHXEDC4ajAhB0U7R1lC7ts0u2Znzx",
          "width": 1000
        }
      ],
      "place_id": "ChIJc0oL1yX2wokRtby8tirHBgs",
      "plus_code": {
        "compound_code": "Q2XJ+4C New York, NY, USA",
        "global_code": "87G8Q2XJ+4C"
      },
      "rating": 4.9,
      "reference": "ChIJc0oL1yX2wokRtby8tirHBgs",
      "scope": "GOOGLE",
      "types": [
        "laundry",
        "point_of_interest",
        "establishment"
      ],
      "user_ratings_total": 199,
      "vicinity": "215 West 101st Street, New York"
    },
    {
      "business_status": "OPERATIONAL",
      "geometry": {
        "location": {
          "lat": 40.7994373,
          "lng": -73.9640098
        },
        "viewport": {
          "northeast": {
            "lat": 40.8008878302915,
            "lng": -73.96261751970852
          },
          "southwest": {
            "lat": 40.7981898697085,
            "lng": -73.96531548029152
          }
        }
      },
      "icon": "https://maps.gstatic.com/mapfiles/place_api/icons/v1/png_71/generic_business-71.png",
      "icon_background_color": "#7B9EB0",
      "icon_mask_base_uri": "https://maps.gstatic.com/mapfiles/place_api/icons/v2/generic_pinlet",
      "name": "The New Jewish Home, Manhattan Campus",
      "opening_hours": {
        "open_now": true
      },
      "photos": [
        {
          "height": 4912,
          "html_attributions": [
            "<a href=\"https://maps.google.com/maps/contrib/102204546350295361177\">The New Jewish Home, Manhattan Campus</a>"
          ],
          "photo_reference": "AeJbb3ftebPoJaLErScgTfFz9FYyRc7-f02AlwsCnYicxBgRy6TyIz6EnGL3z2TUqSbptJXYXiLRpTkIVs5Uy_urpfn2vzSlFTqzzAzLD4PfFOUO5YS1dccDzJ5aGjPT9lLgpSqOXKVhMHd34_g512UEdFmKBtd1Pp1678wi9pBa-Sf9NqNX",
          "width": 7360
        }
      ],
      "place_id": "ChIJY2yHCyP2wokRPnKb87zaENM",
      "plus_code": {
        "compound_code": "Q2XP+Q9 New York, NY, USA",
        "global_code": "87G8Q2XP+Q9"
      },
      "rating": 2.6,
      "reference": "ChIJY2yHCyP2wokRPnKb87zaENM",
      "scope": "GOOGLE",
      "types": [
        "health",
        "point_of_interest",
        "establishment"
      ],
      "user_ratings_total": 117,
      "vicinity": "120 West 106th Street, New York"
    },
    {
      "business_status": "OPERATIONAL",
      "geometry": {
        "location": {
          "lat": 40.803437,
          "lng": -73.968245
        },
        "viewport": {
          "northeast": {
            "lat": 40.8047005802915,
            "lng": -73.9669585697085
          },
          "southwest": {
            "lat": 40.8020026197085,
            "lng": -73.9696565302915
          }
        }
      },
      "icon": "https://maps.gstatic.com/mapfiles/place_api/icons/v1/png_71/school-71.png",
      "icon_background_color": "#7B9EB0",
      "icon_mask_base_uri": "https://maps.gstatic.com/mapfiles/place_api/icons/v2/school_pinlet",
      "name": "Bloomingdale School of Music",
      "opening_hours": {
        "open_now": true
      },
      "photos": [
        {
          "height": 4032,
          "html_attributions": [
            "<a href=\"https://maps.google.com/maps/contrib/108585025234485852384\">David Herszenson</a>"
          ],
          "photo_reference": "AeJbb3cdWMwNgTma4Ralb6ZYkh9-x4K9DSYVlTFNpi1mgzKVYTxsoIkafvJ-cLk_r7CX1uaOADc_qZPKtEV_u35SjA89DVWsHPThtIc8Akh32l7wQ1yxRMOdCTf1bSQGGlXnBK1soHujbyxDd19gunxnwVkQv7hPCD63NRZUcPWmsH9ZJ4Aw",
          "width": 3024
        }
      ],
      "place_id": "ChIJnzz1IDv2wokRdM_4Po1WyRk",
      "plus_code": {
        "compound_code": "R23J+9P New York, NY, USA",
        "global_code": "87G8R23J+9P"
      },
      "rating": 4.8,
      "reference": "ChIJnzz1IDv2wokRdM_4Po1WyRk",
      "scope": "GOOGLE",
      "types": [
        "point_of_interest",
        "establishment"
      ],
      "user_ratings_total": 18,
      "vicinity": "323 West 108th Street, New York"
    },
    {
      "business_status": "OPERATIONAL",
      "geometry": {
        "location": {
          "lat": 40.8044028,
          "lng": -73.9661071
        },
        "viewport": {
          "northeast": {
            "lat": 40.80580038029149,
            "lng": -73.9648797697085
          },
          "southwest": {
            "lat": 40.80310241970849,
            "lng": -73.96757773029151
          }
        }
      },
      "icon": "https://maps.gstatic.com/mapfiles/place_api/icons/v1/png_71/restaurant-71.png",
      "icon_background_color": "#FF9E67",
      "icon_mask_base_uri": "https://maps.gstatic.com/mapfiles/place_api/icons/v2/restaurant_pinlet",
      "name": "Koronet Pizza",
      "opening_hours": {
        "open_now": true
      },
      "photos": [
        {
          "height": 9000,
          "html_attributions": [
            "<a href=\"https://maps.google.com/maps/contrib/111515314295653819474\">Roy Williams</a>"
          ],
          "photo_reference": "AeJbb3f_PheHgPm9z_HKnzEhcRBaAhF1XaJrHxDX-s4rvBes_GNCb7Hqy6m6LoBb73BQgckXw6LSJayIdpQjZq8jg1mrorqY7l78g7IZZritnUuSB5Q4eZCuJO1pgWtOaKXAI2v6G6M2wJI2lk_vq6wjPrImKM5hoYgVPPcy8lViPt3sqgGC",
          "width": 12000
        }
      ],
      "place_id": "ChIJIbOVdzv2wokRBGLNSQMk2FI",
      "plus_code": {
        "compound_code": "R23M+QH New York, NY, USA",
        "global_code": "87G8R23M+QH"
      },
      "price_level": 1,
      "rating": 4.4,
      "reference": "ChIJIbOVdzv2wokRBGLNSQMk2FI",
      "scope": "GOOGLE",
      "types": [
        "meal_delivery",
        "meal_takeaway",
        "restaurant",
        "food",
        "point_of_interest",
        "establishment"
      ],
      "user_ratings_total": 1738,
      "vicinity": "2848 Broadway, New York"
    },
    {
      "business_status": "OPERATIONAL",
      "geometry": {
        "location": {
          "lat": 40.801775,
          "lng": -73.96751909999999
        },
        "viewport": {
          "northeast": {
            "lat": 40.8029549802915,
            "lng": -73.96628106970849
          },
          "southwest": {
            "lat": 40.8002570197085,
            "lng": -73.96897903029151
          }
        }
      },
      "icon": "https://maps.gstatic.com/mapfiles/place_api/icons/v1/png_71/generic_business-71.png",
      "icon_background_color": "#7B9EB0",
      "icon_mask_base_uri": "https://maps.gstatic.com/mapfiles/place_api/icons/v2/generic_pinlet",
      "name": "LensCrafters",
      "opening_hours": {
        "open_now": true
      },
      "photos": [
        {
          "height": 1080,
          "html_attributions": [
            "<a href=\"https://maps.google.com/maps/contrib/108285124254204943049\">LensCrafters</a>"
          ],
          "photo_reference": "AeJbb3eRIXSVNAbL7zS6lesOusAcYbDPItXke8RsnppeXMg_CR52RckIbkzzHR4nT9r_-5Fq4ZWVlTiWtlkft8XsdBFK7Y1qC0lajt_oveEtzYsTd2wCDTIKTiXPRoWJHfXSkEXYaLROtJw-Mq82FiHc_-zWaiaEYdg6SHxZ_-wtSteEak1m",
          "width": 1920
        }
      ],
      "place_id": "ChIJxW5CziT2wokR-tsZ1YLWuDE",
      "plus_code": {
        "compound_code": "R22J+PX New York, NY, USA",
        "global_code": "87G8R22J+PX"
      },
      "rating": 4.6,
      "reference": "ChIJxW5CziT2wokR-tsZ1YLWuDE",
      "scope": "GOOGLE",
      "types": [
        "health",
        "point_of_interest",
        "store",
        "establishment"
      ],
      "user_ratings_total": 364,
      "vicinity": "2770 Broadway, New York"
    },
    {
      "business_status": "OPERATIONAL",
      "geometry": {
        "location": {
          "lat": 40.7980285,
          "lng": -73.9696479
        },
        "viewport": {
          "northeast": {
            "lat": 40.79936103029149,
            "lng": -73.9683845197085
          },
          "southwest": {
            "lat": 40.79666306970849,
            "lng": -73.9710824802915
          }
        }
      },
      "icon": "https://maps.gstatic.com/mapfiles/place_api/icons/v1/png_71/shopping-71.png",
      "icon_background_color": "#4B96F3",
      "icon_mask_base_uri": "https://maps.gstatic.com/mapfiles/place_api/icons/v2/convenience_pinlet",
      "name": "Rafi Corporation",
      "opening_hours": {
        "open_now": false
      },
      "place_id": "ChIJx02p3SX2wokR39L4XaDzlmo",
      "plus_code": {
        "compound_code": "Q2XJ+64 New York, NY, USA",
        "global_code": "87G8Q2XJ+64"
      },
      "reference": "ChIJx02p3SX2wokR39L4XaDzlmo",
      "scope": "GOOGLE",
      "types": [
        "convenience_store",
        "food",
        "point_of_interest",
        "store",
        "establishment"
      ],
      "vicinity": "2659 Broadway, New York"
    },
    {
      "business_status": "CLOSED_TEMPORARILY",
      "geometry": {
        "location": {
          "lat": 40.802815,
          "lng": -73.966707
        },
        "viewport": {
          "northeast": {
            "lat": 40.8040709302915,
            "lng": -73.9654262197085
          },
          "southwest": {
            "lat": 40.8013729697085,
            "lng": -73.96812418029151
          }
        }
      },
      "icon": "https://maps.gstatic.com/mapfiles/place_api/icons/v1/png_71/generic_business-71.png",
      "icon_background_color": "#7B9EB0",
      "icon_mask_base_uri": "https://maps.gstatic.com/mapfiles/place_api/icons/v2/generic_pinlet",
      "name": "Bob Stein Productions",
      "permanently_closed": true,
      "place_id": "ChIJw5gwSDv2wokRw71pl0wSuYM",
      "plus_code": {
        "compound_code": "R23M+48 New York, NY, USA",
        "global_code": "87G8R23M+48"
      },
      "reference": "ChIJw5gwSDv2wokRw71pl0wSuYM",
      "scope": "GOOGLE",
      "types": [
        "point_of_interest",
        "establishment"
      ],
      "vicinity": "241 West 108th Street # 1A, New York"
    },
    {
      "business_status": "OPERATIONAL",
      "geometry": {
        "location": {
          "lat": 40.8039646,
          "lng": -73.9655749
        },
        "viewport": {
          "northeast": {
            "lat": 40.80523083029151,
            "lng": -73.96428216970848
          },
          "southwest": {
            "lat": 40.80253286970851,
            "lng": -73.96698013029149
          }
        }
      },
      "icon": "https://maps.gstatic.com/mapfiles/place_api/icons/v1/png_71/generic_business-71.png",
      "icon_background_color": "#7B9EB0",
      "icon_mask_base_uri": "https://maps.gstatic.com/mapfiles/place_api/icons/v2/generic_pinlet",
      "name": "Dr. Erasmo C. Sturla, MD",
      "place_id": "ChIJQdO-fDv2wokReYCYppL4hik",
      "plus_code": {
        "compound_code": "R23M+HQ New York, NY, USA",
        "global_code": "87G8R23M+HQ"
      },
      "reference": "ChIJQdO-fDv2wokReYCYppL4hik",
      "scope": "GOOGLE",
      "types": [
        "doctor",
        "health",
        "point_of_interest",
        "establishment"
      ],
      "vicinity": "535 West 110th Street # 1H, New York"
    },
    {
      "business_status": "OPERATIONAL",
      "geometry": {
        "location": {
          "lat": 40.80218219999999,
          "lng": -73.96947449999999
        },
        "viewport": {
          "northeast": {
            "lat": 40.80347523029149,
            "lng": -73.96816681970849
          },
          "southwest": {
            "lat": 40.80077726970849,
            "lng": -73.97086478029149
          }
        }
      },
      "icon": "https://maps.gstatic.com/mapfiles/place_api/icons/v1/png_71/generic_business-71.png",
      "icon_background_color": "#7B9EB0",
      "icon_mask_base_uri": "https://maps.gstatic.com/mapfiles/place_api/icons/v2/generic_pinlet",
      "name": "SusanJVannucci-Phd-Wellness",
      "place_id": "ChIJacLnNiX2wokR2lVG17hNwDk",
      "plus_code": {
        "compound_code": "R22J+V6 New York, NY, USA",
        "global_code": "87G8R22J+V6"
      },
      "reference": "ChIJacLnNiX2wokR2lVG17hNwDk",
      "scope": "GOOGLE",
      "types": [
        "doctor",
        "health",
        "point_of_interest",
        "establishment"
      ],
      "vicinity": "315 West 106th Street, New York"
    },
    {
      "business_status": "OPERATIONAL",
      "geometry": {
        "location": {
          "lat": 40.79947420000001,
          "lng": -73.96775
        },
        "viewport": {
          "northeast": {
            "lat": 40.8008711302915,
            "lng": -73.96636591970848
          },
          "southwest": {
            "lat": 40.79817316970851,
            "lng": -73.9690638802915
          }
        }
      },
      "icon": "https://maps.gstatic.com/mapfiles/place_api/icons/v1/png_71/restaurant-71.png",
      "icon_background_color": "#FF9E67",
      "icon_mask_base_uri": "https://maps.gstatic.com/mapfiles/place_api/icons/v2/restaurant_pinlet",
      "name": "Malaysia Grill",
      "opening_hours": {
        "open_now": true
      },
      "photos": [
        {
          "height": 3024,
          "html_attributions": [
            "<a href=\"https://maps.google.com/maps/contrib/117276659648782516256\">Han Setiawan</a>"
          ],
          "photo_reference": "AeJbb3cijIIOG5Xbr6uWNSECn60NuBHWENZ964-9PwyIf2oBw0YR6yOM6sPlcXQo5VoQGzb2_q07-r_l_AO0XSoWqKIapjoncXJV74aYvxe352IiXKu_UQbFgjhMcYLsmF0HVIfit8bIY4UvVtCy3TsQn2ysmvLMftkDxyHxZfmS5tzLcH1T",
          "width": 4032
        }
      ],
      "place_id": "ChIJC07YUCT2wokRBgm4re83qG8",
      "plus_code": {
        "compound_code": "Q2XJ+QW New York, NY, USA",
        "global_code": "87G8Q2XJ+QW"
      },
      "price_level": 1,
      "rating": 4.5,
      "reference": "ChIJC07YUCT2wokRBgm4re83qG8",
      "scope": "GOOGLE",
      "types": [
        "meal_delivery",
        "restaurant",
        "food",
        "point_of_interest",
        "establishment"
      ],
      "user_ratings_total": 329,
      "vicinity": "224 West 104th Street, New York"
    },
    {
      "business_status": "OPERATIONAL",
      "geometry": {
        "location": {
          "lat": 40.8045845,
          "lng": -73.96675549999999
        },
        "viewport": {
          "northeast": {
            "lat": 40.8059176302915,
            "lng": -73.9653103197085
          },
          "southwest": {
            "lat": 40.8032196697085,
            "lng": -73.9680082802915
          }
        }
      },
      "icon": "https://maps.gstatic.com/mapfiles/place_api/icons/v1/png_71/restaurant-71.png",
      "icon_background_color": "#FF9E67",
      "icon_mask_base_uri": "https://maps.gstatic.com/mapfiles/place_api/icons/v2/restaurant_pinlet",
      "name": "Five Guys",
      "opening_hours": {
        "open_now": true
      },
      "photos": [
        {
          "height": 3006,
          "html_attributions": [
            "<a href=\"https://maps.google.com/maps/contrib/101850623995215844291\">Adam Powers</a>"
          ],
          "photo_reference": "AeJbb3coAXngWxcoHmIYCshMT5kJNP-BUTC6f1bGC6PfKsL1G2RdDbSwWo0wn04T9vq8asw64j2t2j8cPwrR-AEIjCKMd-Mg6Axuew3c3JasYbgae6guHDzTzaMFkyVO88apyxlWqpPqIptkM8y1dacVLHMHJ5lKEGqJf1WFvdpRkELK_D99",
          "width": 5344
        }
      ],
      "place_id": "ChIJCZvtdTv2wokR3pXEDpENESU",
      "plus_code": {
        "compound_code": "R23M+R7 New York, NY, USA",
        "global_code": "87G8R23M+R7"
      },
      "price_level": 2,
      "rating": 4.2,
      "reference": "ChIJCZvtdTv2wokR3pXEDpENESU",
      "scope": "GOOGLE",
      "types": [
        "meal_takeaway",
        "restaurant",
        "food",
        "point_of_interest",
        "establishment"
      ],
      "user_ratings_total": 849,
      "vicinity": "2847 Broadway, New York"
    },
    {
      "business_status": "OPERATIONAL",
      "geometry": {
        "location": {
          "lat": 40.7995649,
          "lng": -73.9631717
        },
        "viewport": {
          "northeast": {
            "lat": 40.8008583302915,
            "lng": -73.96186231970849
          },
          "southwest": {
            "lat": 40.7981603697085,
            "lng": -73.96456028029151
          }
        }
      },
      "icon": "https://maps.gstatic.com/mapfiles/place_api/icons/v1/png_71/shopping-71.png",
      "icon_background_color": "#4B96F3",
      "icon_mask_base_uri": "https://maps.gstatic.com/mapfiles/place_api/icons/v2/shopping_pinlet",
      "name": "Innovation Bike Shop",
      "opening_hours": {
        "open_now": true
      },
      "photos": [
        {
          "height": 453,
          "html_attributions": [
            "<a href=\"https://maps.google.com/maps/contrib/104546435250428094867\">Innovation Bike Shop</a>"
          ],
          "photo_reference": "AeJbb3fzpJgkhLLHxqhNL8IUBQsfBQhDWDX2e4BvGQWExZQ-qlV1__6kbSqx-ERORw0Wg_K_UFpTxyfKH3kwym5P-6Q6secMWe7HDNjlS9O7o8dCTua6HhNNUyLARaSgeDyEQ-T6nHPKiZH6WLR6Aph8zjqHSQwGoPNHNVluj0VmWh50L2ML",
          "width": 604
        }
      ],
      "place_id": "ChIJ79qKBSP2wokRGmdO3E-waWg",
      "plus_code": {
        "compound_code": "Q2XP+RP New York, NY, USA",
        "global_code": "87G8Q2XP+RP"
      },
      "rating": 4.7,
      "reference": "ChIJ79qKBSP2wokRGmdO3E-waWg",
      "scope": "GOOGLE",
      "types": [
        "bicycle_store",
        "point_of_interest",
        "store",
        "establishment"
      ],
      "user_ratings_total": 103,
      "vicinity": "105 West 106th Street, New York"
    },
    {
      "business_status": "OPERATIONAL",
      "geometry": {
        "location": {
          "lat": 40.7975534,
          "lng": -73.96899060000001
        },
        "viewport": {
          "northeast": {
            "lat": 40.7989375802915,
            "lng": -73.9676161197085
          },
          "southwest": {
            "lat": 40.7962396197085,
            "lng": -73.97031408029152
          }
        }
      },
      "icon": "https://maps.gstatic.com/mapfiles/place_api/icons/v1/png_71/generic_business-71.png",
      "icon_background_color": "#7B9EB0",
      "icon_mask_base_uri": "https://maps.gstatic.com/mapfiles/place_api/icons/v2/generic_pinlet",
      "name": "Taubes Tanaquil MD",
      "place_id": "ChIJ4e0d2CX2wokReLR3vNl6NY0",
      "plus_code": {
        "compound_code": "Q2XJ+2C New York, NY, USA",
        "global_code": "87G8Q2XJ+2C"
      },
      "reference": "ChIJ4e0d2CX2wokReLR3vNl6NY0",
      "scope": "GOOGLE",
      "types": [
        "doctor",
        "health",
        "point_of_interest",
        "establishment"
      ],
      "vicinity": "210 West 101st Street #5C, New York"
    },
    {
      "business_status": "OPERATIONAL",
      "geometry": {
        "location": {
          "lat": 40.802565,
          "lng": -73.96701399999999
        },
        "viewport": {
          "northeast": {
            "lat": 40.8039632802915,
            "lng": -73.9656209697085
          },
          "southwest": {
            "lat": 40.8012653197085,
            "lng": -73.9683189302915
          }
        }
      },
      "icon": "https://maps.gstatic.com/mapfiles/place_api/icons/v1/png_71/generic_business-71.png",
      "icon_background_color": "#7B9EB0",
      "icon_mask_base_uri": "https://maps.gstatic.com/mapfiles/place_api/icons/v2/generic_pinlet",
      "name": "Riverside Animal Hospital North",
      "opening_hours": {
        "open_now": true
      },
      "photos": [
        {
          "height": 1200,
          "html_attributions": [
            "<a href=\"https://maps.google.com/maps/contrib/106081603084179447794\">Riverside Animal Hospital North</a>"
          ],
          "photo_reference": "AeJbb3fyAL8oMvc-18tAwFA9ekimBHBmMz4vhqqY5m_fynUdgP-txvXNRo8wp0yakaKzDPD0LMWQrQhtDWRrfQXNvnPyCARbWx9bXZJNCA_Lwf6oyCzRkL-xAwK3PRyaTtb81c6bDeMT-rikhHNnZZ5lWQZvWEclG1-Z5XFg8Gg2Bzy2WPnA",
          "width": 2000
        }
      ],
      "place_id": "ChIJB1Q3NDv2wokRp0iBENjnSeM",
      "plus_code": {
        "compound_code": "R23M+25 New York, NY, USA",
        "global_code": "87G8R23M+25"
      },
      "rating": 4.5,
      "reference": "ChIJB1Q3NDv2wokRp0iBENjnSeM",
      "scope": "GOOGLE",
      "types": [
        "veterinary_care",
        "point_of_interest",
        "establishment"
      ],
      "user_ratings_total": 244,
      "vicinity": "250 West 108th Street, New York"
    },
    {
      "business_status": "OPERATIONAL",
      "geometry": {
        "location": {
          "lat": 40.8022622,
          "lng": -73.96735269999999
        },
        "viewport": {
          "northeast": {
            "lat": 40.8035423802915,
            "lng": -73.96612256970849
          },
          "southwest": {
            "lat": 40.8008444197085,
            "lng": -73.9688205302915
          }
        }
      },
      "icon": "https://maps.gstatic.com/mapfiles/place_api/icons/v1/png_71/shopping-71.png",
      "icon_background_color": "#4B96F3",
      "icon_mask_base_uri": "https://maps.gstatic.com/mapfiles/place_api/icons/v2/shoppingcart_pinlet",
      "name": "Garden of Eden Marketplace",
      "opening_hours": {
        "open_now": true
      },
      "photos": [
        {
          "height": 3264,
          "html_attributions": [
            "<a href=\"https://maps.google.com/maps/contrib/108998006060513137992\">ROMELFX</a>"
          ],
          "photo_reference": "AeJbb3dTBS0LxSEiasjNZmW4CnRilNmWAYohIkXs0MfKwi_e5iKXCs9Id39BlgFc3lgnxHN1SZrrdVjEnh3dWTnKcpcWz64ieJ3_Md84Ucv1Ef_PkEBSKZ2XvIjKlKHhnkRGV4WVzHB5aPFzxMdOdWmYp1vqcIYDpGiXS9lKIwcjy9uXvpl0",
          "width": 2448
        }
      ],
      "place_id": "ChIJPW1qMjv2wokR5At5Y4I__iI",
      "plus_code": {
        "compound_code": "R22M+W3 New York, NY, USA",
        "global_code": "87G8R22M+W3"
      },
      "price_level": 2,
      "rating": 4.2,
      "reference": "ChIJPW1qMjv2wokR5At5Y4I__iI",
      "scope": "GOOGLE",
      "types": [
        "supermarket",
        "grocery_or_supermarket",
        "meal_takeaway",
        "restaurant",
        "food",
        "point_of_interest",
        "store",
        "establishment"
      ],
      "user_ratings_total": 267,
      "vicinity": "2780 Broadway, New York"
    },
    {
      "business_status": "OPERATIONAL",
      "geometry": {
        "location": {
          "lat": 40.8002885,
          "lng": -73.9690036
        },
        "viewport": {
          "northeast": {
            "lat": 40.8015717802915,
            "lng": -73.96770201970848
          },
          "southwest": {
            "lat": 40.7988738197085,
            "lng": -73.9703999802915
          }
        }
      },
      "icon": "https://maps.gstatic.com/mapfiles/place_api/icons/v1/png_71/generic_business-71.png",
      "icon_background_color": "#7B9EB0",
      "icon_mask_base_uri": "https://maps.gstatic.com/mapfiles/place_api/icons/v2/generic_pinlet",
      "name": "Nora Brennan Casting",
      "place_id": "ChIJsX8KBiX2wokRaQRQt5_RSm0",
      "plus_code": {
        "compound_code": "R22J+49 New York, NY, USA",
        "global_code": "87G8R22J+49"
      },
      "reference": "ChIJsX8KBiX2wokRaQRQt5_RSm0",
      "scope": "GOOGLE",
      "types": [
        "point_of_interest",
        "establishment"
      ],
      "vicinity": "900 West End Avenue #2d, New York"
    },
    {
      "business_status": "CLOSED_TEMPORARILY",
      "geometry": {
        "location": {
          "lat": 40.8013033,
          "lng": -73.9683316
        },
        "viewport": {
          "northeast": {
            "lat": 40.8027145302915,
            "lng": -73.96714536970849
          },
          "southwest": {
            "lat": 40.8000165697085,
            "lng": -73.9698433302915
          }
        }
      },
      "icon": "https://maps.gstatic.com/mapfiles/place_api/icons/v1/png_71/school-71.png",
      "icon_background_color": "#7B9EB0",
      "icon_mask_base_uri": "https://maps.gstatic.com/mapfiles/place_api/icons/v2/school_pinlet",
      "name": "Merit Scholars Tutoring Inc",
      "permanently_closed": true,
      "place_id": "ChIJGWLyJiX2wokRNTf-xDvDGMg",
      "plus_code": {
        "compound_code": "R22J+GM New York, NY, USA",
        "global_code": "87G8R22J+GM"
      },
      "reference": "ChIJGWLyJiX2wokRNTf-xDvDGMg",
      "scope": "GOOGLE",
      "types": [
        "point_of_interest",
        "establishment"
      ],
      "vicinity": "936 West End Avenue # E11, New York"
    }
  ],
  "status": "OK"
}