{
  "html_attributions": [],
  "results": [
    {
      "geometry": {
        "location": {
          "lat": 40.7127753,
          "lng": -74.0059728
        },
        "viewport": {
          "northeast": {
            "lat": 40.91757705070789,
            "lng": -73.70027206817629
          },
          "southwest": {
            "lat": 40.47739906045452,
            "lng": -74.25908991427882
          }
        }
      },
      "icon": "https://maps.gstatic.com/mapfiles/place_api/icons/v1/png_71/geocode-71.png",
      "icon_background_color": "#7B9EB0",
      "icon_mask_base_uri": "https://maps.gstatic.com/mapfiles/place_api/icons/v2/generic_pinlet",
      "name": "\u7d10\u7d04",
      "photos": [
        {
          "height": 600,
          "html_attributions": [
            "<a href=\"https://maps.google.com/maps/contrib/102389334567210814614\">Bukurie</a>"
          ],
          "photo_reference": "AeJbb3fDs3zh553GSbi3EVkQm96E1mVe7aiZKDFoo6rC5ay5cOh-tjfcQzB70wjVLQRp-EG4ikFnQqyZUjbjf0CKQjc3f1qLXbtECmrbAKdwvIuzxd2VyoxmfzriGhToV5AU8MmmRPVarJYKv_qTe7iXVLcDQyC8GWxC1qoY2Zzdmr7vSm6L",
          "width": 480
        }
      ],
      "place_id": "ChIJOwg_06VPwokRYv534QaPC8g",
      "reference": "ChIJOwg_06VPwokRYv534QaPC8g",
      "scope": "GOOGLE",
      "types": [
        "locality",
        "political"
      ],
      "vicinity": "\u7d10\u7d04"
    },
    {
      "business_status": "OPERATIONAL",
      "geometry": {
        "location": {
          "lat": 40.7924939,
          "lng": -73.95190889999999
        },
        "viewport": {
          "northeast": {
            "lat": 40.7938168802915,
            "lng": -73.95064371970848
          },
          "southwest": {
            "lat": 40.7911189197085,
            "lng": -73.9533416802915
          }
        }
      },
      "icon": "https://maps.gstatic.com/mapfiles/place_api/icons/v1/png_71/museum-71.png",
      "icon_background_color": "#13B5C7",
      "icon_mask_base_uri": "https://maps.gstatic.com/mapfiles/place_api/icons/v2/museum_pinlet",
      "name": "\u7d10\u7d04\u5e02\u535a\u7269\u9928",
      "opening_hours": {
        "open_now": true
      },
      "photos": [
        {
          "height": 3024,
          "html_attributions": [
            "<a href=\"https://maps.google.com/maps/contrib/112990590824397063622\">Tony Yu</a>"
          ],
          "photo_reference": "AeJbb3frYLjHrgWWHJwuWB-KJS6I8p-s5pnVw4SdQqhbV6pvcGyDLZWAV4AUmyeXBaz2aM0895qypq3-h2zh8WjTLttu9l4XmD8LnP12toNkNW6zvfdCSpd4z6QprmxW7jRPH2ih8vFG7rzNYNiyyh29vMmuUFEW3FtT6TssJhdBnhDAQxzb",
          "width": 4032
        }
      ],
      "place_id": "ChIJi4hYtB32wokR1Npx_Tv7phk",
      "plus_code": {
        "compound_code": "Q2RX+X6 \u7f8e\u570b\u7d10\u7d04",
        "global_code": "87G8Q2RX+X6"
      },
      "price_level": 1,
      "rating": 4.5,
      "reference": "ChIJi4hYtB32wokR1Npx_Tv7phk",
      "scope": "GOOGLE",
      "types": [
        "tourist_attraction",
        "museum",
        "point_of_interest",
        "establishment"
      ],
      "user_ratings_total": 4291,
      "vicinity": "1220 5th Avenue, New York"
    },
    {
      "business_status": "OPERATIONAL",
      "geometry": {
        "location": {
          "lat": 40.78907170000001,
          "lng": -73.9538601
        },
        "viewport": {
          "northeast": {
            "lat": 40.79031988029151,
            "lng": -73.95258536970849
          },
          "southwest": {
            "lat": 40.78762191970851,
            "lng": -73.9552833302915
          }
        }
      },
      "icon": "https://maps.gstatic.com/mapfiles/place_api/icons/v1/png_71/generic_business-71.png",
      "icon_background_color": "#7B9EB0",
      "icon_mask_base_uri": "https://maps.gstatic.com/mapfiles/place_api/icons/v2/generic_pinlet",
      "name": "Ear, Nose, and Throat/Head and Neck Surgery",
      "opening_hours": {
        "open_now": false
      },
      "photos": [
        {
          "height": 727,
          "html_attributions": [
            "<a href=\"https://maps.google.com/maps/contrib/117035260164520942511\">Ear, Nose, and Throat/Head and Neck Surgery</a>"
          ],
          "photo_reference": "AeJbb3cgoeM8sgYGeGTfBqQQIpOMoKsgSJhxqcbdGRM_MQjq5Sx5NcmoBYy3ZNL7UHnOcORjFfJ1pkCIByNJmirT3jdbjZHfSy6uWui7WoYU2wS539w_sanX7YPhfn_l6wXjXF02yJ8OtpvMnQo1qdraycss_WdiDAinP9DcskMb1_E-5jsg",
          "width": 727
        }
      ],
      "place_id": "ChIJf0SSxqBYwokRkhQOHlDbzfA",
      "plus_code": {
        "compound_code": "Q2QW+JF \u7f8e\u570b\u7d10\u7d04",
        "global_code": "87G8Q2QW+JF"
      },
      "rating": 5,
      "reference": "ChIJf0SSxqBYwokRkhQOHlDbzfA",
      "scope": "GOOGLE",
      "types": [
        "doctor",
        "health",
        "point_of_interest",
        "establishment"
      ],
      "user_ratings_total": 1,
      "vicinity": "5 East 98th Street #8, New York"
    },
    {
      "business_status": "OPERATIONAL",
      "geometry": {
        "location": {
          "lat": 40.78907170000001,
          "lng": -73.9538601
        },
        "viewport": {
          "northeast": {
            "lat": 40.79031988029151,
            "lng": -73.95258536970849
          },
          "southwest": {
            "lat": 40.78762191970851,
            "lng": -73.9552833302915
          }
        }
      },
      "icon": "https://maps.gstatic.com/mapfiles/place_api/icons/v1/png_71/generic_business-71.png",
      "icon_background_color": "#7B9EB0",
      "icon_mask_base_uri": "https://maps.gstatic.com/mapfiles/place_api/icons/v2/generic_pinlet",
      "name": "Mark Lebwohl, MD",
      "opening_hours": {
        "open_now": false
      },
      "photos": [
        {
          "height": 250,
          "html_attributions": [
            "<a href=\"https://maps.google.com/maps/contrib/110489885449772336807\">Mark Lebwohl, MD</a>"
          ],
          "photo_reference": "AeJbb3fnavQE1l2AUkyXY-i7H9ViL7zwf498bxATKZuw7sgwwJQvq8rWzzyS2uUYM8X3iE4ZUmUJdL8IIxDomIFZ3OxHKE4ypp8LaB5mNLj0J7Lwu3m9pCmJK8qXUNij261y9B_-deEhhpIiBSnXK-N72ger3Ks-xgoW6USkbTrBeeJsvn-A",
          "width": 250
        }
      ],
      "place_id": "ChIJf0SSxqBYwokRWoKlJdW8fyY",
      "plus_code": {
        "compound_code": "Q2QW+JF \u7f8e\u570b\u7d10\u7d04",
        "global_code": "87G8Q2QW+JF"
      },
      "rating": 3.5,
      "reference": "ChIJf0SSxqBYwokRWoKlJdW8fyY",
      "scope": "GOOGLE",
      "types": [
        "doctor",
        "health",
        "point_of_interest",
        "establishment"
      ],
      "user_ratings_total": 8,
      "vicinity": "5 East 98th St 5th Fl, New York"
    },
    {
      "business_status": "OPERATIONAL",
      "geometry": {
        "location": {
          "lat": 40.7936349,
          "lng": -73.9506372
        },
        "viewport": {
          "northeast": {
            "lat": 40.7951148302915,
            "lng": -73.9496735697085
          },
          "southwest": {
            "lat": 40.7924168697085,
            "lng": -73.9523715302915
          }
        }
      },
      "icon": "https://maps.gstatic.com/mapfiles/place_api/icons/v1/png_71/generic_business-71.png",
      "icon_background_color": "#7B9EB0",
      "icon_mask_base_uri": "https://maps.gstatic.com/mapfiles/place_api/icons/v2/generic_pinlet",
      "name": "Terence Cardinal Cooke Health Care Center",
      "opening_hours": {
        "open_now": true
      },
      "photos": [
        {
          "height": 338,
          "html_attributions": [
            "<a href=\"https://maps.google.com/maps/contrib/113724669071280300615\">ArchCare at Terence Cardinal Cooke Health Care Center</a>"
          ],
          "photo_reference": "AeJbb3f8HoGNXOdQ7wY9ls2-c3I7cyirYRcY297DyKwX75BUjlGoKvBbFQkqIt-TMmQMyxJe_17DZWTGGQl8ROD1qEaWxKWuH0QlQ7wXDiIobVyLmj_Pm63puAEAxVGFhjjnpvaD1d9YflqEVUXFC2o9xu2WdKXyhiTNmCl3IrrP_-bgKgVn",
          "width": 500
        }
      ],
      "place_id": "ChIJQxjtfBz2wokRhwyV-7gR7Nc",
      "plus_code": {
        "compound_code": "Q2VX+FP \u7f8e\u570b\u7d10\u7d04",
        "global_code": "87G8Q2VX+FP"
      },
      "rating": 3.3,
      "reference": "ChIJQxjtfBz2wokRhwyV-7gR7Nc",
      "scope": "GOOGLE",
      "types": [
        "health",
        "point_of_interest",
        "establishment"
      ],
      "user_ratings_total": 166,
      "vicinity": "1249 5th Avenue, New York"
    },
    {
      "business_status": "OPERATIONAL",
      "geometry": {
        "location": {
          "lat": 40.78906409999999,
          "lng": -73.95385639999999
        },
        "viewport": {
          "northeast": {
            "lat": 40.79031458029149,
            "lng": -73.95257996970848
          },
          "southwest": {
            "lat": 40.78761661970849,
            "lng": -73.95527793029149
          }
        }
      },
      "icon": "https://maps.gstatic.com/mapfiles/place_api/icons/v1/png_71/generic_business-71.png",
      "icon_background_color": "#7B9EB0",
      "icon_mask_base_uri": "https://maps.gstatic.com/mapfiles/place_api/icons/v2/generic_pinlet",
      "name": "Stotsky Michael S MD",
      "opening_hours": {
        "open_now": false
      },
      "place_id": "ChIJf0SSxqBYwokRqbid_BRMzzE",
      "plus_code": {
        "compound_code": "Q2QW+JF \u7f8e\u570b\u7d10\u7d04",
        "global_code": "87G8Q2QW+JF"
      },
      "rating": 5,
      "reference": "ChIJf0SSxqBYwokRqbid_BRMzzE",
      "scope": "GOOGLE",
      "types": [
        "doctor",
        "health",
        "point_of_interest",
        "establishment"
      ],
      "user_ratings_total": 1,
      "vicinity": "5 East 98th Street, New York"
    },
    {
      "business_status": "OPERATIONAL",
      "geometry": {
        "location": {
          "lat": 40.78907170000001,
          "lng": -73.9538601
        },
        "viewport": {
          "northeast": {
            "lat": 40.79035753029149,
            "lng": -73.9526745197085
          },
          "southwest": {
            "lat": 40.7876595697085,
            "lng": -73.9553724802915
          }
        }
      },
      "icon": "https://maps.gstatic.com/mapfiles/place_api/icons/v1/png_71/generic_business-71.png",
      "icon_background_color": "#7B9EB0",
      "icon_mask_base_uri": "https://maps.gstatic.com/mapfiles/place_api/icons/v2/generic_pinlet",
      "name": "Mount Sinai RMTI Transplantation Institute",
      "opening_hours": {
        "open_now": true
      },
      "photos": [
        {
          "height": 640,
          "html_attributions": [
            "<a href=\"https://maps.google.com/maps/contrib/104995425389877929795\">Damaris Rodriguez</a>"
          ],
          "photo_reference": "AeJbb3cGaD1ZJl_aqjH1rR4BVNATfIMxGf3TA668mzFneGfpWGW97zW_FuH1XxdBV46K95Z2u1gOEncaJ_Bht4SZlI6EqsflL76i0fC0zyNYq41cy6uDhTTanxhbe61wBfJHrb0RK_V7Nv70HFDqaHS7hWpMuGMj3GPSQ605vmRMRNWz8PqL",
          "width": 640
        }
      ],
      "place_id": "ChIJf0SSxqBYwokRGU3RFXESC9o",
      "plus_code": {
        "compound_code": "Q2QW+JF \u7f8e\u570b\u7d10\u7d04",
        "global_code": "87G8Q2QW+JF"
      },
      "rating": 3.9,
      "reference": "ChIJf0SSxqBYwokRGU3RFXESC9o",
      "scope": "GOOGLE",
      "types": [
        "health",
        "point_of_interest",
        "establishment"
      ],
      "user_ratings_total": 7,
      "vicinity": "5 East 98th Street, New York"
    },
    {
      "business_status": "OPERATIONAL",
      "geometry": {
        "location": {
          "lat": 40.7881597,
          "lng": -73.9539533
        },
        "viewport": {
          "northeast": {
            "lat": 40.7894628802915,
            "lng": -73.95265051970848
          },
          "southwest": {
            "lat": 40.7867649197085,
            "lng": -73.9553484802915
          }
        }
      },
      "icon": "https://maps.gstatic.com/mapfiles/place_api/icons/v1/png_71/generic_business-71.png",
      "icon_background_color": "#7B9EB0",
      "icon_mask_base_uri": "https://maps.gstatic.com/mapfiles/place_api/icons/v2/generic_pinlet",
      "name": "Karin B. Wexler, Ph.D.",
      "opening_hours": {
        "open_now": true
      },
      "place_id": "ChIJH6IcYRX2wokRVVDb3kzlB1E",
      "plus_code": {
        "compound_code": "Q2QW+7C \u7f8e\u570b\u7d10\u7d04",
        "global_code": "87G8Q2QW+7C"
      },
      "reference": "ChIJH6IcYRX2wokRVVDb3kzlB1E",
      "scope": "GOOGLE",
      "types": [
        "health",
        "point_of_interest",
        "establishment"
      ],
      "vicinity": "17 East 97th Street #1A, New York"
    },
    {
      "business_status": "OPERATIONAL",
      "geometry": {
        "location": {
          "lat": 40.789064,
          "lng": -73.95385639999999
        },
        "viewport": {
          "northeast": {
            "lat": 40.79031448029149,
            "lng": -73.9525799197085
          },
          "southwest": {
            "lat": 40.78761651970849,
            "lng": -73.95527788029152
          }
        }
      },
      "icon": "https://maps.gstatic.com/mapfiles/place_api/icons/v1/png_71/generic_business-71.png",
      "icon_background_color": "#7B9EB0",
      "icon_mask_base_uri": "https://maps.gstatic.com/mapfiles/place_api/icons/v2/generic_pinlet",
      "name": "Corinne Goldsmith Dickinson Center for MS at Mount Sinai",
      "opening_hours": {
        "open_now": false
      },
      "place_id": "ChIJTTftxqBYwokReXS8k91MZpM",
      "plus_code": {
        "compound_code": "Q2QW+JF \u7f8e\u570b\u7d10\u7d04",
        "global_code": "87G8Q2QW+JF"
      },
      "rating": 3.7,
      "reference": "ChIJTTftxqBYwokReXS8k91MZpM",
      "scope": "GOOGLE",
      "types": [
        "doctor",
        "health",
        "point_of_interest",
        "establishment"
      ],
      "user_ratings_total": 6,
      "vicinity": "5 East 98th Street, New York"
    },
    {
      "business_status": "OPERATIONAL",
      "geometry": {
        "location": {
          "lat": 40.789064,
          "lng": -73.95385639999999
        },
        "viewport": {
          "northeast": {
            "lat": 40.79031448029149,
            "lng": -73.9525799197085
          },
          "southwest": {
            "lat": 40.78761651970849,
            "lng": -73.95527788029152
          }
        }
      },
      "icon": "https://maps.gstatic.com/mapfiles/place_api/icons/v1/png_71/generic_business-71.png",
      "icon_background_color": "#7B9EB0",
      "icon_mask_base_uri": "https://maps.gstatic.com/mapfiles/place_api/icons/v2/generic_pinlet",
      "name": "Mount Sinai Brain Tumor Program",
      "opening_hours": {
        "open_now": false
      },
      "place_id": "ChIJTTftxqBYwokRf2-ifYhkrH8",
      "plus_code": {
        "compound_code": "Q2QW+JF \u7f8e\u570b\u7d10\u7d04",
        "global_code": "87G8Q2QW+JF"
      },
      "rating": 5,
      "reference": "ChIJTTftxqBYwokRf2-ifYhkrH8",
      "scope": "GOOGLE",
      "types": [
        "doctor",
        "health",
        "point_of_interest",
        "establishment"
      ],
      "user_ratings_total": 1,
      "vicinity": "5 East 98th Street, New York"
    },
    {
      "business_status": "OPERATIONAL",
      "geometry": {
        "location": {
          "lat": 40.78907170000001,
          "lng": -73.9538601
        },
        "viewport": {
          "northeast": {
            "lat": 40.79031988029151,
            "lng": -73.95258536970849
          },
          "southwest": {
            "lat": 40.78762191970851,
            "lng": -73.9552833302915
          }
        }
      },
      "icon": "https://maps.gstatic.com/mapfiles/place_api/icons/v1/png_71/generic_business-71.png",
      "icon_background_color": "#7B9EB0",
      "icon_mask_base_uri": "https://maps.gstatic.com/mapfiles/place_api/icons/v2/generic_pinlet",
      "name": "Robert & John M. Bendheim Parkinson & Movement Disorders Center at Mount Sinai",
      "opening_hours": {
        "open_now": false
      },
      "place_id": "ChIJTTftxqBYwokRwy0StkhPUlw",
      "plus_code": {
        "compound_code": "Q2QW+JF \u7f8e\u570b\u7d10\u7d04",
        "global_code": "87G8Q2QW+JF"
      },
      "reference": "ChIJTTftxqBYwokRwy0StkhPUlw",
      "scope": "GOOGLE",
      "types": [
        "doctor",
        "health",
        "point_of_interest",
        "establishment"
      ],
      "vicinity": "5 East 98th Street #1st, New York"
    },
    {
      "business_status": "OPERATIONAL",
      "geometry": {
        "location": {
          "lat": 40.78906309999999,
          "lng": -73.9538554
        },
        "viewport": {
          "northeast": {
            "lat": 40.7903137802915,
            "lng": -73.95257881970849
          },
          "southwest": {
            "lat": 40.7876158197085,
            "lng": -73.9552767802915
          }
        }
      },
      "icon": "https://maps.gstatic.com/mapfiles/place_api/icons/v1/png_71/generic_business-71.png",
      "icon_background_color": "#7B9EB0",
      "icon_mask_base_uri": "https://maps.gstatic.com/mapfiles/place_api/icons/v2/generic_pinlet",
      "name": "Dr. Ketan K. Badani, MD",
      "photos": [
        {
          "height": 2048,
          "html_attributions": [
            "<a href=\"https://maps.google.com/maps/contrib/100001620388304863040\">Dr. Ketan K. Badani, MD</a>"
          ],
          "photo_reference": "AeJbb3dmnvYMU2vH_YuBjNzVKhtJ-qiIDy7rQkD2xj-eJ8Pb0SBlJLuiV7Lijik_bf6rRh2V1AIX2U_GlnWZMjt1wcMqkpOIwkATVDdvK-3FceiForYkFRX3BJRIf3A2t3bAsOpj-KXkhoocJ3UoIiQlpc76FFVyu1EXtPNyHveUlg8RN7dM",
          "width": 1365
        }
      ],
      "place_id": "ChIJW2D3c5v2wokRvUngTCALjys",
      "plus_code": {
        "compound_code": "Q2QW+JF \u7f8e\u570b\u7d10\u7d04",
        "global_code": "87G8Q2QW+JF"
      },
      "rating": 4,
      "reference": "ChIJW2D3c5v2wokRvUngTCALjys",
      "scope": "GOOGLE",
      "types": [
        "doctor",
        "health",
        "point_of_interest",
        "establishment"
      ],
      "user_ratings_total": 20,
      "vicinity": "5 East 98th Street, New York"
    },
    {
      "business_status": "OPERATIONAL",
      "geometry": {
        "location": {
          "lat": 40.794262,
          "lng": -73.95195679999999
        },
        "viewport": {
          "northeast": {
            "lat": 40.7954808302915,
            "lng": -73.95029526970849
          },
          "southwest": {
            "lat": 40.7927828697085,
            "lng": -73.95299323029151
          }
        }
      },
      "icon": "https://maps.gstatic.com/mapfiles/place_api/icons/v1/png_71/generic_business-71.png",
      "icon_background_color": "#13B5C7",
      "icon_mask_base_uri": "https://maps.gstatic.com/mapfiles/place_api/icons/v2/generic_pinlet",
      "name": "Untermyer Fountain",
      "opening_hours": {
        "open_now": true
      },
      "photos": [
        {
          "height": 3016,
          "html_attributions": [
            "<a href=\"https://maps.google.com/maps/contrib/102943405801973870944\">ita40200</a>"
          ],
          "photo_reference": "AeJbb3cjne5MWFuIkgBK86yGHMBieYGuRj12RugbNRoVM2eZp2m9f_tFZ8xuaF5xHzhZ9rT8FFuBFqHg0uoN4bli_Vfpl_t6ZI0xXSPFo3KrtnALptmbT2n5-Zym03nNSscUdXKktm3XgF6T53hu4zGeN138tIok3zjVn3hyIJ29ek0o7-in",
          "width": 4032
        }
      ],
      "place_id": "ChIJbylnbBz2wokRi_Z2TynZXUI",
      "plus_code": {
        "compound_code": "Q2VX+P6 \u7f8e\u570b\u7d10\u7d04",
        "global_code": "87G8Q2VX+P6"
      },
      "rating": 4.7,
      "reference": "ChIJbylnbBz2wokRi_Z2TynZXUI",
      "scope": "GOOGLE",
      "types": [
        "tourist_attraction",
        "point_of_interest",
        "establishment"
      ],
      "user_ratings_total": 205,
      "vicinity": "East side at, East 105th Street, New York"
    },
    {
      "business_status": "OPERATIONAL",
      "geometry": {
        "location": {
          "lat": 40.7900581,
          "lng": -73.9538601
        },
        "viewport": {
          "northeast": {
            "lat": 40.7914591802915,
            "lng": -73.95263506970849
          },
          "southwest": {
            "lat": 40.7887612197085,
            "lng": -73.9553330302915
          }
        }
      },
      "icon": "https://maps.gstatic.com/mapfiles/place_api/icons/v1/png_71/generic_business-71.png",
      "icon_background_color": "#7B9EB0",
      "icon_mask_base_uri": "https://maps.gstatic.com/mapfiles/place_api/icons/v2/generic_pinlet",
      "name": "Nissim Julie A MD",
      "place_id": "ChIJ1-NkqqBYwokRaoT1UKsCihQ",
      "plus_code": {
        "compound_code": "Q2RW+2F \u7f8e\u570b\u7d10\u7d04",
        "global_code": "87G8Q2RW+2F"
      },
      "rating": 5,
      "reference": "ChIJ1-NkqqBYwokRaoT1UKsCihQ",
      "scope": "GOOGLE",
      "types": [
        "doctor",
        "health",
        "point_of_interest",
        "establishment"
      ],
      "user_ratings_total": 3,
      "vicinity": "1 Gustave L. Levy Place # 504, New York"
    },
    {
      "business_status": "OPERATIONAL",
      "geometry": {
        "location": {
          "lat": 40.7900357,
          "lng": -73.95384589999999
        },
        "viewport": {
          "northeast": {
            "lat": 40.7914417302915,
            "lng": -73.9526325697085
          },
          "southwest": {
            "lat": 40.7887437697085,
            "lng": -73.9553305302915
          }
        }
      },
      "icon": "https://maps.gstatic.com/mapfiles/place_api/icons/v1/png_71/generic_business-71.png",
      "icon_background_color": "#7B9EB0",
      "icon_mask_base_uri": "https://maps.gstatic.com/mapfiles/place_api/icons/v2/generic_pinlet",
      "name": "Virginia N. Walther, LCSW",
      "place_id": "ChIJ1-NkqqBYwokRltAJ_EY5U_E",
      "plus_code": {
        "compound_code": "Q2RW+2F \u7f8e\u570b\u7d10\u7d04",
        "global_code": "87G8Q2RW+2F"
      },
      "reference": "ChIJ1-NkqqBYwokRltAJ_EY5U_E",
      "scope": "GOOGLE",
      "types": [
        "point_of_interest",
        "establishment"
      ],
      "vicinity": "\u7d10\u7d04"
    },
    {
      "business_status": "OPERATIONAL",
      "geometry": {
        "location": {
          "lat": 40.7890329,
          "lng": -73.95384589999999
        },
        "viewport": {
          "northeast": {
            "lat": 40.7902935802915,
            "lng": -73.95263771970848
          },
          "southwest": {
            "lat": 40.7875956197085,
            "lng": -73.9553356802915
          }
        }
      },
      "icon": "https://maps.gstatic.com/mapfiles/place_api/icons/v1/png_71/generic_business-71.png",
      "icon_background_color": "#7B9EB0",
      "icon_mask_base_uri": "https://maps.gstatic.com/mapfiles/place_api/icons/v2/generic_pinlet",
      "name": "Burschtin Omar E MD",
      "place_id": "ChIJWQHW9KZZwokRFCyEBeKEGks",
      "plus_code": {
        "compound_code": "Q2QW+JF \u7f8e\u570b\u7d10\u7d04",
        "global_code": "87G8Q2QW+JF"
      },
      "reference": "ChIJWQHW9KZZwokRFCyEBeKEGks",
      "scope": "GOOGLE",
      "types": [
        "doctor",
        "health",
        "point_of_interest",
        "establishment"
      ],
      "vicinity": "5 East 98th Street 3rd Floor, New York"
    },
    {
      "business_status": "OPERATIONAL",
      "geometry": {
        "location": {
          "lat": 40.789064,
          "lng": -73.95385639999999
        },
        "viewport": {
          "northeast": {
            "lat": 40.79031448029149,
            "lng": -73.9525799197085
          },
          "southwest": {
            "lat": 40.78761651970849,
            "lng": -73.95527788029152
          }
        }
      },
      "icon": "https://maps.gstatic.com/mapfiles/place_api/icons/v1/png_71/generic_business-71.png",
      "icon_background_color": "#7B9EB0",
      "icon_mask_base_uri": "https://maps.gstatic.com/mapfiles/place_api/icons/v2/generic_pinlet",
      "name": "Dr. David Kriegel, MD",
      "opening_hours": {
        "open_now": false
      },
      "place_id": "ChIJ7UntxqBYwokRyZq6ieLmqPw",
      "plus_code": {
        "compound_code": "Q2QW+JF \u7f8e\u570b\u7d10\u7d04",
        "global_code": "87G8Q2QW+JF"
      },
      "rating": 1,
      "reference": "ChIJ7UntxqBYwokRyZq6ieLmqPw",
      "scope": "GOOGLE",
      "types": [
        "doctor",
        "health",
        "point_of_interest",
        "establishment"
      ],
      "user_ratings_total": 1,
      "vicinity": "5 East 98th Street, New York"
    },
    {
      "business_status": "OPERATIONAL",
      "geometry": {
        "location": {
          "lat": 40.78662690000001,
          "lng": -73.9500944
        },
        "viewport": {
          "northeast": {
            "lat": 40.78802098029151,
            "lng": -73.94885456970849
          },
          "southwest": {
            "lat": 40.78532301970851,
            "lng": -73.9515525302915
          }
        }
      },
      "icon": "https://maps.gstatic.com/mapfiles/place_api/icons/v1/png_71/restaurant-71.png",
      "icon_background_color": "#FF9E67",
      "icon_mask_base_uri": "https://maps.gstatic.com/mapfiles/place_api/icons/v2/restaurant_pinlet",
      "name": "Judys Spanish Restaurant",
      "opening_hours": {
        "open_now": true
      },
      "photos": [
        {
          "height": 4032,
          "html_attributions": [
            "<a href=\"https://maps.google.com/maps/contrib/113111313476293205437\">Akeel Nelson</a>"
          ],
          "photo_reference": "AeJbb3d_UAQXY4hCKX-Q940olBzMXYxOFABEBZ9Uh0zhWDu57NQhPmhGc8LVntYGUBvwItqM5mWVQ8aOhpRV-ALpeTeEw9ne99SS2jESEFpqQsuiHZO7-WmgLQQy3CHTM60EJ7aR8AtlzGy2bqPSz2mthmJXDoNHBDLG_to77fXS7mm4O7rL",
          "width": 3024
        }
      ],
      "place_id": "ChIJ_3uxW6ZYwokRjIJ1i6u3fYQ",
      "plus_code": {
        "compound_code": "Q2PX+MX \u7f8e\u570b\u7d10\u7d04",
        "global_code": "87G8Q2PX+MX"
      },
      "price_level": 1,
      "rating": 2.9,
      "reference": "ChIJ_3uxW6ZYwokRjIJ1i6u3fYQ",
      "scope": "GOOGLE",
      "types": [
        "restaurant",
        "food",
        "point_of_interest",
        "establishment"
      ],
      "user_ratings_total": 135,
      "vicinity": "1505 Lexington Avenue, New York"
    },
    {
      "business_status": "OPERATIONAL",
      "geometry": {
        "location": {
          "lat": 40.78907170000001,
          "lng": -73.9538601
        },
        "viewport": {
          "northeast": {
            "lat": 40.79031988029151,
            "lng": -73.95258536970849
          },
          "southwest": {
            "lat": 40.78762191970851,
            "lng": -73.9552833302915
          }
        }
      },
      "icon": "https://maps.gstatic.com/mapfiles/place_api/icons/v1/png_71/generic_business-71.png",
      "icon_background_color": "#7B9EB0",
      "icon_mask_base_uri": "https://maps.gstatic.com/mapfiles/place_api/icons/v2/generic_pinlet",
      "name": "Marsha Gordon, MD",
      "photos": [
        {
          "height": 250,
          "html_attributions": [
            "<a href=\"https://maps.google.com/maps/contrib/107547679798725744755\">Marsha Gordon, MD</a>"
          ],
          "photo_reference": "AeJbb3ff9o8hYpxmVJwcj0IihQDZKa-BqDzCq2Tel9lxi8Mbo9SCKbLLcGk6BkHYduvjPu-nv9T5McaPrVknMs4DBq7dpAI0c0izlctYlp21l5cLcvbwjnAhZ8fjikQ7DnCQcccJdnRD5a5WRiY3RfUyJ60e2Xl0Lrg7jh6nhEJ0Fms-HoL4",
          "width": 250
        }
      ],
      "place_id": "ChIJf0SSxqBYwokRA8x86UmwhL4",
      "plus_code": {
        "compound_code": "Q2QW+JF \u7f8e\u570b\u7d10\u7d04",
        "global_code": "87G8Q2QW+JF"
      },
      "reference": "ChIJf0SSxqBYwokRA8x86UmwhL4",
      "scope": "GOOGLE",
      "types": [
        "doctor",
        "health",
        "point_of_interest",
        "establishment"
      ],
      "vicinity": "5 East 98th St 5th Fl, New York"
    },
    {
      "geometry": {
        "location": {
          "lat": 40.8240478,
          "lng": -73.9447643
        },
        "viewport": {
          "northeast": {
            "lat": 40.87822003591612,
            "lng": -73.91064591328563
          },
          "southwest": {
            "lat": 40.78278392408598,
            "lng": -73.97119006413347
          }
        }
      },
      "icon": "https://maps.gstatic.com/mapfiles/place_api/icons/v1/png_71/geocode-71.png",
      "icon_background_color": "#7B9EB0",
      "icon_mask_base_uri": "https://maps.gstatic.com/mapfiles/place_api/icons/v2/generic_pinlet",
      "name": "\u66fc\u54c8\u9813\u4e0a\u57ce",
      "photos": [
        {
          "height": 4000,
          "html_attributions": [
            "<a href=\"https://maps.google.com/maps/contrib/108665206705263687409\">Chris Lidstone</a>"
          ],
          "photo_reference": "AeJbb3dwwlYicB23vF0sBLUaTsBLH44P_c--TpsZZkwB31Dov8HGlwCguzrncPJ8v8VwiKFbf3vqoRUoUgz0g2Wr2qoQjISQjrLp8mX9P2Tx2M-baJ6s12Fjhg-hT5AbsLPxowGyz84BKpWLpOC4JvEWs95NK_gTJaLRxkFfQMx3Y550Wx1H",
          "width": 3000
        }
      ],
      "place_id": "ChIJY50xHxP2wokR7WhhDNRmgRU",
      "reference": "ChIJY50xHxP2wokR7WhhDNRmgRU",
      "scope": "GOOGLE",
      "types": [
        "neighborhood",
        "political"
      ],
      "vicinity": "\u66fc\u54c8\u9813"
    },
    {
      "business_status": "OPERATIONAL",
      "geometry": {
        "location": {
          "lat": 40.7891401,
          "lng": -73.95398209999999
        },
        "viewport": {
          "northeast": {
            "lat": 40.79038183029149,
            "lng": -73.95271216970849
          },
          "southwest": {
            "lat": 40.78768386970849,
            "lng": -73.9554101302915
          }
        }
      },
      "icon": "https://maps.gstatic.com/mapfiles/place_api/icons/v1/png_71/generic_business-71.png",
      "icon_background_color": "#7B9EB0",
      "icon_mask_base_uri": "https://maps.gstatic.com/mapfiles/place_api/icons/v2/generic_pinlet",
      "name": "Dr. Emma Guttman Director of Occupational & Contact Dermatitis Clinic",
      "opening_hours": {
        "open_now": false
      },
      "place_id": "ChIJsTftxqBYwokRyMfNYhjcc9c",
      "plus_code": {
        "compound_code": "Q2QW+MC New York, NY, USA",
        "global_code": "87G8Q2QW+MC"
      },
      "rating": 3.5,
      "reference": "ChIJsTftxqBYwokRyMfNYhjcc9c",
      "scope": "GOOGLE",
      "types": [
        "hospital",
        "doctor",
        "health",
        "point_of_interest",
        "establishment"
      ],
      "user_ratings_total": 11,
      "vicinity": "5 East 98th Street, New York"
    },
    {
      "business_status": "OPERATIONAL",
      "geometry": {
        "location": {
          "lat": 40.7914868,
          "lng": -73.95203430000001
        },
        "viewport": {
          "northeast": {
            "lat": 40.7928904302915,
            "lng": -73.95092291970849
          },
          "southwest": {
            "lat": 40.7901924697085,
            "lng": -73.9536208802915
          }
        }
      },
      "icon": "https://maps.gstatic.com/mapfiles/place_api/icons/v1/png_71/generic_business-71.png",
      "icon_background_color": "#7B9EB0",
      "icon_mask_base_uri": "https://maps.gstatic.com/mapfiles/place_api/icons/v2/generic_pinlet",
      "name": "Mount Sinai Doctors - Optometry",
      "opening_hours": {
        "open_now": false
      },
      "place_id": "ChIJfXW2lR32wokRe-yUL76tWBw",
      "plus_code": {
        "compound_code": "Q2RX+H5 New York, NY, USA",
        "global_code": "87G8Q2RX+H5"
      },
      "reference": "ChIJfXW2lR32wokRe-yUL76tWBw",
      "scope": "GOOGLE",
      "types": [
        "accounting",
        "finance",
        "health",
        "point_of_interest",
        "establishment"
      ],
      "vicinity": "17 East 102nd Street, New York"
    },
    {
      "business_status": "OPERATIONAL",
      "geometry": {
        "location": {
          "lat": 40.790264,
          "lng": -73.9525967
        },
        "viewport": {
          "northeast": {
            "lat": 40.7914930302915,
            "lng": -73.9509947197085
          },
          "southwest": {
            "lat": 40.7887950697085,
            "lng": -73.95369268029151
          }
        }
      },
      "icon": "https://maps.gstatic.com/mapfiles/place_api/icons/v1/png_71/generic_business-71.png",
      "icon_background_color": "#7B9EB0",
      "icon_mask_base_uri": "https://maps.gstatic.com/mapfiles/place_api/icons/v2/generic_pinlet",
      "name": "Anthony Manasia, MD",
      "opening_hours": {
        "open_now": false
      },
      "place_id": "ChIJT1R9W6dYwokRqI2KN4nuslY",
      "plus_code": {
        "compound_code": "Q2RW+4X New York, NY, USA",
        "global_code": "87G8Q2RW+4X"
      },
      "reference": "ChIJT1R9W6dYwokRqI2KN4nuslY",
      "scope": "GOOGLE",
      "types": [
        "doctor",
        "health",
        "point_of_interest",
        "establishment"
      ],
      "vicinity": "1468 Madison Avenue 6th Fl, New York"
    },
    {
      "business_status": "OPERATIONAL",
      "geometry": {
        "location": {
          "lat": 40.7914868,
          "lng": -73.95203430000001
        },
        "viewport": {
          "northeast": {
            "lat": 40.7928904302915,
            "lng": -73.95092291970849
          },
          "southwest": {
            "lat": 40.7901924697085,
            "lng": -73.9536208802915
          }
        }
      },
      "icon": "https://maps.gstatic.com/mapfiles/place_api/icons/v1/png_71/generic_business-71.png",
      "icon_background_color": "#7B9EB0",
      "icon_mask_base_uri": "https://maps.gstatic.com/mapfiles/place_api/icons/v2/generic_pinlet",
      "name": "Dr. Henry A. Futterman, MD",
      "place_id": "ChIJfXW2lR32wokRhhw9AdaS6i0",
      "plus_code": {
        "compound_code": "Q2RX+H5 New York, NY, USA",
        "global_code": "87G8Q2RX+H5"
      },
      "reference": "ChIJfXW2lR32wokRhhw9AdaS6i0",
      "scope": "GOOGLE",
      "types": [
        "doctor",
        "health",
        "point_of_interest",
        "establishment"
      ],
      "vicinity": "17 East 102nd Street, New York"
    },
    {
      "business_status": "OPERATIONAL",
      "geometry": {
        "location": {
          "lat": 40.7914868,
          "lng": -73.95203430000001
        },
        "viewport": {
          "northeast": {
            "lat": 40.7928904302915,
            "lng": -73.95092291970849
          },
          "southwest": {
            "lat": 40.7901924697085,
            "lng": -73.9536208802915
          }
        }
      },
      "icon": "https://maps.gstatic.com/mapfiles/place_api/icons/v1/png_71/generic_business-71.png",
      "icon_background_color": "#7B9EB0",
      "icon_mask_base_uri": "https://maps.gstatic.com/mapfiles/place_api/icons/v2/generic_pinlet",
      "name": "Dr. Daniel S. Fierer, MD",
      "place_id": "ChIJfXW2lR32wokRAwgIbwiRGnE",
      "plus_code": {
        "compound_code": "Q2RX+H5 New York, NY, USA",
        "global_code": "87G8Q2RX+H5"
      },
      "reference": "ChIJfXW2lR32wokRAwgIbwiRGnE",
      "scope": "GOOGLE",
      "types": [
        "doctor",
        "health",
        "point_of_interest",
        "establishment"
      ],
      "vicinity": "17 East 102nd Street, New York"
    },
    {
      "business_status": "OPERATIONAL",
      "geometry": {
        "location": {
          "lat": 40.79146679999999,
          "lng": -73.9519846
        },
        "viewport": {
          "northeast": {
            "lat": 40.7928804302915,
            "lng": -73.95089806970849
          },
          "southwest": {
            "lat": 40.7901824697085,
            "lng": -73.95359603029151
          }
        }
      },
      "icon": "https://maps.gstatic.com/mapfiles/place_api/icons/v1/png_71/generic_business-71.png",
      "icon_background_color": "#7B9EB0",
      "icon_mask_base_uri": "https://maps.gstatic.com/mapfiles/place_api/icons/v2/generic_pinlet",
      "name": "Edward L Raab, MD",
      "opening_hours": {
        "open_now": false
      },
      "photos": [
        {
          "height": 727,
          "html_attributions": [
            "<a href=\"https://maps.google.com/maps/contrib/106659623909771409983\">Edward L Raab, MD</a>"
          ],
          "photo_reference": "AeJbb3eoaYv88qY-DSGdM-xexkSLt51FQif7upO0PQedcsTJ7YNlSjMk5ndP343baPnBZQRXDPc9I1EKkdBFV4FC4EfU7KGNIoxUYL794zIiaUfPMzRY2ADdKB_B2CmsEjujSIjv5ftZ_JiKIeXbashK1m-015_Gq-C72qJoeoENKbdE8ijU",
          "width": 727
        }
      ],
      "place_id": "ChIJfXW2lR32wokRVpYzxB7rbKc",
      "plus_code": {
        "compound_code": "Q2RX+H6 New York, NY, USA",
        "global_code": "87G8Q2RX+H6"
      },
      "rating": 2.7,
      "reference": "ChIJfXW2lR32wokRVpYzxB7rbKc",
      "scope": "GOOGLE",
      "types": [
        "doctor",
        "health",
        "point_of_interest",
        "establishment"
      ],
      "user_ratings_total": 6,
      "vicinity": "17 East 102nd Street 8th floor, New York"
    },
    {
      "business_status": "OPERATIONAL",
      "geometry": {
        "location": {
          "lat": 40.78907170000001,
          "lng": -73.9538601
        },
        "viewport": {
          "northeast": {
            "lat": 40.79031988029151,
            "lng": -73.95258536970849
          },
          "southwest": {
            "lat": 40.78762191970851,
            "lng": -73.9552833302915
          }
        }
      },
      "icon": "https://maps.gstatic.com/mapfiles/place_api/icons/v1/png_71/generic_business-71.png",
      "icon_background_color": "#7B9EB0",
      "icon_mask_base_uri": "https://maps.gstatic.com/mapfiles/place_api/icons/v2/generic_pinlet",
      "name": "Cunningham-Rundles Charlotte Dr",
      "place_id": "ChIJf0SSxqBYwokRm2bfEaFXxi4",
      "plus_code": {
        "compound_code": "Q2QW+JF New York, NY, USA",
        "global_code": "87G8Q2QW+JF"
      },
      "reference": "ChIJf0SSxqBYwokRm2bfEaFXxi4",
      "scope": "GOOGLE",
      "types": [
        "doctor",
        "health",
        "point_of_interest",
        "establishment"
      ],
      "vicinity": "5 East 98th Street, New York"
    },
    {
      "business_status": "OPERATIONAL",
      "geometry": {
        "location": {
          "lat": 40.7891585,
          "lng": -73.9543283
        },
        "viewport": {
          "northeast": {
            "lat": 40.79044948029149,
            "lng": -73.9530358697085
          },
          "southwest": {
            "lat": 40.78775151970849,
            "lng": -73.9557338302915
          }
        }
      },
      "icon": "https://maps.gstatic.com/mapfiles/place_api/icons/v1/png_71/generic_business-71.png",
      "icon_background_color": "#7B9EB0",
      "icon_mask_base_uri": "https://maps.gstatic.com/mapfiles/place_api/icons/v2/generic_pinlet",
      "name": "Peter Taub, MD",
      "opening_hours": {
        "open_now": false
      },
      "place_id": "ChIJf0SSxqBYwokRjGVTkXqxICA",
      "plus_code": {
        "compound_code": "Q2QW+M7 New York, NY, USA",
        "global_code": "87G8Q2QW+M7"
      },
      "rating": 4.7,
      "reference": "ChIJf0SSxqBYwokRjGVTkXqxICA",
      "scope": "GOOGLE",
      "types": [
        "doctor",
        "health",
        "point_of_interest",
        "establishment"
      ],
      "user_ratings_total": 13,
      "vicinity": "5 East 98th St 8th Fl, New York"
    },
    {
      "business_status": "OPERATIONAL",
      "geometry": {
        "location": {
          "lat": 40.79010570000001,
          "lng": -73.94612049999999
        },
        "viewport": {
          "northeast": {
            "lat": 40.79139123029151,
            "lng": -73.9446252197085
          },
          "southwest": {
            "lat": 40.78869326970851,
            "lng": -73.9473231802915
          }
        }
      },
      "icon": "https://maps.gstatic.com/mapfiles/place_api/icons/v1/png_71/lodging-71.png",
      "icon_background_color": "#909CE1",
      "icon_mask_base_uri": "https://maps.gstatic.com/mapfiles/place_api/icons/v2/hotel_pinlet",
      "name": "Upper Yorkville Suites",
      "photos": [
        {
          "height": 3456,
          "html_attributions": [
            "<a href=\"https://maps.google.com/maps/contrib/112061170844157736890\">Gaston Mir</a>"
          ],
          "photo_reference": "AeJbb3eQsspeNPbZ-v3yqJPzei99J5Jjkoz8zZ6mbT1a94AjpZLoxYUeYFqqnZHm77fnzfkAGLYLiYC_wn0cKm_cyKDXprYKAKeN7-UqpyqR-9GPo3FH3YxH_E08xxofOGsz_SMnfmvruKaCQ15lqiZkPMuIMiRqP9ssm_VKm2-Ls9PQFa7H",
          "width": 4608
        }
      ],
      "place_id": "ChIJgVQTlwL2wokRy5YQ4S9gIvc",
      "plus_code": {
        "compound_code": "Q3R3+2H New York, NY, USA",
        "global_code": "87G8Q3R3+2H"
      },
      "rating": 4.6,
      "reference": "ChIJgVQTlwL2wokRy5YQ4S9gIvc",
      "scope": "GOOGLE",
      "types": [
        "lodging",
        "point_of_interest",
        "establishment"
      ],
      "user_ratings_total": 20,
      "vicinity": "1876 3rd Avenue, New York"
    },
    {
      "business_status": "OPERATIONAL",
      "geometry": {
        "location": {
          "lat": 40.78907170000001,
          "lng": -73.9538601
        },
        "viewport": {
          "northeast": {
            "lat": 40.79031988029151,
            "lng": -73.9526448197085
          },
          "southwest": {
            "lat": 40.78762191970851,
            "lng": -73.9553427802915
          }
        }
      },
      "icon": "https://maps.gstatic.com/mapfiles/place_api/icons/v1/png_71/generic_business-71.png",
      "icon_background_color": "#7B9EB0",
      "icon_mask_base_uri": "https://maps.gstatic.com/mapfiles/place_api/icons/v2/generic_pinlet",
      "name": "Scott Nguyen, MD",
      "opening_hours": {
        "open_now": false
      },
      "place_id": "ChIJf0SSxqBYwokRXITwDnnZB5Q",
      "plus_code": {
        "compound_code": "Q2QW+JF New York, NY, USA",
        "global_code": "87G8Q2QW+JF"
      },
      "rating": 5,
      "reference": "ChIJf0SSxqBYwokRXITwDnnZB5Q",
      "scope": "GOOGLE",
      "types": [
        "doctor",
        "health",
        "point_of_interest",
        "establishment"
      ],
      "user_ratings_total": 19,
      "vicinity": "5 East 98th Street 14th Floor, Ste A, New York"
    },
    {
      "business_status": "OPERATIONAL",
      "geometry": {
        "location": {
          "lat": 40.78907170000001,
          "lng": -73.9538601
        },
        "viewport": {
          "northeast": {
            "lat": 40.79031988029151,
            "lng": -73.95258536970849
          },
          "southwest": {
            "lat": 40.78762191970851,
            "lng": -73.9552833302915
          }
        }
      },
      "icon": "https://maps.gstatic.com/mapfiles/place_api/icons/v1/png_71/generic_business-71.png",
      "icon_background_color": "#7B9EB0",
      "icon_mask_base_uri": "https://maps.gstatic.com/mapfiles/place_api/icons/v2/generic_pinlet",
      "name": "Neil Grafstein, MD",
      "opening_hours": {
        "open_now": false
      },
      "photos": [
        {
          "height": 727,
          "html_attributions": [
            "<a href=\"https://maps.google.com/maps/contrib/115317608042748103768\">Neil Grafstein, MD</a>"
          ],
          "photo_reference": "AeJbb3dHL1IWC5kmEwQJTjdQp59QQCXHF8BnJxz1GVOawOMjo3fjWzA8cZeAKt008ZctJCviZaAwl9IUiTQdtfJsYUoS_WpY3nPLGO0iZPYTIFQRosSIFIWOf6U5sXXGg_zBShaNuuoAXcFl3h7l1G2jQXUyNJhJenQ0nnFBBafjIaHJTWt5",
          "width": 727
        }
      ],
      "place_id": "ChIJf0SSxqBYwokReOmGkcrbzxc",
      "plus_code": {
        "compound_code": "Q2QW+JF New York, NY, USA",
        "global_code": "87G8Q2QW+JF"
      },
      "rating": 1.7,
      "reference": "ChIJf0SSxqBYwokReOmGkcrbzxc",
      "scope": "GOOGLE",
      "types": [
        "doctor",
        "health",
        "point_of_interest",
        "establishment"
      ],
      "user_ratings_total": 6,
      "vicinity": "5 East 98th Street 6th Fl, New York"
    },
    {
      "business_status": "OPERATIONAL",
      "geometry": {
        "location": {
          "lat": 40.7890329,
          "lng": -73.95384589999999
        },
        "viewport": {
          "northeast": {
            "lat": 40.7902935802915,
            "lng": -73.95256196970848
          },
          "southwest": {
            "lat": 40.7875956197085,
            "lng": -73.95525993029149
          }
        }
      },
      "icon": "https://maps.gstatic.com/mapfiles/place_api/icons/v1/png_71/generic_business-71.png",
      "icon_background_color": "#7B9EB0",
      "icon_mask_base_uri": "https://maps.gstatic.com/mapfiles/place_api/icons/v2/generic_pinlet",
      "name": "Dr. Tracy L. Breen, MD",
      "place_id": "ChIJf0SSxqBYwokRmMXSlUTn1XM",
      "plus_code": {
        "compound_code": "Q2QW+JF New York, NY, USA",
        "global_code": "87G8Q2QW+JF"
      },
      "reference": "ChIJf0SSxqBYwokRmMXSlUTn1XM",
      "scope": "GOOGLE",
      "types": [
        "doctor",
        "health",
        "point_of_interest",
        "establishment"
      ],
      "vicinity": "5 East 98th Street, New York"
    },
    {
      "business_status": "OPERATIONAL",
      "geometry": {
        "location": {
          "lat": 40.7883287,
          "lng": -73.9531906
        },
        "viewport": {
          "northeast": {
            "lat": 40.78963883029149,
            "lng": -73.9519089197085
          },
          "southwest": {
            "lat": 40.7869408697085,
            "lng": -73.95460688029151
          }
        }
      },
      "icon": "https://maps.gstatic.com/mapfiles/place_api/icons/v1/png_71/generic_business-71.png",
      "icon_background_color": "#7B9EB0",
      "icon_mask_base_uri": "https://maps.gstatic.com/mapfiles/place_api/icons/v2/generic_pinlet",
      "name": "Dr. Lori G. Zbar, MD",
      "place_id": "ChIJf0SSxqBYwokRM47K9wgb2Gg",
      "plus_code": {
        "compound_code": "Q2QW+8P New York, NY, USA",
        "global_code": "87G8Q2QW+8P"
      },
      "reference": "ChIJf0SSxqBYwokRM47K9wgb2Gg",
      "scope": "GOOGLE",
      "types": [
        "doctor",
        "health",
        "point_of_interest",
        "establishment"
      ],
      "vicinity": "5 East 98th Street, New York"
    },
    {
      "business_status": "OPERATIONAL",
      "geometry": {
        "location": {
          "lat": 40.78907170000001,
          "lng": -73.9538601
        },
        "viewport": {
          "northeast": {
            "lat": 40.79031988029151,
            "lng": -73.95258536970849
          },
          "southwest": {
            "lat": 40.78762191970851,
            "lng": -73.9552833302915
          }
        }
      },
      "icon": "https://maps.gstatic.com/mapfiles/place_api/icons/v1/png_71/generic_business-71.png",
      "icon_background_color": "#7B9EB0",
      "icon_mask_base_uri": "https://maps.gstatic.com/mapfiles/place_api/icons/v2/generic_pinlet",
      "name": "Charles Ascher-Walsh, MD",
      "opening_hours": {
        "open_now": false
      },
      "photos": [
        {
          "height": 500,
          "html_attributions": [
            "<a href=\"https://maps.google.com/maps/contrib/113008020770634568343\">Charles Ascher-Walsh, MD</a>"
          ],
          "photo_reference": "AeJbb3fPopnn2bH-ibRhu5ciwEOM7by6AshpYq0jZrkYdewuU5ixE-TrzzjPYs_YqN8Ct84AVwgnC20OqYxw21C-zWE5SvLfiD4A8gZ8xk_dKB6kT4QzVhfHPr6feQkNukuJJwgjn5QjG5SmpsP85Mbh5EFgjwP1kx3c4L0JmvtX9aTlcxpH",
          "width": 500
        }
      ],
      "place_id": "ChIJf0SSxqBYwokRE-GqreaupVI",
      "plus_code": {
        "compound_code": "Q2QW+JF New York, NY, USA",
        "global_code": "87G8Q2QW+JF"
      },
      "rating": 4.3,
      "reference": "ChIJf0SSxqBYwokRE-GqreaupVI",
      "scope": "GOOGLE",
      "types": [
        "doctor",
        "health",
        "point_of_interest",
        "establishment"
      ],
      "user_ratings_total": 20,
      "vicinity": "5 East 98th Street 2nd Fl, New York"
    },
    {
      "business_status": "OPERATIONAL",
      "geometry": {
        "location": {
          "lat": 40.7915202,
          "lng": -73.95198669999999
        },
        "viewport": {
          "northeast": {
            "lat": 40.7927887302915,
            "lng": -73.9506965197085
          },
          "southwest": {
            "lat": 40.7900907697085,
            "lng": -73.95339448029151
          }
        }
      },
      "icon": "https://maps.gstatic.com/mapfiles/place_api/icons/v1/png_71/generic_business-71.png",
      "icon_background_color": "#7B9EB0",
      "icon_mask_base_uri": "https://maps.gstatic.com/mapfiles/place_api/icons/v2/generic_pinlet",
      "name": "Bryan Markinson, DPM",
      "opening_hours": {
        "open_now": false
      },
      "photos": [
        {
          "height": 1192,
          "html_attributions": [
            "<a href=\"https://maps.google.com/maps/contrib/114004077826888861317\">Bryan Markinson, DPM</a>"
          ],
          "photo_reference": "AeJbb3e5uDdjE8wt3DtOJewRdLEANhntql8VAFK3UVFIv4mjwuhXoA1MmPxp-Wtmjt07LSl31XZb5roPVZ9imQiHXaa4Ub4r8vMKfW3ImjAVKOZ0-lWg_28vT0htnaxVgJLuVfnD1eCdDwgWeduP2LCB3dPNLkKg9Ry0B4OgHOTXPRNOK6fh",
          "width": 2119
        }
      ],
      "place_id": "ChIJf0SSxqBYwokRhTxmtiNXCEY",
      "plus_code": {
        "compound_code": "Q2RX+J6 New York, NY, USA",
        "global_code": "87G8Q2RX+J6"
      },
      "rating": 3.9,
      "reference": "ChIJf0SSxqBYwokRhTxmtiNXCEY",
      "scope": "GOOGLE",
      "types": [
        "doctor",
        "health",
        "point_of_interest",
        "establishment"
      ],
      "user_ratings_total": 14,
      "vicinity": "17 East 102nd Street 4th Fl, New York"
    },
    {
      "business_status": "OPERATIONAL",
      "geometry": {
        "location": {
          "lat": 40.790264,
          "lng": -73.9525967
        },
        "viewport": {
          "northeast": {
            "lat": 40.7914930302915,
            "lng": -73.9509947197085
          },
          "southwest": {
            "lat": 40.7887950697085,
            "lng": -73.95369268029151
          }
        }
      },
      "icon": "https://maps.gstatic.com/mapfiles/place_api/icons/v1/png_71/generic_business-71.png",
      "icon_background_color": "#7B9EB0",
      "icon_mask_base_uri": "https://maps.gstatic.com/mapfiles/place_api/icons/v2/generic_pinlet",
      "name": "Madeline Fields, MD",
      "opening_hours": {
        "open_now": false
      },
      "place_id": "ChIJf0SSxqBYwokREeKjNBUEj7s",
      "plus_code": {
        "compound_code": "Q2RW+4X New York, NY, USA",
        "global_code": "87G8Q2RW+4X"
      },
      "rating": 4.9,
      "reference": "ChIJf0SSxqBYwokREeKjNBUEj7s",
      "scope": "GOOGLE",
      "types": [
        "doctor",
        "health",
        "point_of_interest",
        "establishment"
      ],
      "user_ratings_total": 9,
      "vicinity": "1468 Madison Avenue 2nd Fl, New York"
    },
    {
      "business_status": "OPERATIONAL",
      "geometry": {
        "location": {
          "lat": 40.7912019,
          "lng": -73.9522846
        },
        "viewport": {
          "northeast": {
            "lat": 40.79255983029151,
            "lng": -73.9508337197085
          },
          "southwest": {
            "lat": 40.78986186970851,
            "lng": -73.9535316802915
          }
        }
      },
      "icon": "https://maps.gstatic.com/mapfiles/place_api/icons/v1/png_71/generic_business-71.png",
      "icon_background_color": "#7B9EB0",
      "icon_mask_base_uri": "https://maps.gstatic.com/mapfiles/place_api/icons/v2/generic_pinlet",
      "name": "E. Neil Schachter, MD",
      "opening_hours": {
        "open_now": false
      },
      "photos": [
        {
          "height": 727,
          "html_attributions": [
            "<a href=\"https://maps.google.com/maps/contrib/117181162440265183884\">E. Neil Schachter, MD</a>"
          ],
          "photo_reference": "AeJbb3dJVf4gQj_gOtR4lgIq1Qp45VHgZh-zN87fQf96DVhJAOLkA36wmzo7IvJZbqFPnM8Mq0NmZweTfh4P-HvA1LhhYnD4-oq1EAZiUJZ5iStQb9cZaUq6nmocrc4HZAMN0bTRUmPjktVDXvBPkEB9rp7zCPPY5aDiVDEtLSgywtarBmTJ",
          "width": 727
        }
      ],
      "place_id": "ChIJ1-NkqqBYwokRLVsl8wiISCM",
      "plus_code": {
        "compound_code": "Q2RX+F3 New York, NY, USA",
        "global_code": "87G8Q2RX+F3"
      },
      "rating": 5,
      "reference": "ChIJ1-NkqqBYwokRLVsl8wiISCM",
      "scope": "GOOGLE",
      "types": [
        "doctor",
        "health",
        "point_of_interest",
        "establishment"
      ],
      "user_ratings_total": 1,
      "vicinity": "10 East 102nd Street 5th Fl, New York"
    },
    {
      "business_status": "OPERATIONAL",
      "geometry": {
        "location": {
          "lat": 40.79249790000001,
          "lng": -73.95192229999999
        },
        "viewport": {
          "northeast": {
            "lat": 40.7939413302915,
            "lng": -73.95075531970848
          },
          "southwest": {
            "lat": 40.7912433697085,
            "lng": -73.95345328029148
          }
        }
      },
      "icon": "https://maps.gstatic.com/mapfiles/place_api/icons/v1/png_71/generic_business-71.png",
      "icon_background_color": "#7B9EB0",
      "icon_mask_base_uri": "https://maps.gstatic.com/mapfiles/place_api/icons/v2/generic_pinlet",
      "name": "Hill International Inc",
      "place_id": "ChIJi4hYtB32wokRoor_OBEdbqE",
      "plus_code": {
        "compound_code": "Q2RX+X6 New York, NY, USA",
        "global_code": "87G8Q2RX+X6"
      },
      "reference": "ChIJi4hYtB32wokRoor_OBEdbqE",
      "scope": "GOOGLE",
      "types": [
        "point_of_interest",
        "establishment"
      ],
      "vicinity": "1220 5th Avenue, New York"
    },
    {
      "business_status": "OPERATIONAL",
      "geometry": {
        "location": {
          "lat": 40.78907170000001,
          "lng": -73.9538601
        },
        "viewport": {
          "northeast": {
            "lat": 40.79031988029151,
            "lng": -73.95258536970849
          },
          "southwest": {
            "lat": 40.78762191970851,
            "lng": -73.9552833302915
          }
        }
      },
      "icon": "https://maps.gstatic.com/mapfiles/place_api/icons/v1/png_71/generic_business-71.png",
      "icon_background_color": "#7B9EB0",
      "icon_mask_base_uri": "https://maps.gstatic.com/mapfiles/place_api/icons/v2/generic_pinlet",
      "name": "Joanne Stone, MD, MS",
      "opening_hours": {
        "open_now": false
      },
      "photos": [
        {
          "height": 500,
          "html_attributions": [
            "<a href=\"https://maps.google.com/maps/contrib/112514365114592961292\">Joanne Stone, MD, MS</a>"
          ],
          "photo_reference": "AeJbb3fIVrTLSyQ6Iv2DkUKZh55ahAHbuR4CEbzl560ndvrFssjoqgQB3eV0x_0JcY4WGL7SnpecmwhyjNGCeVKQTF95ia1_aR5Yx0kcFu1EZk1LMnHWp9qlnYGsozsqwR3-i53fP2JRscJOH5Mexa8bMeICp0sHGH4NvfURn6DgGCbBJtZk",
          "width": 500
        }
      ],
      "place_id": "ChIJf0SSxqBYwokR7UkSlxOZ-bQ",
      "plus_code": {
        "compound_code": "Q2QW+JF New York, NY, USA",
        "global_code": "87G8Q2QW+JF"
      },
      "rating": 5,
      "reference": "ChIJf0SSxqBYwokR7UkSlxOZ-bQ",
      "scope": "GOOGLE",
      "types": [
        "doctor",
        "health",
        "point_of_interest",
        "establishment"
      ],
      "user_ratings_total": 2,
      "vicinity": "5 East 98th Street 2nd Fl, New York"
    },
    {
      "business_status": "OPERATIONAL",
      "geometry": {
        "location": {
          "lat": 40.78907170000001,
          "lng": -73.9538601
        },
        "viewport": {
          "northeast": {
            "lat": 40.79031988029151,
            "lng": -73.9526448197085
          },
          "southwest": {
            "lat": 40.78762191970851,
            "lng": -73.9553427802915
          }
        }
      },
      "icon": "https://maps.gstatic.com/mapfiles/place_api/icons/v1/png_71/hospital-71.png",
      "icon_background_color": "#F88181",
      "icon_mask_base_uri": "https://maps.gstatic.com/mapfiles/place_api/icons/v2/hospital-H_pinlet",
      "name": "Scoliosis and Spine Associates",
      "opening_hours": {
        "open_now": false
      },
      "place_id": "ChIJR_RD1BxZwokRO8bTbZ4Hrts",
      "plus_code": {
        "compound_code": "Q2QW+JF New York, NY, USA",
        "global_code": "87G8Q2QW+JF"
      },
      "rating": 4.8,
      "reference": "ChIJR_RD1BxZwokRO8bTbZ4Hrts",
      "scope": "GOOGLE",
      "types": [
        "hospital",
        "doctor",
        "health",
        "point_of_interest",
        "establishment"
      ],
      "user_ratings_total": 20,
      "vicinity": "5 East 98th Street 4th floor, New York"
    },
    {
      "business_status": "OPERATIONAL",
      "geometry": {
        "location": {
          "lat": 40.7901407,
          "lng": -73.9527505
        },
        "viewport": {
          "northeast": {
            "lat": 40.7913725302915,
            "lng": -73.95112456970848
          },
          "southwest": {
            "lat": 40.7886745697085,
            "lng": -73.95382253029149
          }
        }
      },
      "icon": "https://maps.gstatic.com/mapfiles/place_api/icons/v1/png_71/generic_business-71.png",
      "icon_background_color": "#7B9EB0",
      "icon_mask_base_uri": "https://maps.gstatic.com/mapfiles/place_api/icons/v2/generic_pinlet",
      "name": "Betty J. Mintz, MD",
      "place_id": "ChIJf0SSxqBYwokRNh1RtYnYlsY",
      "plus_code": {
        "compound_code": "Q2RW+3V New York, NY, USA",
        "global_code": "87G8Q2RW+3V"
      },
      "reference": "ChIJf0SSxqBYwokRNh1RtYnYlsY",
      "scope": "GOOGLE",
      "types": [
        "doctor",
        "health",
        "point_of_interest",
        "establishment"
      ],
      "vicinity": "1468 Madison Avenue, New York"
    },
    {
      "business_status": "OPERATIONAL",
      "geometry": {
        "location": {
          "lat": 40.789056,
          "lng": -73.9538508
        },
        "viewport": {
          "northeast": {
            "lat": 40.7903086302915,
            "lng": -73.9525727697085
          },
          "southwest": {
            "lat": 40.7876106697085,
            "lng": -73.9552707302915
          }
        }
      },
      "icon": "https://maps.gstatic.com/mapfiles/place_api/icons/v1/png_71/generic_business-71.png",
      "icon_background_color": "#7B9EB0",
      "icon_mask_base_uri": "https://maps.gstatic.com/mapfiles/place_api/icons/v2/generic_pinlet",
      "name": "Benkov Keith J MD",
      "place_id": "ChIJf0SSxqBYwokRNvHIVGaLxkQ",
      "plus_code": {
        "compound_code": "Q2QW+JF New York, NY, USA",
        "global_code": "87G8Q2QW+JF"
      },
      "rating": 3.9,
      "reference": "ChIJf0SSxqBYwokRNvHIVGaLxkQ",
      "scope": "GOOGLE",
      "types": [
        "doctor",
        "health",
        "point_of_interest",
        "establishment"
      ],
      "user_ratings_total": 8,
      "vicinity": "5 East 98th Street, New York"
    },
    {
      "business_status": "OPERATIONAL",
      "geometry": {
        "location": {
          "lat": 40.78907170000001,
          "lng": -73.9538601
        },
        "viewport": {
          "northeast": {
            "lat": 40.79031988029151,
            "lng": -73.95258536970849
          },
          "southwest": {
            "lat": 40.78762191970851,
            "lng": -73.9552833302915
          }
        }
      },
      "icon": "https://maps.gstatic.com/mapfiles/place_api/icons/v1/png_71/generic_business-71.png",
      "icon_background_color": "#7B9EB0",
      "icon_mask_base_uri": "https://maps.gstatic.com/mapfiles/place_api/icons/v2/generic_pinlet",
      "name": "Parag Sheth, MD",
      "opening_hours": {
        "open_now": false
      },
      "photos": [
        {
          "height": 727,
          "html_attributions": [
            "<a href=\"https://maps.google.com/maps/contrib/107729001159717798723\">Parag Sheth, MD</a>"
          ],
          "photo_reference": "AeJbb3d3oz7m6KMUqjBxITxYLJreC1vEo2NPc7CDgsYxfCJ4ezGbKDuIjEZM2U71iNj-zI9-DAtdZB-OiFuykgDdzb8RzgT99n_itnMbcZyed1CG4f4-h7-7lR2EobiYKcc1vv8WG63UIdI1yHJtbNIzaJ4eeU5yFAhLIwcGcnxzMm-D9neC",
          "width": 727
        }
      ],
      "place_id": "ChIJf0SSxqBYwokR-8mnp7wLHMc",
      "plus_code": {
        "compound_code": "Q2QW+JF New York, NY, USA",
        "global_code": "87G8Q2QW+JF"
      },
      "rating": 5,
      "reference": "ChIJf0SSxqBYwokR-8mnp7wLHMc",
      "scope": "GOOGLE",
      "types": [
        "doctor",
        "health",
        "point_of_interest",
        "establishment"
      ],
      "user_ratings_total": 1,
      "vicinity": "5 East 98th Street 6th Fl, New York"
    },
    {
      "business_status": "OPERATIONAL",
      "geometry": {
        "location": {
          "lat": 40.78907170000001,
          "lng": -73.9538601
        },
        "viewport": {
          "northeast": {
            "lat": 40.79031988029151,
            "lng": -73.95258536970849
          },
          "southwest": {
            "lat": 40.78762191970851,
            "lng": -73.9552833302915
          }
        }
      },
      "icon": "https://maps.gstatic.com/mapfiles/place_api/icons/v1/png_71/generic_business-71.png",
      "icon_background_color": "#7B9EB0",
      "icon_mask_base_uri": "https://maps.gstatic.com/mapfiles/place_api/icons/v2/generic_pinlet",
      "name": "Premenstrual Syndrome",
      "place_id": "ChIJf0SSxqBYwokRTqXnLkNgMzw",
      "plus_code": {
        "compound_code": "Q2QW+JF New York, NY, USA",
        "global_code": "87G8Q2QW+JF"
      },
      "reference": "ChIJf0SSxqBYwokRTqXnLkNgMzw",
      "scope": "GOOGLE",
      "types": [
        "point_of_interest",
        "establishment"
      ],
      "vicinity": "5 East 98th Street, New York"
    },
    {
      "business_status": "OPERATIONAL",
      "geometry": {
        "location": {
          "lat": 40.78907170000001,
          "lng": -73.9538601
        },
        "viewport": {
          "northeast": {
            "lat": 40.79031988029151,
            "lng": -73.95258536970849
          },
          "southwest": {
            "lat": 40.78762191970851,
            "lng": -73.9552833302915
          }
        }
      },
      "icon": "https://maps.gstatic.com/mapfiles/place_api/icons/v1/png_71/generic_business-71.png",
      "icon_background_color": "#7B9EB0",
      "icon_mask_base_uri": "https://maps.gstatic.com/mapfiles/place_api/icons/v2/generic_pinlet",
      "name": "William Lawson, MD, DDS",
      "opening_hours": {
        "open_now": false
      },
      "photos": [
        {
          "height": 4160,
          "html_attributions": [
            "<a href=\"https://maps.google.com/maps/contrib/104263483849555676432\">Erika Kish</a>"
          ],
          "photo_reference": "AeJbb3dlkIqhhZjRCIrwf5nmU1I7nucw-ohYmv_t_3xuGxfiIDAxhlEVw3VAO57YcpRiyOBhrbvsfcFC-cuqNDy5pzZZx2LPwED2s-90RiOaymdon-qIvXljw74JnNDifWS8_6mhFFqVvI-Bmokjh9ryCIlBJRVr4B6HPkBgAHAgJoMm4nXw",
          "width": 3120
        }
      ],
      "place_id": "ChIJf0SSxqBYwokRtGxKBA1lQOQ",
      "plus_code": {
        "compound_code": "Q2QW+JF New York, NY, USA",
        "global_code": "87G8Q2QW+JF"
      },
      "rating": 3,
      "reference": "ChIJf0SSxqBYwokRtGxKBA1lQOQ",
      "scope": "GOOGLE",
      "types": [
        "doctor",
        "health",
        "point_of_interest",
        "establishment"
      ],
      "user_ratings_total": 6,
      "vicinity": "Faculty Practice Associates, 5 East 98th Street, New York"
    },
    {
      "business_status": "OPERATIONAL",
      "geometry": {
        "location": {
          "lat": 40.78907170000001,
          "lng": -73.9538601
        },
        "viewport": {
          "northeast": {
            "lat": 40.79031988029151,
            "lng": -73.95258536970849
          },
          "southwest": {
            "lat": 40.78762191970851,
            "lng": -73.9552833302915
          }
        }
      },
      "icon": "https://maps.gstatic.com/mapfiles/place_api/icons/v1/png_71/generic_business-71.png",
      "icon_background_color": "#7B9EB0",
      "icon_mask_base_uri": "https://maps.gstatic.com/mapfiles/place_api/icons/v2/generic_pinlet",
      "name": "Corn Beth Eve MD",
      "opening_hours": {
        "open_now": false
      },
      "place_id": "ChIJf0SSxqBYwokRIqNkmuUdWdQ",
      "plus_code": {
        "compound_code": "Q2QW+JF New York, NY, USA",
        "global_code": "87G8Q2QW+JF"
      },
      "rating": 5,
      "reference": "ChIJf0SSxqBYwokRIqNkmuUdWdQ",
      "scope": "GOOGLE",
      "types": [
        "doctor",
        "health",
        "point_of_interest",
        "establishment"
      ],
      "user_ratings_total": 4,
      "vicinity": "5 East 98th Street, New York"
    },
    {
      "business_status": "OPERATIONAL",
      "geometry": {
        "location": {
          "lat": 40.7890329,
          "lng": -73.95384589999999
        },
        "viewport": {
          "northeast": {
            "lat": 40.7902935802915,
            "lng": -73.95256196970848
          },
          "southwest": {
            "lat": 40.7875956197085,
            "lng": -73.95525993029149
          }
        }
      },
      "icon": "https://maps.gstatic.com/mapfiles/place_api/icons/v1/png_71/generic_business-71.png",
      "icon_background_color": "#7B9EB0",
      "icon_mask_base_uri": "https://maps.gstatic.com/mapfiles/place_api/icons/v2/generic_pinlet",
      "name": "Dr. Scott H. Sicherer, MD",
      "place_id": "ChIJf0SSxqBYwokRDehYx4XaZE8",
      "plus_code": {
        "compound_code": "Q2QW+JF New York, NY, USA",
        "global_code": "87G8Q2QW+JF"
      },
      "reference": "ChIJf0SSxqBYwokRDehYx4XaZE8",
      "scope": "GOOGLE",
      "types": [
        "doctor",
        "health",
        "point_of_interest",
        "establishment"
      ],
      "vicinity": "5 East 98th Street, New York"
    },
    {
      "business_status": "OPERATIONAL",
      "geometry": {
        "location": {
          "lat": 40.7891416,
          "lng": -73.9538145
        },
        "viewport": {
          "northeast": {
            "lat": 40.7903548302915,
            "lng": -73.95256256970849
          },
          "southwest": {
            "lat": 40.7876568697085,
            "lng": -73.95526053029151
          }
        }
      },
      "icon": "https://maps.gstatic.com/mapfiles/place_api/icons/v1/png_71/generic_business-71.png",
      "icon_background_color": "#7B9EB0",
      "icon_mask_base_uri": "https://maps.gstatic.com/mapfiles/place_api/icons/v2/generic_pinlet",
      "name": "Shradha Agarwal, MD",
      "place_id": "ChIJf0SSxqBYwokRu7QN423OXcM",
      "plus_code": {
        "compound_code": "Q2QW+MF New York, NY, USA",
        "global_code": "87G8Q2QW+MF"
      },
      "rating": 4.5,
      "reference": "ChIJf0SSxqBYwokRu7QN423OXcM",
      "scope": "GOOGLE",
      "types": [
        "doctor",
        "health",
        "point_of_interest",
        "establishment"
      ],
      "user_ratings_total": 8,
      "vicinity": "5 East 98th Street 11th Fl, New York"
    },
    {
      "business_status": "OPERATIONAL",
      "geometry": {
        "location": {
          "lat": 40.78907170000001,
          "lng": -73.9538601
        },
        "viewport": {
          "northeast": {
            "lat": 40.79031988029151,
            "lng": -73.95258536970849
          },
          "southwest": {
            "lat": 40.78762191970851,
            "lng": -73.9552833302915
          }
        }
      },
      "icon": "https://maps.gstatic.com/mapfiles/place_api/icons/v1/png_71/generic_business-71.png",
      "icon_background_color": "#7B9EB0",
      "icon_mask_base_uri": "https://maps.gstatic.com/mapfiles/place_api/icons/v2/generic_pinlet",
      "name": "Jimenez Jennifer",
      "place_id": "ChIJf0SSxqBYwokRPScbl9nVHL0",
      "plus_code": {
        "compound_code": "Q2QW+JF New York, NY, USA",
        "global_code": "87G8Q2QW+JF"
      },
      "reference": "ChIJf0SSxqBYwokRPScbl9nVHL0",
      "scope": "GOOGLE",
      "types": [
        "health",
        "point_of_interest",
        "establishment"
      ],
      "vicinity": "5 East 98th Street, New York"
    },
    {
      "business_status": "OPERATIONAL",
      "geometry": {
        "location": {
          "lat": 40.78907170000001,
          "lng": -73.9538601
        },
        "viewport": {
          "northeast": {
            "lat": 40.79031988029151,
            "lng": -73.95258536970849
          },
          "southwest": {
            "lat": 40.78762191970851,
            "lng": -73.9552833302915
          }
        }
      },
      "icon": "https://maps.gstatic.com/mapfiles/place_api/icons/v1/png_71/generic_business-71.png",
      "icon_background_color": "#7B9EB0",
      "icon_mask_base_uri": "https://maps.gstatic.com/mapfiles/place_api/icons/v2/generic_pinlet",
      "name": "Priya Grewal, MD",
      "opening_hours": {
        "open_now": false
      },
      "place_id": "ChIJf0SSxqBYwokRhPO4JxSFHaQ",
      "plus_code": {
        "compound_code": "Q2QW+JF New York, NY, USA",
        "global_code": "87G8Q2QW+JF"
      },
      "rating": 5,
      "reference": "ChIJf0SSxqBYwokRhPO4JxSFHaQ",
      "scope": "GOOGLE",
      "types": [
        "doctor",
        "health",
        "point_of_interest",
        "establishment"
      ],
      "user_ratings_total": 5,
      "vicinity": "5 East 98th Street 12th Fl, New York"
    },
    {
      "business_status": "OPERATIONAL",
      "geometry": {
        "location": {
          "lat": 40.78907170000001,
          "lng": -73.9538601
        },
        "viewport": {
          "northeast": {
            "lat": 40.79031988029151,
            "lng": -73.95258536970849
          },
          "southwest": {
            "lat": 40.78762191970851,
            "lng": -73.9552833302915
          }
        }
      },
      "icon": "https://maps.gstatic.com/mapfiles/place_api/icons/v1/png_71/generic_business-71.png",
      "icon_background_color": "#7B9EB0",
      "icon_mask_base_uri": "https://maps.gstatic.com/mapfiles/place_api/icons/v2/generic_pinlet",
      "name": "Dr. Eliza B. Geer, MD",
      "place_id": "ChIJf0SSxqBYwokRBx2F-X_7cyM",
      "plus_code": {
        "compound_code": "Q2QW+JF New York, NY, USA",
        "global_code": "87G8Q2QW+JF"
      },
      "rating": 1,
      "reference": "ChIJf0SSxqBYwokRBx2F-X_7cyM",
      "scope": "GOOGLE",
      "types": [
        "doctor",
        "health",
        "point_of_interest",
        "establishment"
      ],
      "user_ratings_total": 3,
      "vicinity": "5 East 98th Street, New York"
    },
    {
      "business_status": "OPERATIONAL",
      "geometry": {
        "location": {
          "lat": 40.78906409999999,
          "lng": -73.95385639999999
        },
        "viewport": {
          "northeast": {
            "lat": 40.79031458029149,
            "lng": -73.95257996970848
          },
          "southwest": {
            "lat": 40.78761661970849,
            "lng": -73.95527793029149
          }
        }
      },
      "icon": "https://maps.gstatic.com/mapfiles/place_api/icons/v1/png_71/generic_business-71.png",
      "icon_background_color": "#7B9EB0",
      "icon_mask_base_uri": "https://maps.gstatic.com/mapfiles/place_api/icons/v2/generic_pinlet",
      "name": "Jaime Uribarri, MD",
      "opening_hours": {
        "open_now": false
      },
      "place_id": "ChIJf0SSxqBYwokRexDdz0AnuQs",
      "plus_code": {
        "compound_code": "Q2QW+JF New York, NY, USA",
        "global_code": "87G8Q2QW+JF"
      },
      "reference": "ChIJf0SSxqBYwokRexDdz0AnuQs",
      "scope": "GOOGLE",
      "types": [
        "doctor",
        "health",
        "point_of_interest",
        "establishment"
      ],
      "vicinity": "5 East 98th Street #11, New York"
    },
    {
      "business_status": "OPERATIONAL",
      "geometry": {
        "location": {
          "lat": 40.78907170000001,
          "lng": -73.9538601
        },
        "viewport": {
          "northeast": {
            "lat": 40.79031988029151,
            "lng": -73.95258536970849
          },
          "southwest": {
            "lat": 40.78762191970851,
            "lng": -73.9552833302915
          }
        }
      },
      "icon": "https://maps.gstatic.com/mapfiles/place_api/icons/v1/png_71/generic_business-71.png",
      "icon_background_color": "#7B9EB0",
      "icon_mask_base_uri": "https://maps.gstatic.com/mapfiles/place_api/icons/v2/generic_pinlet",
      "name": "Busse Paula MD",
      "place_id": "ChIJf0SSxqBYwokRf4cQDPV-udc",
      "plus_code": {
        "compound_code": "Q2QW+JF New York, NY, USA",
        "global_code": "87G8Q2QW+JF"
      },
      "rating": 3,
      "reference": "ChIJf0SSxqBYwokRf4cQDPV-udc",
      "scope": "GOOGLE",
      "types": [
        "doctor",
        "health",
        "point_of_interest",
        "establishment"
      ],
      "user_ratings_total": 6,
      "vicinity": "5 East 98th Street, New York"
    },
    {
      "business_status": "OPERATIONAL",
      "geometry": {
        "location": {
          "lat": 40.78907170000001,
          "lng": -73.9538601
        },
        "viewport": {
          "northeast": {
            "lat": 40.79031988029151,
            "lng": -73.95258536970849
          },
          "southwest": {
            "lat": 40.78762191970851,
            "lng": -73.9552833302915
          }
        }
      },
      "icon": "https://maps.gstatic.com/mapfiles/place_api/icons/v1/png_71/generic_business-71.png",
      "icon_background_color": "#7B9EB0",
      "icon_mask_base_uri": "https://maps.gstatic.com/mapfiles/place_api/icons/v2/generic_pinlet",
      "name": "Aledort Louis M MD",
      "place_id": "ChIJf0SSxqBYwokRy1VGWbKqLyo",
      "plus_code": {
        "compound_code": "Q2QW+JF New York, NY, USA",
        "global_code": "87G8Q2QW+JF"
      },
      "rating": 3.7,
      "reference": "ChIJf0SSxqBYwokRy1VGWbKqLyo",
      "scope": "GOOGLE",
      "types": [
        "doctor",
        "health",
        "point_of_interest",
        "establishment"
      ],
      "user_ratings_total": 3,
      "vicinity": "5 East 98th Street, New York"
    },
    {
      "business_status": "OPERATIONAL",
      "geometry": {
        "location": {
          "lat": 40.7890329,
          "lng": -73.95384589999999
        },
        "viewport": {
          "northeast": {
            "lat": 40.7902935802915,
            "lng": -73.95256196970848
          },
          "southwest": {
            "lat": 40.7875956197085,
            "lng": -73.95525993029149
          }
        }
      },
      "icon": "https://maps.gstatic.com/mapfiles/place_api/icons/v1/png_71/generic_business-71.png",
      "icon_background_color": "#7B9EB0",
      "icon_mask_base_uri": "https://maps.gstatic.com/mapfiles/place_api/icons/v2/generic_pinlet",
      "name": "Scott L. Friedman, MD, Dean for Therapeutic Discovery, Icahn School of Medicine",
      "photos": [
        {
          "height": 300,
          "html_attributions": [
            "<a href=\"https://maps.google.com/maps/contrib/116826345756902400462\">Scott L. Friedman, MD, Dean for Therapeutic Discovery, Icahn School of Medicine</a>"
          ],
          "photo_reference": "AeJbb3eS8x76ULOTtIvE4rTLZ_o3r2I-9M7kPRUSmwkeYTbbSpTBdBqPfiubkaN7aPeUDTj7FQvfEaFQsJosbcHKmGha7DmfT-oemZKfXCwFWJZmxl2gBKRCWOWBmSPz57SIQmVxzCNMBBmot5Ap6Ec4xOCSPW85dV3ZHAlX-IOKl8q1aM_v",
          "width": 300
        }
      ],
      "place_id": "ChIJf0SSxqBYwokRSY4hiXLtJQ0",
      "plus_code": {
        "compound_code": "Q2QW+JF New York, NY, USA",
        "global_code": "87G8Q2QW+JF"
      },
      "reference": "ChIJf0SSxqBYwokRSY4hiXLtJQ0",
      "scope": "GOOGLE",
      "types": [
        "doctor",
        "health",
        "point_of_interest",
        "establishment"
      ],
      "vicinity": "5 East 98th Street, New York"
    },
    {
      "business_status": "OPERATIONAL",
      "geometry": {
        "location": {
          "lat": 40.7890329,
          "lng": -73.95384589999999
        },
        "viewport": {
          "northeast": {
            "lat": 40.7902935802915,
            "lng": -73.95256196970848
          },
          "southwest": {
            "lat": 40.7875956197085,
            "lng": -73.95525993029149
          }
        }
      },
      "icon": "https://maps.gstatic.com/mapfiles/place_api/icons/v1/png_71/generic_business-71.png",
      "icon_background_color": "#7B9EB0",
      "icon_mask_base_uri": "https://maps.gstatic.com/mapfiles/place_api/icons/v2/generic_pinlet",
      "name": "Dr. Men-Jean Lee, MD",
      "place_id": "ChIJf0SSxqBYwokRk8e_jpqlBqM",
      "plus_code": {
        "compound_code": "Q2QW+JF New York, NY, USA",
        "global_code": "87G8Q2QW+JF"
      },
      "reference": "ChIJf0SSxqBYwokRk8e_jpqlBqM",
      "scope": "GOOGLE",
      "types": [
        "doctor",
        "health",
        "point_of_interest",
        "establishment"
      ],
      "vicinity": "5 East 98th Street, New York"
    },
    {
      "business_status": "OPERATIONAL",
      "geometry": {
        "location": {
          "lat": 40.7890329,
          "lng": -73.95384589999999
        },
        "viewport": {
          "northeast": {
            "lat": 40.7902935802915,
            "lng": -73.95256196970848
          },
          "southwest": {
            "lat": 40.7875956197085,
            "lng": -73.95525993029149
          }
        }
      },
      "icon": "https://maps.gstatic.com/mapfiles/place_api/icons/v1/png_71/generic_business-71.png",
      "icon_background_color": "#7B9EB0",
      "icon_mask_base_uri": "https://maps.gstatic.com/mapfiles/place_api/icons/v2/generic_pinlet",
      "name": "Tarr Diane E MD",
      "place_id": "ChIJCYIswaBYwokRCERxHv3gF2o",
      "plus_code": {
        "compound_code": "Q2QW+JF New York, NY, USA",
        "global_code": "87G8Q2QW+JF"
      },
      "reference": "ChIJCYIswaBYwokRCERxHv3gF2o",
      "scope": "GOOGLE",
      "types": [
        "doctor",
        "health",
        "point_of_interest",
        "establishment"
      ],
      "vicinity": "5 East 98th Street, New York"
    },
    {
      "business_status": "OPERATIONAL",
      "geometry": {
        "location": {
          "lat": 40.78907170000001,
          "lng": -73.9538601
        },
        "viewport": {
          "northeast": {
            "lat": 40.79031988029151,
            "lng": -73.95258536970849
          },
          "southwest": {
            "lat": 40.78762191970851,
            "lng": -73.9552833302915
          }
        }
      },
      "icon": "https://maps.gstatic.com/mapfiles/place_api/icons/v1/png_71/generic_business-71.png",
      "icon_background_color": "#7B9EB0",
      "icon_mask_base_uri": "https://maps.gstatic.com/mapfiles/place_api/icons/v2/generic_pinlet",
      "name": "Vinita Sehgal, MD",
      "opening_hours": {
        "open_now": false
      },
      "place_id": "ChIJf0SSxqBYwokRXb3KS4eV_4I",
      "plus_code": {
        "compound_code": "Q2QW+JF New York, NY, USA",
        "global_code": "87G8Q2QW+JF"
      },
      "rating": 5,
      "reference": "ChIJf0SSxqBYwokRXb3KS4eV_4I",
      "scope": "GOOGLE",
      "types": [
        "doctor",
        "health",
        "point_of_interest",
        "establishment"
      ],
      "user_ratings_total": 1,
      "vicinity": "5 East 98th Street 12th Fl, New York"
    },
    {
      "business_status": "OPERATIONAL",
      "geometry": {
        "location": {
          "lat": 40.78907170000001,
          "lng": -73.9538601
        },
        "viewport": {
          "northeast": {
            "lat": 40.79031988029151,
            "lng": -73.95258536970849
          },
          "southwest": {
            "lat": 40.78762191970851,
            "lng": -73.9552833302915
          }
        }
      },
      "icon": "https://maps.gstatic.com/mapfiles/place_api/icons/v1/png_71/generic_business-71.png",
      "icon_background_color": "#7B9EB0",
      "icon_mask_base_uri": "https://maps.gstatic.com/mapfiles/place_api/icons/v2/generic_pinlet",
      "name": "Teodorescu Victoria J MD",
      "place_id": "ChIJf0SSxqBYwokRImqHhbpJZq8",
      "plus_code": {
        "compound_code": "Q2QW+JF New York, NY, USA",
        "global_code": "87G8Q2QW+JF"
      },
      "rating": 3,
      "reference": "ChIJf0SSxqBYwokRImqHhbpJZq8",
      "scope": "GOOGLE",
      "types": [
        "doctor",
        "health",
        "point_of_interest",
        "establishment"
      ],
      "user_ratings_total": 1,
      "vicinity": "5 East 98th Street, New York"
    },
    {
      "business_status": "OPERATIONAL",
      "geometry": {
        "location": {
          "lat": 40.78907170000001,
          "lng": -73.9538601
        },
        "viewport": {
          "northeast": {
            "lat": 40.79031988029151,
            "lng": -73.95258536970849
          },
          "southwest": {
            "lat": 40.78762191970851,
            "lng": -73.9552833302915
          }
        }
      },
      "icon": "https://maps.gstatic.com/mapfiles/place_api/icons/v1/png_71/generic_business-71.png",
      "icon_background_color": "#7B9EB0",
      "icon_mask_base_uri": "https://maps.gstatic.com/mapfiles/place_api/icons/v2/generic_pinlet",
      "name": "Kolker Dov MD",
      "place_id": "ChIJf0SSxqBYwokRQ7A3hBmUn_U",
      "plus_code": {
        "compound_code": "Q2QW+JF New York, NY, USA",
        "global_code": "87G8Q2QW+JF"
      },
      "rating": 5,
      "reference": "ChIJf0SSxqBYwokRQ7A3hBmUn_U",
      "scope": "GOOGLE",
      "types": [
        "doctor",
        "health",
        "point_of_interest",
        "establishment"
      ],
      "user_ratings_total": 1,
      "vicinity": "5 East 98th Street, New York"
    }
  ],
  "status": "OK"
}