{
  "html_attributions": [],
  "results": [
    {
      "geometry": {
        "location": {
          "lat": 40.7127753,
          "lng": -74.0059728
        },
        "viewport": {
          "northeast": {
            "lat": 40.91757705070789,
            "lng": -73.70027206817629
          },
          "southwest": {
            "lat": 40.47739906045452,
            "lng": -74.25908991427882
          }
        }
      },
      "icon": "https://maps.gstatic.com/mapfiles/place_api/icons/v1/png_71/geocode-71.png",
      "icon_background_color": "#7B9EB0",
      "icon_mask_base_uri": "https://maps.gstatic.com/mapfiles/place_api/icons/v2/generic_pinlet",
      "name": "\u7d10\u7d04",
      "photos": [
        {
          "height": 600,
          "html_attributions": [
            "<a href=\"https://maps.google.com/maps/contrib/102389334567210814614\">Bukurie</a>"
          ],
          "photo_reference": "AeJbb3cwc8JsTP_8M5M652W0HKiwRmIDz1KQz63BRKzhkj9sIZz6sehbvqzGDzJegxaVWfkqgN9kAUVapHJ87locqZ1zH0_Q_zUOTHbEwBSyKIX5UMHoAwrHB1ODpS2x1J0eWdG3JxFJ85P8oadSk96EsKcnlDQAPuONiKvCZX9JMiCnoO39",
          "width": 480
        }
      ],
      "place_id": "ChIJOwg_06VPwokRYv534QaPC8g",
      "reference": "ChIJOwg_06VPwokRYv534QaPC8g",
      "scope": "GOOGLE",
      "types": [
        "locality",
        "political"
      ],
      "vicinity": "\u7d10\u7d04"
    },
    {
      "business_status": "OPERATIONAL",
      "geometry": {
        "location": {
          "lat": 40.798094,
          "lng": -73.960939
        },
        "viewport": {
          "northeast": {
            "lat": 40.7995493302915,
            "lng": -73.9595125697085
          },
          "southwest": {
            "lat": 40.7968513697085,
            "lng": -73.9622105302915
          }
        }
      },
      "icon": "https://maps.gstatic.com/mapfiles/place_api/icons/v1/png_71/lodging-71.png",
      "icon_background_color": "#909CE1",
      "icon_mask_base_uri": "https://maps.gstatic.com/mapfiles/place_api/icons/v2/hotel_pinlet",
      "name": "Jazz on The Park Hostel",
      "opening_hours": {
        "open_now": true
      },
      "photos": [
        {
          "height": 4032,
          "html_attributions": [
            "<a href=\"https://maps.google.com/maps/contrib/109343603829005625493\">Miguel Benitez</a>"
          ],
          "photo_reference": "AeJbb3cQSemXE0tCt4yjASblHdZYQs6IN-kvrESBc854n1DWIO2NRFYDtnGvRAdARvACiXEzukvwhDckSUfqYtkKg1bbs5d0_VbUlIkb7Y4vUs93SCmL6ShI_vkZTBgDuMw6lY5O_gW70Qlabn0A5Z2riJovMU7FoGTty6vEgvwH8FhZMTdI",
          "width": 3024
        }
      ],
      "place_id": "ChIJl4z0ZyL2wokRhpZ5rNVeqRQ",
      "plus_code": {
        "compound_code": "Q2XQ+6J \u7f8e\u570b\u7d10\u7d04",
        "global_code": "87G8Q2XQ+6J"
      },
      "rating": 3.2,
      "reference": "ChIJl4z0ZyL2wokRhpZ5rNVeqRQ",
      "scope": "GOOGLE",
      "types": [
        "lodging",
        "point_of_interest",
        "establishment"
      ],
      "user_ratings_total": 707,
      "vicinity": "36 West 106th Street, New York"
    },
    {
      "business_status": "OPERATIONAL",
      "geometry": {
        "location": {
          "lat": 40.8025144,
          "lng": -73.95654979999999
        },
        "viewport": {
          "northeast": {
            "lat": 40.8038057302915,
            "lng": -73.95512196970849
          },
          "southwest": {
            "lat": 40.8011077697085,
            "lng": -73.9578199302915
          }
        }
      },
      "icon": "https://maps.gstatic.com/mapfiles/place_api/icons/v1/png_71/restaurant-71.png",
      "icon_background_color": "#FF9E67",
      "icon_mask_base_uri": "https://maps.gstatic.com/mapfiles/place_api/icons/v2/restaurant_pinlet",
      "name": "Atomic Wings",
      "opening_hours": {
        "open_now": true
      },
      "photos": [
        {
          "height": 3024,
          "html_attributions": [
            "<a href=\"https://maps.google.com/maps/contrib/107068838566965446335\">Moe Friedman</a>"
          ],
          "photo_reference": "AeJbb3c74aNYqDwNHvfLgcRXtM6LBpNIKACNMDwfnHNP6681i1KFUe7wqKQFLL3rSP4g0SBf101ckCQj48Bb4KdF2WvFBQv5Fa9HmIfXOyEUTHTwYxuLTJKtjrAT-mJb9BdtsjRK3BbBybg1JppLUnfpQZ8lAlBPxSRQqP_jd2lnvwE7V_OC",
          "width": 4032
        }
      ],
      "place_id": "ChIJxyaJpxf2wokRPtYwPYIkTo8",
      "plus_code": {
        "compound_code": "R23V+29 \u7f8e\u570b\u7d10\u7d04",
        "global_code": "87G8R23V+29"
      },
      "price_level": 1,
      "rating": 4,
      "reference": "ChIJxyaJpxf2wokRPtYwPYIkTo8",
      "scope": "GOOGLE",
      "types": [
        "meal_delivery",
        "restaurant",
        "food",
        "point_of_interest",
        "establishment"
      ],
      "user_ratings_total": 291,
      "vicinity": "2090 Frederick Douglass Boulevard, New York"
    },
    {
      "business_status": "OPERATIONAL",
      "geometry": {
        "location": {
          "lat": 40.79847559999999,
          "lng": -73.95993039999999
        },
        "viewport": {
          "northeast": {
            "lat": 40.7997944302915,
            "lng": -73.95850891970849
          },
          "southwest": {
            "lat": 40.7970964697085,
            "lng": -73.9612068802915
          }
        }
      },
      "icon": "https://maps.gstatic.com/mapfiles/place_api/icons/v1/png_71/lodging-71.png",
      "icon_background_color": "#909CE1",
      "icon_mask_base_uri": "https://maps.gstatic.com/mapfiles/place_api/icons/v2/hotel_pinlet",
      "name": "The Park West Hotel",
      "photos": [
        {
          "height": 626,
          "html_attributions": [
            "<a href=\"https://maps.google.com/maps/contrib/112188367350064437877\">The Park West Hotel</a>"
          ],
          "photo_reference": "AeJbb3dvh2Rsu_90iuxCSloniCTFuWjTsHhc72sesW-Hc0ZqANsFEzcdoLhsVSnGbzZekgOsHImTEtvpV9_8BPMHdH9cJfv-ndqUM7Qamk5XohUQBD0b-chJuFR5oQk-ntTSyxEDotwP98tRIsJhuuvelU5qyNiwzNh-p3_98krntx3ymSTN",
          "width": 626
        }
      ],
      "place_id": "ChIJsZL1fCL2wokRxVli412A6og",
      "plus_code": {
        "compound_code": "Q2XR+92 \u7f8e\u570b\u7d10\u7d04",
        "global_code": "87G8Q2XR+92"
      },
      "rating": 2.8,
      "reference": "ChIJsZL1fCL2wokRxVli412A6og",
      "scope": "GOOGLE",
      "types": [
        "lodging",
        "point_of_interest",
        "establishment"
      ],
      "user_ratings_total": 901,
      "vicinity": "465 Central Park West #3851, New York"
    },
    {
      "business_status": "OPERATIONAL",
      "geometry": {
        "location": {
          "lat": 40.7997535,
          "lng": -73.9536023
        },
        "viewport": {
          "northeast": {
            "lat": 40.80101378029151,
            "lng": -73.9523308697085
          },
          "southwest": {
            "lat": 40.79831581970851,
            "lng": -73.95502883029151
          }
        }
      },
      "icon": "https://maps.gstatic.com/mapfiles/place_api/icons/v1/png_71/lodging-71.png",
      "icon_background_color": "#909CE1",
      "icon_mask_base_uri": "https://maps.gstatic.com/mapfiles/place_api/icons/v2/hotel_pinlet",
      "name": "The Central Park North",
      "opening_hours": {
        "open_now": true
      },
      "photos": [
        {
          "height": 601,
          "html_attributions": [
            "<a href=\"https://maps.google.com/maps/contrib/116063299990159475979\">The Central Park North</a>"
          ],
          "photo_reference": "AeJbb3dm6W2p8rrHX92PKlXliUR-IWXXzEZ8dEiM6NZT-dHsqNEVQhagyGJtAlTRyo7-E7bL3IQMA8vJTcrRirxD15scn-sk-jnRU86R03XepHTOtiEQJuCeajgVYuhyAzKBqQ4kNLB9Eu3Lvuh5zCc9COCQMUO992GFFx86Ifv6VgriqG6D",
          "width": 1070
        }
      ],
      "place_id": "ChIJ7cihAhr2wokRTxCCxRbsiic",
      "plus_code": {
        "compound_code": "Q2XW+WH \u7f8e\u570b\u7d10\u7d04",
        "global_code": "87G8Q2XW+WH"
      },
      "rating": 3.6,
      "reference": "ChIJ7cihAhr2wokRTxCCxRbsiic",
      "scope": "GOOGLE",
      "types": [
        "lodging",
        "point_of_interest",
        "establishment"
      ],
      "user_ratings_total": 234,
      "vicinity": "137 West 111th Street, New York"
    },
    {
      "business_status": "OPERATIONAL",
      "geometry": {
        "location": {
          "lat": 40.7998943,
          "lng": -73.9591725
        },
        "viewport": {
          "northeast": {
            "lat": 40.80116743029149,
            "lng": -73.95764316970849
          },
          "southwest": {
            "lat": 40.7984694697085,
            "lng": -73.96034113029151
          }
        }
      },
      "icon": "https://maps.gstatic.com/mapfiles/place_api/icons/v1/png_71/generic_business-71.png",
      "icon_background_color": "#7B9EB0",
      "icon_mask_base_uri": "https://maps.gstatic.com/mapfiles/place_api/icons/v2/generic_pinlet",
      "name": "The New York Party Bus",
      "opening_hours": {
        "open_now": true
      },
      "photos": [
        {
          "height": 4167,
          "html_attributions": [
            "<a href=\"https://maps.google.com/maps/contrib/104078515434104773462\">The New York Party Bus</a>"
          ],
          "photo_reference": "AeJbb3c0Qfy2Dq4lxeI9vMLWAmaS6FNzczHS7lgAQOSBgi0VrKGhZVWbCeG2VVYmdu7vlxWoNz0utlCMZj0SHDdWqhjOt9yctwajPz1oYd5R2zGd4v79blKBEBGhHn6JRjo54dWQAKEP9dIK6-esD8pG24Rk4MjHqrSopHrIw8XTdnRQudjA",
          "width": 4167
        }
      ],
      "place_id": "ChIJ-V94_mL5wokRue_-cxb9Uzk",
      "plus_code": {
        "compound_code": "Q2XR+X8 \u7f8e\u570b\u7d10\u7d04",
        "global_code": "87G8Q2XR+X8"
      },
      "rating": 4.8,
      "reference": "ChIJ-V94_mL5wokRue_-cxb9Uzk",
      "scope": "GOOGLE",
      "types": [
        "point_of_interest",
        "establishment"
      ],
      "user_ratings_total": 121,
      "vicinity": "485 Central Park West #2d, New York"
    },
    {
      "business_status": "CLOSED_TEMPORARILY",
      "geometry": {
        "location": {
          "lat": 40.7961289,
          "lng": -73.9549593
        },
        "viewport": {
          "northeast": {
            "lat": 40.79789278029151,
            "lng": -73.95337351970849
          },
          "southwest": {
            "lat": 40.79519481970851,
            "lng": -73.95607148029151
          }
        }
      },
      "icon": "https://maps.gstatic.com/mapfiles/place_api/icons/v1/png_71/generic_business-71.png",
      "icon_background_color": "#7B9EB0",
      "icon_mask_base_uri": "https://maps.gstatic.com/mapfiles/place_api/icons/v2/generic_pinlet",
      "name": "Lasker Rink",
      "permanently_closed": true,
      "photos": [
        {
          "height": 665,
          "html_attributions": [
            "<a href=\"https://maps.google.com/maps/contrib/102097108538484932265\">ad\u00e3o pedro carvalho gomes</a>"
          ],
          "photo_reference": "AeJbb3cA5zgPudLsEeytjFbJKfQGWysIJEc_dYylOTROPEJ7B0f5p4kM3wGcmD98ZbAQYOxw1GmoaxH-Ig_ATjJbEGuKRvpHFo-QlKWqgvKhUs2YC3F6qQMfxYsoTTWoryeZQd1fgtoQ8pU0eexjPhsgr4dLab3FJ3D7RP0G3DFIPpaVvu4D",
          "width": 1024
        }
      ],
      "place_id": "ChIJiU9VGu5YwokRfdQxcfg4bSs",
      "plus_code": {
        "compound_code": "Q2WW+F2 \u7f8e\u570b\u7d10\u7d04",
        "global_code": "87G8Q2WW+F2"
      },
      "rating": 4.1,
      "reference": "ChIJiU9VGu5YwokRfdQxcfg4bSs",
      "scope": "GOOGLE",
      "types": [
        "tourist_attraction",
        "point_of_interest",
        "establishment"
      ],
      "user_ratings_total": 302,
      "vicinity": "110 Lenox Avenue, New York"
    },
    {
      "business_status": "OPERATIONAL",
      "geometry": {
        "location": {
          "lat": 40.8012192,
          "lng": -73.9553827
        },
        "viewport": {
          "northeast": {
            "lat": 40.8028963302915,
            "lng": -73.95393396970849
          },
          "southwest": {
            "lat": 40.8001983697085,
            "lng": -73.9566319302915
          }
        }
      },
      "icon": "https://maps.gstatic.com/mapfiles/place_api/icons/v1/png_71/school-71.png",
      "icon_background_color": "#7B9EB0",
      "icon_mask_base_uri": "https://maps.gstatic.com/mapfiles/place_api/icons/v2/school_pinlet",
      "name": "Success Academy Harlem 4",
      "opening_hours": {
        "open_now": true
      },
      "photos": [
        {
          "height": 667,
          "html_attributions": [
            "<a href=\"https://maps.google.com/maps/contrib/104738570215422816009\">Success Academy Harlem 4</a>"
          ],
          "photo_reference": "AeJbb3eXjZu-Ljpx7sBs-XCgsWbvIVXWSpsQ5-IKUe5tyqrQaNMHyNKnZBhkarMd5EobulgXcJBdxotQ_nyGdEYcJRLtrw_yJug2TQRpD7Ri4RqMf953oWkYoMRxmg20bj1sNAMYnLKezCjPC2Fq5aVDtJOAn8SbRyBN3ab4aYbll61yXf18",
          "width": 1000
        }
      ],
      "place_id": "ChIJd3cUExf2wokRaOhYWkTfoW4",
      "plus_code": {
        "compound_code": "R22V+FR \u7f8e\u570b\u7d10\u7d04",
        "global_code": "87G8R22V+FR"
      },
      "rating": 3.7,
      "reference": "ChIJd3cUExf2wokRaOhYWkTfoW4",
      "scope": "GOOGLE",
      "types": [
        "primary_school",
        "school",
        "point_of_interest",
        "establishment"
      ],
      "user_ratings_total": 9,
      "vicinity": "240 West 113th Street, New York"
    },
    {
      "business_status": "OPERATIONAL",
      "geometry": {
        "location": {
          "lat": 40.8032494,
          "lng": -73.95321009999999
        },
        "viewport": {
          "northeast": {
            "lat": 40.80464248029149,
            "lng": -73.95166431970848
          },
          "southwest": {
            "lat": 40.8019445197085,
            "lng": -73.95436228029149
          }
        }
      },
      "icon": "https://maps.gstatic.com/mapfiles/place_api/icons/v1/png_71/worship_general-71.png",
      "icon_background_color": "#7B9EB0",
      "icon_mask_base_uri": "https://maps.gstatic.com/mapfiles/place_api/icons/v2/worship_christian_pinlet",
      "name": "First Corinthian Baptist Church",
      "photos": [
        {
          "height": 3024,
          "html_attributions": [
            "<a href=\"https://maps.google.com/maps/contrib/109268118447576434467\">Jose Luis Santana Blasco</a>"
          ],
          "photo_reference": "AeJbb3edcvjmSeKUckJR8fsXA9wyXVXy7xHyC_C8xHLPZ9DgPsi30m3u4MdFOzX1Ne5PHJjZ_ZXAdJdohz6XZayykqLZSQj37khYWzvBWtVlgiobctqQuXsulXdgZ-DPuOnUeuu2sbVYfAB8rETeItdQrAkHvGjbyfAgMoF8Pc95nIq4BVw",
          "width": 4032
        }
      ],
      "place_id": "ChIJEV5gLhH2wokR15bcwSNuggw",
      "plus_code": {
        "compound_code": "R23W+7P \u7f8e\u570b\u7d10\u7d04",
        "global_code": "87G8R23W+7P"
      },
      "rating": 4.5,
      "reference": "ChIJEV5gLhH2wokR15bcwSNuggw",
      "scope": "GOOGLE",
      "types": [
        "tourist_attraction",
        "church",
        "place_of_worship",
        "point_of_interest",
        "establishment"
      ],
      "user_ratings_total": 427,
      "vicinity": "1912 Adam Clayton Powell Junior Boulevard, New York"
    },
    {
      "business_status": "OPERATIONAL",
      "geometry": {
        "location": {
          "lat": 40.80311,
          "lng": -73.95662949999999
        },
        "viewport": {
          "northeast": {
            "lat": 40.8044436802915,
            "lng": -73.9551447697085
          },
          "southwest": {
            "lat": 40.8017457197085,
            "lng": -73.9578427302915
          }
        }
      },
      "icon": "https://maps.gstatic.com/mapfiles/place_api/icons/v1/png_71/restaurant-71.png",
      "icon_background_color": "#FF9E67",
      "icon_mask_base_uri": "https://maps.gstatic.com/mapfiles/place_api/icons/v2/restaurant_pinlet",
      "name": "Melba's Restaurant",
      "opening_hours": {
        "open_now": true
      },
      "photos": [
        {
          "height": 4000,
          "html_attributions": [
            "<a href=\"https://maps.google.com/maps/contrib/108803770561975324649\">Terrance Black</a>"
          ],
          "photo_reference": "AeJbb3fGu59fdm_YyoBv9-g7ynXu2ilcKaAPBxsdtD7f518V_aS5JrCB6cGSnUpfq8syi7Wq0rPDLEdAAP1ELwTaqC_U3slcYHqBj1k0PyJGymtTvTtNH7tNaCCKyef74BScZ_XHWljye5WrEXbQD5-1UWiF7HYLq4_wo4hi1-YWwTC6fA51",
          "width": 3000
        }
      ],
      "place_id": "ChIJ-bhM6yL2wokRAtIoWi_TL2k",
      "plus_code": {
        "compound_code": "R23V+68 \u7f8e\u570b\u7d10\u7d04",
        "global_code": "87G8R23V+68"
      },
      "price_level": 2,
      "rating": 4.3,
      "reference": "ChIJ-bhM6yL2wokRAtIoWi_TL2k",
      "scope": "GOOGLE",
      "types": [
        "restaurant",
        "food",
        "point_of_interest",
        "establishment"
      ],
      "user_ratings_total": 2642,
      "vicinity": "300 West 114th Street, New York"
    },
    {
      "business_status": "OPERATIONAL",
      "geometry": {
        "location": {
          "lat": 40.80259229999999,
          "lng": -73.9544319
        },
        "viewport": {
          "northeast": {
            "lat": 40.8038453302915,
            "lng": -73.9531542197085
          },
          "southwest": {
            "lat": 40.8011473697085,
            "lng": -73.9558521802915
          }
        }
      },
      "icon": "https://maps.gstatic.com/mapfiles/place_api/icons/v1/png_71/school-71.png",
      "icon_background_color": "#7B9EB0",
      "icon_mask_base_uri": "https://maps.gstatic.com/mapfiles/place_api/icons/v2/school_pinlet",
      "name": "Wadleigh Secondary School For The Performing & Visual Arts",
      "photos": [
        {
          "height": 436,
          "html_attributions": [
            "<a href=\"https://maps.google.com/maps/contrib/111999489067686746318\">Daniel Molloy</a>"
          ],
          "photo_reference": "AeJbb3eEIGB3yRAsUYZAnAEa8SsZu8XcIJ9pOY0nsgUgpHUd_ytdAj19a_adcSjnFoEWNk82jxEImsgOXsvQqZa3JzKT77Qro4UNnGXuYHTytnIchfs0ryQ6iWll2yPSp-S1OzX0DhxKAbyqcdmkwjA-Y1RJun9OHn34I2Eu_MuQ52u4vuQH",
          "width": 1024
        }
      ],
      "place_id": "ChIJ1X89JRf2wokRLXHRDVnj1eY",
      "plus_code": {
        "compound_code": "R23W+26 \u7f8e\u570b\u7d10\u7d04",
        "global_code": "87G8R23W+26"
      },
      "rating": 4.3,
      "reference": "ChIJ1X89JRf2wokRLXHRDVnj1eY",
      "scope": "GOOGLE",
      "types": [
        "secondary_school",
        "school",
        "point_of_interest",
        "establishment"
      ],
      "user_ratings_total": 14,
      "vicinity": "215 West 114th Street, New York"
    },
    {
      "business_status": "OPERATIONAL",
      "geometry": {
        "location": {
          "lat": 40.7989249,
          "lng": -73.95274760000001
        },
        "viewport": {
          "northeast": {
            "lat": 40.8001013802915,
            "lng": -73.95112501970848
          },
          "southwest": {
            "lat": 40.7974034197085,
            "lng": -73.95382298029149
          }
        }
      },
      "icon": "https://maps.gstatic.com/mapfiles/place_api/icons/v1/png_71/restaurant-71.png",
      "icon_background_color": "#FF9E67",
      "icon_mask_base_uri": "https://maps.gstatic.com/mapfiles/place_api/icons/v2/restaurant_pinlet",
      "name": "Subway",
      "opening_hours": {
        "open_now": true
      },
      "photos": [
        {
          "height": 3024,
          "html_attributions": [
            "<a href=\"https://maps.google.com/maps/contrib/107068838566965446335\">Moe Friedman</a>"
          ],
          "photo_reference": "AeJbb3dpjqhPL_ZWve3jRVDgt6Ky6odhleEkFsRkuLQJjFPxGmZAvc1hYrofOO0C0vP7XuaOnl-wp79uYBMuVv8yDcgSHM5q5ZwvgTTFa93laCS1ba3bX3vxCQtWLncuS6Ota-8bLiolORbLZ9ewcxAqCK8y2ECIwg51_IBob5z2lOQPp4JY",
          "width": 4032
        }
      ],
      "place_id": "ChIJOWjlaxr2wokRKHyWMIeNp3U",
      "plus_code": {
        "compound_code": "Q2XW+HW \u7f8e\u570b\u7d10\u7d04",
        "global_code": "87G8Q2XW+HW"
      },
      "price_level": 1,
      "rating": 3.6,
      "reference": "ChIJOWjlaxr2wokRKHyWMIeNp3U",
      "scope": "GOOGLE",
      "types": [
        "meal_takeaway",
        "restaurant",
        "food",
        "point_of_interest",
        "establishment"
      ],
      "user_ratings_total": 55,
      "vicinity": "111 Central Park North Space F, New York"
    },
    {
      "business_status": "OPERATIONAL",
      "geometry": {
        "location": {
          "lat": 40.8008246,
          "lng": -73.9593431
        },
        "viewport": {
          "northeast": {
            "lat": 40.80218818029149,
            "lng": -73.9579031197085
          },
          "southwest": {
            "lat": 40.7994902197085,
            "lng": -73.96060108029151
          }
        }
      },
      "icon": "https://maps.gstatic.com/mapfiles/place_api/icons/v1/png_71/shopping-71.png",
      "icon_background_color": "#4B96F3",
      "icon_mask_base_uri": "https://maps.gstatic.com/mapfiles/place_api/icons/v2/shoppingcart_pinlet",
      "name": "Central Markets",
      "opening_hours": {
        "open_now": true
      },
      "photos": [
        {
          "height": 2432,
          "html_attributions": [
            "<a href=\"https://maps.google.com/maps/contrib/114320960265725424297\">Smit Mehta</a>"
          ],
          "photo_reference": "AeJbb3eclPHXjrSn8KzDhb-OztqnXCTEp1abS2QL_gWvIEGgazg8rQ-iCTbWTUL7gKz9p7BdCX8MzINdEMYhEtXZ11GqQWadcuPipWVl6GIoehMNpkndKGooYbrizhFe_6ybxEEW6hFCmMFLsMTAd9TKi3WZ1CscPs2YujnVYByQL_ttzue-",
          "width": 4320
        }
      ],
      "place_id": "ChIJYX8zqiL2wokRlvbqSyfohm0",
      "plus_code": {
        "compound_code": "R22R+87 \u7f8e\u570b\u7d10\u7d04",
        "global_code": "87G8R22R+87"
      },
      "rating": 3.8,
      "reference": "ChIJYX8zqiL2wokRlvbqSyfohm0",
      "scope": "GOOGLE",
      "types": [
        "supermarket",
        "grocery_or_supermarket",
        "store",
        "food",
        "point_of_interest",
        "establishment"
      ],
      "user_ratings_total": 281,
      "vicinity": "300 West 110th Street, New York"
    },
    {
      "business_status": "CLOSED_TEMPORARILY",
      "geometry": {
        "location": {
          "lat": 40.8012143,
          "lng": -73.9580757
        },
        "viewport": {
          "northeast": {
            "lat": 40.80237273029149,
            "lng": -73.9568449697085
          },
          "southwest": {
            "lat": 40.7996747697085,
            "lng": -73.9595429302915
          }
        }
      },
      "icon": "https://maps.gstatic.com/mapfiles/place_api/icons/v1/png_71/restaurant-71.png",
      "icon_background_color": "#FF9E67",
      "icon_mask_base_uri": "https://maps.gstatic.com/mapfiles/place_api/icons/v2/restaurant_pinlet",
      "name": "Subway",
      "permanently_closed": true,
      "photos": [
        {
          "height": 1908,
          "html_attributions": [
            "<a href=\"https://maps.google.com/maps/contrib/101051995579269560955\">Brian Debrucker-Cota</a>"
          ],
          "photo_reference": "AeJbb3dOkIVNR6Af15jx_kZhw9rDiOlMKUj9glKuyq4Nmp5zsDd8KjZQ2AGoAVnqJLJ8sbxTZ2lg69VCaIX6npK47qdH5k8-sc721BxBkHkbvMioYtGNpEfpW68nrYNX9HJGzyOkLt6erycl2kTDqvDtqZCNLMDtwY7PJRm0vytY7_nNr4g",
          "width": 4032
        }
      ],
      "place_id": "ChIJjV9TlSP2wokRP2ekEFxXgiY",
      "plus_code": {
        "compound_code": "R22R+FQ \u7f8e\u570b\u7d10\u7d04",
        "global_code": "87G8R22R+FQ"
      },
      "price_level": 1,
      "rating": 3.3,
      "reference": "ChIJjV9TlSP2wokRP2ekEFxXgiY",
      "scope": "GOOGLE",
      "types": [
        "meal_takeaway",
        "restaurant",
        "food",
        "point_of_interest",
        "establishment"
      ],
      "user_ratings_total": 42,
      "vicinity": "301 Cathedral Parkway Space #3, New York"
    },
    {
      "business_status": "OPERATIONAL",
      "geometry": {
        "location": {
          "lat": 40.8000739,
          "lng": -73.951543
        },
        "viewport": {
          "northeast": {
            "lat": 40.8013679802915,
            "lng": -73.95006961970849
          },
          "southwest": {
            "lat": 40.7986700197085,
            "lng": -73.95276758029149
          }
        }
      },
      "icon": "https://maps.gstatic.com/mapfiles/place_api/icons/v1/png_71/shopping-71.png",
      "icon_background_color": "#4B96F3",
      "icon_mask_base_uri": "https://maps.gstatic.com/mapfiles/place_api/icons/v2/shopping_pinlet",
      "name": "BLK Ink Gallery",
      "opening_hours": {
        "open_now": true
      },
      "photos": [
        {
          "height": 3024,
          "html_attributions": [
            "<a href=\"https://maps.google.com/maps/contrib/101144708189150914378\">LaToya Daramola</a>"
          ],
          "photo_reference": "AeJbb3eNiCk47HEf09396BR1M0zAvbN64KO6Rr04BQ2s7UbamCbqUD_VJxKOliBcQOIDjNYKhxPqG_0e-V-Y4DAkfqTQQXcAdmEKheJESzkcUKDBpG0l8rsxfjlz2MvmlVxluumkHWTmegHvoz-IgtynI5EBXtlEfZcW6Fb5gBuuV-1tlD3K",
          "width": 4032
        }
      ],
      "place_id": "ChIJZRpznRD2wokRpuvJsJX_jZg",
      "plus_code": {
        "compound_code": "R22X+29 \u7f8e\u570b\u7d10\u7d04",
        "global_code": "87G8R22X+29"
      },
      "rating": 4.2,
      "reference": "ChIJZRpznRD2wokRpuvJsJX_jZg",
      "scope": "GOOGLE",
      "types": [
        "store",
        "point_of_interest",
        "establishment"
      ],
      "user_ratings_total": 122,
      "vicinity": "55 Malcolm X Boulevard, New York"
    },
    {
      "business_status": "OPERATIONAL",
      "geometry": {
        "location": {
          "lat": 40.8022181,
          "lng": -73.95662510000001
        },
        "viewport": {
          "northeast": {
            "lat": 40.8036158302915,
            "lng": -73.9554175197085
          },
          "southwest": {
            "lat": 40.8009178697085,
            "lng": -73.95811548029151
          }
        }
      },
      "icon": "https://maps.gstatic.com/mapfiles/place_api/icons/v1/png_71/bar-71.png",
      "icon_background_color": "#FF9E67",
      "icon_mask_base_uri": "https://maps.gstatic.com/mapfiles/place_api/icons/v2/bar_pinlet",
      "name": "67 Orange Street",
      "opening_hours": {
        "open_now": false
      },
      "photos": [
        {
          "height": 666,
          "html_attributions": [
            "<a href=\"https://maps.google.com/maps/contrib/100287887061119476366\">67 Orange Street</a>"
          ],
          "photo_reference": "AeJbb3dlsGRpH7cbB6I39tW8ZdzSSq7ZFLSFEMQvMgyGiSXwaVHdDSJbjW9c5BTAQ5_nuTRREYPrIoIwoeBeE7Ck3leP9zZ1gDarzXCi2GzexIGmjJUReRjaNHiR_gbHxRLJTyHs7uPcO7zCF4PJHTGz9hHfPHmtJ69UH07kV9kB51Prswsv",
          "width": 1000
        }
      ],
      "place_id": "ChIJAZWfphf2wokRVNXHDA5l0gs",
      "plus_code": {
        "compound_code": "R22V+V8 \u7f8e\u570b\u7d10\u7d04",
        "global_code": "87G8R22V+V8"
      },
      "price_level": 2,
      "rating": 4.5,
      "reference": "ChIJAZWfphf2wokRVNXHDA5l0gs",
      "scope": "GOOGLE",
      "types": [
        "bar",
        "point_of_interest",
        "establishment"
      ],
      "user_ratings_total": 386,
      "vicinity": "2082 Frederick Douglass Boulevard, New York"
    },
    {
      "business_status": "OPERATIONAL",
      "geometry": {
        "location": {
          "lat": 40.8010272,
          "lng": -73.9588314
        },
        "viewport": {
          "northeast": {
            "lat": 40.8023516802915,
            "lng": -73.9575602697085
          },
          "southwest": {
            "lat": 40.7996537197085,
            "lng": -73.9602582302915
          }
        }
      },
      "icon": "https://maps.gstatic.com/mapfiles/place_api/icons/v1/png_71/generic_business-71.png",
      "icon_background_color": "#7B9EB0",
      "icon_mask_base_uri": "https://maps.gstatic.com/mapfiles/place_api/icons/v2/generic_pinlet",
      "name": "Dorian Cleaners",
      "opening_hours": {
        "open_now": true
      },
      "photos": [
        {
          "height": 3024,
          "html_attributions": [
            "<a href=\"https://maps.google.com/maps/contrib/109056622079641216473\">Benjamin Berry</a>"
          ],
          "photo_reference": "AeJbb3dtTQSkeiCD4DKBTauzWBdOXXMF5mPL49QSr8I5MhGcKO6Gqf3VF1uJ3pkI9WrVBJ3muH1wVA4VgprtVf7cMErI31zP9nHAKMdyr9NbJUk1N7KeuaM1d9rqurxZp47kkJPszAGS1-CMmE4yyhj1poIeKmQzSqsjHt98bxwm0_xSSSvv",
          "width": 4032
        }
      ],
      "place_id": "ChIJb3QN9hf2wokRtyOomtslI8U",
      "plus_code": {
        "compound_code": "R22R+CF \u7f8e\u570b\u7d10\u7d04",
        "global_code": "87G8R22R+CF"
      },
      "rating": 3.3,
      "reference": "ChIJb3QN9hf2wokRtyOomtslI8U",
      "scope": "GOOGLE",
      "types": [
        "laundry",
        "point_of_interest",
        "establishment"
      ],
      "user_ratings_total": 19,
      "vicinity": "301 West 110th Street, New York"
    },
    {
      "business_status": "OPERATIONAL",
      "geometry": {
        "location": {
          "lat": 40.8030014,
          "lng": -73.95350150000002
        },
        "viewport": {
          "northeast": {
            "lat": 40.8042696302915,
            "lng": -73.9522475197085
          },
          "southwest": {
            "lat": 40.8015716697085,
            "lng": -73.95494548029151
          }
        }
      },
      "icon": "https://maps.gstatic.com/mapfiles/place_api/icons/v1/png_71/school-71.png",
      "icon_background_color": "#7B9EB0",
      "icon_mask_base_uri": "https://maps.gstatic.com/mapfiles/place_api/icons/v2/school_pinlet",
      "name": "Harry Belafonte 115th Street Library",
      "opening_hours": {
        "open_now": true
      },
      "photos": [
        {
          "height": 1174,
          "html_attributions": [
            "<a href=\"https://maps.google.com/maps/contrib/108637954815310549865\">Dave Liao</a>"
          ],
          "photo_reference": "AeJbb3d3aYiKpTpaJOGVDoxhNeAVs3x2OaOztx1LFfSL_VVDqLw_W7zXzLzn0tMSWPuiUvStOcu0r0csJTnpurf_iRC8HQXjU5LUnqV297yf0dcWg7AmDRJulmYOPozqsM6eHRsdQDBJTXGvVsjZYvgoKR7knw0cAMdNNB5BdHgxVRlGKIs3",
          "width": 2087
        }
      ],
      "place_id": "ChIJvxA01Rb2wokRIXK23B8IEN0",
      "plus_code": {
        "compound_code": "R23W+6H \u7f8e\u570b\u7d10\u7d04",
        "global_code": "87G8R23W+6H"
      },
      "rating": 4.2,
      "reference": "ChIJvxA01Rb2wokRIXK23B8IEN0",
      "scope": "GOOGLE",
      "types": [
        "library",
        "point_of_interest",
        "establishment"
      ],
      "user_ratings_total": 42,
      "vicinity": "203 West 115th Street, New York"
    },
    {
      "business_status": "OPERATIONAL",
      "geometry": {
        "location": {
          "lat": 40.80041939999999,
          "lng": -73.95405099999999
        },
        "viewport": {
          "northeast": {
            "lat": 40.80181188029149,
            "lng": -73.95269276970849
          },
          "southwest": {
            "lat": 40.79911391970849,
            "lng": -73.95539073029151
          }
        }
      },
      "icon": "https://maps.gstatic.com/mapfiles/place_api/icons/v1/png_71/lodging-71.png",
      "icon_background_color": "#909CE1",
      "icon_mask_base_uri": "https://maps.gstatic.com/mapfiles/place_api/icons/v2/hotel_pinlet",
      "name": "New Ebony Hotel",
      "photos": [
        {
          "height": 1000,
          "html_attributions": [
            "<a href=\"https://maps.google.com/maps/contrib/104637707292265154019\">New Ebony Hotel</a>"
          ],
          "photo_reference": "AeJbb3fpG3ufZBhWjg2hUfeTj-0aSoNV1gMZNrIcxYMrROSlj-w_gGs2RwcBAMg6_flfxA4M3_h_vqWZlzhilK545wuJ0W72nIZ7AD5jU5jJNIa4qNBX3LeciQq9AnTLz43HiCrcU7uPU28wjePgrwaVdU_alaSOICdcpA_Qz-J1SV4O78m4",
          "width": 1500
        }
      ],
      "place_id": "ChIJDRcUVhf2wokRIx1LRm9xH5c",
      "plus_code": {
        "compound_code": "R22W+59 \u7f8e\u570b\u7d10\u7d04",
        "global_code": "87G8R22W+59"
      },
      "rating": 3.3,
      "reference": "ChIJDRcUVhf2wokRIx1LRm9xH5c",
      "scope": "GOOGLE",
      "types": [
        "lodging",
        "point_of_interest",
        "establishment"
      ],
      "user_ratings_total": 305,
      "vicinity": "142 West 112th Street, New York"
    },
    {
      "geometry": {
        "location": {
          "lat": 40.8240478,
          "lng": -73.9447643
        },
        "viewport": {
          "northeast": {
            "lat": 40.87822003591612,
            "lng": -73.91064591328563
          },
          "southwest": {
            "lat": 40.78278392408598,
            "lng": -73.97119006413347
          }
        }
      },
      "icon": "https://maps.gstatic.com/mapfiles/place_api/icons/v1/png_71/geocode-71.png",
      "icon_background_color": "#7B9EB0",
      "icon_mask_base_uri": "https://maps.gstatic.com/mapfiles/place_api/icons/v2/generic_pinlet",
      "name": "\u66fc\u54c8\u9813\u4e0a\u57ce",
      "photos": [
        {
          "height": 4000,
          "html_attributions": [
            "<a href=\"https://maps.google.com/maps/contrib/108665206705263687409\">Chris Lidstone</a>"
          ],
          "photo_reference": "AeJbb3cCHDdf-VrYqzQGkISs24G-ZTBJnxa15aKt-QEmVL_VeZ3trpb-oku2_QPNucwJyr6vpmHmJgxY0AfAXWEQsucD76Hf_-g-PRl3QboMJBkqMpER-A1kZChqgLptF9-MwH06v9rxaVIHnw6Unj357T9H-OKjFScDSk8ILk4QjvuFu04A",
          "width": 3000
        }
      ],
      "place_id": "ChIJY50xHxP2wokR7WhhDNRmgRU",
      "reference": "ChIJY50xHxP2wokR7WhhDNRmgRU",
      "scope": "GOOGLE",
      "types": [
        "neighborhood",
        "political"
      ],
      "vicinity": "\u66fc\u54c8\u9813"
    },
    {
      "business_status": "OPERATIONAL",
      "geometry": {
        "location": {
          "lat": 40.80184719999999,
          "lng": -73.95300639999999
        },
        "viewport": {
          "northeast": {
            "lat": 40.8031636802915,
            "lng": -73.95144401970849
          },
          "southwest": {
            "lat": 40.8004657197085,
            "lng": -73.9541419802915
          }
        }
      },
      "icon": "https://maps.gstatic.com/mapfiles/place_api/icons/v1/png_71/worship_general-71.png",
      "icon_background_color": "#7B9EB0",
      "icon_mask_base_uri": "https://maps.gstatic.com/mapfiles/place_api/icons/v2/worship_christian_pinlet",
      "name": "Mount Neboh Baptist Church",
      "photos": [
        {
          "height": 4032,
          "html_attributions": [
            "<a href=\"https://maps.google.com/maps/contrib/105872121616454053508\">Chelsea Simon</a>"
          ],
          "photo_reference": "AeJbb3dSeljTbNN0wLti02vQ9RjohU9SWXQR1puON0aakLwgSJMh6tJG-zKihYCTvLPOCGnCdXsLXu42W7UmbitPge1BB1baGa08xWdDU5-KTKl0sBULvwTKpwPA3h5_Uj7w6Mzq88ty1R6fvfo5ZihwDR415XCW-olMzyPkJCnIpzn3yxvI",
          "width": 3024
        }
      ],
      "place_id": "ChIJl0MtzBD2wokRKHgZRCC63rM",
      "plus_code": {
        "compound_code": "R22W+PQ New York, NY, USA",
        "global_code": "87G8R22W+PQ"
      },
      "rating": 4.3,
      "reference": "ChIJl0MtzBD2wokRKHgZRCC63rM",
      "scope": "GOOGLE",
      "types": [
        "tourist_attraction",
        "church",
        "place_of_worship",
        "point_of_interest",
        "establishment"
      ],
      "user_ratings_total": 139,
      "vicinity": "1883 Adam Clayton Powell Junior Boulevard, New York"
    },
    {
      "business_status": "OPERATIONAL",
      "geometry": {
        "location": {
          "lat": 40.8024828,
          "lng": -73.95156209999999
        },
        "viewport": {
          "northeast": {
            "lat": 40.8039299802915,
            "lng": -73.9501969697085
          },
          "southwest": {
            "lat": 40.8012320197085,
            "lng": -73.9528949302915
          }
        }
      },
      "icon": "https://maps.gstatic.com/mapfiles/place_api/icons/v1/png_71/worship_general-71.png",
      "icon_background_color": "#7B9EB0",
      "icon_mask_base_uri": "https://maps.gstatic.com/mapfiles/place_api/icons/v2/worship_christian_pinlet",
      "name": "Canaan Baptist Church",
      "photos": [
        {
          "height": 3024,
          "html_attributions": [
            "<a href=\"https://maps.google.com/maps/contrib/109771858000720970966\">LKA</a>"
          ],
          "photo_reference": "AeJbb3cCiMCLKEjKRrBsLOEVYiFN1c-vH6c5ogjXBGZZiVy0DUXB6f-zWxkEUmoUw3JRHK5GeBpbCWNWA-igCPbFRGjdvA-ezrq90bK9GzTaD_ksxG_noOJSBzicDo0GFWx9FA9YcU6AId9txExMuZtwj_E21OHxMDuUk0NgkVS8l6d3qs7j",
          "width": 4032
        }
      ],
      "place_id": "ChIJHUtN5RD2wokRfed8ihFv-Tc",
      "plus_code": {
        "compound_code": "R22X+X9 New York, NY, USA",
        "global_code": "87G8R22X+X9"
      },
      "rating": 4.4,
      "reference": "ChIJHUtN5RD2wokRfed8ihFv-Tc",
      "scope": "GOOGLE",
      "types": [
        "tourist_attraction",
        "church",
        "place_of_worship",
        "point_of_interest",
        "establishment"
      ],
      "user_ratings_total": 317,
      "vicinity": "132 West 116th Street, New York"
    },
    {
      "business_status": "OPERATIONAL",
      "geometry": {
        "location": {
          "lat": 40.7977013,
          "lng": -73.9506293
        },
        "viewport": {
          "northeast": {
            "lat": 40.7989631802915,
            "lng": -73.9493444197085
          },
          "southwest": {
            "lat": 40.7962652197085,
            "lng": -73.9520423802915
          }
        }
      },
      "icon": "https://maps.gstatic.com/mapfiles/place_api/icons/v1/png_71/civic_building-71.png",
      "icon_background_color": "#7B9EB0",
      "icon_mask_base_uri": "https://maps.gstatic.com/mapfiles/place_api/icons/v2/civic-bldg_pinlet",
      "name": "Lincoln Correctional Facility",
      "place_id": "ChIJFwy8-Br2wokRyv4VAPGVV7s",
      "plus_code": {
        "compound_code": "Q2XX+3P New York, NY, USA",
        "global_code": "87G8Q2XX+3P"
      },
      "reference": "ChIJFwy8-Br2wokRyv4VAPGVV7s",
      "scope": "GOOGLE",
      "types": [
        "point_of_interest",
        "establishment"
      ],
      "vicinity": "31-33 West 110th Street, New York"
    },
    {
      "business_status": "OPERATIONAL",
      "geometry": {
        "location": {
          "lat": 40.8010699,
          "lng": -73.958392
        },
        "viewport": {
          "northeast": {
            "lat": 40.8022962802915,
            "lng": -73.9569851697085
          },
          "southwest": {
            "lat": 40.7995983197085,
            "lng": -73.95968313029151
          }
        }
      },
      "icon": "https://maps.gstatic.com/mapfiles/place_api/icons/v1/png_71/generic_business-71.png",
      "icon_background_color": "#7B9EB0",
      "icon_mask_base_uri": "https://maps.gstatic.com/mapfiles/place_api/icons/v2/generic_pinlet",
      "name": "Friends & Partners, Inc.",
      "opening_hours": {
        "open_now": true
      },
      "place_id": "ChIJb3QN9hf2wokRwAS-lNhL5OY",
      "plus_code": {
        "compound_code": "R22R+CJ New York, NY, USA",
        "global_code": "87G8R22R+CJ"
      },
      "reference": "ChIJb3QN9hf2wokRwAS-lNhL5OY",
      "scope": "GOOGLE",
      "types": [
        "travel_agency",
        "point_of_interest",
        "establishment"
      ],
      "vicinity": "301 West 110th Street, New York"
    },
    {
      "business_status": "OPERATIONAL",
      "geometry": {
        "location": {
          "lat": 40.801092,
          "lng": -73.95828999999999
        },
        "viewport": {
          "northeast": {
            "lat": 40.8023086802915,
            "lng": -73.95694041970849
          },
          "southwest": {
            "lat": 40.7996107197085,
            "lng": -73.95963838029151
          }
        }
      },
      "icon": "https://maps.gstatic.com/mapfiles/place_api/icons/v1/png_71/generic_business-71.png",
      "icon_background_color": "#7B9EB0",
      "icon_mask_base_uri": "https://maps.gstatic.com/mapfiles/place_api/icons/v2/generic_pinlet",
      "name": "Towers On the Park Management",
      "photos": [
        {
          "height": 3024,
          "html_attributions": [
            "<a href=\"https://maps.google.com/maps/contrib/105615962913636796094\">Jim Naureckas</a>"
          ],
          "photo_reference": "AeJbb3e8ZcMJgue8xmTCpbEABf2FwRAoHWXfB36Rfc86xLL4gxXEI56X7W17R58e5MO6cCeLurW377i7HCeb0OJul53kp33EWLCQpzSQpiZ7l9SIwJS536TLqwATDaKRFxOx-EB2J50MQF_06_0XhQHWbUbY1PshiYS0NRkaCn-sh095GOet",
          "width": 4032
        }
      ],
      "place_id": "ChIJb3QN9hf2wokRYkV2kTXva0k",
      "plus_code": {
        "compound_code": "R22R+CM New York, NY, USA",
        "global_code": "87G8R22R+CM"
      },
      "rating": 4,
      "reference": "ChIJb3QN9hf2wokRYkV2kTXva0k",
      "scope": "GOOGLE",
      "types": [
        "point_of_interest",
        "establishment"
      ],
      "user_ratings_total": 31,
      "vicinity": "301 West 110th Street, New York"
    },
    {
      "business_status": "OPERATIONAL",
      "geometry": {
        "location": {
          "lat": 40.8031522,
          "lng": -73.9563886
        },
        "viewport": {
          "northeast": {
            "lat": 40.80452893029149,
            "lng": -73.9550204197085
          },
          "southwest": {
            "lat": 40.80183096970849,
            "lng": -73.95771838029151
          }
        }
      },
      "icon": "https://maps.gstatic.com/mapfiles/place_api/icons/v1/png_71/generic_business-71.png",
      "icon_background_color": "#7B9EB0",
      "icon_mask_base_uri": "https://maps.gstatic.com/mapfiles/place_api/icons/v2/generic_pinlet",
      "name": "Joseph Ghassibi, MD",
      "opening_hours": {
        "open_now": false
      },
      "place_id": "ChIJw6ajyj32wokRPeTNQEuoPAU",
      "plus_code": {
        "compound_code": "R23V+7C New York, NY, USA",
        "global_code": "87G8R23V+7C"
      },
      "rating": 5,
      "reference": "ChIJw6ajyj32wokRPeTNQEuoPAU",
      "scope": "GOOGLE",
      "types": [
        "doctor",
        "health",
        "point_of_interest",
        "establishment"
      ],
      "user_ratings_total": 6,
      "vicinity": "440 West 114th Street, New York"
    },
    {
      "business_status": "OPERATIONAL",
      "geometry": {
        "location": {
          "lat": 40.80177569999999,
          "lng": -73.95679559999999
        },
        "viewport": {
          "northeast": {
            "lat": 40.80309398029151,
            "lng": -73.95548286970848
          },
          "southwest": {
            "lat": 40.80039601970851,
            "lng": -73.9581808302915
          }
        }
      },
      "icon": "https://maps.gstatic.com/mapfiles/place_api/icons/v1/png_71/generic_business-71.png",
      "icon_background_color": "#7B9EB0",
      "icon_mask_base_uri": "https://maps.gstatic.com/mapfiles/place_api/icons/v2/generic_pinlet",
      "name": "Uptown Veterinary Associates",
      "opening_hours": {
        "open_now": true
      },
      "photos": [
        {
          "height": 3024,
          "html_attributions": [
            "<a href=\"https://maps.google.com/maps/contrib/107824194712977355119\">carmen quintero</a>"
          ],
          "photo_reference": "AeJbb3fMPhHUxmmpU5JhPTHRGwlRyx6rLILYWn5JmATfFLHsyw1QMqDCqpnvvUDTcC3ts16GF5SSg1H7rc3lL3XC-Fv6KDMeqw8HHLzjl6_YawUxQh2PQyJSDQ4V100a712W6WY0SVPoypEEKMmbkdxhUxm-zbIwnMVmczu5LGt-fRhippS9",
          "width": 4032
        }
      ],
      "place_id": "ChIJQejpnhf2wokRfpHZaRJl7fI",
      "plus_code": {
        "compound_code": "R22V+P7 New York, NY, USA",
        "global_code": "87G8R22V+P7"
      },
      "rating": 4.5,
      "reference": "ChIJQejpnhf2wokRfpHZaRJl7fI",
      "scope": "GOOGLE",
      "types": [
        "veterinary_care",
        "point_of_interest",
        "establishment"
      ],
      "user_ratings_total": 240,
      "vicinity": "295 West 112th Street, New York"
    },
    {
      "business_status": "OPERATIONAL",
      "geometry": {
        "location": {
          "lat": 40.80186769999999,
          "lng": -73.9555749
        },
        "viewport": {
          "northeast": {
            "lat": 40.80326653029149,
            "lng": -73.9541892697085
          },
          "southwest": {
            "lat": 40.80056856970849,
            "lng": -73.95688723029151
          }
        }
      },
      "icon": "https://maps.gstatic.com/mapfiles/place_api/icons/v1/png_71/generic_business-71.png",
      "icon_background_color": "#7B9EB0",
      "icon_mask_base_uri": "https://maps.gstatic.com/mapfiles/place_api/icons/v2/generic_pinlet",
      "name": "Family Academy",
      "place_id": "ChIJd3cUExf2wokRVReAbTgyskY",
      "plus_code": {
        "compound_code": "R22V+PQ New York, NY, USA",
        "global_code": "87G8R22V+PQ"
      },
      "rating": 3,
      "reference": "ChIJd3cUExf2wokRVReAbTgyskY",
      "scope": "GOOGLE",
      "types": [
        "point_of_interest",
        "establishment"
      ],
      "user_ratings_total": 2,
      "vicinity": "240 West 113th Street, New York"
    },
    {
      "business_status": "OPERATIONAL",
      "geometry": {
        "location": {
          "lat": 40.800718,
          "lng": -73.95282259999999
        },
        "viewport": {
          "northeast": {
            "lat": 40.80209148029149,
            "lng": -73.9514089697085
          },
          "southwest": {
            "lat": 40.7993935197085,
            "lng": -73.9541069302915
          }
        }
      },
      "icon": "https://maps.gstatic.com/mapfiles/place_api/icons/v1/png_71/worship_islam-71.png",
      "icon_background_color": "#7B9EB0",
      "icon_mask_base_uri": "https://maps.gstatic.com/mapfiles/place_api/icons/v2/worship_islam_pinlet",
      "name": "The Mosque of Islamic Brotherhood",
      "opening_hours": {
        "open_now": false
      },
      "photos": [
        {
          "height": 3024,
          "html_attributions": [
            "<a href=\"https://maps.google.com/maps/contrib/114609579239901044731\">Rasheed Bennett</a>"
          ],
          "photo_reference": "AeJbb3eZSz-EF5WJZS0ZSOF7SA0OFx3tLom8O2ocv8bb8NYFydsgwb1L31uGuu8ySbmv2qeRswDFlfgcM-Pq_7BRFaeBbtEa5U8lTkTQ6pNvrRQwgM7Ie3sFufJWBPqusYOrxcZ7o-fBCZrB-MEgvtvMYZa1-nSXwSJCvBF7d_IaH4mgutFA",
          "width": 4032
        }
      ],
      "place_id": "ChIJrYKdpRD2wokRvObFDYGXqy0",
      "plus_code": {
        "compound_code": "R22W+7V New York, NY, USA",
        "global_code": "87G8R22W+7V"
      },
      "rating": 4.5,
      "reference": "ChIJrYKdpRD2wokRvObFDYGXqy0",
      "scope": "GOOGLE",
      "types": [
        "mosque",
        "place_of_worship",
        "point_of_interest",
        "establishment"
      ],
      "user_ratings_total": 62,
      "vicinity": "130 West 113th Street, New York"
    },
    {
      "business_status": "OPERATIONAL",
      "geometry": {
        "location": {
          "lat": 40.8032309,
          "lng": -73.95585899999999
        },
        "viewport": {
          "northeast": {
            "lat": 40.8046426802915,
            "lng": -73.9546569697085
          },
          "southwest": {
            "lat": 40.8019447197085,
            "lng": -73.9573549302915
          }
        }
      },
      "icon": "https://maps.gstatic.com/mapfiles/place_api/icons/v1/png_71/generic_business-71.png",
      "icon_background_color": "#7B9EB0",
      "icon_mask_base_uri": "https://maps.gstatic.com/mapfiles/place_api/icons/v2/generic_pinlet",
      "name": "From the Ground Up Wellness",
      "opening_hours": {
        "open_now": false
      },
      "photos": [
        {
          "height": 1536,
          "html_attributions": [
            "<a href=\"https://maps.google.com/maps/contrib/112392085435618882842\">From the Ground Up Wellness</a>"
          ],
          "photo_reference": "AeJbb3fjL1xX1lY2x6RmBjkxoZFygEN_FT231JEs1EmPb7tSDdUZ11kZNtjrmIneMl9BmprZ0FsLxZW2wTe8T74m7_UTqLAdud22ZFoLez4I_iBdgScmSouF17uhHeFp36_2Crjay8Asittf3lRI-cLNp_5hrgnVh8bVdC1KF8qUDgyCtS-t",
          "width": 2048
        }
      ],
      "place_id": "ChIJr1go_Rb2wokR04XcITbhRDc",
      "plus_code": {
        "compound_code": "R23V+7M New York, NY, USA",
        "global_code": "87G8R23V+7M"
      },
      "reference": "ChIJr1go_Rb2wokR04XcITbhRDc",
      "scope": "GOOGLE",
      "types": [
        "health",
        "point_of_interest",
        "establishment"
      ],
      "vicinity": "2116 Frederick Douglass Boulevard, New York"
    },
    {
      "business_status": "OPERATIONAL",
      "geometry": {
        "location": {
          "lat": 40.802679,
          "lng": -73.956918
        },
        "viewport": {
          "northeast": {
            "lat": 40.80400633029149,
            "lng": -73.9556494197085
          },
          "southwest": {
            "lat": 40.80130836970849,
            "lng": -73.9583473802915
          }
        }
      },
      "icon": "https://maps.gstatic.com/mapfiles/place_api/icons/v1/png_71/generic_business-71.png",
      "icon_background_color": "#7B9EB0",
      "icon_mask_base_uri": "https://maps.gstatic.com/mapfiles/place_api/icons/v2/generic_pinlet",
      "name": "Paws Country Club",
      "opening_hours": {
        "open_now": false
      },
      "photos": [
        {
          "height": 1024,
          "html_attributions": [
            "<a href=\"https://maps.google.com/maps/contrib/118113993599534250743\">Paws Country Club</a>"
          ],
          "photo_reference": "AeJbb3dFsaMnNw5f53Xy1xa5UOW4qpnNny9qItaMDgWYPUla8BXuiupXYfJJ6RQ23BRGz8v2W8hRbMXGb-akcYkCHrvAzXsIVgox4AY9g2nhJQFrMrr7OP80FJxV2MY9Taf0lrjic13hmwoGHE3zRtNvd2klV2mc97tZ4u6kt6z7Uu6d47t_",
          "width": 1536
        }
      ],
      "place_id": "ChIJn1ijqBf2wokRDR-qa_WqweI",
      "plus_code": {
        "compound_code": "R23V+36 New York, NY, USA",
        "global_code": "87G8R23V+36"
      },
      "rating": 4.3,
      "reference": "ChIJn1ijqBf2wokRDR-qa_WqweI",
      "scope": "GOOGLE",
      "types": [
        "pet_store",
        "store",
        "point_of_interest",
        "establishment"
      ],
      "user_ratings_total": 63,
      "vicinity": "301 West 113th Street #1, New York"
    },
    {
      "business_status": "OPERATIONAL",
      "geometry": {
        "location": {
          "lat": 40.7983413,
          "lng": -73.9504528
        },
        "viewport": {
          "northeast": {
            "lat": 40.79962783029151,
            "lng": -73.94914956970848
          },
          "southwest": {
            "lat": 40.79692986970851,
            "lng": -73.9518475302915
          }
        }
      },
      "icon": "https://maps.gstatic.com/mapfiles/place_api/icons/v1/png_71/school-71.png",
      "icon_background_color": "#7B9EB0",
      "icon_mask_base_uri": "https://maps.gstatic.com/mapfiles/place_api/icons/v2/school_pinlet",
      "name": "P S 226 Manhattan",
      "place_id": "ChIJ48MlFRr2wokRAacJ69dkIAo",
      "plus_code": {
        "compound_code": "Q2XX+8R New York, NY, USA",
        "global_code": "87G8Q2XX+8R"
      },
      "reference": "ChIJ48MlFRr2wokRAacJ69dkIAo",
      "scope": "GOOGLE",
      "types": [
        "school",
        "point_of_interest",
        "establishment"
      ],
      "vicinity": "21 West 111th Street, New York"
    },
    {
      "business_status": "OPERATIONAL",
      "geometry": {
        "location": {
          "lat": 40.800306,
          "lng": -73.956665
        },
        "viewport": {
          "northeast": {
            "lat": 40.8015447802915,
            "lng": -73.95539691970849
          },
          "southwest": {
            "lat": 40.7988468197085,
            "lng": -73.95809488029151
          }
        }
      },
      "icon": "https://maps.gstatic.com/mapfiles/place_api/icons/v1/png_71/generic_business-71.png",
      "icon_background_color": "#7B9EB0",
      "icon_mask_base_uri": "https://maps.gstatic.com/mapfiles/place_api/icons/v2/generic_pinlet",
      "name": "Dr. Cristina M. Abreu Sosa, DMD",
      "place_id": "ChIJBRfmLBj2wokRkoNTs1nJAyA",
      "plus_code": {
        "compound_code": "R22V+48 New York, NY, USA",
        "global_code": "87G8R22V+48"
      },
      "rating": 4,
      "reference": "ChIJBRfmLBj2wokRkoNTs1nJAyA",
      "scope": "GOOGLE",
      "types": [
        "dentist",
        "health",
        "point_of_interest",
        "establishment"
      ],
      "user_ratings_total": 1,
      "vicinity": "225 West 110th Street, New York"
    },
    {
      "business_status": "OPERATIONAL",
      "geometry": {
        "location": {
          "lat": 40.7994444,
          "lng": -73.9519871
        },
        "viewport": {
          "northeast": {
            "lat": 40.8006944802915,
            "lng": -73.95053591970849
          },
          "southwest": {
            "lat": 40.79799651970851,
            "lng": -73.95323388029149
          }
        }
      },
      "icon": "https://maps.gstatic.com/mapfiles/place_api/icons/v1/png_71/shopping-71.png",
      "icon_background_color": "#4B96F3",
      "icon_mask_base_uri": "https://maps.gstatic.com/mapfiles/place_api/icons/v2/shoppingcart_pinlet",
      "name": "Fine Fare Supermarkets",
      "opening_hours": {
        "open_now": true
      },
      "photos": [
        {
          "height": 3024,
          "html_attributions": [
            "<a href=\"https://maps.google.com/maps/contrib/104002068721853906432\">Rodrigo Bravo</a>"
          ],
          "photo_reference": "AeJbb3f2MjUQyodI0ahXGEVtdOte2JcBbwVdusZXZJuKMbnAlgaOiSsvubB1dnKhTcqLlZiWW_nAyaUAsfd3iRS2cpuy13BI8zsT-elVWkkFqGIZD-sHWLuLmIDYho4LSLvV0M-Zay6tGFxpS7DpFZE9gG9cmYnBli9TEItjGLfZ7el_vOfq",
          "width": 3024
        }
      ],
      "place_id": "ChIJg8fdcRr2wokR4WVcMs4tfkI",
      "plus_code": {
        "compound_code": "Q2XX+Q6 New York, NY, USA",
        "global_code": "87G8Q2XX+Q6"
      },
      "rating": 3.8,
      "reference": "ChIJg8fdcRr2wokR4WVcMs4tfkI",
      "scope": "GOOGLE",
      "types": [
        "supermarket",
        "grocery_or_supermarket",
        "store",
        "food",
        "point_of_interest",
        "establishment"
      ],
      "user_ratings_total": 432,
      "vicinity": "37 Malcolm X Boulevard, New York"
    },
    {
      "business_status": "OPERATIONAL",
      "geometry": {
        "location": {
          "lat": 40.7977619,
          "lng": -73.96073919999999
        },
        "viewport": {
          "northeast": {
            "lat": 40.7990355302915,
            "lng": -73.9592046197085
          },
          "southwest": {
            "lat": 40.7963375697085,
            "lng": -73.96190258029151
          }
        }
      },
      "icon": "https://maps.gstatic.com/mapfiles/place_api/icons/v1/png_71/generic_business-71.png",
      "icon_background_color": "#7B9EB0",
      "icon_mask_base_uri": "https://maps.gstatic.com/mapfiles/place_api/icons/v2/generic_pinlet",
      "name": "455 Central Park West Condo",
      "opening_hours": {
        "open_now": false
      },
      "photos": [
        {
          "height": 3024,
          "html_attributions": [
            "<a href=\"https://maps.google.com/maps/contrib/111478955947882649460\">Jenifer Farrell</a>"
          ],
          "photo_reference": "AeJbb3cBvyl1jPFXvPicfMWd_5N8Khlt6HuDTD9smTUC8_463O0oQrefi6wO2NSfma-Q224-zu-ySAnqffbN0OjHZcn70289-7XDQR4Okc2O3zyA9OH3ykcIE9tx4IYKwxs1hAesC8c2ZbjT06SKzWQHJBh1pLrBGDsgWAsjJZb_3kwXxeFX",
          "width": 4032
        }
      ],
      "place_id": "ChIJAewiayL2wokRXUPiXL8_FZI",
      "plus_code": {
        "compound_code": "Q2XQ+4P New York, NY, USA",
        "global_code": "87G8Q2XQ+4P"
      },
      "rating": 4.3,
      "reference": "ChIJAewiayL2wokRXUPiXL8_FZI",
      "scope": "GOOGLE",
      "types": [
        "point_of_interest",
        "establishment"
      ],
      "user_ratings_total": 15,
      "vicinity": "455 Central Park West, New York"
    },
    {
      "business_status": "OPERATIONAL",
      "geometry": {
        "location": {
          "lat": 40.8023144,
          "lng": -73.9521769
        },
        "viewport": {
          "northeast": {
            "lat": 40.8036366302915,
            "lng": -73.9508882697085
          },
          "southwest": {
            "lat": 40.8009386697085,
            "lng": -73.9535862302915
          }
        }
      },
      "icon": "https://maps.gstatic.com/mapfiles/place_api/icons/v1/png_71/worship_general-71.png",
      "icon_background_color": "#7B9EB0",
      "icon_mask_base_uri": "https://maps.gstatic.com/mapfiles/place_api/icons/v2/worship_christian_pinlet",
      "name": "Memorial Baptist Church",
      "opening_hours": {
        "open_now": false
      },
      "photos": [
        {
          "height": 720,
          "html_attributions": [
            "<a href=\"https://maps.google.com/maps/contrib/101052471595474674459\">Memorial Baptist Church</a>"
          ],
          "photo_reference": "AeJbb3cO2yo02qhnOXvuz9KhVFVbIiZqjTk5Es4XsIVcIQE4u_8otFAOEK4p3E45SUH4i2__CoIPdTdl4NBVRy-DSdSC3Xqjew0TfYFYd18STaY-g9ZKPRkpwSMIA2EyBhzIoBMvwGKV_QKgUuEhvej7S9RWEY5we6B5fOfRscagP21JAO4u",
          "width": 960
        }
      ],
      "place_id": "ChIJrw4P3hD2wokRAXdycJpVZ2A",
      "plus_code": {
        "compound_code": "R22X+W4 New York, NY, USA",
        "global_code": "87G8R22X+W4"
      },
      "rating": 3.9,
      "reference": "ChIJrw4P3hD2wokRAXdycJpVZ2A",
      "scope": "GOOGLE",
      "types": [
        "church",
        "place_of_worship",
        "point_of_interest",
        "establishment"
      ],
      "user_ratings_total": 79,
      "vicinity": "141 West 115th Street, New York"
    },
    {
      "business_status": "OPERATIONAL",
      "geometry": {
        "location": {
          "lat": 40.80165979999999,
          "lng": -73.95511189999999
        },
        "viewport": {
          "northeast": {
            "lat": 40.80316353029149,
            "lng": -73.95399451970849
          },
          "southwest": {
            "lat": 40.80046556970849,
            "lng": -73.9566924802915
          }
        }
      },
      "icon": "https://maps.gstatic.com/mapfiles/place_api/icons/v1/png_71/school-71.png",
      "icon_background_color": "#7B9EB0",
      "icon_mask_base_uri": "https://maps.gstatic.com/mapfiles/place_api/icons/v2/school_pinlet",
      "name": "The Opportunity Charter School",
      "photos": [
        {
          "height": 1080,
          "html_attributions": [
            "<a href=\"https://maps.google.com/maps/contrib/102253380504365804505\">Enmanuel Perez</a>"
          ],
          "photo_reference": "AeJbb3fVzwo2OkZL0zGi1P8gcPGBPpVy5sfmvFh0uH2tDo17-nK8jzIPM89HvT2Hpd5fOAHMipVhATRf8dGi5Pc7hLPvZt3X7GAnPQEYWDt1Ghanws_5ZQjQDmbKNV158X53MIgQlVfeBmgUGANpqRzwiwAvrv2AGgNGNHdYG6rPk9UGnWJb",
          "width": 1920
        }
      ],
      "place_id": "ChIJd3cUExf2wokRadBc1NHP66Y",
      "plus_code": {
        "compound_code": "R22V+MX New York, NY, USA",
        "global_code": "87G8R22V+MX"
      },
      "rating": 3.6,
      "reference": "ChIJd3cUExf2wokRadBc1NHP66Y",
      "scope": "GOOGLE",
      "types": [
        "secondary_school",
        "school",
        "point_of_interest",
        "establishment"
      ],
      "user_ratings_total": 22,
      "vicinity": "240 West 113th Street, New York"
    },
    {
      "business_status": "OPERATIONAL",
      "geometry": {
        "location": {
          "lat": 40.8039429,
          "lng": -73.954989
        },
        "viewport": {
          "northeast": {
            "lat": 40.8054192302915,
            "lng": -73.95354611970849
          },
          "southwest": {
            "lat": 40.8027212697085,
            "lng": -73.9562440802915
          }
        }
      },
      "icon": "https://maps.gstatic.com/mapfiles/place_api/icons/v1/png_71/generic_business-71.png",
      "icon_background_color": "#7B9EB0",
      "icon_mask_base_uri": "https://maps.gstatic.com/mapfiles/place_api/icons/v2/generic_pinlet",
      "name": "Community Kitchen-West Harlem",
      "opening_hours": {
        "open_now": true
      },
      "photos": [
        {
          "height": 3024,
          "html_attributions": [
            "<a href=\"https://maps.google.com/maps/contrib/110625747907148818390\">Justin Smith</a>"
          ],
          "photo_reference": "AeJbb3c_JUXE2XUI81ZgjZ69zHCFQLxUg_4nkG9G_iX0dVnbFsnRQOXvHhutpNzYn-Js1eH7Gy7TQK5A0sKFUijbffvsDGIPl8PaDe7mEZXcWQtgZ7qUYt4loJvGNuOxH1eTgTeM_42WEuMCKmgyh-IN3oqF-uH8_fdT1BWiQ1Dn8h2NPwCX",
          "width": 4032
        }
      ],
      "place_id": "ChIJGUOTwRb2wokRNx44pTyO2QM",
      "plus_code": {
        "compound_code": "R23W+H2 New York, NY, USA",
        "global_code": "87G8R23W+H2"
      },
      "rating": 4.5,
      "reference": "ChIJGUOTwRb2wokRNx44pTyO2QM",
      "scope": "GOOGLE",
      "types": [
        "restaurant",
        "food",
        "point_of_interest",
        "establishment"
      ],
      "user_ratings_total": 197,
      "vicinity": "252 West 116th Street, New York"
    },
    {
      "business_status": "OPERATIONAL",
      "geometry": {
        "location": {
          "lat": 40.80107029999999,
          "lng": -73.9588282
        },
        "viewport": {
          "northeast": {
            "lat": 40.8023562802915,
            "lng": -73.9575586697085
          },
          "southwest": {
            "lat": 40.7996583197085,
            "lng": -73.96025663029151
          }
        }
      },
      "icon": "https://maps.gstatic.com/mapfiles/place_api/icons/v1/png_71/cafe-71.png",
      "icon_background_color": "#FF9E67",
      "icon_mask_base_uri": "https://maps.gstatic.com/mapfiles/place_api/icons/v2/cafe_pinlet",
      "name": "Cafe Amrita",
      "opening_hours": {
        "open_now": true
      },
      "photos": [
        {
          "height": 4000,
          "html_attributions": [
            "<a href=\"https://maps.google.com/maps/contrib/100694086417556568458\">Cafe Amrita</a>"
          ],
          "photo_reference": "AeJbb3cBlLK79IrRZwMYYz3JOUlcq2gKAlwIOcCNXLGC7PHSOjFiqFn-MbP4Eht-Q3Z2Xutrm29-JhRSGxBGMbcsLmsi3rqAAjdWtAl7skEC2_c9Y8oesSxBYujO-5SXrOvFhXr-yJJtl97CI7h5cbosnPnllFUKNDnOlT0l3B4F0qLFf2l3",
          "width": 6000
        }
      ],
      "place_id": "ChIJb3QN9hf2wokRl-A7nikpq-0",
      "plus_code": {
        "compound_code": "R22R+CF New York, NY, USA",
        "global_code": "87G8R22R+CF"
      },
      "price_level": 2,
      "rating": 4.2,
      "reference": "ChIJb3QN9hf2wokRl-A7nikpq-0",
      "scope": "GOOGLE",
      "types": [
        "cafe",
        "food",
        "point_of_interest",
        "establishment"
      ],
      "user_ratings_total": 517,
      "vicinity": "301 West 110th Street, New York"
    },
    {
      "business_status": "OPERATIONAL",
      "geometry": {
        "location": {
          "lat": 40.8025691,
          "lng": -73.95412139999999
        },
        "viewport": {
          "northeast": {
            "lat": 40.8037807302915,
            "lng": -73.95287446970849
          },
          "southwest": {
            "lat": 40.80108276970851,
            "lng": -73.9555724302915
          }
        }
      },
      "icon": "https://maps.gstatic.com/mapfiles/place_api/icons/v1/png_71/school-71.png",
      "icon_background_color": "#7B9EB0",
      "icon_mask_base_uri": "https://maps.gstatic.com/mapfiles/place_api/icons/v2/school_pinlet",
      "name": "Frederick Douglass Academy II",
      "photos": [
        {
          "height": 1836,
          "html_attributions": [
            "<a href=\"https://maps.google.com/maps/contrib/112398462337984202462\">Karen Ward</a>"
          ],
          "photo_reference": "AeJbb3egshzS9UKw4JtP3gbeCFUiRu6NH0UWddi6ehUM-sAPfxR2v0X5hJfjC9Ueli82q7Bm2-vtQ1QPuzvoYWelxM_2FMqQmcggtJkF61zaQJfVdHkkEITPidOs9Jpy8BSgAiw-a9UHV_6obK6V9nujuuxzLj8etW8DAMVjJVlVvjiqQ0bI",
          "width": 3264
        }
      ],
      "place_id": "ChIJ1X89JRf2wokROMF8pQB9e1M",
      "plus_code": {
        "compound_code": "R23W+29 New York, NY, USA",
        "global_code": "87G8R23W+29"
      },
      "rating": 3.9,
      "reference": "ChIJ1X89JRf2wokROMF8pQB9e1M",
      "scope": "GOOGLE",
      "types": [
        "secondary_school",
        "school",
        "point_of_interest",
        "establishment"
      ],
      "user_ratings_total": 17,
      "vicinity": "215 West 114th Street, New York"
    },
    {
      "business_status": "OPERATIONAL",
      "geometry": {
        "location": {
          "lat": 40.7970821,
          "lng": -73.95147
        },
        "viewport": {
          "northeast": {
            "lat": 40.7984885802915,
            "lng": -73.9500997197085
          },
          "southwest": {
            "lat": 40.7957906197085,
            "lng": -73.95279768029151
          }
        }
      },
      "icon": "https://maps.gstatic.com/mapfiles/place_api/icons/v1/png_71/generic_business-71.png",
      "icon_background_color": "#7B9EB0",
      "icon_mask_base_uri": "https://maps.gstatic.com/mapfiles/place_api/icons/v2/generic_pinlet",
      "name": "Charles A. Dana Discovery Center",
      "opening_hours": {
        "open_now": true
      },
      "photos": [
        {
          "height": 3024,
          "html_attributions": [
            "<a href=\"https://maps.google.com/maps/contrib/111753129849547184193\">th Ll</a>"
          ],
          "photo_reference": "AeJbb3eDupE3uHa_k-wHBhKZuEl_As-oB6tDI6mFTDh5EjnhhvuJ-hPqQiFeHC4aQD96GnUhWH6HS_teNJeT8gOmRs9PKUezd7v9VgDmeL0FD-6ghk7oaeilsFwJwVixCy8Xyo-g2P-a1LMcT5U1XL-WK7swIZtCJT7KTv_9KFkNZjVyY-nf",
          "width": 4032
        }
      ],
      "place_id": "ChIJqTjOsRv2wokRpTQaxNBKALY",
      "plus_code": {
        "compound_code": "Q2WX+RC New York, NY, USA",
        "global_code": "87G8Q2WX+RC"
      },
      "rating": 4.6,
      "reference": "ChIJqTjOsRv2wokRpTQaxNBKALY",
      "scope": "GOOGLE",
      "types": [
        "tourist_attraction",
        "travel_agency",
        "point_of_interest",
        "establishment"
      ],
      "user_ratings_total": 263,
      "vicinity": "Central Park North, New York"
    },
    {
      "business_status": "CLOSED_TEMPORARILY",
      "geometry": {
        "location": {
          "lat": 40.8022044,
          "lng": -73.9556363
        },
        "viewport": {
          "northeast": {
            "lat": 40.8034845802915,
            "lng": -73.95433791970848
          },
          "southwest": {
            "lat": 40.8007866197085,
            "lng": -73.9570358802915
          }
        }
      },
      "icon": "https://maps.gstatic.com/mapfiles/place_api/icons/v1/png_71/shopping-71.png",
      "icon_background_color": "#4B96F3",
      "icon_mask_base_uri": "https://maps.gstatic.com/mapfiles/place_api/icons/v2/shopping_pinlet",
      "name": "Dress as Ritual",
      "permanently_closed": true,
      "place_id": "ChIJxzE5ERf2wokRAb_-UkzEMYY",
      "plus_code": {
        "compound_code": "R22V+VP New York, NY, USA",
        "global_code": "87G8R22V+VP"
      },
      "reference": "ChIJxzE5ERf2wokRAb_-UkzEMYY",
      "scope": "GOOGLE",
      "types": [
        "clothing_store",
        "point_of_interest",
        "store",
        "establishment"
      ],
      "vicinity": "257 West 113th Street Suite 202, New York"
    },
    {
      "business_status": "OPERATIONAL",
      "geometry": {
        "location": {
          "lat": 40.80029529999999,
          "lng": -73.9569958
        },
        "viewport": {
          "northeast": {
            "lat": 40.8015915302915,
            "lng": -73.9556857197085
          },
          "southwest": {
            "lat": 40.7988935697085,
            "lng": -73.9583836802915
          }
        }
      },
      "icon": "https://maps.gstatic.com/mapfiles/place_api/icons/v1/png_71/generic_business-71.png",
      "icon_background_color": "#7B9EB0",
      "icon_mask_base_uri": "https://maps.gstatic.com/mapfiles/place_api/icons/v2/generic_pinlet",
      "name": "Hargate Associates LLP",
      "place_id": "ChIJXxMLHBj2wokRHUeqBZ5KRdc",
      "plus_code": {
        "compound_code": "R22V+46 New York, NY, USA",
        "global_code": "87G8R22V+46"
      },
      "reference": "ChIJXxMLHBj2wokRHUeqBZ5KRdc",
      "scope": "GOOGLE",
      "types": [
        "point_of_interest",
        "establishment"
      ],
      "vicinity": "229 West 110th Street, New York"
    },
    {
      "business_status": "OPERATIONAL",
      "geometry": {
        "location": {
          "lat": 40.8005805,
          "lng": -73.954819
        },
        "viewport": {
          "northeast": {
            "lat": 40.8018883802915,
            "lng": -73.9533685197085
          },
          "southwest": {
            "lat": 40.7991904197085,
            "lng": -73.95606648029151
          }
        }
      },
      "icon": "https://maps.gstatic.com/mapfiles/place_api/icons/v1/png_71/generic_business-71.png",
      "icon_background_color": "#7B9EB0",
      "icon_mask_base_uri": "https://maps.gstatic.com/mapfiles/place_api/icons/v2/generic_pinlet",
      "name": "Breadbox Studio",
      "place_id": "ChIJcUOkWBf2wokRvwN_H5XzG8k",
      "plus_code": {
        "compound_code": "R22W+63 New York, NY, USA",
        "global_code": "87G8R22W+63"
      },
      "reference": "ChIJcUOkWBf2wokRvwN_H5XzG8k",
      "scope": "GOOGLE",
      "types": [
        "point_of_interest",
        "establishment"
      ],
      "vicinity": "1844 Adam Clayton Powell Junior Boulevard, New York"
    },
    {
      "business_status": "CLOSED_TEMPORARILY",
      "geometry": {
        "location": {
          "lat": 40.798796,
          "lng": -73.953165
        },
        "viewport": {
          "northeast": {
            "lat": 40.8000650802915,
            "lng": -73.9519269697085
          },
          "southwest": {
            "lat": 40.7973671197085,
            "lng": -73.9546249302915
          }
        }
      },
      "icon": "https://maps.gstatic.com/mapfiles/place_api/icons/v1/png_71/school-71.png",
      "icon_background_color": "#7B9EB0",
      "icon_mask_base_uri": "https://maps.gstatic.com/mapfiles/place_api/icons/v2/school_pinlet",
      "name": "Harlem Childrens Zone",
      "permanently_closed": true,
      "place_id": "ChIJQ90sIhr2wokRq7hVYdnSB_E",
      "plus_code": {
        "compound_code": "Q2XW+GP New York, NY, USA",
        "global_code": "87G8Q2XW+GP"
      },
      "rating": 3,
      "reference": "ChIJQ90sIhr2wokRq7hVYdnSB_E",
      "scope": "GOOGLE",
      "types": [
        "secondary_school",
        "school",
        "point_of_interest",
        "establishment"
      ],
      "user_ratings_total": 3,
      "vicinity": "125 West 110th Street, New York"
    },
    {
      "business_status": "OPERATIONAL",
      "geometry": {
        "location": {
          "lat": 40.801742,
          "lng": -73.954426
        },
        "viewport": {
          "northeast": {
            "lat": 40.8030039802915,
            "lng": -73.9531410197085
          },
          "southwest": {
            "lat": 40.8003060197085,
            "lng": -73.9558389802915
          }
        }
      },
      "icon": "https://maps.gstatic.com/mapfiles/place_api/icons/v1/png_71/generic_business-71.png",
      "icon_background_color": "#7B9EB0",
      "icon_mask_base_uri": "https://maps.gstatic.com/mapfiles/place_api/icons/v2/generic_pinlet",
      "name": "Act Team",
      "place_id": "ChIJJVqcRxf2wokRTuqfmeolZOE",
      "plus_code": {
        "compound_code": "R22W+M6 New York, NY, USA",
        "global_code": "87G8R22W+M6"
      },
      "rating": 4,
      "reference": "ChIJJVqcRxf2wokRTuqfmeolZOE",
      "scope": "GOOGLE",
      "types": [
        "point_of_interest",
        "establishment"
      ],
      "user_ratings_total": 1,
      "vicinity": "203 West 113th Street, New York"
    },
    {
      "business_status": "CLOSED_TEMPORARILY",
      "geometry": {
        "location": {
          "lat": 40.8016598,
          "lng": -73.955112
        },
        "viewport": {
          "northeast": {
            "lat": 40.8030634802915,
            "lng": -73.95372276970849
          },
          "southwest": {
            "lat": 40.8003655197085,
            "lng": -73.95642073029151
          }
        }
      },
      "icon": "https://maps.gstatic.com/mapfiles/place_api/icons/v1/png_71/generic_business-71.png",
      "icon_background_color": "#7B9EB0",
      "icon_mask_base_uri": "https://maps.gstatic.com/mapfiles/place_api/icons/v2/generic_pinlet",
      "name": "International Virgin Hair",
      "permanently_closed": true,
      "place_id": "ChIJAQAAQBf2wokRHoIG7yqiYhg",
      "plus_code": {
        "compound_code": "R22V+MX New York, NY, USA",
        "global_code": "87G8R22V+MX"
      },
      "reference": "ChIJAQAAQBf2wokRHoIG7yqiYhg",
      "scope": "GOOGLE",
      "types": [
        "hair_care",
        "point_of_interest",
        "establishment"
      ],
      "vicinity": "240 West 113th Street, New York"
    },
    {
      "business_status": "CLOSED_TEMPORARILY",
      "geometry": {
        "location": {
          "lat": 40.8017423,
          "lng": -73.9550857
        },
        "viewport": {
          "northeast": {
            "lat": 40.80310178029149,
            "lng": -73.9537289697085
          },
          "southwest": {
            "lat": 40.80040381970849,
            "lng": -73.9564269302915
          }
        }
      },
      "icon": "https://maps.gstatic.com/mapfiles/place_api/icons/v1/png_71/generic_business-71.png",
      "icon_background_color": "#7B9EB0",
      "icon_mask_base_uri": "https://maps.gstatic.com/mapfiles/place_api/icons/v2/generic_pinlet",
      "name": "Spatique Face Fitness with Mica",
      "permanently_closed": true,
      "place_id": "ChIJVVVVlRD2wokRjAGH4oKvJo8",
      "reference": "ChIJVVVVlRD2wokRjAGH4oKvJo8",
      "scope": "GOOGLE",
      "types": [
        "spa",
        "point_of_interest",
        "establishment"
      ],
      "vicinity": "New York"
    },
    {
      "business_status": "OPERATIONAL",
      "geometry": {
        "location": {
          "lat": 40.7994996,
          "lng": -73.9530767
        },
        "viewport": {
          "northeast": {
            "lat": 40.8007682302915,
            "lng": -73.9517868697085
          },
          "southwest": {
            "lat": 40.7980702697085,
            "lng": -73.9544848302915
          }
        }
      },
      "icon": "https://maps.gstatic.com/mapfiles/place_api/icons/v1/png_71/generic_business-71.png",
      "icon_background_color": "#7B9EB0",
      "icon_mask_base_uri": "https://maps.gstatic.com/mapfiles/place_api/icons/v2/generic_pinlet",
      "name": "Intentional Breathwork of NYC, New York",
      "place_id": "ChIJsx0gGxr2wokRGgTDJS6CLC0",
      "plus_code": {
        "compound_code": "Q2XW+QQ New York, NY, USA",
        "global_code": "87G8Q2XW+QQ"
      },
      "reference": "ChIJsx0gGxr2wokRGgTDJS6CLC0",
      "scope": "GOOGLE",
      "types": [
        "health",
        "point_of_interest",
        "establishment"
      ],
      "vicinity": "117 West 111th Street, New York"
    },
    {
      "business_status": "CLOSED_TEMPORARILY",
      "geometry": {
        "location": {
          "lat": 40.8017423,
          "lng": -73.9550857
        },
        "viewport": {
          "northeast": {
            "lat": 40.80310178029149,
            "lng": -73.9537289697085
          },
          "southwest": {
            "lat": 40.80040381970849,
            "lng": -73.9564269302915
          }
        }
      },
      "icon": "https://maps.gstatic.com/mapfiles/place_api/icons/v1/png_71/generic_business-71.png",
      "icon_background_color": "#7B9EB0",
      "icon_mask_base_uri": "https://maps.gstatic.com/mapfiles/place_api/icons/v2/generic_pinlet",
      "name": "Love Revival Productions LLC",
      "permanently_closed": true,
      "place_id": "ChIJVVVVlRD2wokRi6Wtfp-bZzs",
      "reference": "ChIJVVVVlRD2wokRi6Wtfp-bZzs",
      "scope": "GOOGLE",
      "types": [
        "home_goods_store",
        "electronics_store",
        "food",
        "point_of_interest",
        "store",
        "establishment"
      ],
      "vicinity": "119th Ground flr, New York"
    },
    {
      "business_status": "OPERATIONAL",
      "geometry": {
        "location": {
          "lat": 40.79919539999999,
          "lng": -73.9531654
        },
        "viewport": {
          "northeast": {
            "lat": 40.80059438029149,
            "lng": -73.9517796197085
          },
          "southwest": {
            "lat": 40.7978964197085,
            "lng": -73.95447758029151
          }
        }
      },
      "icon": "https://maps.gstatic.com/mapfiles/place_api/icons/v1/png_71/generic_business-71.png",
      "icon_background_color": "#7B9EB0",
      "icon_mask_base_uri": "https://maps.gstatic.com/mapfiles/place_api/icons/v2/generic_pinlet",
      "name": "Sankofa Law Center LLC",
      "place_id": "ChIJHx7LGBr2wokRZJ4YShuaawM",
      "plus_code": {
        "compound_code": "Q2XW+MP New York, NY, USA",
        "global_code": "87G8Q2XW+MP"
      },
      "reference": "ChIJHx7LGBr2wokRZJ4YShuaawM",
      "scope": "GOOGLE",
      "types": [
        "lawyer",
        "point_of_interest",
        "establishment"
      ],
      "vicinity": "116 West 111th Street, New York"
    },
    {
      "business_status": "OPERATIONAL",
      "geometry": {
        "location": {
          "lat": 40.8009002,
          "lng": -73.95550709999999
        },
        "viewport": {
          "northeast": {
            "lat": 40.8023390302915,
            "lng": -73.9540917697085
          },
          "southwest": {
            "lat": 40.7996410697085,
            "lng": -73.9567897302915
          }
        }
      },
      "icon": "https://maps.gstatic.com/mapfiles/place_api/icons/v1/png_71/generic_business-71.png",
      "icon_background_color": "#7B9EB0",
      "icon_mask_base_uri": "https://maps.gstatic.com/mapfiles/place_api/icons/v2/generic_pinlet",
      "name": "Taft",
      "place_id": "ChIJNw2EZhf2wokRBVQWSH5A7m8",
      "plus_code": {
        "compound_code": "R22V+9Q New York, NY, USA",
        "global_code": "87G8R22V+9Q"
      },
      "rating": 5,
      "reference": "ChIJNw2EZhf2wokRBVQWSH5A7m8",
      "scope": "GOOGLE",
      "types": [
        "point_of_interest",
        "establishment"
      ],
      "user_ratings_total": 2,
      "vicinity": "218 West 112th Street, New York"
    },
    {
      "business_status": "OPERATIONAL",
      "geometry": {
        "location": {
          "lat": 40.8016646,
          "lng": -73.95818969999999
        },
        "viewport": {
          "northeast": {
            "lat": 40.8029302302915,
            "lng": -73.9569032197085
          },
          "southwest": {
            "lat": 40.8002322697085,
            "lng": -73.9596011802915
          }
        }
      },
      "icon": "https://maps.gstatic.com/mapfiles/place_api/icons/v1/png_71/generic_business-71.png",
      "icon_background_color": "#7B9EB0",
      "icon_mask_base_uri": "https://maps.gstatic.com/mapfiles/place_api/icons/v2/generic_pinlet",
      "name": "Colin Nekritz",
      "opening_hours": {
        "open_now": false
      },
      "photos": [
        {
          "height": 453,
          "html_attributions": [
            "<a href=\"https://maps.google.com/maps/contrib/114627948834127869492\">Colin Nekritz</a>"
          ],
          "photo_reference": "AeJbb3dXitmmBs0xBDQMYJ-OPsyCMHr8KVn85KM0bH0w43q-MpiUQqVaGsOFCjabZ0sa8NdwwqP7tksu47lXA5eZfPO9r9i1l6ZFidk9Nwt3aiZq4RpEa7cC0Q4daked6fDWXCMFotYZGq6T4eIQbp2sXDEIIkW7cSNt0nCSfIRsd7kNIjq5",
          "width": 604
        }
      ],
      "place_id": "ChIJS6_te5dYwokRHhald8UssJw",
      "plus_code": {
        "compound_code": "R22R+MP New York, NY, USA",
        "global_code": "87G8R22R+MP"
      },
      "reference": "ChIJS6_te5dYwokRHhald8UssJw",
      "scope": "GOOGLE",
      "types": [
        "health",
        "point_of_interest",
        "establishment"
      ],
      "vicinity": "305 West 111th Street, New York"
    },
    {
      "business_status": "OPERATIONAL",
      "geometry": {
        "location": {
          "lat": 40.7998356,
          "lng": -73.95556909999999
        },
        "viewport": {
          "northeast": {
            "lat": 40.80111083029151,
            "lng": -73.95404771970848
          },
          "southwest": {
            "lat": 40.79841286970851,
            "lng": -73.95674568029149
          }
        }
      },
      "icon": "https://maps.gstatic.com/mapfiles/place_api/icons/v1/png_71/shopping-71.png",
      "icon_background_color": "#4B96F3",
      "icon_mask_base_uri": "https://maps.gstatic.com/mapfiles/place_api/icons/v2/shopping_pinlet",
      "name": "Bodysuits, Lingerie, Underwear | TiaraShop.US",
      "opening_hours": {
        "open_now": true
      },
      "photos": [
        {
          "height": 1080,
          "html_attributions": [
            "<a href=\"https://maps.google.com/maps/contrib/103445755291302342342\">Bodysuits, Lingerie, Underwear | TiaraShop.US</a>"
          ],
          "photo_reference": "AeJbb3dwM1Cuswk3j6ljOx1z4kA91G7YYZ46zHLON_pSh9cz9PQP3XywySeyNYio8wxB24fw-avMcIDT0RWTngkJVdf26TDVioUjCivVYGpPXJjTsXTvEqTRVyNW-cgnaa285DEu63fcynBjO-JNezpnLcryQ_CCKt0-nludetdznyP4PXbp",
          "width": 1920
        }
      ],
      "place_id": "ChIJm3mxwxn2wokRdHekJsACl1U",
      "plus_code": {
        "compound_code": "Q2XV+WQ New York, NY, USA",
        "global_code": "87G8Q2XV+WQ"
      },
      "reference": "ChIJm3mxwxn2wokRdHekJsACl1U",
      "scope": "GOOGLE",
      "types": [
        "clothing_store",
        "point_of_interest",
        "store",
        "establishment"
      ],
      "vicinity": "1800 Adam Clayton Powell Junior Boulevard, New York"
    },
    {
      "business_status": "OPERATIONAL",
      "geometry": {
        "location": {
          "lat": 40.8003107,
          "lng": -73.95516649999999
        },
        "viewport": {
          "northeast": {
            "lat": 40.8016131302915,
            "lng": -73.95387181970848
          },
          "southwest": {
            "lat": 40.7989151697085,
            "lng": -73.9565697802915
          }
        }
      },
      "icon": "https://maps.gstatic.com/mapfiles/place_api/icons/v1/png_71/shopping-71.png",
      "icon_background_color": "#4B96F3",
      "icon_mask_base_uri": "https://maps.gstatic.com/mapfiles/place_api/icons/v2/shopping_pinlet",
      "name": "Body Butter Lady",
      "opening_hours": {
        "open_now": true
      },
      "photos": [
        {
          "height": 800,
          "html_attributions": [
            "<a href=\"https://maps.google.com/maps/contrib/113798358200495283203\">Body Butter Lady</a>"
          ],
          "photo_reference": "AeJbb3eHvGZb_vIuVl5LXR6bHlnnulMLeguPWwPRKmoADOJ66laczgbyopLMUBCxNiLryGWoLg0VEB02Mo1_C4xIYzuGkYc9Rl_lfOvl8x5PJnnCKy9vOwv7_v9_DdBg_YiZIiThKzsH3wF0pmSrMNr5qUY1uYbUVtrL6KyBPIF1xDFYU-JZ",
          "width": 800
        }
      ],
      "place_id": "ChIJXdg43hn2wokRbhHBXzedQRk",
      "plus_code": {
        "compound_code": "R22V+4W New York, NY, USA",
        "global_code": "87G8R22V+4W"
      },
      "rating": 5,
      "reference": "ChIJXdg43hn2wokRbhHBXzedQRk",
      "scope": "GOOGLE",
      "types": [
        "point_of_interest",
        "store",
        "establishment"
      ],
      "user_ratings_total": 1,
      "vicinity": "201 West 111th Street #1A, New York"
    },
    {
      "business_status": "OPERATIONAL",
      "geometry": {
        "location": {
          "lat": 40.800361,
          "lng": -73.95626399999999
        },
        "viewport": {
          "northeast": {
            "lat": 40.8018136802915,
            "lng": -73.9548391697085
          },
          "southwest": {
            "lat": 40.7991157197085,
            "lng": -73.95753713029151
          }
        }
      },
      "icon": "https://maps.gstatic.com/mapfiles/place_api/icons/v1/png_71/generic_business-71.png",
      "icon_background_color": "#7B9EB0",
      "icon_mask_base_uri": "https://maps.gstatic.com/mapfiles/place_api/icons/v2/generic_pinlet",
      "name": "Healing with Yely",
      "opening_hours": {
        "open_now": true
      },
      "place_id": "ChIJ0bv10xn2wokR6XdMjEf3HNU",
      "plus_code": {
        "compound_code": "R22V+4F New York, NY, USA",
        "global_code": "87G8R22V+4F"
      },
      "reference": "ChIJ0bv10xn2wokR6XdMjEf3HNU",
      "scope": "GOOGLE",
      "types": [
        "health",
        "point_of_interest",
        "establishment"
      ],
      "vicinity": "216 West 111th Street, New York"
    },
    {
      "business_status": "OPERATIONAL",
      "geometry": {
        "location": {
          "lat": 40.800361,
          "lng": -73.95626399999999
        },
        "viewport": {
          "northeast": {
            "lat": 40.8018136802915,
            "lng": -73.9548391697085
          },
          "southwest": {
            "lat": 40.7991157197085,
            "lng": -73.95753713029151
          }
        }
      },
      "icon": "https://maps.gstatic.com/mapfiles/place_api/icons/v1/png_71/generic_business-71.png",
      "icon_background_color": "#7B9EB0",
      "icon_mask_base_uri": "https://maps.gstatic.com/mapfiles/place_api/icons/v2/generic_pinlet",
      "name": "Thomas W Tordi & Associates",
      "opening_hours": {
        "open_now": true
      },
      "place_id": "ChIJ0bv10xn2wokRf0KFDjbUwsk",
      "plus_code": {
        "compound_code": "R22V+4F New York, NY, USA",
        "global_code": "87G8R22V+4F"
      },
      "reference": "ChIJ0bv10xn2wokRf0KFDjbUwsk",
      "scope": "GOOGLE",
      "types": [
        "point_of_interest",
        "establishment"
      ],
      "vicinity": "216 West 111th Street, New York"
    },
    {
      "business_status": "CLOSED_TEMPORARILY",
      "geometry": {
        "location": {
          "lat": 40.800749,
          "lng": -73.95598
        },
        "viewport": {
          "northeast": {
            "lat": 40.8020076302915,
            "lng": -73.9546970697085
          },
          "southwest": {
            "lat": 40.7993096697085,
            "lng": -73.95739503029151
          }
        }
      },
      "icon": "https://maps.gstatic.com/mapfiles/place_api/icons/v1/png_71/shopping-71.png",
      "icon_background_color": "#4B96F3",
      "icon_mask_base_uri": "https://maps.gstatic.com/mapfiles/place_api/icons/v2/shopping_pinlet",
      "name": "My Dog Collar NYC",
      "permanently_closed": true,
      "photos": [
        {
          "height": 955,
          "html_attributions": [
            "<a href=\"https://maps.google.com/maps/contrib/111475877276912932012\">Edina Dzeko</a>"
          ],
          "photo_reference": "AeJbb3esI_99T281hDOpeLUvp_S3yrdXCI7exnzNxOowNSRMIDlSB56RgtzPT8yS67ZMvo6xyi0pBE4_y8wkYtMcMJv8AfRNeaZIv5OaDA9JirNqphoFyeBxYTngCPG2_jjDpwLzQYRo_NHNkj_EVeR0QB7x0DBQWB9cu2a4S9y7uzd_CV6K",
          "width": 955
        }
      ],
      "place_id": "ChIJDVIPfRf2wokRpbLsO14da1U",
      "plus_code": {
        "compound_code": "R22V+7J New York, NY, USA",
        "global_code": "87G8R22V+7J"
      },
      "rating": 1,
      "reference": "ChIJDVIPfRf2wokRpbLsO14da1U",
      "scope": "GOOGLE",
      "types": [
        "point_of_interest",
        "store",
        "establishment"
      ],
      "user_ratings_total": 1,
      "vicinity": "229 West 111th Street, New York"
    },
    {
      "business_status": "OPERATIONAL",
      "geometry": {
        "location": {
          "lat": 40.80066370000001,
          "lng": -73.9547561
        },
        "viewport": {
          "northeast": {
            "lat": 40.8019277302915,
            "lng": -73.95335151970849
          },
          "southwest": {
            "lat": 40.7992297697085,
            "lng": -73.9560494802915
          }
        }
      },
      "icon": "https://maps.gstatic.com/mapfiles/place_api/icons/v1/png_71/shopping-71.png",
      "icon_background_color": "#4B96F3",
      "icon_mask_base_uri": "https://maps.gstatic.com/mapfiles/place_api/icons/v2/shopping_pinlet",
      "name": "JS Cycle",
      "opening_hours": {
        "open_now": true
      },
      "photos": [
        {
          "height": 4032,
          "html_attributions": [
            "<a href=\"https://maps.google.com/maps/contrib/101713449186522250943\">JS Cycle</a>"
          ],
          "photo_reference": "AeJbb3elxVrPdzIk6s9Nnt9CrGiE1W_maT_z3cN_cMRufOcW40is43tG3xG77FSg3R5NSYIzUN5BpcsZDloZRhrtPKs0P3n64EAkid9cviC17VbexZc0W0I1Y0s3SJPp4bOd2BOKuHf2oz3rvkPrxK4RMvz4z8-K9vkQwMj1pv-qJF8DhwY5",
          "width": 3024
        }
      ],
      "place_id": "ChIJlafPXhf2wokRvAOgW7IPRPs",
      "plus_code": {
        "compound_code": "R22W+73 New York, NY, USA",
        "global_code": "87G8R22W+73"
      },
      "rating": 4.8,
      "reference": "ChIJlafPXhf2wokRvAOgW7IPRPs",
      "scope": "GOOGLE",
      "types": [
        "bicycle_store",
        "point_of_interest",
        "store",
        "establishment"
      ],
      "user_ratings_total": 225,
      "vicinity": "1842 Adam Clayton Powell Junior Boulevard, New York"
    },
    {
      "business_status": "CLOSED_TEMPORARILY",
      "geometry": {
        "location": {
          "lat": 40.800216,
          "lng": -73.953948
        },
        "viewport": {
          "northeast": {
            "lat": 40.8016652302915,
            "lng": -73.95252566970849
          },
          "southwest": {
            "lat": 40.7989672697085,
            "lng": -73.9552236302915
          }
        }
      },
      "icon": "https://maps.gstatic.com/mapfiles/place_api/icons/v1/png_71/generic_business-71.png",
      "icon_background_color": "#7B9EB0",
      "icon_mask_base_uri": "https://maps.gstatic.com/mapfiles/place_api/icons/v2/generic_pinlet",
      "name": "Afric Tribal Collection",
      "permanently_closed": true,
      "place_id": "ChIJkXR7_hn2wokR1xxBMP_gh-8",
      "plus_code": {
        "compound_code": "R22W+3C New York, NY, USA",
        "global_code": "87G8R22W+3C"
      },
      "reference": "ChIJkXR7_hn2wokR1xxBMP_gh-8",
      "scope": "GOOGLE",
      "types": [
        "art_gallery",
        "point_of_interest",
        "establishment"
      ],
      "vicinity": "140 West 112th Street, New York"
    }
  ],
  "status": "OK"
}