{
  "html_attributions": [],
  "results": [
    {
      "geometry": {
        "location": {
          "lat": 40.7127753,
          "lng": -74.0059728
        },
        "viewport": {
          "northeast": {
            "lat": 40.91757705070789,
            "lng": -73.70027206817629
          },
          "southwest": {
            "lat": 40.47739906045452,
            "lng": -74.25908991427882
          }
        }
      },
      "icon": "https://maps.gstatic.com/mapfiles/place_api/icons/v1/png_71/geocode-71.png",
      "icon_background_color": "#7B9EB0",
      "icon_mask_base_uri": "https://maps.gstatic.com/mapfiles/place_api/icons/v2/generic_pinlet",
      "name": "\u7d10\u7d04",
      "photos": [
        {
          "height": 600,
          "html_attributions": [
            "<a href=\"https://maps.google.com/maps/contrib/102389334567210814614\">Bukurie</a>"
          ],
          "photo_reference": "AeJbb3dHQ7x-PJNMQC60aU_sdVaq0JZVc1-NQ2GAezC73E1KsJzOMTE0WNYJais9bXyEqZc8mnzxtSYCgrWVpT3Vx5P0Kt7ODnLqF1shpkb2z7kwYF2t7J0c9Zp_trLOMvkzsi7DLTOt0eDCy9dYbVAAsoC0Rhng2C_4vaIbaQ8XNjyU88A5",
          "width": 480
        }
      ],
      "place_id": "ChIJOwg_06VPwokRYv534QaPC8g",
      "reference": "ChIJOwg_06VPwokRYv534QaPC8g",
      "scope": "GOOGLE",
      "types": [
        "locality",
        "political"
      ],
      "vicinity": "\u7d10\u7d04"
    },
    {
      "business_status": "OPERATIONAL",
      "geometry": {
        "location": {
          "lat": 40.6687671,
          "lng": -73.979766
        },
        "viewport": {
          "northeast": {
            "lat": 40.6700932802915,
            "lng": -73.97853626970848
          },
          "southwest": {
            "lat": 40.6673953197085,
            "lng": -73.98123423029149
          }
        }
      },
      "icon": "https://maps.gstatic.com/mapfiles/place_api/icons/v1/png_71/shopping-71.png",
      "icon_background_color": "#4B96F3",
      "icon_mask_base_uri": "https://maps.gstatic.com/mapfiles/place_api/icons/v2/shopping_pinlet",
      "name": "Barnes & Noble",
      "opening_hours": {
        "open_now": true
      },
      "photos": [
        {
          "height": 3024,
          "html_attributions": [
            "<a href=\"https://maps.google.com/maps/contrib/101082820069913932567\">Kartar Singh</a>"
          ],
          "photo_reference": "AeJbb3ddy0iOhAhRRQL_wdGXtm0sD8eIOC5DyDZXtaP7Xt_ImfCZcy0Wi-_Ou06vLu8LcvmMJcLahLV7O-oeyH1WryJ9x9uVX1g7Aog7hU48NhIYV_SwnvBtCD7Obbk5ilsQPbOaMzROyHDfzS1Ml0e_eLqXXRt0Z0vrU6zB9onUzOrBQmE8",
          "width": 4032
        }
      ],
      "place_id": "ChIJ5VuisgNbwokRdmV4nsdnrvU",
      "plus_code": {
        "compound_code": "M29C+G3 \u7f8e\u570b\u7d10\u7d04\u5e03\u9c81\u514b\u6797",
        "global_code": "87G8M29C+G3"
      },
      "price_level": 2,
      "rating": 4.5,
      "reference": "ChIJ5VuisgNbwokRdmV4nsdnrvU",
      "scope": "GOOGLE",
      "types": [
        "book_store",
        "cafe",
        "store",
        "food",
        "point_of_interest",
        "establishment"
      ],
      "user_ratings_total": 2283,
      "vicinity": "267 7th Avenue, Brooklyn"
    },
    {
      "business_status": "OPERATIONAL",
      "geometry": {
        "location": {
          "lat": 40.6740768,
          "lng": -73.9819081
        },
        "viewport": {
          "northeast": {
            "lat": 40.6754134802915,
            "lng": -73.98070576970849
          },
          "southwest": {
            "lat": 40.6727155197085,
            "lng": -73.98340373029151
          }
        }
      },
      "icon": "https://maps.gstatic.com/mapfiles/place_api/icons/v1/png_71/bank-71.png",
      "icon_background_color": "#909CE1",
      "icon_mask_base_uri": "https://maps.gstatic.com/mapfiles/place_api/icons/v2/bank-intl_pinlet",
      "name": "TD Bank",
      "opening_hours": {
        "open_now": false
      },
      "photos": [
        {
          "height": 3456,
          "html_attributions": [
            "<a href=\"https://maps.google.com/maps/contrib/100694264029920965657\">Roberto Reyes</a>"
          ],
          "photo_reference": "AeJbb3fj0Q14WsrljpnnqkkEXPkGu4cgG9pOccVWCOChOzqgmcqGpmCunsAlc6sFZr7dsYZ6XxcfWyNKphnTEy_yN6Gw9m17pxOIgYqd8ZKB7cUnq0isZPzxKeyFaUM_Ml22Gkdw-LpgrZlDvbgPDYe4wJjtf-l93eE4uC4FscXBlayWRNOw",
          "width": 4608
        }
      ],
      "place_id": "ChIJJzGXMABbwokRj-eKPiyfITM",
      "plus_code": {
        "compound_code": "M2F9+J6 \u7f8e\u570b\u7d10\u7d04",
        "global_code": "87G8M2F9+J6"
      },
      "rating": 3.7,
      "reference": "ChIJJzGXMABbwokRj-eKPiyfITM",
      "scope": "GOOGLE",
      "types": [
        "bank",
        "atm",
        "finance",
        "point_of_interest",
        "establishment"
      ],
      "user_ratings_total": 51,
      "vicinity": "269 5th Avenue, Brooklyn"
    },
    {
      "business_status": "OPERATIONAL",
      "geometry": {
        "location": {
          "lat": 40.67344380000001,
          "lng": -73.98243529999999
        },
        "viewport": {
          "northeast": {
            "lat": 40.6748549802915,
            "lng": -73.98118821970849
          },
          "southwest": {
            "lat": 40.67215701970851,
            "lng": -73.98388618029149
          }
        }
      },
      "icon": "https://maps.gstatic.com/mapfiles/place_api/icons/v1/png_71/restaurant-71.png",
      "icon_background_color": "#FF9E67",
      "icon_mask_base_uri": "https://maps.gstatic.com/mapfiles/place_api/icons/v2/restaurant_pinlet",
      "name": "Song",
      "opening_hours": {
        "open_now": false
      },
      "photos": [
        {
          "height": 1365,
          "html_attributions": [
            "<a href=\"https://maps.google.com/maps/contrib/108397227976036542837\">Song</a>"
          ],
          "photo_reference": "AeJbb3fXo7bOaL8xFN9CwuYX33ldWVhJ7PO9qfjbLNqXPMM1Ij4G9wJkBxoVeCg5uOoer2qw0p8otG8hh5ZoSydeMF5DVz1yjWiMI1mTsTHAMciJ8mL5aXRmuEpPDI7bjvjrLwOC2GKzQM60s66sOE3VU9FXBYB6q56cRVg9e0-sAZ7NtxBm",
          "width": 2048
        }
      ],
      "place_id": "ChIJbUFSKwBbwokRaDCQAUR9fvE",
      "plus_code": {
        "compound_code": "M2F9+92 \u7f8e\u570b\u7d10\u7d04\u5e03\u9c81\u514b\u6797",
        "global_code": "87G8M2F9+92"
      },
      "price_level": 1,
      "rating": 4.3,
      "reference": "ChIJbUFSKwBbwokRaDCQAUR9fvE",
      "scope": "GOOGLE",
      "types": [
        "restaurant",
        "food",
        "bar",
        "point_of_interest",
        "establishment"
      ],
      "user_ratings_total": 595,
      "vicinity": "295 5th Avenue, Brooklyn"
    },
    {
      "business_status": "OPERATIONAL",
      "geometry": {
        "location": {
          "lat": 40.6730516,
          "lng": -73.98346
        },
        "viewport": {
          "northeast": {
            "lat": 40.6743232802915,
            "lng": -73.9821790697085
          },
          "southwest": {
            "lat": 40.6716253197085,
            "lng": -73.9848770302915
          }
        }
      },
      "icon": "https://maps.gstatic.com/mapfiles/place_api/icons/v1/png_71/restaurant-71.png",
      "icon_background_color": "#FF9E67",
      "icon_mask_base_uri": "https://maps.gstatic.com/mapfiles/place_api/icons/v2/restaurant_pinlet",
      "name": "Stone Park Cafe",
      "opening_hours": {
        "open_now": true
      },
      "photos": [
        {
          "height": 2578,
          "html_attributions": [
            "<a href=\"https://maps.google.com/maps/contrib/103106897520647190499\">Stone Park Cafe</a>"
          ],
          "photo_reference": "AeJbb3fx2VreN4EfJnCtpYdlLj5DbDHbUaG7EVc4glyWpfd2aLtM0MmWYS5vuDzdqTq0g0pDH8gpDh2aBfaT-9eBNIX7SZtWIHXl0W4sRxA9UggBSvHpFVl_rEd_zHX9ZwtNbDCL_ukt7mTYxdh_KsKH3G7dLsM4xocphVnfXXjY5j407MtF",
          "width": 2578
        }
      ],
      "place_id": "ChIJF6deL_5awokRh2ohKTMG2HE",
      "plus_code": {
        "compound_code": "M2F8+6J \u7f8e\u570b\u7d10\u7d04",
        "global_code": "87G8M2F8+6J"
      },
      "price_level": 2,
      "rating": 4.5,
      "reference": "ChIJF6deL_5awokRh2ohKTMG2HE",
      "scope": "GOOGLE",
      "types": [
        "restaurant",
        "food",
        "bar",
        "point_of_interest",
        "establishment"
      ],
      "user_ratings_total": 703,
      "vicinity": "324 5th Avenue, Brooklyn"
    },
    {
      "business_status": "OPERATIONAL",
      "geometry": {
        "location": {
          "lat": 40.6679815,
          "lng": -73.97941759999999
        },
        "viewport": {
          "northeast": {
            "lat": 40.66946113029151,
            "lng": -73.97790196970848
          },
          "southwest": {
            "lat": 40.66676316970851,
            "lng": -73.9805999302915
          }
        }
      },
      "icon": "https://maps.gstatic.com/mapfiles/place_api/icons/v1/png_71/generic_business-71.png",
      "icon_background_color": "#7B9EB0",
      "icon_mask_base_uri": "https://maps.gstatic.com/mapfiles/place_api/icons/v2/generic_pinlet",
      "name": "Jeremy Weingarten, M.D.",
      "place_id": "ChIJk7pgcwNbwokRexvw-IZGesk",
      "plus_code": {
        "compound_code": "M29C+56 \u7f8e\u570b\u7d10\u7d04\u5e03\u9c81\u514b\u6797",
        "global_code": "87G8M29C+56"
      },
      "rating": 4.5,
      "reference": "ChIJk7pgcwNbwokRexvw-IZGesk",
      "scope": "GOOGLE",
      "types": [
        "point_of_interest",
        "doctor",
        "health",
        "establishment"
      ],
      "user_ratings_total": 2,
      "vicinity": "506 6th Street, Brooklyn"
    },
    {
      "business_status": "OPERATIONAL",
      "geometry": {
        "location": {
          "lat": 40.6683276,
          "lng": -73.9798349
        },
        "viewport": {
          "northeast": {
            "lat": 40.6698010302915,
            "lng": -73.9784529697085
          },
          "southwest": {
            "lat": 40.6671030697085,
            "lng": -73.9811509302915
          }
        }
      },
      "icon": "https://maps.gstatic.com/mapfiles/place_api/icons/v1/png_71/generic_business-71.png",
      "icon_background_color": "#7B9EB0",
      "icon_mask_base_uri": "https://maps.gstatic.com/mapfiles/place_api/icons/v2/generic_pinlet",
      "name": "Economos Katherine MD",
      "place_id": "ChIJk7pgcwNbwokRNjegjGeYTFA",
      "plus_code": {
        "compound_code": "M29C+83 \u7f8e\u570b\u7d10\u7d04\u5e03\u9c81\u514b\u6797",
        "global_code": "87G8M29C+83"
      },
      "rating": 5,
      "reference": "ChIJk7pgcwNbwokRNjegjGeYTFA",
      "scope": "GOOGLE",
      "types": [
        "point_of_interest",
        "doctor",
        "health",
        "establishment"
      ],
      "user_ratings_total": 2,
      "vicinity": "506 6th Street, Brooklyn"
    },
    {
      "business_status": "OPERATIONAL",
      "geometry": {
        "location": {
          "lat": 40.6683276,
          "lng": -73.9798349
        },
        "viewport": {
          "northeast": {
            "lat": 40.6698010302915,
            "lng": -73.9784529697085
          },
          "southwest": {
            "lat": 40.6671030697085,
            "lng": -73.9811509302915
          }
        }
      },
      "icon": "https://maps.gstatic.com/mapfiles/place_api/icons/v1/png_71/generic_business-71.png",
      "icon_background_color": "#7B9EB0",
      "icon_mask_base_uri": "https://maps.gstatic.com/mapfiles/place_api/icons/v2/generic_pinlet",
      "name": "Kofinas Perinatal",
      "place_id": "ChIJk7pgcwNbwokRnm7CXMCetGs",
      "plus_code": {
        "compound_code": "M29C+83 \u7f8e\u570b\u7d10\u7d04\u5e03\u9c81\u514b\u6797",
        "global_code": "87G8M29C+83"
      },
      "rating": 5,
      "reference": "ChIJk7pgcwNbwokRnm7CXMCetGs",
      "scope": "GOOGLE",
      "types": [
        "point_of_interest",
        "health",
        "establishment"
      ],
      "user_ratings_total": 2,
      "vicinity": "506 6th Street, Brooklyn"
    },
    {
      "business_status": "OPERATIONAL",
      "geometry": {
        "location": {
          "lat": 40.6683276,
          "lng": -73.9798349
        },
        "viewport": {
          "northeast": {
            "lat": 40.6698010302915,
            "lng": -73.9784529697085
          },
          "southwest": {
            "lat": 40.6671030697085,
            "lng": -73.9811509302915
          }
        }
      },
      "icon": "https://maps.gstatic.com/mapfiles/place_api/icons/v1/png_71/generic_business-71.png",
      "icon_background_color": "#7B9EB0",
      "icon_mask_base_uri": "https://maps.gstatic.com/mapfiles/place_api/icons/v2/generic_pinlet",
      "name": "Jacqueline Bush, MD",
      "photos": [
        {
          "height": 1668,
          "html_attributions": [
            "<a href=\"https://maps.google.com/maps/contrib/112485354802211367478\">Jacqueline Bush, MD</a>"
          ],
          "photo_reference": "AeJbb3c7J88Ls2uV7B2zbzTsZne2So-Fah_4AVmDn7KYlMMwIfuB8kiXiLDGX9ujaEYdNyJdu1dXbcnoXh-XoC6ciMn9OYcCjtZSKvtaE30k4-9xadXCZ36C_iF0oSMmu9cejjfW6yUngpeORuj1QJaxlnTXf4clt2M45reT-Ptuqjek-WEj",
          "width": 1668
        }
      ],
      "place_id": "ChIJk7pgcwNbwokRBkISbLDNiDQ",
      "plus_code": {
        "compound_code": "M29C+83 \u7f8e\u570b\u7d10\u7d04",
        "global_code": "87G8M29C+83"
      },
      "rating": 4.4,
      "reference": "ChIJk7pgcwNbwokRBkISbLDNiDQ",
      "scope": "GOOGLE",
      "types": [
        "point_of_interest",
        "doctor",
        "health",
        "establishment"
      ],
      "user_ratings_total": 16,
      "vicinity": "506 6th Street, Brooklyn"
    },
    {
      "business_status": "OPERATIONAL",
      "geometry": {
        "location": {
          "lat": 40.66893749999999,
          "lng": -73.9795619
        },
        "viewport": {
          "northeast": {
            "lat": 40.67033483029149,
            "lng": -73.97831551970849
          },
          "southwest": {
            "lat": 40.6676368697085,
            "lng": -73.98101348029151
          }
        }
      },
      "icon": "https://maps.gstatic.com/mapfiles/place_api/icons/v1/png_71/generic_business-71.png",
      "icon_background_color": "#7B9EB0",
      "icon_mask_base_uri": "https://maps.gstatic.com/mapfiles/place_api/icons/v2/generic_pinlet",
      "name": "Buckner Cary MD",
      "place_id": "ChIJK9jQswNbwokRhXzYztQVtLw",
      "plus_code": {
        "compound_code": "M29C+H5 \u7f8e\u570b\u7d10\u7d04\u5e03\u9c81\u514b\u6797",
        "global_code": "87G8M29C+H5"
      },
      "rating": 4.5,
      "reference": "ChIJK9jQswNbwokRhXzYztQVtLw",
      "scope": "GOOGLE",
      "types": [
        "point_of_interest",
        "doctor",
        "health",
        "establishment"
      ],
      "user_ratings_total": 2,
      "vicinity": "263 7th Avenue # 5C, Brooklyn"
    },
    {
      "business_status": "OPERATIONAL",
      "geometry": {
        "location": {
          "lat": 40.6683276,
          "lng": -73.9798349
        },
        "viewport": {
          "northeast": {
            "lat": 40.6698010302915,
            "lng": -73.9784529697085
          },
          "southwest": {
            "lat": 40.6671030697085,
            "lng": -73.9811509302915
          }
        }
      },
      "icon": "https://maps.gstatic.com/mapfiles/place_api/icons/v1/png_71/generic_business-71.png",
      "icon_background_color": "#7B9EB0",
      "icon_mask_base_uri": "https://maps.gstatic.com/mapfiles/place_api/icons/v2/generic_pinlet",
      "name": "Anthony Moretta, MD",
      "place_id": "ChIJk7pgcwNbwokRQM0vzVJr9IQ",
      "plus_code": {
        "compound_code": "M29C+83 \u7f8e\u570b\u7d10\u7d04\u5e03\u9c81\u514b\u6797",
        "global_code": "87G8M29C+83"
      },
      "reference": "ChIJk7pgcwNbwokRQM0vzVJr9IQ",
      "scope": "GOOGLE",
      "types": [
        "doctor",
        "point_of_interest",
        "health",
        "establishment"
      ],
      "vicinity": "506 6th Street, Brooklyn"
    },
    {
      "business_status": "OPERATIONAL",
      "geometry": {
        "location": {
          "lat": 40.6679815,
          "lng": -73.97941759999999
        },
        "viewport": {
          "northeast": {
            "lat": 40.66946113029151,
            "lng": -73.97790196970848
          },
          "southwest": {
            "lat": 40.66676316970851,
            "lng": -73.9805999302915
          }
        }
      },
      "icon": "https://maps.gstatic.com/mapfiles/place_api/icons/v1/png_71/generic_business-71.png",
      "icon_background_color": "#7B9EB0",
      "icon_mask_base_uri": "https://maps.gstatic.com/mapfiles/place_api/icons/v2/generic_pinlet",
      "name": "Michael Cabezon, M.D., F.A.C.E.P.",
      "place_id": "ChIJk7pgcwNbwokRT5ZX5OcXgxc",
      "plus_code": {
        "compound_code": "M29C+56 \u7f8e\u570b\u7d10\u7d04\u5e03\u9c81\u514b\u6797",
        "global_code": "87G8M29C+56"
      },
      "reference": "ChIJk7pgcwNbwokRT5ZX5OcXgxc",
      "scope": "GOOGLE",
      "types": [
        "point_of_interest",
        "doctor",
        "health",
        "establishment"
      ],
      "vicinity": "506 6th Street, Brooklyn"
    },
    {
      "business_status": "OPERATIONAL",
      "geometry": {
        "location": {
          "lat": 40.6683276,
          "lng": -73.9798349
        },
        "viewport": {
          "northeast": {
            "lat": 40.6698010302915,
            "lng": -73.9784529697085
          },
          "southwest": {
            "lat": 40.6671030697085,
            "lng": -73.9811509302915
          }
        }
      },
      "icon": "https://maps.gstatic.com/mapfiles/place_api/icons/v1/png_71/generic_business-71.png",
      "icon_background_color": "#7B9EB0",
      "icon_mask_base_uri": "https://maps.gstatic.com/mapfiles/place_api/icons/v2/generic_pinlet",
      "name": "Terrence J. Sacchi, MD",
      "photos": [
        {
          "height": 2731,
          "html_attributions": [
            "<a href=\"https://maps.google.com/maps/contrib/116665888024994338862\">Terrence J. Sacchi, MD</a>"
          ],
          "photo_reference": "AeJbb3esfWOoLltwIVHCF4M3tdMSzlr1Q2lviqD_sBzLFsTNoGLJUjB2p46AuoIo7hnio-ZCA_Usq7hSt6lxMxt5cg9xpmjfxgE2xbESWz7o-T2SuJr7zdoAjmm8H7_2UFObGsTsJpBB8WZ6PDyh37FnrwOllbAVlksfHlUH7yryC8y9DY5A",
          "width": 2731
        }
      ],
      "place_id": "ChIJk7pgcwNbwokReeeakAeL5gQ",
      "plus_code": {
        "compound_code": "M29C+83 \u7f8e\u570b\u7d10\u7d04",
        "global_code": "87G8M29C+83"
      },
      "rating": 4.2,
      "reference": "ChIJk7pgcwNbwokReeeakAeL5gQ",
      "scope": "GOOGLE",
      "types": [
        "point_of_interest",
        "doctor",
        "health",
        "establishment"
      ],
      "user_ratings_total": 5,
      "vicinity": "506 6th Street, Brooklyn"
    },
    {
      "business_status": "OPERATIONAL",
      "geometry": {
        "location": {
          "lat": 40.6683276,
          "lng": -73.9798349
        },
        "viewport": {
          "northeast": {
            "lat": 40.6698010302915,
            "lng": -73.9784529697085
          },
          "southwest": {
            "lat": 40.6671030697085,
            "lng": -73.9811509302915
          }
        }
      },
      "icon": "https://maps.gstatic.com/mapfiles/place_api/icons/v1/png_71/generic_business-71.png",
      "icon_background_color": "#7B9EB0",
      "icon_mask_base_uri": "https://maps.gstatic.com/mapfiles/place_api/icons/v2/generic_pinlet",
      "name": "Hajir Dilmanian, MD",
      "opening_hours": {
        "open_now": false
      },
      "photos": [
        {
          "height": 684,
          "html_attributions": [
            "<a href=\"https://maps.google.com/maps/contrib/100054465934580349159\">Hajir Dilmanian, MD</a>"
          ],
          "photo_reference": "AeJbb3edBu2uM2SeOVFfcownpYriiTHAQgVVNxyf4uzkzvdPM388eOUT31zGrX1JwiCXE4gsPz0EktCAeEbr3kCB8L0Ir7yGbmOSBluKoErIYWoMRZ4LjHWa9bhvEZuIUhRL2q44ATzOwwF3Vw4KyN93_K3cUSieYW9oeoc3IU7l-t5mGAtI",
          "width": 684
        }
      ],
      "place_id": "ChIJk7pgcwNbwokRyY9ug3u5uVo",
      "plus_code": {
        "compound_code": "M29C+83 \u7f8e\u570b\u7d10\u7d04\u5e03\u9c81\u514b\u6797",
        "global_code": "87G8M29C+83"
      },
      "rating": 1.5,
      "reference": "ChIJk7pgcwNbwokRyY9ug3u5uVo",
      "scope": "GOOGLE",
      "types": [
        "point_of_interest",
        "doctor",
        "health",
        "establishment"
      ],
      "user_ratings_total": 2,
      "vicinity": "506 6th Street Suite Newyork-Presbyterian Medical Group, Brooklyn"
    },
    {
      "business_status": "OPERATIONAL",
      "geometry": {
        "location": {
          "lat": 40.6683276,
          "lng": -73.9798349
        },
        "viewport": {
          "northeast": {
            "lat": 40.6698010302915,
            "lng": -73.9784529697085
          },
          "southwest": {
            "lat": 40.6671030697085,
            "lng": -73.9811509302915
          }
        }
      },
      "icon": "https://maps.gstatic.com/mapfiles/place_api/icons/v1/png_71/generic_business-71.png",
      "icon_background_color": "#7B9EB0",
      "icon_mask_base_uri": "https://maps.gstatic.com/mapfiles/place_api/icons/v2/generic_pinlet",
      "name": "Gillego Virgilio P MD",
      "place_id": "ChIJk7pgcwNbwokRpYBM0hFPEkE",
      "plus_code": {
        "compound_code": "M29C+83 \u7f8e\u570b\u7d10\u7d04\u5e03\u9c81\u514b\u6797",
        "global_code": "87G8M29C+83"
      },
      "reference": "ChIJk7pgcwNbwokRpYBM0hFPEkE",
      "scope": "GOOGLE",
      "types": [
        "point_of_interest",
        "doctor",
        "health",
        "establishment"
      ],
      "vicinity": "506 6th Street, Brooklyn"
    },
    {
      "business_status": "OPERATIONAL",
      "geometry": {
        "location": {
          "lat": 40.6683276,
          "lng": -73.9798349
        },
        "viewport": {
          "northeast": {
            "lat": 40.6698010302915,
            "lng": -73.9784529697085
          },
          "southwest": {
            "lat": 40.6671030697085,
            "lng": -73.9811509302915
          }
        }
      },
      "icon": "https://maps.gstatic.com/mapfiles/place_api/icons/v1/png_71/generic_business-71.png",
      "icon_background_color": "#7B9EB0",
      "icon_mask_base_uri": "https://maps.gstatic.com/mapfiles/place_api/icons/v2/generic_pinlet",
      "name": "Akram Ahmed Chowdhury, MD",
      "photos": [
        {
          "height": 1191,
          "html_attributions": [
            "<a href=\"https://maps.google.com/maps/contrib/117213551585622359445\">Akram Ahmed Chowdhury, MD</a>"
          ],
          "photo_reference": "AeJbb3eJcZU_ADEuXPeqv-BQzzmLiTNzxSVsnE9qeCtiHSKzW_wGklKrfr_gsvQxpM1hH-j7Q1jyzVUhzyeJEXTI-73E8B4QA46ZcLSDZ0KnhDDyF35M9NjUpUBkGBVMGy_S2H69OqiFT_mGZoV7x41BV90Yobjs9pKp0IggL_NB0KjkjzFv",
          "width": 1191
        }
      ],
      "place_id": "ChIJk7pgcwNbwokRXkK1stqdHLo",
      "plus_code": {
        "compound_code": "M29C+83 \u7f8e\u570b\u7d10\u7d04",
        "global_code": "87G8M29C+83"
      },
      "rating": 1,
      "reference": "ChIJk7pgcwNbwokRXkK1stqdHLo",
      "scope": "GOOGLE",
      "types": [
        "point_of_interest",
        "doctor",
        "health",
        "establishment"
      ],
      "user_ratings_total": 1,
      "vicinity": "506 6th Street, Brooklyn"
    },
    {
      "business_status": "OPERATIONAL",
      "geometry": {
        "location": {
          "lat": 40.6683276,
          "lng": -73.9798349
        },
        "viewport": {
          "northeast": {
            "lat": 40.6698010302915,
            "lng": -73.9784529697085
          },
          "southwest": {
            "lat": 40.6671030697085,
            "lng": -73.9811509302915
          }
        }
      },
      "icon": "https://maps.gstatic.com/mapfiles/place_api/icons/v1/png_71/generic_business-71.png",
      "icon_background_color": "#7B9EB0",
      "icon_mask_base_uri": "https://maps.gstatic.com/mapfiles/place_api/icons/v2/generic_pinlet",
      "name": "Joshua A. Socolow, MD",
      "place_id": "ChIJk7pgcwNbwokRL-lWMpkg67s",
      "plus_code": {
        "compound_code": "M29C+83 \u7f8e\u570b\u7d10\u7d04\u5e03\u9c81\u514b\u6797",
        "global_code": "87G8M29C+83"
      },
      "rating": 5,
      "reference": "ChIJk7pgcwNbwokRL-lWMpkg67s",
      "scope": "GOOGLE",
      "types": [
        "point_of_interest",
        "doctor",
        "health",
        "establishment"
      ],
      "user_ratings_total": 2,
      "vicinity": "506 6th Street, Brooklyn"
    },
    {
      "business_status": "OPERATIONAL",
      "geometry": {
        "location": {
          "lat": 40.6683276,
          "lng": -73.9798349
        },
        "viewport": {
          "northeast": {
            "lat": 40.6698010302915,
            "lng": -73.9784529697085
          },
          "southwest": {
            "lat": 40.6671030697085,
            "lng": -73.9811509302915
          }
        }
      },
      "icon": "https://maps.gstatic.com/mapfiles/place_api/icons/v1/png_71/generic_business-71.png",
      "icon_background_color": "#7B9EB0",
      "icon_mask_base_uri": "https://maps.gstatic.com/mapfiles/place_api/icons/v2/generic_pinlet",
      "name": "Sorin J. Brener, MD",
      "opening_hours": {
        "open_now": false
      },
      "photos": [
        {
          "height": 540,
          "html_attributions": [
            "<a href=\"https://maps.google.com/maps/contrib/115483497910809623445\">Sorin J. Brener, MD</a>"
          ],
          "photo_reference": "AeJbb3ceNYL1xwV-YZsmnUoV5RvcbsB7kU3sZAxNeww-EYyWF8c9BOXU-qvbERNKDvS89TQRc3RSgIRiPK1505Ow6Saon89nvy9MtF9FMdq0UYRGIr5AlZdzpPGXZxIhv8AuPoEZUGMcBXomvJWDNM-0vd4a5up_2Iaapu9jOqARmYzxvlsh",
          "width": 540
        }
      ],
      "place_id": "ChIJk7pgcwNbwokRMOj5vLNjLPg",
      "plus_code": {
        "compound_code": "M29C+83 \u7f8e\u570b\u7d10\u7d04",
        "global_code": "87G8M29C+83"
      },
      "rating": 5,
      "reference": "ChIJk7pgcwNbwokRMOj5vLNjLPg",
      "scope": "GOOGLE",
      "types": [
        "point_of_interest",
        "doctor",
        "health",
        "establishment"
      ],
      "user_ratings_total": 3,
      "vicinity": "506 6th Street, Brooklyn"
    },
    {
      "business_status": "OPERATIONAL",
      "geometry": {
        "location": {
          "lat": 40.6678362,
          "lng": -73.97912989999999
        },
        "viewport": {
          "northeast": {
            "lat": 40.6693884802915,
            "lng": -73.97779386970848
          },
          "southwest": {
            "lat": 40.6666905197085,
            "lng": -73.9804918302915
          }
        }
      },
      "icon": "https://maps.gstatic.com/mapfiles/place_api/icons/v1/png_71/civic_building-71.png",
      "icon_background_color": "#7B9EB0",
      "icon_mask_base_uri": "https://maps.gstatic.com/mapfiles/place_api/icons/v2/civic-bldg_pinlet",
      "name": "NewYork-Presbyterian Brooklyn Methodist Hospital - Health Library",
      "place_id": "ChIJk7pgcwNbwokRQFHuQ1UgJY8",
      "plus_code": {
        "compound_code": "M29C+48 \u7f8e\u570b\u7d10\u7d04",
        "global_code": "87G8M29C+48"
      },
      "rating": 4.6,
      "reference": "ChIJk7pgcwNbwokRQFHuQ1UgJY8",
      "scope": "GOOGLE",
      "types": [
        "library",
        "point_of_interest",
        "establishment"
      ],
      "user_ratings_total": 16,
      "vicinity": "506 6th Street, Brooklyn"
    },
    {
      "geometry": {
        "location": {
          "lat": 40.6781784,
          "lng": -73.9441579
        },
        "viewport": {
          "northeast": {
            "lat": 40.73944597129348,
            "lng": -73.83336505117123
          },
          "southwest": {
            "lat": 40.55104197967331,
            "lng": -74.05662998413648
          }
        }
      },
      "icon": "https://maps.gstatic.com/mapfiles/place_api/icons/v1/png_71/geocode-71.png",
      "icon_background_color": "#7B9EB0",
      "icon_mask_base_uri": "https://maps.gstatic.com/mapfiles/place_api/icons/v2/generic_pinlet",
      "name": "\u5e03\u9c81\u514b\u6797",
      "photos": [
        {
          "height": 3024,
          "html_attributions": [
            "<a href=\"https://maps.google.com/maps/contrib/114417859579881743500\">Chengxiang Yuan</a>"
          ],
          "photo_reference": "AeJbb3dREZTWAIxJBwuhVf5Ywue30ciaLGWlKMUpb2uJxzKKLVzqRzVeCStmT643RVd0dDfH7X1D38BnNtcao_vQfWqzXRFnxM6-DG0Cm-3NyRBPi8lyWCGHextD3KpBVnpCPSYFeVyBIXzMC0tS8L6tMYIZFPeDIFcU1uAk8B5LdvG-9PQR",
          "width": 4032
        }
      ],
      "place_id": "ChIJCSF8lBZEwokRhngABHRcdoI",
      "reference": "ChIJCSF8lBZEwokRhngABHRcdoI",
      "scope": "GOOGLE",
      "types": [
        "sublocality_level_1",
        "sublocality",
        "political"
      ],
      "vicinity": "\u5e03\u9c81\u514b\u6797"
    },
    {
      "business_status": "OPERATIONAL",
      "geometry": {
        "location": {
          "lat": 40.67257680000001,
          "lng": -73.9832456
        },
        "viewport": {
          "northeast": {
            "lat": 40.6739793302915,
            "lng": -73.98196946970849
          },
          "southwest": {
            "lat": 40.67128136970851,
            "lng": -73.98466743029151
          }
        }
      },
      "icon": "https://maps.gstatic.com/mapfiles/place_api/icons/v1/png_71/bar-71.png",
      "icon_background_color": "#FF9E67",
      "icon_mask_base_uri": "https://maps.gstatic.com/mapfiles/place_api/icons/v2/bar_pinlet",
      "name": "The Gate",
      "opening_hours": {
        "open_now": false
      },
      "photos": [
        {
          "height": 746,
          "html_attributions": [
            "<a href=\"https://maps.google.com/maps/contrib/106449674103390556736\">The Gate</a>"
          ],
          "photo_reference": "AeJbb3f6e4w48mzyIngFAI5CcJ8khJIDnC1lkVEnCmXedPf1lr7ovG68DoV2jWBq7Rh66dr28_adL6aqaHVexC3O31PzgqYknNJu-dbH6q1yJukzmjXPLkaZ5Vgs7HS8KVOOfBUdl5kvCbzKiLs74yTC7hmVFBlYuxNvO__ZZWobOLeNSaVw",
          "width": 1118
        }
      ],
      "place_id": "ChIJ6QdZIf5awokRutxyFrN3tck",
      "plus_code": {
        "compound_code": "M2F8+2P Brooklyn, NY, USA",
        "global_code": "87G8M2F8+2P"
      },
      "price_level": 1,
      "rating": 4.5,
      "reference": "ChIJ6QdZIf5awokRutxyFrN3tck",
      "scope": "GOOGLE",
      "types": [
        "bar",
        "restaurant",
        "point_of_interest",
        "food",
        "establishment"
      ],
      "user_ratings_total": 345,
      "vicinity": "321 5th Avenue, Brooklyn"
    },
    {
      "business_status": "OPERATIONAL",
      "geometry": {
        "location": {
          "lat": 40.6679815,
          "lng": -73.97941759999999
        },
        "viewport": {
          "northeast": {
            "lat": 40.66946113029151,
            "lng": -73.97790196970848
          },
          "southwest": {
            "lat": 40.66676316970851,
            "lng": -73.9805999302915
          }
        }
      },
      "icon": "https://maps.gstatic.com/mapfiles/place_api/icons/v1/png_71/generic_business-71.png",
      "icon_background_color": "#7B9EB0",
      "icon_mask_base_uri": "https://maps.gstatic.com/mapfiles/place_api/icons/v2/generic_pinlet",
      "name": "Baratti Corrado MD",
      "place_id": "ChIJk7pgcwNbwokRgQvityAAOsE",
      "plus_code": {
        "compound_code": "M29C+56 Brooklyn, NY, USA",
        "global_code": "87G8M29C+56"
      },
      "rating": 4,
      "reference": "ChIJk7pgcwNbwokRgQvityAAOsE",
      "scope": "GOOGLE",
      "types": [
        "doctor",
        "health",
        "point_of_interest",
        "establishment"
      ],
      "user_ratings_total": 1,
      "vicinity": "506 6th Street, Brooklyn"
    },
    {
      "business_status": "OPERATIONAL",
      "geometry": {
        "location": {
          "lat": 40.6700459,
          "lng": -73.9780554
        },
        "viewport": {
          "northeast": {
            "lat": 40.6714692802915,
            "lng": -73.97662616970851
          },
          "southwest": {
            "lat": 40.6687713197085,
            "lng": -73.97932413029152
          }
        }
      },
      "icon": "https://maps.gstatic.com/mapfiles/place_api/icons/v1/png_71/generic_business-71.png",
      "icon_background_color": "#7B9EB0",
      "icon_mask_base_uri": "https://maps.gstatic.com/mapfiles/place_api/icons/v2/generic_pinlet",
      "name": "Jill-Ann Swenson, MD, FACOG",
      "opening_hours": {
        "open_now": false
      },
      "photos": [
        {
          "height": 700,
          "html_attributions": [
            "<a href=\"https://maps.google.com/maps/contrib/106019814146699754811\">Jill-Ann Swenson, MD, FACOG</a>"
          ],
          "photo_reference": "AeJbb3cyUZN1RL3YyjiDlVQSYWnZABkB3-jnUYn-W3mVsyiJI1FxjGapstzk3hD6kkz0rGXKoOQ026j7aPE3Z14LNGvcDvgu8qXzeONkt_JjOfxpFWANH2NmIOdud2B1hsYZS9HfZ1Vr3fOGnwiJsTZ5_Js2IxohSlsVP7gSqa1uXpQULgQL",
          "width": 1420
        }
      ],
      "place_id": "ChIJk7pgcwNbwokRHL-pidWPsBM",
      "plus_code": {
        "compound_code": "M2CC+2Q Brooklyn, NY, USA",
        "global_code": "87G8M2CC+2Q"
      },
      "rating": 3.7,
      "reference": "ChIJk7pgcwNbwokRHL-pidWPsBM",
      "scope": "GOOGLE",
      "types": [
        "doctor",
        "health",
        "point_of_interest",
        "establishment"
      ],
      "user_ratings_total": 6,
      "vicinity": "522 3rd Street, Brooklyn"
    },
    {
      "business_status": "OPERATIONAL",
      "geometry": {
        "location": {
          "lat": 40.6679815,
          "lng": -73.97941759999999
        },
        "viewport": {
          "northeast": {
            "lat": 40.66946113029151,
            "lng": -73.97790196970848
          },
          "southwest": {
            "lat": 40.66676316970851,
            "lng": -73.9805999302915
          }
        }
      },
      "icon": "https://maps.gstatic.com/mapfiles/place_api/icons/v1/png_71/generic_business-71.png",
      "icon_background_color": "#7B9EB0",
      "icon_mask_base_uri": "https://maps.gstatic.com/mapfiles/place_api/icons/v2/generic_pinlet",
      "name": "Patel Vishal K MD",
      "place_id": "ChIJk7pgcwNbwokRFhoVSpBk5XE",
      "plus_code": {
        "compound_code": "M29C+56 Brooklyn, NY, USA",
        "global_code": "87G8M29C+56"
      },
      "reference": "ChIJk7pgcwNbwokRFhoVSpBk5XE",
      "scope": "GOOGLE",
      "types": [
        "doctor",
        "health",
        "point_of_interest",
        "establishment"
      ],
      "vicinity": "506 6th Street, Brooklyn"
    },
    {
      "business_status": "OPERATIONAL",
      "geometry": {
        "location": {
          "lat": 40.66834670000001,
          "lng": -73.9789686
        },
        "viewport": {
          "northeast": {
            "lat": 40.6696781802915,
            "lng": -73.97772376970849
          },
          "southwest": {
            "lat": 40.6669802197085,
            "lng": -73.9804217302915
          }
        }
      },
      "icon": "https://maps.gstatic.com/mapfiles/place_api/icons/v1/png_71/generic_business-71.png",
      "icon_background_color": "#7B9EB0",
      "icon_mask_base_uri": "https://maps.gstatic.com/mapfiles/place_api/icons/v2/generic_pinlet",
      "name": "Dr. Barbara J. Gatton, MD",
      "place_id": "ChIJk7pgcwNbwokRQPDHEi6bdig",
      "plus_code": {
        "compound_code": "M29C+8C New York, NY, USA",
        "global_code": "87G8M29C+8C"
      },
      "reference": "ChIJk7pgcwNbwokRQPDHEi6bdig",
      "scope": "GOOGLE",
      "types": [
        "doctor",
        "health",
        "point_of_interest",
        "establishment"
      ],
      "vicinity": "506 6th Street, Brooklyn"
    },
    {
      "business_status": "OPERATIONAL",
      "geometry": {
        "location": {
          "lat": 40.6679341,
          "lng": -73.9795135
        },
        "viewport": {
          "northeast": {
            "lat": 40.66943743029151,
            "lng": -73.9779499197085
          },
          "southwest": {
            "lat": 40.66673946970851,
            "lng": -73.9806478802915
          }
        }
      },
      "icon": "https://maps.gstatic.com/mapfiles/place_api/icons/v1/png_71/generic_business-71.png",
      "icon_background_color": "#7B9EB0",
      "icon_mask_base_uri": "https://maps.gstatic.com/mapfiles/place_api/icons/v2/generic_pinlet",
      "name": "Steven H. Silber, MS, DO, MHCM",
      "photos": [
        {
          "height": 792,
          "html_attributions": [
            "<a href=\"https://maps.google.com/maps/contrib/115423628283171739180\">Steven H. Silber, MS, DO, MHCM</a>"
          ],
          "photo_reference": "AeJbb3epRu4jLDrEdn-paP1g2Zp1lWiiCfvGgvsZ_PK76i4Seaun9YOdtPJtLKu6enZ-1ZP-25jGGzkDhLht3ohjM0XwsnEL32x0220_1iqNGOzrT_p7MMvAJD9FuyJ3Lwyu6edjdgMSEQ228RLK63iXd3cz56GG9GXtPanzyXSAQq4CjUWN",
          "width": 576
        }
      ],
      "place_id": "ChIJk7pgcwNbwokR8SsnECE28gA",
      "plus_code": {
        "compound_code": "M29C+55 Brooklyn, NY, USA",
        "global_code": "87G8M29C+55"
      },
      "reference": "ChIJk7pgcwNbwokR8SsnECE28gA",
      "scope": "GOOGLE",
      "types": [
        "doctor",
        "health",
        "point_of_interest",
        "establishment"
      ],
      "vicinity": "506 6th Street, Brooklyn"
    },
    {
      "business_status": "OPERATIONAL",
      "geometry": {
        "location": {
          "lat": 40.6679815,
          "lng": -73.97941759999999
        },
        "viewport": {
          "northeast": {
            "lat": 40.66946113029151,
            "lng": -73.97790196970848
          },
          "southwest": {
            "lat": 40.66676316970851,
            "lng": -73.9805999302915
          }
        }
      },
      "icon": "https://maps.gstatic.com/mapfiles/place_api/icons/v1/png_71/generic_business-71.png",
      "icon_background_color": "#7B9EB0",
      "icon_mask_base_uri": "https://maps.gstatic.com/mapfiles/place_api/icons/v2/generic_pinlet",
      "name": "Peter Brzechffa, MD, FACOG",
      "place_id": "ChIJk7pgcwNbwokR3q86ZiNf0AA",
      "plus_code": {
        "compound_code": "M29C+56 Brooklyn, NY, USA",
        "global_code": "87G8M29C+56"
      },
      "rating": 5,
      "reference": "ChIJk7pgcwNbwokR3q86ZiNf0AA",
      "scope": "GOOGLE",
      "types": [
        "doctor",
        "health",
        "point_of_interest",
        "establishment"
      ],
      "user_ratings_total": 4,
      "vicinity": "506 6th Street, Brooklyn"
    },
    {
      "business_status": "OPERATIONAL",
      "geometry": {
        "location": {
          "lat": 40.6681096,
          "lng": -73.97921529999999
        },
        "viewport": {
          "northeast": {
            "lat": 40.6695223302915,
            "lng": -73.97780081970849
          },
          "southwest": {
            "lat": 40.66682436970851,
            "lng": -73.9804987802915
          }
        }
      },
      "icon": "https://maps.gstatic.com/mapfiles/place_api/icons/v1/png_71/generic_business-71.png",
      "icon_background_color": "#7B9EB0",
      "icon_mask_base_uri": "https://maps.gstatic.com/mapfiles/place_api/icons/v2/generic_pinlet",
      "name": "Dr. Olivia Lopez, MD",
      "place_id": "ChIJk7pgcwNbwokRPBEqmndX_Do",
      "plus_code": {
        "compound_code": "M29C+68 Brooklyn, NY, USA",
        "global_code": "87G8M29C+68"
      },
      "reference": "ChIJk7pgcwNbwokRPBEqmndX_Do",
      "scope": "GOOGLE",
      "types": [
        "doctor",
        "health",
        "point_of_interest",
        "establishment"
      ],
      "vicinity": "506 6th Street, Brooklyn"
    },
    {
      "business_status": "OPERATIONAL",
      "geometry": {
        "location": {
          "lat": 40.6679341,
          "lng": -73.9795135
        },
        "viewport": {
          "northeast": {
            "lat": 40.66943743029151,
            "lng": -73.9779499197085
          },
          "southwest": {
            "lat": 40.66673946970851,
            "lng": -73.9806478802915
          }
        }
      },
      "icon": "https://maps.gstatic.com/mapfiles/place_api/icons/v1/png_71/generic_business-71.png",
      "icon_background_color": "#7B9EB0",
      "icon_mask_base_uri": "https://maps.gstatic.com/mapfiles/place_api/icons/v2/generic_pinlet",
      "name": "Anandarao Nanarao MD",
      "place_id": "ChIJk7pgcwNbwokRlkkwLrAi95s",
      "plus_code": {
        "compound_code": "M29C+55 Brooklyn, NY, USA",
        "global_code": "87G8M29C+55"
      },
      "reference": "ChIJk7pgcwNbwokRlkkwLrAi95s",
      "scope": "GOOGLE",
      "types": [
        "doctor",
        "health",
        "point_of_interest",
        "establishment"
      ],
      "vicinity": "506 6th Street, Brooklyn"
    },
    {
      "business_status": "OPERATIONAL",
      "geometry": {
        "location": {
          "lat": 40.6681096,
          "lng": -73.97921529999999
        },
        "viewport": {
          "northeast": {
            "lat": 40.6695223302915,
            "lng": -73.97780081970849
          },
          "southwest": {
            "lat": 40.66682436970851,
            "lng": -73.9804987802915
          }
        }
      },
      "icon": "https://maps.gstatic.com/mapfiles/place_api/icons/v1/png_71/generic_business-71.png",
      "icon_background_color": "#7B9EB0",
      "icon_mask_base_uri": "https://maps.gstatic.com/mapfiles/place_api/icons/v2/generic_pinlet",
      "name": "Leo Paul J MD",
      "place_id": "ChIJk7pgcwNbwokRKX_7BUJznyM",
      "plus_code": {
        "compound_code": "M29C+68 Brooklyn, NY, USA",
        "global_code": "87G8M29C+68"
      },
      "reference": "ChIJk7pgcwNbwokRKX_7BUJznyM",
      "scope": "GOOGLE",
      "types": [
        "doctor",
        "health",
        "point_of_interest",
        "establishment"
      ],
      "vicinity": "506 6th Street, Brooklyn"
    },
    {
      "business_status": "OPERATIONAL",
      "geometry": {
        "location": {
          "lat": 40.6679815,
          "lng": -73.97941759999999
        },
        "viewport": {
          "northeast": {
            "lat": 40.66946113029151,
            "lng": -73.97790196970848
          },
          "southwest": {
            "lat": 40.66676316970851,
            "lng": -73.9805999302915
          }
        }
      },
      "icon": "https://maps.gstatic.com/mapfiles/place_api/icons/v1/png_71/generic_business-71.png",
      "icon_background_color": "#7B9EB0",
      "icon_mask_base_uri": "https://maps.gstatic.com/mapfiles/place_api/icons/v2/generic_pinlet",
      "name": "Revathy Sundaram, M.D.",
      "place_id": "ChIJk7pgcwNbwokRvmo7UJ8UIVQ",
      "plus_code": {
        "compound_code": "M29C+56 Brooklyn, NY, USA",
        "global_code": "87G8M29C+56"
      },
      "rating": 5,
      "reference": "ChIJk7pgcwNbwokRvmo7UJ8UIVQ",
      "scope": "GOOGLE",
      "types": [
        "doctor",
        "health",
        "point_of_interest",
        "establishment"
      ],
      "user_ratings_total": 4,
      "vicinity": "506 6th Street, Brooklyn"
    },
    {
      "business_status": "OPERATIONAL",
      "geometry": {
        "location": {
          "lat": 40.6681096,
          "lng": -73.97921529999999
        },
        "viewport": {
          "northeast": {
            "lat": 40.6695223302915,
            "lng": -73.97780081970849
          },
          "southwest": {
            "lat": 40.66682436970851,
            "lng": -73.9804987802915
          }
        }
      },
      "icon": "https://maps.gstatic.com/mapfiles/place_api/icons/v1/png_71/generic_business-71.png",
      "icon_background_color": "#7B9EB0",
      "icon_mask_base_uri": "https://maps.gstatic.com/mapfiles/place_api/icons/v2/generic_pinlet",
      "name": "Dr. Holly Thompson, MD",
      "place_id": "ChIJk7pgcwNbwokRgmQQzZ_MMKM",
      "plus_code": {
        "compound_code": "M29C+68 Brooklyn, NY, USA",
        "global_code": "87G8M29C+68"
      },
      "rating": 3.7,
      "reference": "ChIJk7pgcwNbwokRgmQQzZ_MMKM",
      "scope": "GOOGLE",
      "types": [
        "doctor",
        "health",
        "point_of_interest",
        "establishment"
      ],
      "user_ratings_total": 3,
      "vicinity": "506 6th Street, Brooklyn"
    },
    {
      "business_status": "OPERATIONAL",
      "geometry": {
        "location": {
          "lat": 40.6681096,
          "lng": -73.97921529999999
        },
        "viewport": {
          "northeast": {
            "lat": 40.6695223302915,
            "lng": -73.97780081970849
          },
          "southwest": {
            "lat": 40.66682436970851,
            "lng": -73.9804987802915
          }
        }
      },
      "icon": "https://maps.gstatic.com/mapfiles/place_api/icons/v1/png_71/generic_business-71.png",
      "icon_background_color": "#7B9EB0",
      "icon_mask_base_uri": "https://maps.gstatic.com/mapfiles/place_api/icons/v2/generic_pinlet",
      "name": "Annette M. Visconti, M.D.",
      "place_id": "ChIJk7pgcwNbwokRVX_cZgMhaCI",
      "plus_code": {
        "compound_code": "M29C+68 Brooklyn, NY, USA",
        "global_code": "87G8M29C+68"
      },
      "reference": "ChIJk7pgcwNbwokRVX_cZgMhaCI",
      "scope": "GOOGLE",
      "types": [
        "doctor",
        "health",
        "point_of_interest",
        "establishment"
      ],
      "vicinity": "506 6th Street, Brooklyn"
    },
    {
      "business_status": "OPERATIONAL",
      "geometry": {
        "location": {
          "lat": 40.6681096,
          "lng": -73.97921529999999
        },
        "viewport": {
          "northeast": {
            "lat": 40.6695223302915,
            "lng": -73.97780081970849
          },
          "southwest": {
            "lat": 40.66682436970851,
            "lng": -73.9804987802915
          }
        }
      },
      "icon": "https://maps.gstatic.com/mapfiles/place_api/icons/v1/png_71/generic_business-71.png",
      "icon_background_color": "#7B9EB0",
      "icon_mask_base_uri": "https://maps.gstatic.com/mapfiles/place_api/icons/v2/generic_pinlet",
      "name": "Dr. Igor Mamkin, MD",
      "place_id": "ChIJk7pgcwNbwokROo5M6F5zSDY",
      "plus_code": {
        "compound_code": "M29C+68 Brooklyn, NY, USA",
        "global_code": "87G8M29C+68"
      },
      "rating": 5,
      "reference": "ChIJk7pgcwNbwokROo5M6F5zSDY",
      "scope": "GOOGLE",
      "types": [
        "doctor",
        "health",
        "point_of_interest",
        "establishment"
      ],
      "user_ratings_total": 2,
      "vicinity": "506 6th Street, Brooklyn"
    },
    {
      "business_status": "OPERATIONAL",
      "geometry": {
        "location": {
          "lat": 40.6681096,
          "lng": -73.97921529999999
        },
        "viewport": {
          "northeast": {
            "lat": 40.6695223302915,
            "lng": -73.97780081970849
          },
          "southwest": {
            "lat": 40.66682436970851,
            "lng": -73.9804987802915
          }
        }
      },
      "icon": "https://maps.gstatic.com/mapfiles/place_api/icons/v1/png_71/generic_business-71.png",
      "icon_background_color": "#7B9EB0",
      "icon_mask_base_uri": "https://maps.gstatic.com/mapfiles/place_api/icons/v2/generic_pinlet",
      "name": "Dr. Robert H. Vanamerongen, MD",
      "place_id": "ChIJk7pgcwNbwokRMxItsVEBZTQ",
      "plus_code": {
        "compound_code": "M29C+68 Brooklyn, NY, USA",
        "global_code": "87G8M29C+68"
      },
      "reference": "ChIJk7pgcwNbwokRMxItsVEBZTQ",
      "scope": "GOOGLE",
      "types": [
        "doctor",
        "health",
        "point_of_interest",
        "establishment"
      ],
      "vicinity": "506 6th Street, Brooklyn"
    },
    {
      "business_status": "OPERATIONAL",
      "geometry": {
        "location": {
          "lat": 40.6681096,
          "lng": -73.97921529999999
        },
        "viewport": {
          "northeast": {
            "lat": 40.6695223302915,
            "lng": -73.97780081970849
          },
          "southwest": {
            "lat": 40.66682436970851,
            "lng": -73.9804987802915
          }
        }
      },
      "icon": "https://maps.gstatic.com/mapfiles/place_api/icons/v1/png_71/generic_business-71.png",
      "icon_background_color": "#7B9EB0",
      "icon_mask_base_uri": "https://maps.gstatic.com/mapfiles/place_api/icons/v2/generic_pinlet",
      "name": "Dr. Amy Lazarides, MD",
      "place_id": "ChIJk7pgcwNbwokRuLn_NPoQ0mw",
      "plus_code": {
        "compound_code": "M29C+68 Brooklyn, NY, USA",
        "global_code": "87G8M29C+68"
      },
      "reference": "ChIJk7pgcwNbwokRuLn_NPoQ0mw",
      "scope": "GOOGLE",
      "types": [
        "doctor",
        "health",
        "point_of_interest",
        "establishment"
      ],
      "vicinity": "506 6th Street, Brooklyn"
    },
    {
      "business_status": "OPERATIONAL",
      "geometry": {
        "location": {
          "lat": 40.6679815,
          "lng": -73.97941759999999
        },
        "viewport": {
          "northeast": {
            "lat": 40.66946113029151,
            "lng": -73.97790196970848
          },
          "southwest": {
            "lat": 40.66676316970851,
            "lng": -73.9805999302915
          }
        }
      },
      "icon": "https://maps.gstatic.com/mapfiles/place_api/icons/v1/png_71/generic_business-71.png",
      "icon_background_color": "#7B9EB0",
      "icon_mask_base_uri": "https://maps.gstatic.com/mapfiles/place_api/icons/v2/generic_pinlet",
      "name": "Chava Shefer, MD",
      "place_id": "ChIJk7pgcwNbwokRtgWY_j3reZU",
      "plus_code": {
        "compound_code": "M29C+56 Brooklyn, NY, USA",
        "global_code": "87G8M29C+56"
      },
      "reference": "ChIJk7pgcwNbwokRtgWY_j3reZU",
      "scope": "GOOGLE",
      "types": [
        "doctor",
        "health",
        "point_of_interest",
        "establishment"
      ],
      "vicinity": "506 6th Street, Brooklyn"
    },
    {
      "business_status": "OPERATIONAL",
      "geometry": {
        "location": {
          "lat": 40.6681096,
          "lng": -73.97921529999999
        },
        "viewport": {
          "northeast": {
            "lat": 40.6695223302915,
            "lng": -73.97780081970849
          },
          "southwest": {
            "lat": 40.66682436970851,
            "lng": -73.9804987802915
          }
        }
      },
      "icon": "https://maps.gstatic.com/mapfiles/place_api/icons/v1/png_71/generic_business-71.png",
      "icon_background_color": "#7B9EB0",
      "icon_mask_base_uri": "https://maps.gstatic.com/mapfiles/place_api/icons/v2/generic_pinlet",
      "name": "Dr. Christine C. Yang-Kauh, MD",
      "place_id": "ChIJk7pgcwNbwokRN1YTzTgynX8",
      "plus_code": {
        "compound_code": "M29C+68 Brooklyn, NY, USA",
        "global_code": "87G8M29C+68"
      },
      "reference": "ChIJk7pgcwNbwokRN1YTzTgynX8",
      "scope": "GOOGLE",
      "types": [
        "doctor",
        "health",
        "point_of_interest",
        "establishment"
      ],
      "vicinity": "506 6th Street, Brooklyn"
    },
    {
      "business_status": "OPERATIONAL",
      "geometry": {
        "location": {
          "lat": 40.6681096,
          "lng": -73.97921529999999
        },
        "viewport": {
          "northeast": {
            "lat": 40.6695223302915,
            "lng": -73.97780081970849
          },
          "southwest": {
            "lat": 40.66682436970851,
            "lng": -73.9804987802915
          }
        }
      },
      "icon": "https://maps.gstatic.com/mapfiles/place_api/icons/v1/png_71/generic_business-71.png",
      "icon_background_color": "#7B9EB0",
      "icon_mask_base_uri": "https://maps.gstatic.com/mapfiles/place_api/icons/v2/generic_pinlet",
      "name": "Dr. Neil Hadpawat, MD",
      "place_id": "ChIJk7pgcwNbwokRkYNPB_oNTTA",
      "plus_code": {
        "compound_code": "M29C+68 Brooklyn, NY, USA",
        "global_code": "87G8M29C+68"
      },
      "reference": "ChIJk7pgcwNbwokRkYNPB_oNTTA",
      "scope": "GOOGLE",
      "types": [
        "doctor",
        "health",
        "point_of_interest",
        "establishment"
      ],
      "vicinity": "506 6th Street, Brooklyn"
    },
    {
      "business_status": "OPERATIONAL",
      "geometry": {
        "location": {
          "lat": 40.6681096,
          "lng": -73.97921529999999
        },
        "viewport": {
          "northeast": {
            "lat": 40.6695223302915,
            "lng": -73.97780081970849
          },
          "southwest": {
            "lat": 40.66682436970851,
            "lng": -73.9804987802915
          }
        }
      },
      "icon": "https://maps.gstatic.com/mapfiles/place_api/icons/v1/png_71/generic_business-71.png",
      "icon_background_color": "#7B9EB0",
      "icon_mask_base_uri": "https://maps.gstatic.com/mapfiles/place_api/icons/v2/generic_pinlet",
      "name": "Dr. Ronald A. Kester, MD",
      "place_id": "ChIJk7pgcwNbwokR2bzhWQ8YD38",
      "plus_code": {
        "compound_code": "M29C+68 Brooklyn, NY, USA",
        "global_code": "87G8M29C+68"
      },
      "reference": "ChIJk7pgcwNbwokR2bzhWQ8YD38",
      "scope": "GOOGLE",
      "types": [
        "doctor",
        "health",
        "point_of_interest",
        "establishment"
      ],
      "vicinity": "506 6th Street, Brooklyn"
    },
    {
      "business_status": "OPERATIONAL",
      "geometry": {
        "location": {
          "lat": 40.66893749999999,
          "lng": -73.9795619
        },
        "viewport": {
          "northeast": {
            "lat": 40.67033483029149,
            "lng": -73.97831551970849
          },
          "southwest": {
            "lat": 40.6676368697085,
            "lng": -73.98101348029151
          }
        }
      },
      "icon": "https://maps.gstatic.com/mapfiles/place_api/icons/v1/png_71/generic_business-71.png",
      "icon_background_color": "#7B9EB0",
      "icon_mask_base_uri": "https://maps.gstatic.com/mapfiles/place_api/icons/v2/generic_pinlet",
      "name": "Conner David S MD",
      "place_id": "ChIJK9jQswNbwokRHIbxnDjLLuM",
      "plus_code": {
        "compound_code": "M29C+H5 Brooklyn, NY, USA",
        "global_code": "87G8M29C+H5"
      },
      "reference": "ChIJK9jQswNbwokRHIbxnDjLLuM",
      "scope": "GOOGLE",
      "types": [
        "doctor",
        "health",
        "point_of_interest",
        "establishment"
      ],
      "vicinity": "263 7th Avenue # 5A, Brooklyn"
    },
    {
      "business_status": "OPERATIONAL",
      "geometry": {
        "location": {
          "lat": 40.66893749999999,
          "lng": -73.9795619
        },
        "viewport": {
          "northeast": {
            "lat": 40.6702011302915,
            "lng": -73.9780953197085
          },
          "southwest": {
            "lat": 40.6675031697085,
            "lng": -73.98079328029151
          }
        }
      },
      "icon": "https://maps.gstatic.com/mapfiles/place_api/icons/v1/png_71/generic_business-71.png",
      "icon_background_color": "#7B9EB0",
      "icon_mask_base_uri": "https://maps.gstatic.com/mapfiles/place_api/icons/v2/generic_pinlet",
      "name": "Shahin Nouri, MD",
      "photos": [
        {
          "height": 2400,
          "html_attributions": [
            "<a href=\"https://maps.google.com/maps/contrib/111188562636726339649\">Shahin Nouri, MD</a>"
          ],
          "photo_reference": "AeJbb3eFO_xQdRfYjNFXLsvqa8yrR1OObfYeHQ5LkxEHC-AyhoGKq_iJzK4Q-trWA7wDAXSt65MrR3rgw6iYumoI6btxmNNM5rR_wbrFTPEygbLX84eLPlh4xnZmgdWIBYVS-B5RSb_NMgsFDSUHj3iQjsM2s-YD7XiWmAsQQ3eZ_RerNBbG",
          "width": 2400
        }
      ],
      "place_id": "ChIJK9jQswNbwokRnDoiNf0DyQQ",
      "plus_code": {
        "compound_code": "M29C+H5 New York, NY, USA",
        "global_code": "87G8M29C+H5"
      },
      "rating": 2.7,
      "reference": "ChIJK9jQswNbwokRnDoiNf0DyQQ",
      "scope": "GOOGLE",
      "types": [
        "doctor",
        "health",
        "point_of_interest",
        "establishment"
      ],
      "user_ratings_total": 3,
      "vicinity": "263 7th Avenue, Brooklyn"
    },
    {
      "business_status": "OPERATIONAL",
      "geometry": {
        "location": {
          "lat": 40.6677575,
          "lng": -73.9838702
        },
        "viewport": {
          "northeast": {
            "lat": 40.6691415302915,
            "lng": -73.98238616970849
          },
          "southwest": {
            "lat": 40.6664435697085,
            "lng": -73.9850841302915
          }
        }
      },
      "icon": "https://maps.gstatic.com/mapfiles/place_api/icons/v1/png_71/bar-71.png",
      "icon_background_color": "#FF9E67",
      "icon_mask_base_uri": "https://maps.gstatic.com/mapfiles/place_api/icons/v2/bar_pinlet",
      "name": "Barb\u00e8s",
      "opening_hours": {
        "open_now": false
      },
      "photos": [
        {
          "height": 3024,
          "html_attributions": [
            "<a href=\"https://maps.google.com/maps/contrib/102041592903890540336\">Larry Rubin</a>"
          ],
          "photo_reference": "AeJbb3coNPahpbYazgfCJ2dSD3S3AdWZSRWWyGdli2ZSWjmre6Q7RzwjrUvWggBS8w4EEySJ3zfQbZ154tAbtCSSB48LGl6BWvA1KeGUM5zl3QjI17VW6GYfc4-te_ub_FB-Iqtt_Ylb_5c0bw2ELFVYElXc3ZqxUW2t4rOA4XE4vhpT-_8m",
          "width": 4032
        }
      ],
      "place_id": "ChIJKWlob_1awokRdCtsFyyvH_Y",
      "plus_code": {
        "compound_code": "M298+4F Brooklyn, NY, USA",
        "global_code": "87G8M298+4F"
      },
      "price_level": 2,
      "rating": 4.7,
      "reference": "ChIJKWlob_1awokRdCtsFyyvH_Y",
      "scope": "GOOGLE",
      "types": [
        "bar",
        "liquor_store",
        "store",
        "food",
        "point_of_interest",
        "establishment"
      ],
      "user_ratings_total": 599,
      "vicinity": "376 9th Street, Brooklyn"
    },
    {
      "business_status": "OPERATIONAL",
      "geometry": {
        "location": {
          "lat": 40.6678362,
          "lng": -73.97912989999999
        },
        "viewport": {
          "northeast": {
            "lat": 40.6693884802915,
            "lng": -73.97779386970848
          },
          "southwest": {
            "lat": 40.6666905197085,
            "lng": -73.9804918302915
          }
        }
      },
      "icon": "https://maps.gstatic.com/mapfiles/place_api/icons/v1/png_71/generic_business-71.png",
      "icon_background_color": "#7B9EB0",
      "icon_mask_base_uri": "https://maps.gstatic.com/mapfiles/place_api/icons/v2/generic_pinlet",
      "name": "Dr. Desh B. Sharma, MD",
      "place_id": "ChIJk7pgcwNbwokRe_EZpcCk2H8",
      "plus_code": {
        "compound_code": "M29C+48 Brooklyn, NY, USA",
        "global_code": "87G8M29C+48"
      },
      "reference": "ChIJk7pgcwNbwokRe_EZpcCk2H8",
      "scope": "GOOGLE",
      "types": [
        "doctor",
        "health",
        "point_of_interest",
        "establishment"
      ],
      "vicinity": "506 6th Street, Brooklyn"
    },
    {
      "business_status": "OPERATIONAL",
      "geometry": {
        "location": {
          "lat": 40.6681096,
          "lng": -73.97921529999999
        },
        "viewport": {
          "northeast": {
            "lat": 40.6695223302915,
            "lng": -73.97780081970849
          },
          "southwest": {
            "lat": 40.66682436970851,
            "lng": -73.9804987802915
          }
        }
      },
      "icon": "https://maps.gstatic.com/mapfiles/place_api/icons/v1/png_71/generic_business-71.png",
      "icon_background_color": "#7B9EB0",
      "icon_mask_base_uri": "https://maps.gstatic.com/mapfiles/place_api/icons/v2/generic_pinlet",
      "name": "Dr. David T. Dennihy, MD",
      "place_id": "ChIJk7pgcwNbwokRwbBYg2WCkRU",
      "plus_code": {
        "compound_code": "M29C+68 Brooklyn, NY, USA",
        "global_code": "87G8M29C+68"
      },
      "reference": "ChIJk7pgcwNbwokRwbBYg2WCkRU",
      "scope": "GOOGLE",
      "types": [
        "doctor",
        "health",
        "point_of_interest",
        "establishment"
      ],
      "vicinity": "506 6th Street, Brooklyn"
    },
    {
      "business_status": "OPERATIONAL",
      "geometry": {
        "location": {
          "lat": 40.6677243,
          "lng": -73.9788366
        },
        "viewport": {
          "northeast": {
            "lat": 40.66933253029151,
            "lng": -73.97767001970848
          },
          "southwest": {
            "lat": 40.66663456970851,
            "lng": -73.9803679802915
          }
        }
      },
      "icon": "https://maps.gstatic.com/mapfiles/place_api/icons/v1/png_71/generic_business-71.png",
      "icon_background_color": "#7B9EB0",
      "icon_mask_base_uri": "https://maps.gstatic.com/mapfiles/place_api/icons/v2/generic_pinlet",
      "name": "Dr. Jonathan D. Weinberg, MD",
      "place_id": "ChIJk7pgcwNbwokR58U_IcsFoVI",
      "plus_code": {
        "compound_code": "M29C+3F Brooklyn, NY, USA",
        "global_code": "87G8M29C+3F"
      },
      "reference": "ChIJk7pgcwNbwokR58U_IcsFoVI",
      "scope": "GOOGLE",
      "types": [
        "doctor",
        "health",
        "point_of_interest",
        "establishment"
      ],
      "vicinity": "506 6th Street, Brooklyn"
    },
    {
      "business_status": "OPERATIONAL",
      "geometry": {
        "location": {
          "lat": 40.6678131,
          "lng": -73.97897510000001
        },
        "viewport": {
          "northeast": {
            "lat": 40.66937693029151,
            "lng": -73.9777392697085
          },
          "southwest": {
            "lat": 40.66667896970851,
            "lng": -73.98043723029151
          }
        }
      },
      "icon": "https://maps.gstatic.com/mapfiles/place_api/icons/v1/png_71/generic_business-71.png",
      "icon_background_color": "#7B9EB0",
      "icon_mask_base_uri": "https://maps.gstatic.com/mapfiles/place_api/icons/v2/generic_pinlet",
      "name": "Harvey Dosik, M.D., M.A.C.P.",
      "place_id": "ChIJk7pgcwNbwokRJDo4-7pO40A",
      "plus_code": {
        "compound_code": "M29C+4C Brooklyn, NY, USA",
        "global_code": "87G8M29C+4C"
      },
      "reference": "ChIJk7pgcwNbwokRJDo4-7pO40A",
      "scope": "GOOGLE",
      "types": [
        "doctor",
        "health",
        "point_of_interest",
        "establishment"
      ],
      "vicinity": "506 6th Street, Brooklyn"
    },
    {
      "business_status": "OPERATIONAL",
      "geometry": {
        "location": {
          "lat": 40.6677243,
          "lng": -73.9788366
        },
        "viewport": {
          "northeast": {
            "lat": 40.66933253029151,
            "lng": -73.97767001970848
          },
          "southwest": {
            "lat": 40.66663456970851,
            "lng": -73.9803679802915
          }
        }
      },
      "icon": "https://maps.gstatic.com/mapfiles/place_api/icons/v1/png_71/generic_business-71.png",
      "icon_background_color": "#7B9EB0",
      "icon_mask_base_uri": "https://maps.gstatic.com/mapfiles/place_api/icons/v2/generic_pinlet",
      "name": "Vaccari Nicholas J MD",
      "place_id": "ChIJk7pgcwNbwokRuVxUterDRmE",
      "plus_code": {
        "compound_code": "M29C+3F Brooklyn, NY, USA",
        "global_code": "87G8M29C+3F"
      },
      "rating": 5,
      "reference": "ChIJk7pgcwNbwokRuVxUterDRmE",
      "scope": "GOOGLE",
      "types": [
        "doctor",
        "health",
        "point_of_interest",
        "establishment"
      ],
      "user_ratings_total": 1,
      "vicinity": "506 6th Street, Brooklyn"
    },
    {
      "business_status": "OPERATIONAL",
      "geometry": {
        "location": {
          "lat": 40.6677243,
          "lng": -73.9788366
        },
        "viewport": {
          "northeast": {
            "lat": 40.66933253029151,
            "lng": -73.97767001970848
          },
          "southwest": {
            "lat": 40.66663456970851,
            "lng": -73.9803679802915
          }
        }
      },
      "icon": "https://maps.gstatic.com/mapfiles/place_api/icons/v1/png_71/generic_business-71.png",
      "icon_background_color": "#7B9EB0",
      "icon_mask_base_uri": "https://maps.gstatic.com/mapfiles/place_api/icons/v2/generic_pinlet",
      "name": "New York Methodist Hospital: Moktan Sabita MD",
      "place_id": "ChIJk7pgcwNbwokRWyfPkA62zGk",
      "plus_code": {
        "compound_code": "M29C+3F Brooklyn, NY, USA",
        "global_code": "87G8M29C+3F"
      },
      "rating": 5,
      "reference": "ChIJk7pgcwNbwokRWyfPkA62zGk",
      "scope": "GOOGLE",
      "types": [
        "doctor",
        "health",
        "point_of_interest",
        "establishment"
      ],
      "user_ratings_total": 3,
      "vicinity": "506 6th Street, Brooklyn"
    },
    {
      "business_status": "OPERATIONAL",
      "geometry": {
        "location": {
          "lat": 40.6677243,
          "lng": -73.9788366
        },
        "viewport": {
          "northeast": {
            "lat": 40.66933253029151,
            "lng": -73.97767001970848
          },
          "southwest": {
            "lat": 40.66663456970851,
            "lng": -73.9803679802915
          }
        }
      },
      "icon": "https://maps.gstatic.com/mapfiles/place_api/icons/v1/png_71/generic_business-71.png",
      "icon_background_color": "#7B9EB0",
      "icon_mask_base_uri": "https://maps.gstatic.com/mapfiles/place_api/icons/v2/generic_pinlet",
      "name": "New York Methodist Hospital: Parul Jain DDS",
      "place_id": "ChIJk7pgcwNbwokRjOHJX_jANlY",
      "plus_code": {
        "compound_code": "M29C+3F Brooklyn, NY, USA",
        "global_code": "87G8M29C+3F"
      },
      "rating": 1,
      "reference": "ChIJk7pgcwNbwokRjOHJX_jANlY",
      "scope": "GOOGLE",
      "types": [
        "dentist",
        "health",
        "point_of_interest",
        "establishment"
      ],
      "user_ratings_total": 2,
      "vicinity": "506 6th Street, Brooklyn"
    },
    {
      "business_status": "OPERATIONAL",
      "geometry": {
        "location": {
          "lat": 40.6677243,
          "lng": -73.9788366
        },
        "viewport": {
          "northeast": {
            "lat": 40.66933253029151,
            "lng": -73.97767001970848
          },
          "southwest": {
            "lat": 40.66663456970851,
            "lng": -73.9803679802915
          }
        }
      },
      "icon": "https://maps.gstatic.com/mapfiles/place_api/icons/v1/png_71/generic_business-71.png",
      "icon_background_color": "#7B9EB0",
      "icon_mask_base_uri": "https://maps.gstatic.com/mapfiles/place_api/icons/v2/generic_pinlet",
      "name": "Chhabra Manoj MD",
      "place_id": "ChIJk7pgcwNbwokRjDkLWlt6gsk",
      "plus_code": {
        "compound_code": "M29C+3F Brooklyn, NY, USA",
        "global_code": "87G8M29C+3F"
      },
      "rating": 5,
      "reference": "ChIJk7pgcwNbwokRjDkLWlt6gsk",
      "scope": "GOOGLE",
      "types": [
        "doctor",
        "health",
        "point_of_interest",
        "establishment"
      ],
      "user_ratings_total": 2,
      "vicinity": "506 6th Street, Brooklyn"
    },
    {
      "business_status": "OPERATIONAL",
      "geometry": {
        "location": {
          "lat": 40.6677243,
          "lng": -73.9788366
        },
        "viewport": {
          "northeast": {
            "lat": 40.66933253029151,
            "lng": -73.97767001970848
          },
          "southwest": {
            "lat": 40.66663456970851,
            "lng": -73.9803679802915
          }
        }
      },
      "icon": "https://maps.gstatic.com/mapfiles/place_api/icons/v1/png_71/generic_business-71.png",
      "icon_background_color": "#7B9EB0",
      "icon_mask_base_uri": "https://maps.gstatic.com/mapfiles/place_api/icons/v2/generic_pinlet",
      "name": "Dr. Gioia Turitto, MD",
      "place_id": "ChIJk7pgcwNbwokRtw1096vc87g",
      "plus_code": {
        "compound_code": "M29C+3F Brooklyn, NY, USA",
        "global_code": "87G8M29C+3F"
      },
      "rating": 4,
      "reference": "ChIJk7pgcwNbwokRtw1096vc87g",
      "scope": "GOOGLE",
      "types": [
        "doctor",
        "health",
        "point_of_interest",
        "establishment"
      ],
      "user_ratings_total": 3,
      "vicinity": "506 6th Street, Brooklyn"
    },
    {
      "business_status": "OPERATIONAL",
      "geometry": {
        "location": {
          "lat": 40.6678717,
          "lng": -73.9786866
        },
        "viewport": {
          "northeast": {
            "lat": 40.66940623029151,
            "lng": -73.97759501970849
          },
          "southwest": {
            "lat": 40.66670826970851,
            "lng": -73.9802929802915
          }
        }
      },
      "icon": "https://maps.gstatic.com/mapfiles/place_api/icons/v1/png_71/generic_business-71.png",
      "icon_background_color": "#7B9EB0",
      "icon_mask_base_uri": "https://maps.gstatic.com/mapfiles/place_api/icons/v2/generic_pinlet",
      "name": "Dr. Barry I. Saul, MD",
      "place_id": "ChIJk7pgcwNbwokRvxtsfLsR8Sk",
      "plus_code": {
        "compound_code": "M29C+4G Brooklyn, NY, USA",
        "global_code": "87G8M29C+4G"
      },
      "reference": "ChIJk7pgcwNbwokRvxtsfLsR8Sk",
      "scope": "GOOGLE",
      "types": [
        "doctor",
        "health",
        "point_of_interest",
        "establishment"
      ],
      "vicinity": "506 6th Street, Brooklyn"
    },
    {
      "business_status": "OPERATIONAL",
      "geometry": {
        "location": {
          "lat": 40.6677243,
          "lng": -73.9788366
        },
        "viewport": {
          "northeast": {
            "lat": 40.66933253029151,
            "lng": -73.97767001970848
          },
          "southwest": {
            "lat": 40.66663456970851,
            "lng": -73.9803679802915
          }
        }
      },
      "icon": "https://maps.gstatic.com/mapfiles/place_api/icons/v1/png_71/generic_business-71.png",
      "icon_background_color": "#7B9EB0",
      "icon_mask_base_uri": "https://maps.gstatic.com/mapfiles/place_api/icons/v2/generic_pinlet",
      "name": "Van Voorhees Jessica B MD",
      "place_id": "ChIJk7pgcwNbwokRzeTUgI_wTiw",
      "plus_code": {
        "compound_code": "M29C+3F Brooklyn, NY, USA",
        "global_code": "87G8M29C+3F"
      },
      "reference": "ChIJk7pgcwNbwokRzeTUgI_wTiw",
      "scope": "GOOGLE",
      "types": [
        "doctor",
        "health",
        "point_of_interest",
        "establishment"
      ],
      "vicinity": "506 6th Street, Brooklyn"
    },
    {
      "business_status": "OPERATIONAL",
      "geometry": {
        "location": {
          "lat": 40.6677243,
          "lng": -73.9788366
        },
        "viewport": {
          "northeast": {
            "lat": 40.66933253029151,
            "lng": -73.97767001970848
          },
          "southwest": {
            "lat": 40.66663456970851,
            "lng": -73.9803679802915
          }
        }
      },
      "icon": "https://maps.gstatic.com/mapfiles/place_api/icons/v1/png_71/generic_business-71.png",
      "icon_background_color": "#7B9EB0",
      "icon_mask_base_uri": "https://maps.gstatic.com/mapfiles/place_api/icons/v2/generic_pinlet",
      "name": "Portillo Jr Arturo MD",
      "place_id": "ChIJk7pgcwNbwokR2tnnG0hiu-M",
      "plus_code": {
        "compound_code": "M29C+3F Brooklyn, NY, USA",
        "global_code": "87G8M29C+3F"
      },
      "reference": "ChIJk7pgcwNbwokR2tnnG0hiu-M",
      "scope": "GOOGLE",
      "types": [
        "doctor",
        "health",
        "point_of_interest",
        "establishment"
      ],
      "vicinity": "506 6th Street, Brooklyn"
    },
    {
      "business_status": "OPERATIONAL",
      "geometry": {
        "location": {
          "lat": 40.6677243,
          "lng": -73.9788366
        },
        "viewport": {
          "northeast": {
            "lat": 40.66933253029151,
            "lng": -73.97767001970848
          },
          "southwest": {
            "lat": 40.66663456970851,
            "lng": -73.9803679802915
          }
        }
      },
      "icon": "https://maps.gstatic.com/mapfiles/place_api/icons/v1/png_71/generic_business-71.png",
      "icon_background_color": "#7B9EB0",
      "icon_mask_base_uri": "https://maps.gstatic.com/mapfiles/place_api/icons/v2/generic_pinlet",
      "name": "Dr. Liziamma George, MD",
      "place_id": "ChIJk7pgcwNbwokRfD_nW4QVgFo",
      "plus_code": {
        "compound_code": "M29C+3F Brooklyn, NY, USA",
        "global_code": "87G8M29C+3F"
      },
      "reference": "ChIJk7pgcwNbwokRfD_nW4QVgFo",
      "scope": "GOOGLE",
      "types": [
        "doctor",
        "health",
        "point_of_interest",
        "establishment"
      ],
      "vicinity": "506 6th Street, Brooklyn"
    },
    {
      "business_status": "OPERATIONAL",
      "geometry": {
        "location": {
          "lat": 40.6677243,
          "lng": -73.9788366
        },
        "viewport": {
          "northeast": {
            "lat": 40.66933253029151,
            "lng": -73.97767001970848
          },
          "southwest": {
            "lat": 40.66663456970851,
            "lng": -73.9803679802915
          }
        }
      },
      "icon": "https://maps.gstatic.com/mapfiles/place_api/icons/v1/png_71/generic_business-71.png",
      "icon_background_color": "#7B9EB0",
      "icon_mask_base_uri": "https://maps.gstatic.com/mapfiles/place_api/icons/v2/generic_pinlet",
      "name": "Dr. Christopher P. Kelly, MD",
      "place_id": "ChIJk7pgcwNbwokRhMa1nyHOhoM",
      "plus_code": {
        "compound_code": "M29C+3F Brooklyn, NY, USA",
        "global_code": "87G8M29C+3F"
      },
      "reference": "ChIJk7pgcwNbwokRhMa1nyHOhoM",
      "scope": "GOOGLE",
      "types": [
        "doctor",
        "health",
        "point_of_interest",
        "establishment"
      ],
      "vicinity": "506 6th Street, Brooklyn"
    },
    {
      "business_status": "OPERATIONAL",
      "geometry": {
        "location": {
          "lat": 40.6677243,
          "lng": -73.9788366
        },
        "viewport": {
          "northeast": {
            "lat": 40.66933253029151,
            "lng": -73.97767001970848
          },
          "southwest": {
            "lat": 40.66663456970851,
            "lng": -73.9803679802915
          }
        }
      },
      "icon": "https://maps.gstatic.com/mapfiles/place_api/icons/v1/png_71/generic_business-71.png",
      "icon_background_color": "#7B9EB0",
      "icon_mask_base_uri": "https://maps.gstatic.com/mapfiles/place_api/icons/v2/generic_pinlet",
      "name": "Dr. Natalya Goldshteyn, MD",
      "place_id": "ChIJk7pgcwNbwokRp0399ILvjfk",
      "plus_code": {
        "compound_code": "M29C+3F Brooklyn, NY, USA",
        "global_code": "87G8M29C+3F"
      },
      "reference": "ChIJk7pgcwNbwokRp0399ILvjfk",
      "scope": "GOOGLE",
      "types": [
        "doctor",
        "health",
        "point_of_interest",
        "establishment"
      ],
      "vicinity": "506 6th Street, Brooklyn"
    },
    {
      "business_status": "OPERATIONAL",
      "geometry": {
        "location": {
          "lat": 40.6677243,
          "lng": -73.9788366
        },
        "viewport": {
          "northeast": {
            "lat": 40.66933253029151,
            "lng": -73.97767001970848
          },
          "southwest": {
            "lat": 40.66663456970851,
            "lng": -73.9803679802915
          }
        }
      },
      "icon": "https://maps.gstatic.com/mapfiles/place_api/icons/v1/png_71/generic_business-71.png",
      "icon_background_color": "#7B9EB0",
      "icon_mask_base_uri": "https://maps.gstatic.com/mapfiles/place_api/icons/v2/generic_pinlet",
      "name": "Apple Richard J MD",
      "place_id": "ChIJk7pgcwNbwokR-Gvf8SQPQ4M",
      "plus_code": {
        "compound_code": "M29C+3F Brooklyn, NY, USA",
        "global_code": "87G8M29C+3F"
      },
      "reference": "ChIJk7pgcwNbwokR-Gvf8SQPQ4M",
      "scope": "GOOGLE",
      "types": [
        "doctor",
        "health",
        "point_of_interest",
        "establishment"
      ],
      "vicinity": "506 6th Street, Brooklyn"
    },
    {
      "business_status": "OPERATIONAL",
      "geometry": {
        "location": {
          "lat": 40.6677243,
          "lng": -73.9788366
        },
        "viewport": {
          "northeast": {
            "lat": 40.66933253029151,
            "lng": -73.97767001970848
          },
          "southwest": {
            "lat": 40.66663456970851,
            "lng": -73.9803679802915
          }
        }
      },
      "icon": "https://maps.gstatic.com/mapfiles/place_api/icons/v1/png_71/generic_business-71.png",
      "icon_background_color": "#7B9EB0",
      "icon_mask_base_uri": "https://maps.gstatic.com/mapfiles/place_api/icons/v2/generic_pinlet",
      "name": "Dr. Amrita Srivastava, MD",
      "place_id": "ChIJk7pgcwNbwokRgP8MQ9GfIN8",
      "plus_code": {
        "compound_code": "M29C+3F Brooklyn, NY, USA",
        "global_code": "87G8M29C+3F"
      },
      "rating": 5,
      "reference": "ChIJk7pgcwNbwokRgP8MQ9GfIN8",
      "scope": "GOOGLE",
      "types": [
        "doctor",
        "health",
        "point_of_interest",
        "establishment"
      ],
      "user_ratings_total": 1,
      "vicinity": "506 6th Street, Brooklyn"
    }
  ],
  "status": "OK"
}