{
  "html_attributions": [],
  "results": [
    {
      "geometry": {
        "location": {
          "lat": 40.7127753,
          "lng": -74.0059728
        },
        "viewport": {
          "northeast": {
            "lat": 40.91757705070789,
            "lng": -73.70027206817629
          },
          "southwest": {
            "lat": 40.47739906045452,
            "lng": -74.25908991427882
          }
        }
      },
      "icon": "https://maps.gstatic.com/mapfiles/place_api/icons/v1/png_71/geocode-71.png",
      "icon_background_color": "#7B9EB0",
      "icon_mask_base_uri": "https://maps.gstatic.com/mapfiles/place_api/icons/v2/generic_pinlet",
      "name": "\u7d10\u7d04",
      "photos": [
        {
          "height": 600,
          "html_attributions": [
            "<a href=\"https://maps.google.com/maps/contrib/102389334567210814614\">Bukurie</a>"
          ],
          "photo_reference": "AeJbb3fzVtUWQ01HvpXgyaIIaqs9V719rOsAXddvUYgq0h9jUaYEgHwNhdQovyuZhKBJqZb4xFg2hbkxtVzXJbkmh6r5XmmXhOCrRhoSueIW1AuBCEzEpCpSgxLTp_dy5XBT0kbJS5-P5elCK8_WAnotTs-ZsJ3gogq-XF3s0VFSavD-Zx7e",
          "width": 480
        }
      ],
      "place_id": "ChIJOwg_06VPwokRYv534QaPC8g",
      "reference": "ChIJOwg_06VPwokRYv534QaPC8g",
      "scope": "GOOGLE",
      "types": [
        "locality",
        "political"
      ],
      "vicinity": "\u7d10\u7d04"
    },
    {
      "business_status": "OPERATIONAL",
      "geometry": {
        "location": {
          "lat": 40.684047,
          "lng": -74.00238999999999
        },
        "viewport": {
          "northeast": {
            "lat": 40.6854689302915,
            "lng": -74.00099721970848
          },
          "southwest": {
            "lat": 40.6827709697085,
            "lng": -74.00369518029149
          }
        }
      },
      "icon": "https://maps.gstatic.com/mapfiles/place_api/icons/v1/png_71/shopping-71.png",
      "icon_background_color": "#4B96F3",
      "icon_mask_base_uri": "https://maps.gstatic.com/mapfiles/place_api/icons/v2/shopping_pinlet",
      "name": "Brooklyn General Store",
      "opening_hours": {
        "open_now": true
      },
      "photos": [
        {
          "height": 2814,
          "html_attributions": [
            "<a href=\"https://maps.google.com/maps/contrib/112256334728139822082\">Brooklyn General Store</a>"
          ],
          "photo_reference": "AeJbb3cdNg58cWbPx31Qr1LzZUtMfhb7W0KM-j0SZVnwJt0GJEzCEjqYPbu1Ije4mVL5QxXY_T-5--EK1QmfQeHiPWTQALIGERoyXL_uCDSPvFsJCOD8-w984nG5uyXO1jQgB5uFO7Akju2CwkFEQu6UwTrp7CmzKxl-DLFMGtqoja2VobKZ",
          "width": 2994
        }
      ],
      "place_id": "ChIJiaSvI1xawokRjyyPRHs0VwM",
      "plus_code": {
        "compound_code": "MXMX+J2 \u7f8e\u570b\u7d10\u7d04\u5e03\u9c81\u514b\u6797",
        "global_code": "87G7MXMX+J2"
      },
      "rating": 4.4,
      "reference": "ChIJiaSvI1xawokRjyyPRHs0VwM",
      "scope": "GOOGLE",
      "types": [
        "home_goods_store",
        "store",
        "point_of_interest",
        "establishment"
      ],
      "user_ratings_total": 137,
      "vicinity": "128 Union Street, Brooklyn"
    },
    {
      "business_status": "OPERATIONAL",
      "geometry": {
        "location": {
          "lat": 40.6855707,
          "lng": -74.0021592
        },
        "viewport": {
          "northeast": {
            "lat": 40.68696878029149,
            "lng": -74.00091331970849
          },
          "southwest": {
            "lat": 40.68427081970849,
            "lng": -74.00361128029151
          }
        }
      },
      "icon": "https://maps.gstatic.com/mapfiles/place_api/icons/v1/png_71/restaurant-71.png",
      "icon_background_color": "#FF9E67",
      "icon_mask_base_uri": "https://maps.gstatic.com/mapfiles/place_api/icons/v2/restaurant_pinlet",
      "name": "Alma",
      "opening_hours": {
        "open_now": true
      },
      "photos": [
        {
          "height": 4080,
          "html_attributions": [
            "<a href=\"https://maps.google.com/maps/contrib/109968714222653962765\">Anthony Giudice</a>"
          ],
          "photo_reference": "AeJbb3dV5qPqranKrhoLBMGTwKiMr7QS_tH2S-knSNJkSQOFJq2DWCnt-QXzuQb4zSd9s808IY7KMUeVDrRV0NVFD9WmhKp0TRJMF_7GnHkH4ZRtOaDr9f6n-KHztJ3tmjLJC9IpNYzPFAvcC2h8Lej8NQWCvWeafQQVHUbqlGHEvZl_IB61",
          "width": 3072
        }
      ],
      "place_id": "ChIJY2jhXFxawokR3yjeUK_alQ0",
      "plus_code": {
        "compound_code": "MXPX+64 \u7f8e\u570b\u7d10\u7d04",
        "global_code": "87G7MXPX+64"
      },
      "price_level": 2,
      "rating": 4.3,
      "reference": "ChIJY2jhXFxawokR3yjeUK_alQ0",
      "scope": "GOOGLE",
      "types": [
        "bar",
        "restaurant",
        "food",
        "point_of_interest",
        "establishment"
      ],
      "user_ratings_total": 725,
      "vicinity": "187 Columbia Street, Brooklyn"
    },
    {
      "business_status": "OPERATIONAL",
      "geometry": {
        "location": {
          "lat": 40.6886354,
          "lng": -74.0013602
        },
        "viewport": {
          "northeast": {
            "lat": 40.68997853029149,
            "lng": -73.99992991970849
          },
          "southwest": {
            "lat": 40.68728056970849,
            "lng": -74.0026278802915
          }
        }
      },
      "icon": "https://maps.gstatic.com/mapfiles/place_api/icons/v1/png_71/civic_building-71.png",
      "icon_background_color": "#7B9EB0",
      "icon_mask_base_uri": "https://maps.gstatic.com/mapfiles/place_api/icons/v2/civic-bldg_pinlet",
      "name": "Port of Ny Authority",
      "place_id": "ChIJC9U5UkNawokR8WmVATvUAiU",
      "plus_code": {
        "compound_code": "MXQX+FF \u7f8e\u570b\u7d10\u7d04\u5e03\u9c81\u514b\u6797",
        "global_code": "87G7MXQX+FF"
      },
      "rating": 4.1,
      "reference": "ChIJC9U5UkNawokR8WmVATvUAiU",
      "scope": "GOOGLE",
      "types": [
        "point_of_interest",
        "establishment"
      ],
      "user_ratings_total": 8,
      "vicinity": "90 Columbia Street, Brooklyn"
    },
    {
      "business_status": "OPERATIONAL",
      "geometry": {
        "location": {
          "lat": 40.681826,
          "lng": -74.0003184
        },
        "viewport": {
          "northeast": {
            "lat": 40.6831974802915,
            "lng": -73.99906046970848
          },
          "southwest": {
            "lat": 40.6804995197085,
            "lng": -74.0017584302915
          }
        }
      },
      "icon": "https://maps.gstatic.com/mapfiles/place_api/icons/v1/png_71/restaurant-71.png",
      "icon_background_color": "#FF9E67",
      "icon_mask_base_uri": "https://maps.gstatic.com/mapfiles/place_api/icons/v2/restaurant_pinlet",
      "name": "Lucali",
      "opening_hours": {
        "open_now": false
      },
      "photos": [
        {
          "height": 3024,
          "html_attributions": [
            "<a href=\"https://maps.google.com/maps/contrib/101205888438033681014\">Joe Toci</a>"
          ],
          "photo_reference": "AeJbb3c4uKv9qgThE87GRJUv3FmKo7LhJLS3tHBUQiuYYkWuKbplyiZh2Jtms1poV7-eE93XRRDO2lnrk7dL3OxJlhFhIv-dJi2zoKzkMmCoZeVf50FplbBX97NaVpGp9GRkla7N29rU1aQIYOYI_uqFqkCSxTdJcXI7vywUM4m7J58rJF-s",
          "width": 4032
        }
      ],
      "place_id": "ChIJ395CMVlawokRt2oLH_8zmvI",
      "plus_code": {
        "compound_code": "MXJX+PV \u7f8e\u570b\u7d10\u7d04\u5e03\u9c81\u514b\u6797",
        "global_code": "87G7MXJX+PV"
      },
      "price_level": 2,
      "rating": 4.4,
      "reference": "ChIJ395CMVlawokRt2oLH_8zmvI",
      "scope": "GOOGLE",
      "types": [
        "restaurant",
        "food",
        "point_of_interest",
        "establishment"
      ],
      "user_ratings_total": 1835,
      "vicinity": "575 Henry Street, Brooklyn"
    },
    {
      "business_status": "OPERATIONAL",
      "geometry": {
        "location": {
          "lat": 40.6884247,
          "lng": -73.9975801
        },
        "viewport": {
          "northeast": {
            "lat": 40.6897527802915,
            "lng": -73.9961295697085
          },
          "southwest": {
            "lat": 40.6870548197085,
            "lng": -73.9988275302915
          }
        }
      },
      "icon": "https://maps.gstatic.com/mapfiles/place_api/icons/v1/png_71/generic_business-71.png",
      "icon_background_color": "#7B9EB0",
      "icon_mask_base_uri": "https://maps.gstatic.com/mapfiles/place_api/icons/v2/generic_pinlet",
      "name": "Cobble Hill Health Center",
      "opening_hours": {
        "open_now": true
      },
      "photos": [
        {
          "height": 1152,
          "html_attributions": [
            "<a href=\"https://maps.google.com/maps/contrib/113993783386521681988\">Virtualtech Design LLC</a>"
          ],
          "photo_reference": "AeJbb3e5M3L2wZNMamLQKo0FfvJdo3yFmPoSiu6ZqJ2pri-H_EQMazQf8tQ0Q5SCD4FTAxxIt1PrYAkOj31KpL0caCGThuWbCx2C6t9vs8YNw_jypE4RVAUBHeqI5-5UMPCgKNsC9HO8mPa9zA7XYVd0fAIayiOToDmWdz7At2qeL8GZdgJF",
          "width": 2048
        }
      ],
      "place_id": "ChIJFZ34KEVawokRKnxwl1ZjV-M",
      "plus_code": {
        "compound_code": "M2Q2+9X \u7f8e\u570b\u7d10\u7d04",
        "global_code": "87G8M2Q2+9X"
      },
      "rating": 3.6,
      "reference": "ChIJFZ34KEVawokRKnxwl1ZjV-M",
      "scope": "GOOGLE",
      "types": [
        "health",
        "point_of_interest",
        "establishment"
      ],
      "user_ratings_total": 85,
      "vicinity": "380 Henry Street, New York"
    },
    {
      "business_status": "CLOSED_TEMPORARILY",
      "geometry": {
        "location": {
          "lat": 40.6829257,
          "lng": -74.00404619999999
        },
        "viewport": {
          "northeast": {
            "lat": 40.6843765302915,
            "lng": -74.0026476697085
          },
          "southwest": {
            "lat": 40.6816785697085,
            "lng": -74.0053456302915
          }
        }
      },
      "icon": "https://maps.gstatic.com/mapfiles/place_api/icons/v1/png_71/generic_business-71.png",
      "icon_background_color": "#7B9EB0",
      "icon_mask_base_uri": "https://maps.gstatic.com/mapfiles/place_api/icons/v2/generic_pinlet",
      "name": "Trans Americas Tradg Co",
      "permanently_closed": true,
      "place_id": "ChIJvcaQY15awokRIAOjgJKxjyk",
      "plus_code": {
        "compound_code": "MXMW+59 \u7f8e\u570b\u7d10\u7d04",
        "global_code": "87G7MXMW+59"
      },
      "reference": "ChIJvcaQY15awokRIAOjgJKxjyk",
      "scope": "GOOGLE",
      "types": [
        "point_of_interest",
        "establishment"
      ],
      "vicinity": "50 Carroll Street, Brooklyn"
    },
    {
      "business_status": "OPERATIONAL",
      "geometry": {
        "location": {
          "lat": 40.6842674,
          "lng": -74.001826
        },
        "viewport": {
          "northeast": {
            "lat": 40.68552638029148,
            "lng": -74.0005269197085
          },
          "southwest": {
            "lat": 40.68282841970849,
            "lng": -74.00322488029151
          }
        }
      },
      "icon": "https://maps.gstatic.com/mapfiles/place_api/icons/v1/png_71/restaurant-71.png",
      "icon_background_color": "#FF9E67",
      "icon_mask_base_uri": "https://maps.gstatic.com/mapfiles/place_api/icons/v2/restaurant_pinlet",
      "name": "Ferdinando's Focacceria",
      "opening_hours": {
        "open_now": true
      },
      "photos": [
        {
          "height": 4128,
          "html_attributions": [
            "<a href=\"https://maps.google.com/maps/contrib/110068034998075350365\">Leonardo Torres</a>"
          ],
          "photo_reference": "AeJbb3dUH6b462jkuqD-SwGF2GbaE2Et8xwAqu4KHV6YSBoRjmAACLRvr1kJVkZHRqAEqBJClxukPxOai_jMiVW7cZZ_eEr6njrfFZ5mn_Va8olEeg0oK6-5YYwGNgLX5e611gOSFGJDViJwTAp0YgAADL0otsTxCu1H1a6L9t0fs3_kBVs",
          "width": 3096
        }
      ],
      "place_id": "ChIJH5K_GVxawokRSbTRZ6HvvWs",
      "plus_code": {
        "compound_code": "MXMX+P7 \u7f8e\u570b\u7d10\u7d04",
        "global_code": "87G7MXMX+P7"
      },
      "price_level": 2,
      "rating": 4.6,
      "reference": "ChIJH5K_GVxawokRSbTRZ6HvvWs",
      "scope": "GOOGLE",
      "types": [
        "restaurant",
        "food",
        "point_of_interest",
        "establishment"
      ],
      "user_ratings_total": 395,
      "vicinity": "151 Union Street, Brooklyn"
    },
    {
      "business_status": "OPERATIONAL",
      "geometry": {
        "location": {
          "lat": 40.6840105,
          "lng": -73.9993109
        },
        "viewport": {
          "northeast": {
            "lat": 40.6854182302915,
            "lng": -73.99802216970849
          },
          "southwest": {
            "lat": 40.6827202697085,
            "lng": -74.0007201302915
          }
        }
      },
      "icon": "https://maps.gstatic.com/mapfiles/place_api/icons/v1/png_71/restaurant-71.png",
      "icon_background_color": "#FF9E67",
      "icon_mask_base_uri": "https://maps.gstatic.com/mapfiles/place_api/icons/v2/restaurant_pinlet",
      "name": "Brooklyn Farmacy & Soda Fountain",
      "opening_hours": {
        "open_now": false
      },
      "photos": [
        {
          "height": 305,
          "html_attributions": [
            "<a href=\"https://maps.google.com/maps/contrib/106926722551645327519\">John</a>"
          ],
          "photo_reference": "AeJbb3faOilapebMtluvbCEpqYtWUz0ujAedHVucf39srwxML509xjh28VPFHtN5LsjXuvJpeaXUjPWM5zYpdsGxl5Y6CpDYJ84Bi95CRe-_AvJ4MiDg_cNlmN4t0WVwpUgUQrDmc4B3u_DneVmK20NrdMNhZFt6Zbw1OLMaqickkb964TBP",
          "width": 543
        }
      ],
      "place_id": "ChIJEfQ86FtawokRL5EWcuqDo7g",
      "plus_code": {
        "compound_code": "M2M2+J7 \u7f8e\u570b\u7d10\u7d04\u5e03\u9c81\u514b\u6797",
        "global_code": "87G8M2M2+J7"
      },
      "price_level": 2,
      "rating": 4.5,
      "reference": "ChIJEfQ86FtawokRL5EWcuqDo7g",
      "scope": "GOOGLE",
      "types": [
        "cafe",
        "bar",
        "store",
        "food",
        "point_of_interest",
        "establishment"
      ],
      "user_ratings_total": 981,
      "vicinity": "513 Henry Street, Brooklyn"
    },
    {
      "business_status": "OPERATIONAL",
      "geometry": {
        "location": {
          "lat": 40.686977,
          "lng": -73.9974016
        },
        "viewport": {
          "northeast": {
            "lat": 40.6883558802915,
            "lng": -73.9963654197085
          },
          "southwest": {
            "lat": 40.6856579197085,
            "lng": -73.9990633802915
          }
        }
      },
      "icon": "https://maps.gstatic.com/mapfiles/place_api/icons/v1/png_71/school-71.png",
      "icon_background_color": "#7B9EB0",
      "icon_mask_base_uri": "https://maps.gstatic.com/mapfiles/place_api/icons/v2/school_pinlet",
      "name": "P.S. 029 John M. Harrigan",
      "opening_hours": {
        "open_now": true
      },
      "photos": [
        {
          "height": 3264,
          "html_attributions": [
            "<a href=\"https://maps.google.com/maps/contrib/108492990451025297569\">Marshall Moorehead</a>"
          ],
          "photo_reference": "AeJbb3dcuixWwlYlkAh2vIEh5fKAoYV43XOarunijHaayg3sXLrzScCsikJzuK4i1YpSstF-GimZuE6PYePIaqycIxr6l4Bm0q9EGHtt_kBe4B_z3KsAf2QlueKOnVInV3seZOWoA7CaXfFjoYncYtxZVSkOvNe-IwvknbYaAgKyzFqXRRK6",
          "width": 2448
        }
      ],
      "place_id": "ChIJg6zmIFtawokRNYcivHCDYXU",
      "plus_code": {
        "compound_code": "M2P3+Q2 \u7f8e\u570b\u7d10\u7d04",
        "global_code": "87G8M2P3+Q2"
      },
      "rating": 4.2,
      "reference": "ChIJg6zmIFtawokRNYcivHCDYXU",
      "scope": "GOOGLE",
      "types": [
        "primary_school",
        "school",
        "point_of_interest",
        "establishment"
      ],
      "user_ratings_total": 11,
      "vicinity": "425 Henry Street, New York"
    },
    {
      "business_status": "OPERATIONAL",
      "geometry": {
        "location": {
          "lat": 40.684147,
          "lng": -74.0025509
        },
        "viewport": {
          "northeast": {
            "lat": 40.68554848029149,
            "lng": -74.0011832197085
          },
          "southwest": {
            "lat": 40.6828505197085,
            "lng": -74.0038811802915
          }
        }
      },
      "icon": "https://maps.gstatic.com/mapfiles/place_api/icons/v1/png_71/restaurant-71.png",
      "icon_background_color": "#FF9E67",
      "icon_mask_base_uri": "https://maps.gstatic.com/mapfiles/place_api/icons/v2/restaurant_pinlet",
      "name": "Calexico",
      "opening_hours": {
        "open_now": true
      },
      "photos": [
        {
          "height": 1082,
          "html_attributions": [
            "<a href=\"https://maps.google.com/maps/contrib/116146940672181685860\">Calexico (closed for repairs)</a>"
          ],
          "photo_reference": "AeJbb3eVe1nq45flYXhXzY94nxyZcmTki7P1D8Uhopjqq3K2dpz8lKWMUcJ1LMHFLG6wgQqX3f7AbbhCwOL1SDokCJNNL_0-jnbdz5UNv1q5gp-poxxt8ZuHdzmFDIXHxuM0FHBhUiaMXN-KztwxAlO0UV8KXmhwhhMEbG7rQVVfEwZ32G8n",
          "width": 1404
        }
      ],
      "place_id": "ChIJuY1hJFxawokRqCP4wkEaDPE",
      "plus_code": {
        "compound_code": "MXMW+MX \u7f8e\u570b\u7d10\u7d04\u5e03\u9c81\u514b\u6797",
        "global_code": "87G7MXMW+MX"
      },
      "price_level": 1,
      "rating": 4.3,
      "reference": "ChIJuY1hJFxawokRqCP4wkEaDPE",
      "scope": "GOOGLE",
      "types": [
        "meal_delivery",
        "restaurant",
        "food",
        "point_of_interest",
        "establishment"
      ],
      "user_ratings_total": 293,
      "vicinity": "122 Union Street, Brooklyn"
    },
    {
      "business_status": "OPERATIONAL",
      "geometry": {
        "location": {
          "lat": 40.6837435,
          "lng": -74.0002799
        },
        "viewport": {
          "northeast": {
            "lat": 40.68504128029149,
            "lng": -73.99894756970849
          },
          "southwest": {
            "lat": 40.68234331970849,
            "lng": -74.00164553029151
          }
        }
      },
      "icon": "https://maps.gstatic.com/mapfiles/place_api/icons/v1/png_71/civic_building-71.png",
      "icon_background_color": "#7B9EB0",
      "icon_mask_base_uri": "https://maps.gstatic.com/mapfiles/place_api/icons/v2/civic-bldg_pinlet",
      "name": "New York City Police Department 76th Precinct",
      "photos": [
        {
          "height": 400,
          "html_attributions": [
            "<a href=\"https://maps.google.com/maps/contrib/106154591745152669022\">Luke Crisalli</a>"
          ],
          "photo_reference": "AeJbb3fs3mk3P5iZERuZnHD7TtUl_ebTygXdy7j-WxeyRP8hFpy_8d8Da8FQ0nNNQMr4c1yPGYnahuqOOoFKJmBq8G2scKxhaY0PUTvVLcNfJa-dovb-98lH1oAFiOJEMyQOUFm7DaIr9jgU3nNzQrbA75kT7HRteUoXN6hHiGy6GZRi_IkJ",
          "width": 500
        }
      ],
      "place_id": "ChIJtaVH-VtawokRgXSk0pLEHnI",
      "plus_code": {
        "compound_code": "MXMX+FV \u7f8e\u570b\u7d10\u7d04\u5e03\u9c81\u514b\u6797",
        "global_code": "87G7MXMX+FV"
      },
      "rating": 3.3,
      "reference": "ChIJtaVH-VtawokRgXSk0pLEHnI",
      "scope": "GOOGLE",
      "types": [
        "police",
        "point_of_interest",
        "establishment"
      ],
      "user_ratings_total": 41,
      "vicinity": "191 Union Street, Brooklyn"
    },
    {
      "business_status": "OPERATIONAL",
      "geometry": {
        "location": {
          "lat": 40.6861631,
          "lng": -74.0009541
        },
        "viewport": {
          "northeast": {
            "lat": 40.68753128029149,
            "lng": -73.9997036697085
          },
          "southwest": {
            "lat": 40.6848333197085,
            "lng": -74.0024016302915
          }
        }
      },
      "icon": "https://maps.gstatic.com/mapfiles/place_api/icons/v1/png_71/generic_business-71.png",
      "icon_background_color": "#7B9EB0",
      "icon_mask_base_uri": "https://maps.gstatic.com/mapfiles/place_api/icons/v2/generic_pinlet",
      "name": "Erin Silber Photography",
      "opening_hours": {
        "open_now": true
      },
      "photos": [
        {
          "height": 1463,
          "html_attributions": [
            "<a href=\"https://maps.google.com/maps/contrib/105363401445288335560\">Karin Parks</a>"
          ],
          "photo_reference": "AeJbb3dsNOj9E2zxU0Am0e_xOBce6vpLnxzcojUsjC8ruMubfMuJ_aJSb-hn1m4O8PizK_Fjkb44DWnFP8pEBbYeUyFuHJYN-i-NjQgJ_gCmuUtD_DZjTa1ZJgLopBOZdDbeNJ69H-L_YVG9bi1ubmSJMQs9a0mC9TuBuIQgvFDgQFNJyepC",
          "width": 2048
        }
      ],
      "place_id": "ChIJkR6rhlxawokRcjl6g8aPJrA",
      "plus_code": {
        "compound_code": "MXPX+FJ \u7f8e\u570b\u7d10\u7d04",
        "global_code": "87G7MXPX+FJ"
      },
      "rating": 4.8,
      "reference": "ChIJkR6rhlxawokRcjl6g8aPJrA",
      "scope": "GOOGLE",
      "types": [
        "point_of_interest",
        "establishment"
      ],
      "user_ratings_total": 90,
      "vicinity": "29 Tiffany Place, Brooklyn"
    },
    {
      "business_status": "OPERATIONAL",
      "geometry": {
        "location": {
          "lat": 40.6874242,
          "lng": -74.00135159999999
        },
        "viewport": {
          "northeast": {
            "lat": 40.6888090302915,
            "lng": -74.0000888197085
          },
          "southwest": {
            "lat": 40.6861110697085,
            "lng": -74.00278678029152
          }
        }
      },
      "icon": "https://maps.gstatic.com/mapfiles/place_api/icons/v1/png_71/shopping-71.png",
      "icon_background_color": "#4B96F3",
      "icon_mask_base_uri": "https://maps.gstatic.com/mapfiles/place_api/icons/v2/shopping_pinlet",
      "name": "Freebird Books & Goods",
      "opening_hours": {
        "open_now": true
      },
      "photos": [
        {
          "height": 4032,
          "html_attributions": [
            "<a href=\"https://maps.google.com/maps/contrib/103112407280843023696\">Kurt Yalcin</a>"
          ],
          "photo_reference": "AeJbb3clXJijGHgSNYMsyIqJLsoPP5r30GfpSTnlD-kLY8nm3eA4OyHfyRqRxmPDJT-adieePxYT1J8iQY8dY8zoTHa61GKK-2e1l9MHEIShueJhYms7cSBF2MkJgqvtKgcviXGnW3Yj1nQ4w9GUfVFD_xMNCKUzAMFOv_p14Dk_vMDKiMCl",
          "width": 3024
        }
      ],
      "place_id": "ChIJ9Woto1xawokRjXZyXF14kJE",
      "plus_code": {
        "compound_code": "MXPX+XF \u7f8e\u570b\u7d10\u7d04",
        "global_code": "87G7MXPX+XF"
      },
      "rating": 4.7,
      "reference": "ChIJ9Woto1xawokRjXZyXF14kJE",
      "scope": "GOOGLE",
      "types": [
        "book_store",
        "store",
        "point_of_interest",
        "establishment"
      ],
      "user_ratings_total": 53,
      "vicinity": "123 Columbia Street, Brooklyn"
    },
    {
      "business_status": "OPERATIONAL",
      "geometry": {
        "location": {
          "lat": 40.684973,
          "lng": -74.00294509999999
        },
        "viewport": {
          "northeast": {
            "lat": 40.6862847302915,
            "lng": -74.0015060197085
          },
          "southwest": {
            "lat": 40.6835867697085,
            "lng": -74.0042039802915
          }
        }
      },
      "icon": "https://maps.gstatic.com/mapfiles/place_api/icons/v1/png_71/restaurant-71.png",
      "icon_background_color": "#FF9E67",
      "icon_mask_base_uri": "https://maps.gstatic.com/mapfiles/place_api/icons/v2/restaurant_pinlet",
      "name": "Mazzat",
      "opening_hours": {
        "open_now": true
      },
      "photos": [
        {
          "height": 3024,
          "html_attributions": [
            "<a href=\"https://maps.google.com/maps/contrib/117936410904109833628\">Alyssa Holmes</a>"
          ],
          "photo_reference": "AeJbb3c6BKPmibHNjI4mtzM7U3ks8RKhRwPS_aEVrDVj9yFlNhoClKdeAswgPP035c38pAZEM-Zy1Cxqk92MuICg-ruC_-RgHep0D7kEs0dTikgGx4mT3M-TmlWx19q9butC2s6lqN9SaDwqn4g8mysjRfQhM8YtSmY_D8nS2VAj4NsbiCPe",
          "width": 4032
        }
      ],
      "place_id": "ChIJSX_vN1xawokRaM1KeK7OCrY",
      "plus_code": {
        "compound_code": "MXMW+XR \u7f8e\u570b\u7d10\u7d04",
        "global_code": "87G7MXMW+XR"
      },
      "price_level": 2,
      "rating": 4.7,
      "reference": "ChIJSX_vN1xawokRaM1KeK7OCrY",
      "scope": "GOOGLE",
      "types": [
        "bar",
        "restaurant",
        "food",
        "point_of_interest",
        "establishment"
      ],
      "user_ratings_total": 291,
      "vicinity": "208 Columbia Street, Brooklyn"
    },
    {
      "business_status": "OPERATIONAL",
      "geometry": {
        "location": {
          "lat": 40.6836426,
          "lng": -73.999886
        },
        "viewport": {
          "northeast": {
            "lat": 40.6849303802915,
            "lng": -73.9985226197085
          },
          "southwest": {
            "lat": 40.6822324197085,
            "lng": -74.0012205802915
          }
        }
      },
      "icon": "https://maps.gstatic.com/mapfiles/place_api/icons/v1/png_71/generic_business-71.png",
      "icon_background_color": "#7B9EB0",
      "icon_mask_base_uri": "https://maps.gstatic.com/mapfiles/place_api/icons/v2/generic_pinlet",
      "name": "Element Natural Healing Arts",
      "opening_hours": {
        "open_now": true
      },
      "photos": [
        {
          "height": 3024,
          "html_attributions": [
            "<a href=\"https://maps.google.com/maps/contrib/104116345424980002146\">Element Natural Healing Arts</a>"
          ],
          "photo_reference": "AeJbb3dpQRCTxa-v_Q5ri3WjPX-zQaulrmzo0G7CVNAZfGVGFO3jC5NDD_HeM3bcSezVuUW5bKpSUf0hkcfYDXPrCeN2Uw9xl-6M0zoEGWiuD5WxCGASy_uyQ5O9ANzsos871YI_lHBfF4_ZngvmM5HKu81DHfAPl_1WcxfLlZS4GTjqOP3K",
          "width": 3941
        }
      ],
      "place_id": "ChIJnxhw41tawokR2FKVzjsZkCQ",
      "plus_code": {
        "compound_code": "M2M2+F2 \u7f8e\u570b\u7d10\u7d04\u5e03\u9c81\u514b\u6797",
        "global_code": "87G8M2M2+F2"
      },
      "rating": 4.9,
      "reference": "ChIJnxhw41tawokR2FKVzjsZkCQ",
      "scope": "GOOGLE",
      "types": [
        "spa",
        "health",
        "point_of_interest",
        "establishment"
      ],
      "user_ratings_total": 134,
      "vicinity": "518 Henry Street, 102 Union Street, Brooklyn"
    },
    {
      "business_status": "OPERATIONAL",
      "geometry": {
        "location": {
          "lat": 40.682885,
          "lng": -74.00158689999999
        },
        "viewport": {
          "northeast": {
            "lat": 40.68425733029149,
            "lng": -74.0003221197085
          },
          "southwest": {
            "lat": 40.68155936970849,
            "lng": -74.0030200802915
          }
        }
      },
      "icon": "https://maps.gstatic.com/mapfiles/place_api/icons/v1/png_71/school-71.png",
      "icon_background_color": "#7B9EB0",
      "icon_mask_base_uri": "https://maps.gstatic.com/mapfiles/place_api/icons/v2/school_pinlet",
      "name": "Act French",
      "opening_hours": {
        "open_now": false
      },
      "place_id": "ChIJP_pgdFNYwokRKZHvxN5Xw6E",
      "plus_code": {
        "compound_code": "MXMX+59 \u7f8e\u570b\u7d10\u7d04",
        "global_code": "87G7MXMX+59"
      },
      "reference": "ChIJP_pgdFNYwokRKZHvxN5Xw6E",
      "scope": "GOOGLE",
      "types": [
        "point_of_interest",
        "establishment"
      ],
      "vicinity": "589 Hicks Street, Brooklyn"
    },
    {
      "business_status": "OPERATIONAL",
      "geometry": {
        "location": {
          "lat": 40.68482300000001,
          "lng": -74.00381999999999
        },
        "viewport": {
          "northeast": {
            "lat": 40.6860784302915,
            "lng": -74.00250456970849
          },
          "southwest": {
            "lat": 40.6833804697085,
            "lng": -74.0052025302915
          }
        }
      },
      "icon": "https://maps.gstatic.com/mapfiles/place_api/icons/v1/png_71/shopping-71.png",
      "icon_background_color": "#4B96F3",
      "icon_mask_base_uri": "https://maps.gstatic.com/mapfiles/place_api/icons/v2/shopping_pinlet",
      "name": "Moto Borgotaro",
      "opening_hours": {
        "open_now": false
      },
      "photos": [
        {
          "height": 600,
          "html_attributions": [
            "<a href=\"https://maps.google.com/maps/contrib/107807786070890247514\">Moto Borgotaro</a>"
          ],
          "photo_reference": "AeJbb3cfM2iv_kZTEAW_JYQVvdFGlr2a0YBlrmT8834s5PnZCWDhIScNvdk3wwqU_Y30KnkO8W26qHleLxCyBvIC3Sqts-44Pc15ZlfBG32TS5tUw4dlJlZ4Lx1uDaZFu0PSm8bUkowsSCLHdcvotOkD3dP9BUbMReq0J_mKtx-HhvjyqJjD",
          "width": 480
        }
      ],
      "place_id": "ChIJ31IjzF1awokRxubAjW60ZMA",
      "plus_code": {
        "compound_code": "MXMW+WF \u7f8e\u570b\u7d10\u7d04\u5e03\u9c81\u514b\u6797",
        "global_code": "87G7MXMW+WF"
      },
      "rating": 4.9,
      "reference": "ChIJ31IjzF1awokRxubAjW60ZMA",
      "scope": "GOOGLE",
      "types": [
        "storage",
        "store",
        "car_repair",
        "point_of_interest",
        "establishment"
      ],
      "user_ratings_total": 8,
      "vicinity": "97 Union Street, Brooklyn"
    },
    {
      "business_status": "OPERATIONAL",
      "geometry": {
        "location": {
          "lat": 40.6857736,
          "lng": -73.9967075
        },
        "viewport": {
          "northeast": {
            "lat": 40.68712258029149,
            "lng": -73.99535851970849
          },
          "southwest": {
            "lat": 40.6844246197085,
            "lng": -73.99805648029151
          }
        }
      },
      "icon": "https://maps.gstatic.com/mapfiles/place_api/icons/v1/png_71/worship_dharma-71.png",
      "icon_background_color": "#7B9EB0",
      "icon_mask_base_uri": "https://maps.gstatic.com/mapfiles/place_api/icons/v2/generic_pinlet",
      "name": "Brooklyn Zen Center",
      "opening_hours": {
        "open_now": false
      },
      "photos": [
        {
          "height": 1512,
          "html_attributions": [
            "<a href=\"https://maps.google.com/maps/contrib/114214530403334219035\">Brooklyn Zen Center</a>"
          ],
          "photo_reference": "AeJbb3drMxqSJznsxjWMuCzve5hReuc0L4U94p5E3_dfj-CoeFhxv_lKFMMXkglbLV-rXIOQ4yCODEHdeR2fhOhjEh56qvKpvEW_9CQA47iUXTR3v5gZGWYSZxQwAQ6vxqb70h_tWusONo1lZ8GY15pXC7ITrLVY2Zo1IEPGA9y01s6Wbmxr",
          "width": 2016
        }
      ],
      "place_id": "ChIJUyNre1VawokRVVK8bYViios",
      "plus_code": {
        "compound_code": "M2P3+88 \u7f8e\u570b\u7d10\u7d04",
        "global_code": "87G8M2P3+88"
      },
      "rating": 4.7,
      "reference": "ChIJUyNre1VawokRVVK8bYViios",
      "scope": "GOOGLE",
      "types": [
        "place_of_worship",
        "health",
        "point_of_interest",
        "establishment"
      ],
      "user_ratings_total": 15,
      "vicinity": "326 Clinton Street, Brooklyn"
    },
    {
      "geometry": {
        "location": {
          "lat": 40.6781784,
          "lng": -73.9441579
        },
        "viewport": {
          "northeast": {
            "lat": 40.73944597129348,
            "lng": -73.83336505117123
          },
          "southwest": {
            "lat": 40.55104197967331,
            "lng": -74.05662998413648
          }
        }
      },
      "icon": "https://maps.gstatic.com/mapfiles/place_api/icons/v1/png_71/geocode-71.png",
      "icon_background_color": "#7B9EB0",
      "icon_mask_base_uri": "https://maps.gstatic.com/mapfiles/place_api/icons/v2/generic_pinlet",
      "name": "\u5e03\u9c81\u514b\u6797",
      "photos": [
        {
          "height": 3024,
          "html_attributions": [
            "<a href=\"https://maps.google.com/maps/contrib/114417859579881743500\">Chengxiang Yuan</a>"
          ],
          "photo_reference": "AeJbb3fKd4C3_vflVc2JOBnln0gjKOY0YWoUnFaCnZFlZ2-7lCxsSkGJZlYd3NudH2QaC_9N13MbKd8ooaYJKcQ7z9ZJfGNpJD6vCqjCRqT4gjyAkrjsMB6gFVcRgRd16n2B7mJhv_nA6QP368NKsJbIEZU_HqVPAd2LC7jpWlMDFDi3SJUY",
          "width": 4032
        }
      ],
      "place_id": "ChIJCSF8lBZEwokRhngABHRcdoI",
      "reference": "ChIJCSF8lBZEwokRhngABHRcdoI",
      "scope": "GOOGLE",
      "types": [
        "sublocality_level_1",
        "sublocality",
        "political"
      ],
      "vicinity": "\u5e03\u9c81\u514b\u6797"
    },
    {
      "business_status": "OPERATIONAL",
      "geometry": {
        "location": {
          "lat": 40.6834186,
          "lng": -73.99991709999999
        },
        "viewport": {
          "northeast": {
            "lat": 40.6848029802915,
            "lng": -73.99850106970848
          },
          "southwest": {
            "lat": 40.6821050197085,
            "lng": -74.0011990302915
          }
        }
      },
      "icon": "https://maps.gstatic.com/mapfiles/place_api/icons/v1/png_71/restaurant-71.png",
      "icon_background_color": "#FF9E67",
      "icon_mask_base_uri": "https://maps.gstatic.com/mapfiles/place_api/icons/v2/restaurant_pinlet",
      "name": "Bar Bruno",
      "opening_hours": {
        "open_now": true
      },
      "photos": [
        {
          "height": 3024,
          "html_attributions": [
            "<a href=\"https://maps.google.com/maps/contrib/116201617109830156856\">M C</a>"
          ],
          "photo_reference": "AeJbb3euZ56TOANnheFEzEaIwl9DtRT5T7Wy4xYonpXGBpwxgmKV2lvLvTcU6OJxMT4KcGHX0Vq5t5rtGU6CIyJ-NWpH8wOSzhjaPXG_BKlgLOd9ap_Cvfj431T729pZ6puL_8VigAKSaj5qcxqS8N3zCGX1bweX2KiJq0aFhQ2FIxsXIEOa",
          "width": 4032
        }
      ],
      "place_id": "ChIJD_vG4ltawokRE4BzRSy5BBk",
      "plus_code": {
        "compound_code": "M2M2+92 New York, NY, USA",
        "global_code": "87G8M2M2+92"
      },
      "price_level": 2,
      "rating": 4.3,
      "reference": "ChIJD_vG4ltawokRE4BzRSy5BBk",
      "scope": "GOOGLE",
      "types": [
        "bar",
        "restaurant",
        "food",
        "point_of_interest",
        "establishment"
      ],
      "user_ratings_total": 389,
      "vicinity": "520 Henry Street, Brooklyn"
    },
    {
      "business_status": "OPERATIONAL",
      "geometry": {
        "location": {
          "lat": 40.6851958,
          "lng": -74.0049177
        },
        "viewport": {
          "northeast": {
            "lat": 40.6864167802915,
            "lng": -74.0035958197085
          },
          "southwest": {
            "lat": 40.6837188197085,
            "lng": -74.00629378029151
          }
        }
      },
      "icon": "https://maps.gstatic.com/mapfiles/place_api/icons/v1/png_71/generic_business-71.png",
      "icon_background_color": "#7B9EB0",
      "icon_mask_base_uri": "https://maps.gstatic.com/mapfiles/place_api/icons/v2/generic_pinlet",
      "name": "Scooter Bottega",
      "opening_hours": {
        "open_now": false
      },
      "photos": [
        {
          "height": 2400,
          "html_attributions": [
            "<a href=\"https://maps.google.com/maps/contrib/111369057255919916362\">Scooter Bottega</a>"
          ],
          "photo_reference": "AeJbb3ehLjC6kmze8v1GkTiTWsDArPjcB1l18DPDcHeuR4lxOCtGOfw5JmXKQjgBTVPbQ7H9M9YawTOUIVAlIOBIIjVucM0rzGq29G4Ql96EfIxMf8ZCaknJ_FETl_wpytlR0KThYVfHu9wy_2p4WSNs35kUfydBvo1LlyitAeqdCQPMfXvZ",
          "width": 3600
        }
      ],
      "place_id": "ChIJmwTFwV1awokR-lvLej_DKFs",
      "plus_code": {
        "compound_code": "MXPW+32 New York, NY, USA",
        "global_code": "87G7MXPW+32"
      },
      "rating": 4.6,
      "reference": "ChIJmwTFwV1awokR-lvLej_DKFs",
      "scope": "GOOGLE",
      "types": [
        "car_repair",
        "point_of_interest",
        "establishment"
      ],
      "user_ratings_total": 77,
      "vicinity": "65 Union Street Garage 3, Brooklyn"
    },
    {
      "business_status": "OPERATIONAL",
      "geometry": {
        "location": {
          "lat": 40.68397170000001,
          "lng": -74.0062426
        },
        "viewport": {
          "northeast": {
            "lat": 40.6852986802915,
            "lng": -74.00489411970848
          },
          "southwest": {
            "lat": 40.6826007197085,
            "lng": -74.0075920802915
          }
        }
      },
      "icon": "https://maps.gstatic.com/mapfiles/place_api/icons/v1/png_71/generic_business-71.png",
      "icon_background_color": "#7B9EB0",
      "icon_mask_base_uri": "https://maps.gstatic.com/mapfiles/place_api/icons/v2/generic_pinlet",
      "name": "Red Hook Terminal",
      "opening_hours": {
        "open_now": false
      },
      "photos": [
        {
          "height": 747,
          "html_attributions": [
            "<a href=\"https://maps.google.com/maps/contrib/105844775148581562670\">Mike Pennino</a>"
          ],
          "photo_reference": "AeJbb3fm9IAzh9p0_T79LLnPN1-Gr8Jo5e7QU3iFOONX9eti15zKhxASDiBFXMlyeihvxzn4WUPgaWJktCztttV35hoPCqFkHuEFueOkQCYxR4aw5FWShn40sK039b_1LfzEhtrpdrCIUqmqli-9QGurqvx1KFul2-uqCgtAr_WXF9PCIyWz",
          "width": 1328
        }
      ],
      "place_id": "ChIJf8vVhV1awokRUW9dJS-_tkA",
      "plus_code": {
        "compound_code": "MXMV+HG Brooklyn, NY, USA",
        "global_code": "87G7MXMV+HG"
      },
      "rating": 3.8,
      "reference": "ChIJf8vVhV1awokRUW9dJS-_tkA",
      "scope": "GOOGLE",
      "types": [
        "transit_station",
        "point_of_interest",
        "establishment"
      ],
      "user_ratings_total": 41,
      "vicinity": "70 Hamilton Avenue, Brooklyn"
    },
    {
      "business_status": "OPERATIONAL",
      "geometry": {
        "location": {
          "lat": 40.6862266,
          "lng": -74.00094419999999
        },
        "viewport": {
          "northeast": {
            "lat": 40.68753553029151,
            "lng": -73.9997100197085
          },
          "southwest": {
            "lat": 40.68483756970851,
            "lng": -74.00240798029151
          }
        }
      },
      "icon": "https://maps.gstatic.com/mapfiles/place_api/icons/v1/png_71/generic_business-71.png",
      "icon_background_color": "#7B9EB0",
      "icon_mask_base_uri": "https://maps.gstatic.com/mapfiles/place_api/icons/v2/generic_pinlet",
      "name": "Ariana Condominium",
      "photos": [
        {
          "height": 2358,
          "html_attributions": [
            "<a href=\"https://maps.google.com/maps/contrib/111411639969282230084\">Michael Taylor-Judd</a>"
          ],
          "photo_reference": "AeJbb3fYZi3D2LF4lbQfVQLhX8c91j--I1EE5VRbHS2idsqmogOOvpp7n7wQdiMOdg3LWK5IRkVALHbgf3DcuHuqVJgQ1mCB_-SNMIRN8UkItrdVMk_ruANmQs6fuiGYCJcGWMAQ9d47hKrRuGCG--xFYageXeMDNJl6g6YeaNdDuRXuLrJI",
          "width": 4192
        }
      ],
      "place_id": "ChIJkR6rhlxawokRb3elDa9-jUo",
      "plus_code": {
        "compound_code": "MXPX+FJ Brooklyn, NY, USA",
        "global_code": "87G7MXPX+FJ"
      },
      "rating": 4.1,
      "reference": "ChIJkR6rhlxawokRb3elDa9-jUo",
      "scope": "GOOGLE",
      "types": [
        "point_of_interest",
        "establishment"
      ],
      "user_ratings_total": 8,
      "vicinity": "29 Tiffany Place, Brooklyn"
    },
    {
      "business_status": "OPERATIONAL",
      "geometry": {
        "location": {
          "lat": 40.6839022,
          "lng": -74.0018379
        },
        "viewport": {
          "northeast": {
            "lat": 40.6853191302915,
            "lng": -74.0004449697085
          },
          "southwest": {
            "lat": 40.6826211697085,
            "lng": -74.0031429302915
          }
        }
      },
      "icon": "https://maps.gstatic.com/mapfiles/place_api/icons/v1/png_71/restaurant-71.png",
      "icon_background_color": "#FF9E67",
      "icon_mask_base_uri": "https://maps.gstatic.com/mapfiles/place_api/icons/v2/restaurant_pinlet",
      "name": "Petite Crevette",
      "opening_hours": {
        "open_now": false
      },
      "photos": [
        {
          "height": 2469,
          "html_attributions": [
            "<a href=\"https://maps.google.com/maps/contrib/103275143702430587117\">Petite Crevette</a>"
          ],
          "photo_reference": "AeJbb3fPktVFamDazpXa4GDYjUKdyMpM6I127ZdnFSrtaoMZQiTLH3-58pJL1E5T33ajHz4Cgf4kMGKwstrRER2vwwZ0dyoRXSrPYoHfFQALgaVP01WSygiK1jkoQAoXIqgq51XgbLcnyLdMixW43WZCXjry5_5deeW43z0V65C9dwP1-3kM",
          "width": 2469
        }
      ],
      "place_id": "ChIJV1zyHlxawokRfyvJfCPJ33s",
      "plus_code": {
        "compound_code": "MXMX+H7 New York, NY, USA",
        "global_code": "87G7MXMX+H7"
      },
      "price_level": 2,
      "rating": 4.6,
      "reference": "ChIJV1zyHlxawokRfyvJfCPJ33s",
      "scope": "GOOGLE",
      "types": [
        "restaurant",
        "food",
        "point_of_interest",
        "establishment"
      ],
      "user_ratings_total": 206,
      "vicinity": "144 Union Street, Brooklyn"
    },
    {
      "business_status": "OPERATIONAL",
      "geometry": {
        "location": {
          "lat": 40.68845210000001,
          "lng": -74.001487
        },
        "viewport": {
          "northeast": {
            "lat": 40.6897796802915,
            "lng": -74.0000632197085
          },
          "southwest": {
            "lat": 40.68708171970851,
            "lng": -74.0027611802915
          }
        }
      },
      "icon": "https://maps.gstatic.com/mapfiles/place_api/icons/v1/png_71/civic_building-71.png",
      "icon_background_color": "#7B9EB0",
      "icon_mask_base_uri": "https://maps.gstatic.com/mapfiles/place_api/icons/v2/civic-bldg_pinlet",
      "name": "Waterfront Commission of Ny",
      "photos": [
        {
          "height": 2592,
          "html_attributions": [
            "<a href=\"https://maps.google.com/maps/contrib/110059003304785921608\">Carlos Ruiz Badilla</a>"
          ],
          "photo_reference": "AeJbb3dztKi0qUiRA5ae4qLokSmFT5bdoVLxUkrKuRFqRLCTaSmqpeNRziwBBsYrI3drJ9yMlxSvUHapSkuPrkfFFqPZnWjZczKDmiprOlSG7qAYjr_iGDkkaBoO2IoHm6skz44x2d1FDqhEO6eFYKsfDvdPL-HDnONtOyeWZnYf9cTJnW4j",
          "width": 3872
        }
      ],
      "place_id": "ChIJHf7ArFxawokRt-p_F1eDvbo",
      "plus_code": {
        "compound_code": "MXQX+9C Brooklyn, NY, USA",
        "global_code": "87G7MXQX+9C"
      },
      "reference": "ChIJHf7ArFxawokRt-p_F1eDvbo",
      "scope": "GOOGLE",
      "types": [
        "police",
        "point_of_interest",
        "establishment"
      ],
      "vicinity": "100 Columbia Street, Brooklyn"
    },
    {
      "business_status": "OPERATIONAL",
      "geometry": {
        "location": {
          "lat": 40.68704899999999,
          "lng": -73.999636
        },
        "viewport": {
          "northeast": {
            "lat": 40.6883853302915,
            "lng": -73.9983538697085
          },
          "southwest": {
            "lat": 40.6856873697085,
            "lng": -74.0010518302915
          }
        }
      },
      "icon": "https://maps.gstatic.com/mapfiles/place_api/icons/v1/png_71/shopping-71.png",
      "icon_background_color": "#4B96F3",
      "icon_mask_base_uri": "https://maps.gstatic.com/mapfiles/place_api/icons/v2/shopping_pinlet",
      "name": "Bonafide Delicatessen & Cafe",
      "opening_hours": {
        "open_now": true
      },
      "photos": [
        {
          "height": 3024,
          "html_attributions": [
            "<a href=\"https://maps.google.com/maps/contrib/110970925725346295336\">Bonafide Delicatessen &amp; Cafe</a>"
          ],
          "photo_reference": "AeJbb3eKq_4leUAK57RrGMWugP-FL7CzUgB0QT7e_bczcD1u0VoxeFgEU4VNROBgrw7YQRXZM4-Oaf-qLF2fCODppj9MqlvVRx2LQ9wRZCHQRVj07S3oAduhixNTtRO9RXGVy1XP4UXe2GEISsOl36-W5nvlaOk_nd30WuN4cD2XLB0lNsOw",
          "width": 4032
        }
      ],
      "place_id": "ChIJQWgNQltawokRYjv9e7VEeBY",
      "plus_code": {
        "compound_code": "M2P2+R4 New York, NY, USA",
        "global_code": "87G8M2P2+R4"
      },
      "price_level": 1,
      "rating": 4.6,
      "reference": "ChIJQWgNQltawokRYjv9e7VEeBY",
      "scope": "GOOGLE",
      "types": [
        "cafe",
        "restaurant",
        "food",
        "point_of_interest",
        "store",
        "establishment"
      ],
      "user_ratings_total": 58,
      "vicinity": "118 Kane Street, Brooklyn"
    },
    {
      "business_status": "OPERATIONAL",
      "geometry": {
        "location": {
          "lat": 40.68498,
          "lng": -74.0018719
        },
        "viewport": {
          "northeast": {
            "lat": 40.6862649802915,
            "lng": -74.0005540197085
          },
          "southwest": {
            "lat": 40.68356701970851,
            "lng": -74.00325198029151
          }
        }
      },
      "icon": "https://maps.gstatic.com/mapfiles/place_api/icons/v1/png_71/shopping-71.png",
      "icon_background_color": "#4B96F3",
      "icon_mask_base_uri": "https://maps.gstatic.com/mapfiles/place_api/icons/v2/shopping_pinlet",
      "name": "Sinotique",
      "photos": [
        {
          "height": 1536,
          "html_attributions": [
            "<a href=\"https://maps.google.com/maps/contrib/102335146858629905353\">Jan Lee</a>"
          ],
          "photo_reference": "AeJbb3ej3J6yLQp1c8VQZoquvvJp2JpuA2j3Qy_kg-Qy6_hN_ODVxYa6GKLfVPw7dpiBKinH8wGE_zVR_ck-P_T0Tp9IWTKekTXMteBtnICM2Q-veITJ_aE3JhTTj_X84uYYx6ORF_cpgGlASvA3wX_yi6We2JDYmW3wmbEy7QxqhtkUIOO-",
          "width": 2048
        }
      ],
      "place_id": "ChIJZ7R4WDJawokRDly1IVWjsRo",
      "plus_code": {
        "compound_code": "MXMX+X7 Brooklyn, NY, USA",
        "global_code": "87G7MXMX+X7"
      },
      "rating": 5,
      "reference": "ChIJZ7R4WDJawokRDly1IVWjsRo",
      "scope": "GOOGLE",
      "types": [
        "art_gallery",
        "home_goods_store",
        "point_of_interest",
        "store",
        "establishment"
      ],
      "user_ratings_total": 1,
      "vicinity": "145 Sackett Street, Brooklyn"
    },
    {
      "business_status": "OPERATIONAL",
      "geometry": {
        "location": {
          "lat": 40.6853144,
          "lng": -74.0032137
        },
        "viewport": {
          "northeast": {
            "lat": 40.6866163302915,
            "lng": -74.0018873197085
          },
          "southwest": {
            "lat": 40.6839183697085,
            "lng": -74.00458528029151
          }
        }
      },
      "icon": "https://maps.gstatic.com/mapfiles/place_api/icons/v1/png_71/generic_business-71.png",
      "icon_background_color": "#7B9EB0",
      "icon_mask_base_uri": "https://maps.gstatic.com/mapfiles/place_api/icons/v2/generic_pinlet",
      "name": "U-Haul",
      "place_id": "ChIJU5SnSVxawokRZ0-8rA6_pAc",
      "plus_code": {
        "compound_code": "MXPW+4P New York, NY, USA",
        "global_code": "87G7MXPW+4P"
      },
      "price_level": 1,
      "rating": 5,
      "reference": "ChIJU5SnSVxawokRZ0-8rA6_pAc",
      "scope": "GOOGLE",
      "types": [
        "moving_company",
        "storage",
        "point_of_interest",
        "establishment"
      ],
      "user_ratings_total": 1,
      "vicinity": "111 Sackett Street, Brooklyn"
    },
    {
      "business_status": "OPERATIONAL",
      "geometry": {
        "location": {
          "lat": 40.6868999,
          "lng": -74.00159550000001
        },
        "viewport": {
          "northeast": {
            "lat": 40.6882853802915,
            "lng": -74.00033396970849
          },
          "southwest": {
            "lat": 40.68558741970851,
            "lng": -74.00303193029151
          }
        }
      },
      "icon": "https://maps.gstatic.com/mapfiles/place_api/icons/v1/png_71/generic_business-71.png",
      "icon_background_color": "#7B9EB0",
      "icon_mask_base_uri": "https://maps.gstatic.com/mapfiles/place_api/icons/v2/generic_pinlet",
      "name": "The Super Movers",
      "photos": [
        {
          "height": 400,
          "html_attributions": [
            "<a href=\"https://maps.google.com/maps/contrib/107180688873755551840\">The Super Movers</a>"
          ],
          "photo_reference": "AeJbb3dX8j9otQ7fOOnhIi8c4IAVoZ27s8fB_FFpe4eY4DEgavRejXE0hNW_8xkykTb8S7ur76bCTyArdW3_6zYFjbxsHzJHzx_6JyvFDSO5XdV5X4mzerH0edjcvI2CKQx0wndf8wsBjZHWgjfd7T0AplER8tmBk7BQSfLgXUa3KnhvzZnw",
          "width": 960
        }
      ],
      "place_id": "ChIJN7f7kFxawokRb6BCIFXiDDg",
      "plus_code": {
        "compound_code": "MXPX+Q9 Brooklyn, NY, USA",
        "global_code": "87G7MXPX+Q9"
      },
      "rating": 5,
      "reference": "ChIJN7f7kFxawokRb6BCIFXiDDg",
      "scope": "GOOGLE",
      "types": [
        "moving_company",
        "storage",
        "point_of_interest",
        "establishment"
      ],
      "user_ratings_total": 5,
      "vicinity": "145 Columbia Street, Brooklyn"
    },
    {
      "business_status": "OPERATIONAL",
      "geometry": {
        "location": {
          "lat": 40.6855435,
          "lng": -74.0051958
        },
        "viewport": {
          "northeast": {
            "lat": 40.68698528029151,
            "lng": -74.00378841970848
          },
          "southwest": {
            "lat": 40.68428731970851,
            "lng": -74.00648638029149
          }
        }
      },
      "icon": "https://maps.gstatic.com/mapfiles/place_api/icons/v1/png_71/generic_business-71.png",
      "icon_background_color": "#7B9EB0",
      "icon_mask_base_uri": "https://maps.gstatic.com/mapfiles/place_api/icons/v2/generic_pinlet",
      "name": "Lonuzzi & Woodland, LLP",
      "opening_hours": {
        "open_now": false
      },
      "photos": [
        {
          "height": 3024,
          "html_attributions": [
            "<a href=\"https://maps.google.com/maps/contrib/116143360801466858699\">Lonuzzi &amp; Woodland, LLP</a>"
          ],
          "photo_reference": "AeJbb3cLk4e9iGpXPbqbMYBEBEQcpdNVaSsgPSpFda9NNBcpon55qGSlYrkxR7AEldOB9MPvNQdp4MQtlSHmPSo9-Q-cikV1_95VjgOBhoDe9R4pZY1ecDRVF14Z70cirw7fFFwROAS-LuCwBLqCp1o-W7sivwW_747Ug9x7BklMORnrSk-B",
          "width": 4032
        }
      ],
      "place_id": "ChIJp9FXlF1awokR1knWLLte8xg",
      "plus_code": {
        "compound_code": "MXPV+6W Brooklyn, NY, USA",
        "global_code": "87G7MXPV+6W"
      },
      "rating": 5,
      "reference": "ChIJp9FXlF1awokR1knWLLte8xg",
      "scope": "GOOGLE",
      "types": [
        "lawyer",
        "point_of_interest",
        "establishment"
      ],
      "user_ratings_total": 1,
      "vicinity": "60 Sackett Street Suite 2002, Brooklyn"
    },
    {
      "business_status": "CLOSED_TEMPORARILY",
      "geometry": {
        "location": {
          "lat": 40.685408,
          "lng": -74.001993
        },
        "viewport": {
          "northeast": {
            "lat": 40.6868578302915,
            "lng": -74.0005961697085
          },
          "southwest": {
            "lat": 40.6841598697085,
            "lng": -74.00329413029151
          }
        }
      },
      "icon": "https://maps.gstatic.com/mapfiles/place_api/icons/v1/png_71/generic_business-71.png",
      "icon_background_color": "#7B9EB0",
      "icon_mask_base_uri": "https://maps.gstatic.com/mapfiles/place_api/icons/v2/generic_pinlet",
      "name": "J & F Cabling Contractors",
      "permanently_closed": true,
      "place_id": "ChIJtxRBaFxawokRssrv0ZUUwdM",
      "plus_code": {
        "compound_code": "MXPX+56 New York, NY, USA",
        "global_code": "87G7MXPX+56"
      },
      "rating": 5,
      "reference": "ChIJtxRBaFxawokRssrv0ZUUwdM",
      "scope": "GOOGLE",
      "types": [
        "point_of_interest",
        "establishment"
      ],
      "user_ratings_total": 2,
      "vicinity": "130 Degraw Street, Brooklyn"
    },
    {
      "business_status": "CLOSED_TEMPORARILY",
      "geometry": {
        "location": {
          "lat": 40.684018,
          "lng": -73.99974
        },
        "viewport": {
          "northeast": {
            "lat": 40.6853506802915,
            "lng": -73.99825996970849
          },
          "southwest": {
            "lat": 40.6826527197085,
            "lng": -74.0009579302915
          }
        }
      },
      "icon": "https://maps.gstatic.com/mapfiles/place_api/icons/v1/png_71/generic_business-71.png",
      "icon_background_color": "#7B9EB0",
      "icon_mask_base_uri": "https://maps.gstatic.com/mapfiles/place_api/icons/v2/generic_pinlet",
      "name": "The Society of the Citizens of Pozzallo",
      "permanently_closed": true,
      "photos": [
        {
          "height": 500,
          "html_attributions": [
            "<a href=\"https://maps.google.com/maps/contrib/101523293730959956425\">Dave Cook</a>"
          ],
          "photo_reference": "AeJbb3dz2xUBumDsHk4bmSaWMp8go-prj3Cnd0bd-65GuIZF-BHtyxPCABQxbrrXIlKNJ6aNHgnvtO-j1KOUG3sm-MvJp3wH9TCI4peCZ0pjLHp-GWkgbaWKv33HOASdakN-75DbxAU_kwmD1Zw3oZTdkfKr2oI-nWejGT872RFM5GJI63Ac",
          "width": 750
        }
      ],
      "place_id": "ChIJBY4171tawokRsKR4PB1wObg",
      "plus_code": {
        "compound_code": "M2M2+J4 New York, NY, USA",
        "global_code": "87G8M2M2+J4"
      },
      "rating": 4.5,
      "reference": "ChIJBY4171tawokRsKR4PB1wObg",
      "scope": "GOOGLE",
      "types": [
        "point_of_interest",
        "establishment"
      ],
      "user_ratings_total": 4,
      "vicinity": "504 Henry Street # A, Brooklyn"
    },
    {
      "business_status": "OPERATIONAL",
      "geometry": {
        "location": {
          "lat": 40.6879149,
          "lng": -74.0004019
        },
        "viewport": {
          "northeast": {
            "lat": 40.6893788302915,
            "lng": -73.99898731970849
          },
          "southwest": {
            "lat": 40.6866808697085,
            "lng": -74.00168528029151
          }
        }
      },
      "icon": "https://maps.gstatic.com/mapfiles/place_api/icons/v1/png_71/generic_business-71.png",
      "icon_background_color": "#7B9EB0",
      "icon_mask_base_uri": "https://maps.gstatic.com/mapfiles/place_api/icons/v2/generic_pinlet",
      "name": "GEORGE GILPIN INC.",
      "photos": [
        {
          "height": 2970,
          "html_attributions": [
            "<a href=\"https://maps.google.com/maps/contrib/106177056708322559726\">GEORGE GILPIN INC.</a>"
          ],
          "photo_reference": "AeJbb3cz0u7-Re3Jlu6fhYcFItQSCms0HKkrlu1trOQFduXDmuiqWiONgiRgHmv4yU0vPF7mfU76MpR4kpGsvJBRVW5cWX0UCNAOcB-2nmm3lKzXlOU7DQU9tozA8copGZZNrmOaOaXlfQBOc6pcwPRWUcm2vG9d1GnoIIGwiYNLXcqbGKq5",
          "width": 2970
        }
      ],
      "place_id": "ChIJnYsnV1tawokRCCDv8o6iRF4",
      "plus_code": {
        "compound_code": "MXQX+5R Brooklyn, NY, USA",
        "global_code": "87G7MXQX+5R"
      },
      "reference": "ChIJnYsnV1tawokRCCDv8o6iRF4",
      "scope": "GOOGLE",
      "types": [
        "point_of_interest",
        "establishment"
      ],
      "vicinity": "104 Baltic Street, Brooklyn"
    },
    {
      "business_status": "OPERATIONAL",
      "geometry": {
        "location": {
          "lat": 40.68557320000001,
          "lng": -74.0051608
        },
        "viewport": {
          "northeast": {
            "lat": 40.6869921302915,
            "lng": -74.00375601970849
          },
          "southwest": {
            "lat": 40.6842941697085,
            "lng": -74.0064539802915
          }
        }
      },
      "icon": "https://maps.gstatic.com/mapfiles/place_api/icons/v1/png_71/generic_business-71.png",
      "icon_background_color": "#7B9EB0",
      "icon_mask_base_uri": "https://maps.gstatic.com/mapfiles/place_api/icons/v2/generic_pinlet",
      "name": "Cheever Development",
      "place_id": "ChIJp9FXlF1awokRWghVnxxvCeY",
      "plus_code": {
        "compound_code": "MXPV+6W New York, NY, USA",
        "global_code": "87G7MXPV+6W"
      },
      "rating": 5,
      "reference": "ChIJp9FXlF1awokRWghVnxxvCeY",
      "scope": "GOOGLE",
      "types": [
        "general_contractor",
        "point_of_interest",
        "establishment"
      ],
      "user_ratings_total": 1,
      "vicinity": "60 Sackett Street, Brooklyn"
    },
    {
      "business_status": "OPERATIONAL",
      "geometry": {
        "location": {
          "lat": 40.6864895,
          "lng": -74.0017575
        },
        "viewport": {
          "northeast": {
            "lat": 40.68786988029151,
            "lng": -74.0005189697085
          },
          "southwest": {
            "lat": 40.68517191970851,
            "lng": -74.0032169302915
          }
        }
      },
      "icon": "https://maps.gstatic.com/mapfiles/place_api/icons/v1/png_71/generic_business-71.png",
      "icon_background_color": "#7B9EB0",
      "icon_mask_base_uri": "https://maps.gstatic.com/mapfiles/place_api/icons/v2/generic_pinlet",
      "name": "JK focus Photography",
      "opening_hours": {
        "open_now": true
      },
      "photos": [
        {
          "height": 401,
          "html_attributions": [
            "<a href=\"https://maps.google.com/maps/contrib/100870781110231122973\">JK focus Photography</a>"
          ],
          "photo_reference": "AeJbb3eNqvRaJbdZ_MRTotNw6qrb4de6O4qKTaX5mGcsjqC3Te_fI7BGk0oRAMI58ZTBv2tHE7FWu0dsUjvM37kvyypQ8Z_VYaefffOVG0uZJsrGD-5pIvJPnU2kRoMFgEdZb0T41hxODEHuTCOSnQwEQpa6EfQ7ElfKnw7Dr36KCsC5YXgg",
          "width": 516
        }
      ],
      "place_id": "ChIJJUuOTb--woARXJcFno9LU-U",
      "plus_code": {
        "compound_code": "MXPX+H7 Brooklyn, NY, USA",
        "global_code": "87G7MXPX+H7"
      },
      "rating": 5,
      "reference": "ChIJJUuOTb--woARXJcFno9LU-U",
      "scope": "GOOGLE",
      "types": [
        "point_of_interest",
        "establishment"
      ],
      "user_ratings_total": 2,
      "vicinity": "159 Columbia Street, Brooklyn"
    },
    {
      "business_status": "CLOSED_TEMPORARILY",
      "geometry": {
        "location": {
          "lat": 40.6834318,
          "lng": -74.0028134
        },
        "viewport": {
          "northeast": {
            "lat": 40.6848437802915,
            "lng": -74.0014337197085
          },
          "southwest": {
            "lat": 40.6821458197085,
            "lng": -74.00413168029151
          }
        }
      },
      "icon": "https://maps.gstatic.com/mapfiles/place_api/icons/v1/png_71/generic_business-71.png",
      "icon_background_color": "#7B9EB0",
      "icon_mask_base_uri": "https://maps.gstatic.com/mapfiles/place_api/icons/v2/generic_pinlet",
      "name": "CE Pictures Photography",
      "permanently_closed": true,
      "place_id": "ChIJOXjRhF5awokR6WuTUd4Cxzg",
      "plus_code": {
        "compound_code": "MXMW+9V Brooklyn, NY, USA",
        "global_code": "87G7MXMW+9V"
      },
      "reference": "ChIJOXjRhF5awokR6WuTUd4Cxzg",
      "scope": "GOOGLE",
      "types": [
        "point_of_interest",
        "establishment"
      ],
      "vicinity": "104 President Street, Brooklyn"
    },
    {
      "business_status": "OPERATIONAL",
      "geometry": {
        "location": {
          "lat": 40.6831139,
          "lng": -74.0034332
        },
        "viewport": {
          "northeast": {
            "lat": 40.6844064802915,
            "lng": -74.00211161970849
          },
          "southwest": {
            "lat": 40.6817085197085,
            "lng": -74.0048095802915
          }
        }
      },
      "icon": "https://maps.gstatic.com/mapfiles/place_api/icons/v1/png_71/park-71.png",
      "icon_background_color": "#4DB546",
      "icon_mask_base_uri": "https://maps.gstatic.com/mapfiles/place_api/icons/v2/tree_pinlet",
      "name": "The Amazing Garden",
      "photos": [
        {
          "height": 720,
          "html_attributions": [
            "<a href=\"https://maps.google.com/maps/contrib/114934618263129596076\">Jane Hunter</a>"
          ],
          "photo_reference": "AeJbb3cIbgfLGVRMazxia7Y5OvEkTVoLAOtpLEXdJdu2ts0nu-B1ySEfj-EFijZ2Xs4ZzE-BG-M5WzfXcJp2a6cmZAJUC8drL3Ld7cUcA-ogA6zhR2omNG-uzOTZ5XjnDuyjsQWdA3ZamkzGkVugc-aNUTutNeGuwJ6fs_4AvILD6bVyO-U7",
          "width": 960
        }
      ],
      "place_id": "ChIJ829aiF5awokRt7AG2uxtQ6Y",
      "plus_code": {
        "compound_code": "MXMW+6J Brooklyn, NY, USA",
        "global_code": "87G7MXMW+6J"
      },
      "rating": 4.5,
      "reference": "ChIJ829aiF5awokRt7AG2uxtQ6Y",
      "scope": "GOOGLE",
      "types": [
        "park",
        "point_of_interest",
        "establishment"
      ],
      "user_ratings_total": 13,
      "vicinity": "58 Carroll Street, Brooklyn"
    },
    {
      "business_status": "OPERATIONAL",
      "geometry": {
        "location": {
          "lat": 40.6868788,
          "lng": -73.99932439999999
        },
        "viewport": {
          "northeast": {
            "lat": 40.6883110802915,
            "lng": -73.99792801970848
          },
          "southwest": {
            "lat": 40.6856131197085,
            "lng": -74.0006259802915
          }
        }
      },
      "icon": "https://maps.gstatic.com/mapfiles/place_api/icons/v1/png_71/generic_business-71.png",
      "icon_background_color": "#7B9EB0",
      "icon_mask_base_uri": "https://maps.gstatic.com/mapfiles/place_api/icons/v2/generic_pinlet",
      "name": "Croft Property Management",
      "place_id": "ChIJ884Ba1tawokR6iSqFlf5n8A",
      "plus_code": {
        "compound_code": "M2P2+Q7 New York, NY, USA",
        "global_code": "87G8M2P2+Q7"
      },
      "reference": "ChIJ884Ba1tawokR6iSqFlf5n8A",
      "scope": "GOOGLE",
      "types": [
        "real_estate_agency",
        "point_of_interest",
        "establishment"
      ],
      "vicinity": "128 Kane Street, Brooklyn"
    },
    {
      "business_status": "OPERATIONAL",
      "geometry": {
        "location": {
          "lat": 40.6841371,
          "lng": -74.0026446
        },
        "viewport": {
          "northeast": {
            "lat": 40.6855527802915,
            "lng": -74.0012631197085
          },
          "southwest": {
            "lat": 40.6828548197085,
            "lng": -74.0039610802915
          }
        }
      },
      "icon": "https://maps.gstatic.com/mapfiles/place_api/icons/v1/png_71/generic_business-71.png",
      "icon_background_color": "#7B9EB0",
      "icon_mask_base_uri": "https://maps.gstatic.com/mapfiles/place_api/icons/v2/generic_pinlet",
      "name": "Henryboy",
      "photos": [
        {
          "height": 4032,
          "html_attributions": [
            "<a href=\"https://maps.google.com/maps/contrib/116121404319917347544\">Ted Brakob</a>"
          ],
          "photo_reference": "AeJbb3e_pgGgaAv2qyvxeP9oEqkPLWuAIXArErCYdzCfjYWxQFX-G4H9aRIBUrK8uG6yU6N2OLMyUhY7o7TsrhDIqIJOgp_asjq-bdWKgBgfZujF-fzN1yrV-Um5DeustB8MPcAb6QFpVYBwMrk7wiNT1mwqKVdfxZKH2qdcQTsaLTjb38ZO",
          "width": 3024
        }
      ],
      "place_id": "ChIJqxB0uTNawokRip5_G8frytA",
      "plus_code": {
        "compound_code": "MXMW+MW New York, NY, USA",
        "global_code": "87G7MXMW+MW"
      },
      "reference": "ChIJqxB0uTNawokRip5_G8frytA",
      "scope": "GOOGLE",
      "types": [
        "point_of_interest",
        "establishment"
      ],
      "vicinity": "120 Union Street, Brooklyn"
    },
    {
      "business_status": "CLOSED_TEMPORARILY",
      "geometry": {
        "location": {
          "lat": 40.68557320000001,
          "lng": -74.0051608
        },
        "viewport": {
          "northeast": {
            "lat": 40.68699763029151,
            "lng": -74.00377091970849
          },
          "southwest": {
            "lat": 40.68429966970852,
            "lng": -74.00646888029151
          }
        }
      },
      "icon": "https://maps.gstatic.com/mapfiles/place_api/icons/v1/png_71/generic_business-71.png",
      "icon_background_color": "#7B9EB0",
      "icon_mask_base_uri": "https://maps.gstatic.com/mapfiles/place_api/icons/v2/generic_pinlet",
      "name": "Risk Management Group LLC",
      "permanently_closed": true,
      "place_id": "ChIJp9FXlF1awokRLwvmYmSYMPU",
      "plus_code": {
        "compound_code": "MXPV+6W New York, NY, USA",
        "global_code": "87G7MXPV+6W"
      },
      "reference": "ChIJp9FXlF1awokRLwvmYmSYMPU",
      "scope": "GOOGLE",
      "types": [
        "insurance_agency",
        "point_of_interest",
        "establishment"
      ],
      "vicinity": "60 Sackett Street, Brooklyn"
    },
    {
      "business_status": "CLOSED_TEMPORARILY",
      "geometry": {
        "location": {
          "lat": 40.6845468,
          "lng": -73.9989571
        },
        "viewport": {
          "northeast": {
            "lat": 40.6859261802915,
            "lng": -73.9977195197085
          },
          "southwest": {
            "lat": 40.6832282197085,
            "lng": -74.00041748029152
          }
        }
      },
      "icon": "https://maps.gstatic.com/mapfiles/place_api/icons/v1/png_71/generic_business-71.png",
      "icon_background_color": "#7B9EB0",
      "icon_mask_base_uri": "https://maps.gstatic.com/mapfiles/place_api/icons/v2/generic_pinlet",
      "name": "Peter Forman Photography",
      "permanently_closed": true,
      "place_id": "ChIJ-4B2v1tawokRpz0LXWjY5nk",
      "plus_code": {
        "compound_code": "M2M2+RC Brooklyn, NY, USA",
        "global_code": "87G8M2M2+RC"
      },
      "reference": "ChIJ-4B2v1tawokRpz0LXWjY5nk",
      "scope": "GOOGLE",
      "types": [
        "point_of_interest",
        "establishment"
      ],
      "vicinity": "497 Henry Street, Brooklyn"
    },
    {
      "business_status": "OPERATIONAL",
      "geometry": {
        "location": {
          "lat": 40.6830462,
          "lng": -74.0029965
        },
        "viewport": {
          "northeast": {
            "lat": 40.6843148302915,
            "lng": -74.00168656970848
          },
          "southwest": {
            "lat": 40.6816168697085,
            "lng": -74.0043845302915
          }
        }
      },
      "icon": "https://maps.gstatic.com/mapfiles/place_api/icons/v1/png_71/generic_business-71.png",
      "icon_background_color": "#7B9EB0",
      "icon_mask_base_uri": "https://maps.gstatic.com/mapfiles/place_api/icons/v2/generic_pinlet",
      "name": "Central Brooklyn Medical Group",
      "place_id": "ChIJ0fMuiV5awokR9mA__70ncPs",
      "plus_code": {
        "compound_code": "MXMW+6R Brooklyn, NY, USA",
        "global_code": "87G7MXMW+6R"
      },
      "reference": "ChIJ0fMuiV5awokR9mA__70ncPs",
      "scope": "GOOGLE",
      "types": [
        "health",
        "point_of_interest",
        "establishment"
      ],
      "vicinity": "71 Carroll Street, Brooklyn"
    },
    {
      "business_status": "OPERATIONAL",
      "geometry": {
        "location": {
          "lat": 40.6853381,
          "lng": -74.0016083
        },
        "viewport": {
          "northeast": {
            "lat": 40.6867723802915,
            "lng": -74.0002188197085
          },
          "southwest": {
            "lat": 40.68407441970851,
            "lng": -74.0029167802915
          }
        }
      },
      "icon": "https://maps.gstatic.com/mapfiles/place_api/icons/v1/png_71/generic_business-71.png",
      "icon_background_color": "#7B9EB0",
      "icon_mask_base_uri": "https://maps.gstatic.com/mapfiles/place_api/icons/v2/generic_pinlet",
      "name": "Van Power",
      "photos": [
        {
          "height": 720,
          "html_attributions": [
            "<a href=\"https://maps.google.com/maps/contrib/110264101672525731083\">Bryan Wachtel</a>"
          ],
          "photo_reference": "AeJbb3fQvdX65ppPqa-8ldq_E2uZvau-hOlxTv3aaAmM-sTwhZajGj02KcpXPeeyrZvkvILdSiRKt1jnzzh5LcFYcCkeIjrOTp-lKhiRKbIjPWSyLxsnTVpd-DtJ0z8Vpgy66odlf_7fmMQRkUTn3cI6zVYn1Ju_2Fqi3pLE181NH7HXBYJv",
          "width": 960
        }
      ],
      "place_id": "ChIJed3fblxawokRKCC1vmiSlPQ",
      "plus_code": {
        "compound_code": "MXPX+49 Brooklyn, NY, USA",
        "global_code": "87G7MXPX+49"
      },
      "rating": 5,
      "reference": "ChIJed3fblxawokRKCC1vmiSlPQ",
      "scope": "GOOGLE",
      "types": [
        "point_of_interest",
        "establishment"
      ],
      "user_ratings_total": 1,
      "vicinity": "140 Degraw Street, Brooklyn"
    },
    {
      "business_status": "OPERATIONAL",
      "geometry": {
        "location": {
          "lat": 40.6833606,
          "lng": -74.00258389999999
        },
        "viewport": {
          "northeast": {
            "lat": 40.6847755802915,
            "lng": -74.00120271970847
          },
          "southwest": {
            "lat": 40.6820776197085,
            "lng": -74.0039006802915
          }
        }
      },
      "icon": "https://maps.gstatic.com/mapfiles/place_api/icons/v1/png_71/generic_business-71.png",
      "icon_background_color": "#7B9EB0",
      "icon_mask_base_uri": "https://maps.gstatic.com/mapfiles/place_api/icons/v2/generic_pinlet",
      "name": "Gaudioso Contracting",
      "place_id": "ChIJOxhTml5awokRspOJThO5EJs",
      "plus_code": {
        "compound_code": "MXMW+8X Brooklyn, NY, USA",
        "global_code": "87G7MXMW+8X"
      },
      "rating": 5,
      "reference": "ChIJOxhTml5awokRspOJThO5EJs",
      "scope": "GOOGLE",
      "types": [
        "general_contractor",
        "point_of_interest",
        "establishment"
      ],
      "user_ratings_total": 1,
      "vicinity": "112 President Street, Brooklyn"
    },
    {
      "business_status": "OPERATIONAL",
      "geometry": {
        "location": {
          "lat": 40.6859296,
          "lng": -74.0024236
        },
        "viewport": {
          "northeast": {
            "lat": 40.6872785802915,
            "lng": -74.0010746197085
          },
          "southwest": {
            "lat": 40.68458061970851,
            "lng": -74.00377258029151
          }
        }
      },
      "icon": "https://maps.gstatic.com/mapfiles/place_api/icons/v1/png_71/generic_business-71.png",
      "icon_background_color": "#7B9EB0",
      "icon_mask_base_uri": "https://maps.gstatic.com/mapfiles/place_api/icons/v2/generic_pinlet",
      "name": "Citi Bike: Columbia St & Degraw St",
      "photos": [
        {
          "height": 2448,
          "html_attributions": [
            "<a href=\"https://maps.google.com/maps/contrib/112044392253242445458\">RK Chin</a>"
          ],
          "photo_reference": "AeJbb3fVY9Jjn864BbuAv-XkMK7sP7H5W86ki0uUpoCgeQUqVq3qLD2RtO1v4lWsQgJ0i9CeBQM9_Y_dPN2tzeOcBDmCp6u7gPq_tGZtz9u7SQDwMaaSFZW9E0dLGNzL4EWf7LBNsVtGDQS1M7eu5HVkF57d6CXlsAXYqk4frJ-5ObjYOAOMybRl6g",
          "width": 3264
        }
      ],
      "place_id": "ChIJPVi3XlxawokRmuKyRla78oQ",
      "plus_code": {
        "compound_code": "MXPX+92 Brooklyn, NY, USA",
        "global_code": "87G7MXPX+92"
      },
      "rating": 5,
      "reference": "ChIJPVi3XlxawokRmuKyRla78oQ",
      "scope": "GOOGLE",
      "types": [
        "point_of_interest",
        "establishment"
      ],
      "user_ratings_total": 1,
      "vicinity": "Brooklyn"
    },
    {
      "business_status": "OPERATIONAL",
      "geometry": {
        "location": {
          "lat": 40.68598679999999,
          "lng": -74.0020519
        },
        "viewport": {
          "northeast": {
            "lat": 40.68736083029149,
            "lng": -74.0007922697085
          },
          "southwest": {
            "lat": 40.68466286970849,
            "lng": -74.0034902302915
          }
        }
      },
      "icon": "https://maps.gstatic.com/mapfiles/place_api/icons/v1/png_71/generic_business-71.png",
      "icon_background_color": "#7B9EB0",
      "icon_mask_base_uri": "https://maps.gstatic.com/mapfiles/place_api/icons/v2/generic_pinlet",
      "name": "Postgraduate Center for Mental Health",
      "place_id": "ChIJt4Z8YFxawokRluvkEzISWhc",
      "plus_code": {
        "compound_code": "MXPX+95 New York, NY, USA",
        "global_code": "87G7MXPX+95"
      },
      "rating": 2.3,
      "reference": "ChIJt4Z8YFxawokRluvkEzISWhc",
      "scope": "GOOGLE",
      "types": [
        "health",
        "point_of_interest",
        "establishment"
      ],
      "user_ratings_total": 3,
      "vicinity": "177 Columbia Street, Brooklyn"
    },
    {
      "business_status": "OPERATIONAL",
      "geometry": {
        "location": {
          "lat": 40.6855227,
          "lng": -74.0026604
        },
        "viewport": {
          "northeast": {
            "lat": 40.6868662802915,
            "lng": -74.0012196197085
          },
          "southwest": {
            "lat": 40.6841683197085,
            "lng": -74.00391758029151
          }
        }
      },
      "icon": "https://maps.gstatic.com/mapfiles/place_api/icons/v1/png_71/restaurant-71.png",
      "icon_background_color": "#FF9E67",
      "icon_mask_base_uri": "https://maps.gstatic.com/mapfiles/place_api/icons/v2/restaurant_pinlet",
      "name": "Mex Carroll's Diner",
      "opening_hours": {
        "open_now": true
      },
      "photos": [
        {
          "height": 3024,
          "html_attributions": [
            "<a href=\"https://maps.google.com/maps/contrib/115464860245613750068\">Mex Carroll&#39;s Diner</a>"
          ],
          "photo_reference": "AeJbb3cGNX7h3vgpCWBv-VUumYRzu3Hm3WUfukAhobW3eKPuIIpy6KgU9lEW1GNrRMZmOmllq95v0ekwgxusgRBBEABXTzRZIyXVCXChHNcoNgrSvRu5oPZpCZFc4fIXBNf0GfheZ-xRJihbeek6LS4PNla95N-xIKKH82DFcZTLsKZ65fMY",
          "width": 4032
        }
      ],
      "place_id": "ChIJW0QgRVxawokRUyql2Nk9v0k",
      "plus_code": {
        "compound_code": "MXPW+6W Brooklyn, NY, USA",
        "global_code": "87G7MXPW+6W"
      },
      "price_level": 2,
      "rating": 4.4,
      "reference": "ChIJW0QgRVxawokRUyql2Nk9v0k",
      "scope": "GOOGLE",
      "types": [
        "restaurant",
        "food",
        "point_of_interest",
        "establishment"
      ],
      "user_ratings_total": 145,
      "vicinity": "192 Columbia Street, Brooklyn"
    },
    {
      "business_status": "OPERATIONAL",
      "geometry": {
        "location": {
          "lat": 40.6855057,
          "lng": -74.0021818
        },
        "viewport": {
          "northeast": {
            "lat": 40.6868859302915,
            "lng": -74.0009643697085
          },
          "southwest": {
            "lat": 40.6841879697085,
            "lng": -74.0036623302915
          }
        }
      },
      "icon": "https://maps.gstatic.com/mapfiles/place_api/icons/v1/png_71/generic_business-71.png",
      "icon_background_color": "#7B9EB0",
      "icon_mask_base_uri": "https://maps.gstatic.com/mapfiles/place_api/icons/v2/generic_pinlet",
      "name": "Poppy's Catering Delivery",
      "opening_hours": {
        "open_now": true
      },
      "photos": [
        {
          "height": 3024,
          "html_attributions": [
            "<a href=\"https://maps.google.com/maps/contrib/111808704529949570977\">julio morales</a>"
          ],
          "photo_reference": "AeJbb3eR93yG8XaD2T5LsGOGExBgIxm8BOdJZu1AGkQr4gVDfpkFGBQIah8eSrA07wexUkhmuKdv1U96VxOUvqBK50OSbU3MSt5xtTQOhYtORW3lOGS8lrU9RJNXskyL38RC37XvrAz9qIOHA5vaUMXxGRuahRdEjvVCmYUG8eB9wZAnP2Wr",
          "width": 4032
        }
      ],
      "place_id": "ChIJfVG3XFxawokR750gO9xdrkI",
      "plus_code": {
        "compound_code": "MXPX+64 Brooklyn, NY, USA",
        "global_code": "87G7MXPX+64"
      },
      "rating": 4.5,
      "reference": "ChIJfVG3XFxawokR750gO9xdrkI",
      "scope": "GOOGLE",
      "types": [
        "food",
        "point_of_interest",
        "establishment"
      ],
      "user_ratings_total": 2,
      "vicinity": "189 Columbia Street, Brooklyn"
    },
    {
      "business_status": "OPERATIONAL",
      "geometry": {
        "location": {
          "lat": 40.6852598,
          "lng": -74.00287089999999
        },
        "viewport": {
          "northeast": {
            "lat": 40.6865749802915,
            "lng": -74.00139846970849
          },
          "southwest": {
            "lat": 40.6838770197085,
            "lng": -74.00409643029151
          }
        }
      },
      "icon": "https://maps.gstatic.com/mapfiles/place_api/icons/v1/png_71/park-71.png",
      "icon_background_color": "#4DB546",
      "icon_mask_base_uri": "https://maps.gstatic.com/mapfiles/place_api/icons/v2/tree_pinlet",
      "name": "South Brooklyn Children's Garden",
      "opening_hours": {
        "open_now": true
      },
      "photos": [
        {
          "height": 1080,
          "html_attributions": [
            "<a href=\"https://maps.google.com/maps/contrib/105169065134291267227\">Laura Lok</a>"
          ],
          "photo_reference": "AeJbb3eGP2zuAiJB9jV9Nqhqv0_YQscory1QD93CJBkdUsDTWTXWjBX2JMotcmvqi4hLHs1QBlbMyuCPCVfvClf_436dgJnPgo92czXuiS-e-eSvtc8U-BBtqsr09Tp4Azq9Dwn9A09ctwJP8eaPnIWO-53qQFglqcwRUargg7gZrMl6Cglq",
          "width": 1920
        }
      ],
      "place_id": "ChIJX7y-SFxawokRh4WltnhH0wo",
      "plus_code": {
        "compound_code": "MXPW+4V Brooklyn, NY, USA",
        "global_code": "87G7MXPW+4V"
      },
      "rating": 4.5,
      "reference": "ChIJX7y-SFxawokRh4WltnhH0wo",
      "scope": "GOOGLE",
      "types": [
        "tourist_attraction",
        "park",
        "point_of_interest",
        "establishment"
      ],
      "user_ratings_total": 6,
      "vicinity": "204 Columbia Street, Brooklyn"
    },
    {
      "business_status": "OPERATIONAL",
      "geometry": {
        "location": {
          "lat": 40.6863027,
          "lng": -74.0013517
        },
        "viewport": {
          "northeast": {
            "lat": 40.6876101802915,
            "lng": -73.9999020697085
          },
          "southwest": {
            "lat": 40.6849122197085,
            "lng": -74.0026000302915
          }
        }
      },
      "icon": "https://maps.gstatic.com/mapfiles/place_api/icons/v1/png_71/generic_business-71.png",
      "icon_background_color": "#7B9EB0",
      "icon_mask_base_uri": "https://maps.gstatic.com/mapfiles/place_api/icons/v2/generic_pinlet",
      "name": "Vincas Meilus Archtiect",
      "place_id": "ChIJ9ZZ6hlxawokRff9JDUDZ8cc",
      "plus_code": {
        "compound_code": "MXPX+GF Brooklyn, NY, USA",
        "global_code": "87G7MXPX+GF"
      },
      "reference": "ChIJ9ZZ6hlxawokRff9JDUDZ8cc",
      "scope": "GOOGLE",
      "types": [
        "point_of_interest",
        "establishment"
      ],
      "vicinity": "38 Tiffany Place, Brooklyn"
    },
    {
      "business_status": "OPERATIONAL",
      "geometry": {
        "location": {
          "lat": 40.6852118,
          "lng": -74.0037739
        },
        "viewport": {
          "northeast": {
            "lat": 40.6866214802915,
            "lng": -74.00237251970849
          },
          "southwest": {
            "lat": 40.68392351970851,
            "lng": -74.00507048029151
          }
        }
      },
      "icon": "https://maps.gstatic.com/mapfiles/place_api/icons/v1/png_71/generic_business-71.png",
      "icon_background_color": "#7B9EB0",
      "icon_mask_base_uri": "https://maps.gstatic.com/mapfiles/place_api/icons/v2/generic_pinlet",
      "name": "Atelier Garcia",
      "place_id": "ChIJOQk43V1awokRtZoCdO34ZCA",
      "plus_code": {
        "compound_code": "MXPW+3F Brooklyn, NY, USA",
        "global_code": "87G7MXPW+3F"
      },
      "reference": "ChIJOQk43V1awokRtZoCdO34ZCA",
      "scope": "GOOGLE",
      "types": [
        "point_of_interest",
        "establishment"
      ],
      "vicinity": "100 Sackett Street, Brooklyn"
    },
    {
      "business_status": "OPERATIONAL",
      "geometry": {
        "location": {
          "lat": 40.6847065,
          "lng": -74.003056
        },
        "viewport": {
          "northeast": {
            "lat": 40.6860558802915,
            "lng": -74.00161176970849
          },
          "southwest": {
            "lat": 40.6833579197085,
            "lng": -74.00430973029151
          }
        }
      },
      "icon": "https://maps.gstatic.com/mapfiles/place_api/icons/v1/png_71/restaurant-71.png",
      "icon_background_color": "#FF9E67",
      "icon_mask_base_uri": "https://maps.gstatic.com/mapfiles/place_api/icons/v2/restaurant_pinlet",
      "name": "Lumdee Thai Cuisine",
      "opening_hours": {
        "open_now": true
      },
      "photos": [
        {
          "height": 3024,
          "html_attributions": [
            "<a href=\"https://maps.google.com/maps/contrib/110909029061593917761\">Lumdee Thai Cuisine</a>"
          ],
          "photo_reference": "AeJbb3cr3n_6ssHkKhfZolUfBxInCMePICtVTl4gfTs0WgZSAFGGEkMk_ggwaR_xFqU7OO_ezMnprMvbF41t7ev3p65fNGbWr_ZeWVlqeoHaXg_pXN4MBHOED4c-gW-99tCVrYIG58XJmUUsYuzK3VPqhBG1blJoK7MSH_6jbMit3rBpS0K8",
          "width": 4032
        }
      ],
      "place_id": "ChIJ9SCtVpFbwokRBO4cQl3UI7Y",
      "plus_code": {
        "compound_code": "MXMW+VQ New York, NY, USA",
        "global_code": "87G7MXMW+VQ"
      },
      "price_level": 2,
      "rating": 4.5,
      "reference": "ChIJ9SCtVpFbwokRBO4cQl3UI7Y",
      "scope": "GOOGLE",
      "types": [
        "restaurant",
        "food",
        "point_of_interest",
        "establishment"
      ],
      "user_ratings_total": 73,
      "vicinity": "218 Columbia Street, Brooklyn"
    },
    {
      "business_status": "OPERATIONAL",
      "geometry": {
        "location": {
          "lat": 40.68452979999999,
          "lng": -74.0023507
        },
        "viewport": {
          "northeast": {
            "lat": 40.6857310802915,
            "lng": -74.00105166970849
          },
          "southwest": {
            "lat": 40.6830331197085,
            "lng": -74.00374963029151
          }
        }
      },
      "icon": "https://maps.gstatic.com/mapfiles/place_api/icons/v1/png_71/generic_business-71.png",
      "icon_background_color": "#7B9EB0",
      "icon_mask_base_uri": "https://maps.gstatic.com/mapfiles/place_api/icons/v2/generic_pinlet",
      "name": "Brooklyn Born",
      "place_id": "ChIJXf3uPFxawokRsjkY_cyQQCE",
      "plus_code": {
        "compound_code": "MXMX+R3 New York, NY, USA",
        "global_code": "87G7MXMX+R3"
      },
      "reference": "ChIJXf3uPFxawokRsjkY_cyQQCE",
      "scope": "GOOGLE",
      "types": [
        "health",
        "point_of_interest",
        "establishment"
      ],
      "vicinity": "135 Union Street, Brooklyn"
    },
    {
      "business_status": "OPERATIONAL",
      "geometry": {
        "location": {
          "lat": 40.68459619999999,
          "lng": -74.0031879
        },
        "viewport": {
          "northeast": {
            "lat": 40.6858885302915,
            "lng": -74.00196506970849
          },
          "southwest": {
            "lat": 40.6831905697085,
            "lng": -74.00466303029151
          }
        }
      },
      "icon": "https://maps.gstatic.com/mapfiles/place_api/icons/v1/png_71/generic_business-71.png",
      "icon_background_color": "#7B9EB0",
      "icon_mask_base_uri": "https://maps.gstatic.com/mapfiles/place_api/icons/v2/generic_pinlet",
      "name": "Creative Arts Studio",
      "place_id": "ChIJIeJ-MVxawokRpQJ-KEx_WZg",
      "plus_code": {
        "compound_code": "MXMW+RP Brooklyn, NY, USA",
        "global_code": "87G7MXMW+RP"
      },
      "reference": "ChIJIeJ-MVxawokRpQJ-KEx_WZg",
      "scope": "GOOGLE",
      "types": [
        "point_of_interest",
        "establishment"
      ],
      "vicinity": "119 Union Street, Brooklyn"
    },
    {
      "business_status": "OPERATIONAL",
      "geometry": {
        "location": {
          "lat": 40.6845658,
          "lng": -74.0031364
        },
        "viewport": {
          "northeast": {
            "lat": 40.6859007802915,
            "lng": -74.0016892197085
          },
          "southwest": {
            "lat": 40.6832028197085,
            "lng": -74.0043871802915
          }
        }
      },
      "icon": "https://maps.gstatic.com/mapfiles/place_api/icons/v1/png_71/shopping-71.png",
      "icon_background_color": "#4B96F3",
      "icon_mask_base_uri": "https://maps.gstatic.com/mapfiles/place_api/icons/v2/shopping_pinlet",
      "name": "Botanica El Phoenix",
      "opening_hours": {
        "open_now": true
      },
      "photos": [
        {
          "height": 3024,
          "html_attributions": [
            "<a href=\"https://maps.google.com/maps/contrib/108625791953752502442\">Art Danilchick</a>"
          ],
          "photo_reference": "AeJbb3dhdxohugmrfZMdF_Es4J9WBza5QfjlRHdoH44DXud4x8X5eoKEBx4kJ96wqdUIXDWIE612gRvVh6ZE6oj_JdiVpIK6F-_5Xhe9X77tGszHk_EwSeKyoFMwcYdjMVSCQNguisOuukPMqMsBmFMDXe6dR1ZhiyxcPskbmFSdMN4bPxyi",
          "width": 4032
        }
      ],
      "place_id": "ChIJ2_uHMVxawokRhpLNKuYFlC8",
      "plus_code": {
        "compound_code": "MXMW+RP New York, NY, USA",
        "global_code": "87G7MXMW+RP"
      },
      "rating": 4.7,
      "reference": "ChIJ2_uHMVxawokRhpLNKuYFlC8",
      "scope": "GOOGLE",
      "types": [
        "point_of_interest",
        "store",
        "establishment"
      ],
      "user_ratings_total": 62,
      "vicinity": "224 Columbia Street, Brooklyn"
    },
    {
      "business_status": "OPERATIONAL",
      "geometry": {
        "location": {
          "lat": 40.6848436,
          "lng": -74.0037775
        },
        "viewport": {
          "northeast": {
            "lat": 40.6860876802915,
            "lng": -74.00247946970849
          },
          "southwest": {
            "lat": 40.6833897197085,
            "lng": -74.00517743029151
          }
        }
      },
      "icon": "https://maps.gstatic.com/mapfiles/place_api/icons/v1/png_71/generic_business-71.png",
      "icon_background_color": "#7B9EB0",
      "icon_mask_base_uri": "https://maps.gstatic.com/mapfiles/place_api/icons/v2/generic_pinlet",
      "name": "Velocita",
      "opening_hours": {
        "open_now": false
      },
      "photos": [
        {
          "height": 2048,
          "html_attributions": [
            "<a href=\"https://maps.google.com/maps/contrib/102406527058592544329\">Velocita</a>"
          ],
          "photo_reference": "AeJbb3frMCN_zOqwUyxagWp9RS5MyEtR17fqqklUbTykXdcQbG7XCifJI1gyTxQdjL1Q2ofNBnEaAIw9DqAoimFbQhRSEx_aVBvxAgQJCSdjoAluGepwKQvgx_j0xCtW8Gqu36i2-CY-dE0Uf0AXaRpdECSNi0SoxwzAHGCG-da1T4KpPjiS",
          "width": 1536
        }
      ],
      "place_id": "ChIJW_uF2QZcwokRPrvQEx9Xblk",
      "plus_code": {
        "compound_code": "MXMW+WF Brooklyn, NY, USA",
        "global_code": "87G7MXMW+WF"
      },
      "rating": 4.6,
      "reference": "ChIJW_uF2QZcwokRPrvQEx9Xblk",
      "scope": "GOOGLE",
      "types": [
        "point_of_interest",
        "car_repair",
        "establishment"
      ],
      "user_ratings_total": 9,
      "vicinity": "97 Union Street, Brooklyn"
    },
    {
      "business_status": "OPERATIONAL",
      "geometry": {
        "location": {
          "lat": 40.685525,
          "lng": -74.005178
        },
        "viewport": {
          "northeast": {
            "lat": 40.6869728302915,
            "lng": -74.0037795197085
          },
          "southwest": {
            "lat": 40.6842748697085,
            "lng": -74.00647748029151
          }
        }
      },
      "icon": "https://maps.gstatic.com/mapfiles/place_api/icons/v1/png_71/generic_business-71.png",
      "icon_background_color": "#7B9EB0",
      "icon_mask_base_uri": "https://maps.gstatic.com/mapfiles/place_api/icons/v2/generic_pinlet",
      "name": "Rahmann Contracting",
      "opening_hours": {
        "open_now": false
      },
      "place_id": "ChIJp9FXlF1awokRvYVtz2iPC9w",
      "plus_code": {
        "compound_code": "MXPV+6W Brooklyn, NY, USA",
        "global_code": "87G7MXPV+6W"
      },
      "rating": 5,
      "reference": "ChIJp9FXlF1awokRvYVtz2iPC9w",
      "scope": "GOOGLE",
      "types": [
        "point_of_interest",
        "establishment"
      ],
      "user_ratings_total": 1,
      "vicinity": "60 Sackett Street, Brooklyn"
    },
    {
      "business_status": "OPERATIONAL",
      "geometry": {
        "location": {
          "lat": 40.68488769999999,
          "lng": -74.0038869
        },
        "viewport": {
          "northeast": {
            "lat": 40.6861258302915,
            "lng": -74.00259176970849
          },
          "southwest": {
            "lat": 40.6834278697085,
            "lng": -74.0052897302915
          }
        }
      },
      "icon": "https://maps.gstatic.com/mapfiles/place_api/icons/v1/png_71/generic_business-71.png",
      "icon_background_color": "#7B9EB0",
      "icon_mask_base_uri": "https://maps.gstatic.com/mapfiles/place_api/icons/v2/generic_pinlet",
      "name": "My Battery Recyclers (MYBRS)",
      "opening_hours": {
        "open_now": false
      },
      "photos": [
        {
          "height": 2448,
          "html_attributions": [
            "<a href=\"https://maps.google.com/maps/contrib/100085939254276806032\">My Battery Recyclers (MYBRS)</a>"
          ],
          "photo_reference": "AeJbb3fTjYgHzWnH_e9qw9wjwSNaHWONdS-2ehboryhZImTsiZLQ0vDhx2MHyprA_Qopa8KrUd9EHMfSXb3LRrMY9XiGVvy9hfLSJryKDsKe1xJe67A1QUDdvou6EVx8EUJ929bTTWj1tkP68wv7udY0R2J6XA4bSzhJYVWb0jf_iCYgvVh8",
          "width": 3264
        }
      ],
      "place_id": "ChIJ8XsA9NRawokRuA3ACWeGrXc",
      "plus_code": {
        "compound_code": "MXMW+XC Brooklyn, NY, USA",
        "global_code": "87G7MXMW+XC"
      },
      "rating": 5,
      "reference": "ChIJ8XsA9NRawokRuA3ACWeGrXc",
      "scope": "GOOGLE",
      "types": [
        "point_of_interest",
        "establishment"
      ],
      "user_ratings_total": 12,
      "vicinity": "95 Union St. Appointment Only, Brooklyn"
    },
    {
      "business_status": "CLOSED_TEMPORARILY",
      "geometry": {
        "location": {
          "lat": 40.68583400000001,
          "lng": -74.004521
        },
        "viewport": {
          "northeast": {
            "lat": 40.6870656302915,
            "lng": -74.0031801197085
          },
          "southwest": {
            "lat": 40.6843676697085,
            "lng": -74.00587808029151
          }
        }
      },
      "icon": "https://maps.gstatic.com/mapfiles/place_api/icons/v1/png_71/generic_business-71.png",
      "icon_background_color": "#7B9EB0",
      "icon_mask_base_uri": "https://maps.gstatic.com/mapfiles/place_api/icons/v2/generic_pinlet",
      "name": "Iron Knife Films, Ltd.",
      "permanently_closed": true,
      "place_id": "ChIJ6Y0uu11awokRyS1WWdl3HA8",
      "plus_code": {
        "compound_code": "MXPW+85 Brooklyn, NY, USA",
        "global_code": "87G7MXPW+85"
      },
      "reference": "ChIJ6Y0uu11awokRyS1WWdl3HA8",
      "scope": "GOOGLE",
      "types": [
        "point_of_interest",
        "establishment"
      ],
      "vicinity": "75 Van Brunt Street, Brooklyn"
    }
  ],
  "status": "OK"
}