{
  "html_attributions": [],
  "results": [
    {
      "geometry": {
        "location": {
          "lat": 40.7127753,
          "lng": -74.0059728
        },
        "viewport": {
          "northeast": {
            "lat": 40.91757705070789,
            "lng": -73.70027206817629
          },
          "southwest": {
            "lat": 40.47739906045452,
            "lng": -74.25908991427882
          }
        }
      },
      "icon": "https://maps.gstatic.com/mapfiles/place_api/icons/v1/png_71/geocode-71.png",
      "icon_background_color": "#7B9EB0",
      "icon_mask_base_uri": "https://maps.gstatic.com/mapfiles/place_api/icons/v2/generic_pinlet",
      "name": "\u7d10\u7d04",
      "photos": [
        {
          "height": 600,
          "html_attributions": [
            "<a href=\"https://maps.google.com/maps/contrib/102389334567210814614\">Bukurie</a>"
          ],
          "photo_reference": "AeJbb3dU2kwPs80X-8-Tl_owkbO6RA_DGLEbO4eqLHWFcuuEPPFA_eY9wsR0GGxAAc1X38-saWNOKVMP-7JqqIeB3XazAn0Hi6sEh3Va2H37-D__GL5Y2zDZnRWY47BqwHEVM-rbFDv-NePr_M34FeZ3tjoLUCZKvNrCA1wtK57squ8dxnRa",
          "width": 480
        }
      ],
      "place_id": "ChIJOwg_06VPwokRYv534QaPC8g",
      "reference": "ChIJOwg_06VPwokRYv534QaPC8g",
      "scope": "GOOGLE",
      "types": [
        "locality",
        "political"
      ],
      "vicinity": "\u7d10\u7d04"
    },
    {
      "business_status": "OPERATIONAL",
      "geometry": {
        "location": {
          "lat": 40.7969681,
          "lng": -73.938121
        },
        "viewport": {
          "northeast": {
            "lat": 40.79839458029151,
            "lng": -73.93673216970849
          },
          "southwest": {
            "lat": 40.79569661970851,
            "lng": -73.9394301302915
          }
        }
      },
      "icon": "https://maps.gstatic.com/mapfiles/place_api/icons/v1/png_71/restaurant-71.png",
      "icon_background_color": "#FF9E67",
      "icon_mask_base_uri": "https://maps.gstatic.com/mapfiles/place_api/icons/v2/restaurant_pinlet",
      "name": "El Nuevo Caridad",
      "opening_hours": {
        "open_now": true
      },
      "photos": [
        {
          "height": 2912,
          "html_attributions": [
            "<a href=\"https://maps.google.com/maps/contrib/103237729589375373179\">Sebastian Sinisterra</a>"
          ],
          "photo_reference": "AeJbb3enMadOljMkWAtA6CGCtWPFiCKQz9Tf3uZT9GzLFB6AbjcLmhNSWonBHEx9v9WK0Hh2PYkY69se0fL6Cu8GNPVlAb4j_PxYK69YIm6Git_tsYnjXViOG34DbBszb4leBKy_A9uZ4cGnNsMP2oJp2PYRpOmLd0tVukX_QgBFeOgeeeVe",
          "width": 5184
        }
      ],
      "place_id": "ChIJx2a7xwf2wokRUP1l79z4rnQ",
      "plus_code": {
        "compound_code": "Q3W6+QQ \u7f8e\u570b\u7d10\u7d04",
        "global_code": "87G8Q3W6+QQ"
      },
      "price_level": 2,
      "rating": 4.1,
      "reference": "ChIJx2a7xwf2wokRUP1l79z4rnQ",
      "scope": "GOOGLE",
      "types": [
        "meal_delivery",
        "meal_takeaway",
        "restaurant",
        "food",
        "point_of_interest",
        "establishment"
      ],
      "user_ratings_total": 971,
      "vicinity": "2257 2nd Avenue, New York"
    },
    {
      "business_status": "OPERATIONAL",
      "geometry": {
        "location": {
          "lat": 40.7999496,
          "lng": -73.93931789999999
        },
        "viewport": {
          "northeast": {
            "lat": 40.8012493302915,
            "lng": -73.93769496970849
          },
          "southwest": {
            "lat": 40.7985513697085,
            "lng": -73.9403929302915
          }
        }
      },
      "icon": "https://maps.gstatic.com/mapfiles/place_api/icons/v1/png_71/civic_building-71.png",
      "icon_background_color": "#7B9EB0",
      "icon_mask_base_uri": "https://maps.gstatic.com/mapfiles/place_api/icons/v2/civic-bldg_pinlet",
      "name": "Center For Puerto Rican Studies Library",
      "opening_hours": {
        "open_now": true
      },
      "place_id": "ChIJj26D6OtYwokRCwE09XNLA4k",
      "plus_code": {
        "compound_code": "Q3X6+X7 \u7f8e\u570b\u7d10\u7d04",
        "global_code": "87G8Q3X6+X7"
      },
      "rating": 5,
      "reference": "ChIJj26D6OtYwokRCwE09XNLA4k",
      "scope": "GOOGLE",
      "types": [
        "library",
        "point_of_interest",
        "establishment"
      ],
      "user_ratings_total": 1,
      "vicinity": "2180 3rd Avenue, New York"
    },
    {
      "business_status": "OPERATIONAL",
      "geometry": {
        "location": {
          "lat": 40.79715279999999,
          "lng": -73.9348807
        },
        "viewport": {
          "northeast": {
            "lat": 40.7984486802915,
            "lng": -73.93339776970849
          },
          "southwest": {
            "lat": 40.7957507197085,
            "lng": -73.9360957302915
          }
        }
      },
      "icon": "https://maps.gstatic.com/mapfiles/place_api/icons/v1/png_71/restaurant-71.png",
      "icon_background_color": "#FF9E67",
      "icon_mask_base_uri": "https://maps.gstatic.com/mapfiles/place_api/icons/v2/restaurant_pinlet",
      "name": "Patsy's Pizzeria",
      "opening_hours": {
        "open_now": true
      },
      "photos": [
        {
          "height": 2252,
          "html_attributions": [
            "<a href=\"https://maps.google.com/maps/contrib/104468838028168752802\">Noah Lam</a>"
          ],
          "photo_reference": "AeJbb3f-AloaZwKQckew5J09x2iu6YbXCzVYBQQY7nalZCSJSVvqd8sejWzkpw9ggxGtYyNuOCqwNqmYhWeChvDBF7l3vVsC7Zmd1vyw18CBVuWXWoZt9HsC2WCVndf7KCmYISEVLs6f5iWHShNBh6S_Cj1DFjOdlW8-sUAAz0HnX1C2WPi7",
          "width": 4000
        }
      ],
      "place_id": "ChIJvXfkSP31wokRJ1Lqb0Nk7qQ",
      "plus_code": {
        "compound_code": "Q3W8+V2 \u7f8e\u570b\u7d10\u7d04",
        "global_code": "87G8Q3W8+V2"
      },
      "price_level": 1,
      "rating": 4.5,
      "reference": "ChIJvXfkSP31wokRJ1Lqb0Nk7qQ",
      "scope": "GOOGLE",
      "types": [
        "restaurant",
        "food",
        "point_of_interest",
        "establishment"
      ],
      "user_ratings_total": 2625,
      "vicinity": "2287 1st Avenue, New York"
    },
    {
      "business_status": "OPERATIONAL",
      "geometry": {
        "location": {
          "lat": 40.7975526,
          "lng": -73.9394756
        },
        "viewport": {
          "northeast": {
            "lat": 40.7989689802915,
            "lng": -73.93807691970848
          },
          "southwest": {
            "lat": 40.7962710197085,
            "lng": -73.9407748802915
          }
        }
      },
      "icon": "https://maps.gstatic.com/mapfiles/place_api/icons/v1/png_71/lodging-71.png",
      "icon_background_color": "#909CE1",
      "icon_mask_base_uri": "https://maps.gstatic.com/mapfiles/place_api/icons/v2/hotel_pinlet",
      "name": "Rostel",
      "photos": [
        {
          "height": 3024,
          "html_attributions": [
            "<a href=\"https://maps.google.com/maps/contrib/104866415878679650609\">Evgeny Sikachov</a>"
          ],
          "photo_reference": "AeJbb3c61Fw_Ep21GlQhp8RjMMAv0i3Y9YRaLFUDEMRLBq2-1YQiYL5rGwaqIJBcqzZO9iFSbIqfcJDTdIf0vuu8yhNhjehquMGjk_Hc6DZlUE-JVsnY-UvcVyBasTtMkP-2sI68n-Sgelt0U5UUOxdBKbox_IaCsDhq909TfB_emaJcWQIW",
          "width": 4032
        }
      ],
      "place_id": "ChIJ_0_MAgb2wokRGTwYBzyy7DM",
      "plus_code": {
        "compound_code": "Q3X6+26 \u7f8e\u570b\u7d10\u7d04",
        "global_code": "87G8Q3X6+26"
      },
      "rating": 2.8,
      "reference": "ChIJ_0_MAgb2wokRGTwYBzyy7DM",
      "scope": "GOOGLE",
      "types": [
        "lodging",
        "point_of_interest",
        "establishment"
      ],
      "user_ratings_total": 53,
      "vicinity": "160 East 116th Street, New York"
    },
    {
      "business_status": "OPERATIONAL",
      "geometry": {
        "location": {
          "lat": 40.79564359999999,
          "lng": -73.9358857
        },
        "viewport": {
          "northeast": {
            "lat": 40.7969480302915,
            "lng": -73.9344672197085
          },
          "southwest": {
            "lat": 40.7942500697085,
            "lng": -73.9371651802915
          }
        }
      },
      "icon": "https://maps.gstatic.com/mapfiles/place_api/icons/v1/png_71/restaurant-71.png",
      "icon_background_color": "#FF9E67",
      "icon_mask_base_uri": "https://maps.gstatic.com/mapfiles/place_api/icons/v2/restaurant_pinlet",
      "name": "MAKANA",
      "opening_hours": {
        "open_now": true
      },
      "photos": [
        {
          "height": 1440,
          "html_attributions": [
            "<a href=\"https://maps.google.com/maps/contrib/115894055166888103990\">Hank 03</a>"
          ],
          "photo_reference": "AeJbb3fgz73n-PyBhf33LPryFHuhi_e2MS3L2zHLF_HB3DoTZ8LL9Xt9qTFDhSqnFuEUKTuwZMwwzf0dzUsCRCZLlJ2GAI8MHJYoLK1_lXn4oWA1lLrmhOyw4rbcGhOZWxBJfT2Frr2cW7kqBQSm5_UXVRX4FhZ4e8L1v8EFcIyLIJm1-qGX",
          "width": 1080
        }
      ],
      "place_id": "ChIJu1fmff31wokR7BSBUoNKOQo",
      "plus_code": {
        "compound_code": "Q3W7+7J \u7f8e\u570b\u7d10\u7d04",
        "global_code": "87G8Q3W7+7J"
      },
      "price_level": 2,
      "rating": 4,
      "reference": "ChIJu1fmff31wokR7BSBUoNKOQo",
      "scope": "GOOGLE",
      "types": [
        "meal_delivery",
        "meal_takeaway",
        "restaurant",
        "food",
        "point_of_interest",
        "establishment"
      ],
      "user_ratings_total": 182,
      "vicinity": "2245 1st Avenue, New York"
    },
    {
      "business_status": "OPERATIONAL",
      "geometry": {
        "location": {
          "lat": 40.8008218,
          "lng": -73.9410566
        },
        "viewport": {
          "northeast": {
            "lat": 40.8022064802915,
            "lng": -73.9396817697085
          },
          "southwest": {
            "lat": 40.7995085197085,
            "lng": -73.9423797302915
          }
        }
      },
      "icon": "https://maps.gstatic.com/mapfiles/place_api/icons/v1/png_71/civic_building-71.png",
      "icon_background_color": "#7B9EB0",
      "icon_mask_base_uri": "https://maps.gstatic.com/mapfiles/place_api/icons/v2/civic-bldg_pinlet",
      "name": "New York City Police Department - 25th Precinct",
      "photos": [
        {
          "height": 336,
          "html_attributions": [
            "<a href=\"https://maps.google.com/maps/contrib/109235819106383651889\">RYU RYU</a>"
          ],
          "photo_reference": "AeJbb3e9nNpodE1UKAIGxKiSFlNMA9qukvuqczYc4-OVWsvxcrcmE3LCnva_ZblBsH0rJv350QzRlUT7byv4rY2eQVGmzVNb2B187XzvA6JxpafY1l_jL_3maigRHdvif5GWk55HpxC6ycfmbrC7wFVZKmKkPlTBeLH2wDrrOF2ZNCGJHDpW",
          "width": 448
        }
      ],
      "place_id": "ChIJZ3pS2Aj2wokRosvTxcpCdx4",
      "plus_code": {
        "compound_code": "R325+8H \u7f8e\u570b\u7d10\u7d04",
        "global_code": "87G8R325+8H"
      },
      "rating": 3,
      "reference": "ChIJZ3pS2Aj2wokRosvTxcpCdx4",
      "scope": "GOOGLE",
      "types": [
        "police",
        "point_of_interest",
        "establishment"
      ],
      "user_ratings_total": 38,
      "vicinity": "120 East 119th Street, New York"
    },
    {
      "business_status": "OPERATIONAL",
      "geometry": {
        "location": {
          "lat": 40.7983091,
          "lng": -73.941632
        },
        "viewport": {
          "northeast": {
            "lat": 40.7997829802915,
            "lng": -73.94019016970849
          },
          "southwest": {
            "lat": 40.7970850197085,
            "lng": -73.9428881302915
          }
        }
      },
      "icon": "https://maps.gstatic.com/mapfiles/place_api/icons/v1/png_71/restaurant-71.png",
      "icon_background_color": "#FF9E67",
      "icon_mask_base_uri": "https://maps.gstatic.com/mapfiles/place_api/icons/v2/restaurant_pinlet",
      "name": "Sams Famous Pizzeria",
      "opening_hours": {
        "open_now": true
      },
      "photos": [
        {
          "height": 4032,
          "html_attributions": [
            "<a href=\"https://maps.google.com/maps/contrib/108455294718709145087\">Jose J Estrada</a>"
          ],
          "photo_reference": "AeJbb3e6Ysrsrr7Bs-0_g9yc4tC40rm-PoSNrr6sabaCox5Z6RrH1BmgooXnA7doPQ7K23eHuPI7Swhu5XvPFqB8Wb3m5C_rqe-YjsNLOqix2Md9GYt_ybTdinNvcYeosKd_wUCy6e1pyWMAAwKjkKgcf8N-nCp2UJD3StWMgclfbKpLM1pz",
          "width": 3024
        }
      ],
      "place_id": "ChIJNx8uAQb2wokRp1Q3xuUYwGw",
      "plus_code": {
        "compound_code": "Q3X5+88 \u7f8e\u570b\u7d10\u7d04",
        "global_code": "87G8Q3X5+88"
      },
      "price_level": 1,
      "rating": 4.3,
      "reference": "ChIJNx8uAQb2wokRp1Q3xuUYwGw",
      "scope": "GOOGLE",
      "types": [
        "meal_delivery",
        "restaurant",
        "food",
        "point_of_interest",
        "establishment"
      ],
      "user_ratings_total": 335,
      "vicinity": "150 East 116th Street, New York"
    },
    {
      "business_status": "OPERATIONAL",
      "geometry": {
        "location": {
          "lat": 40.7979822,
          "lng": -73.9386916
        },
        "viewport": {
          "northeast": {
            "lat": 40.7994658302915,
            "lng": -73.93731366970849
          },
          "southwest": {
            "lat": 40.7967678697085,
            "lng": -73.9400116302915
          }
        }
      },
      "icon": "https://maps.gstatic.com/mapfiles/place_api/icons/v1/png_71/generic_business-71.png",
      "icon_background_color": "#7B9EB0",
      "icon_mask_base_uri": "https://maps.gstatic.com/mapfiles/place_api/icons/v2/generic_pinlet",
      "name": "U-Haul Neighborhood Dealer",
      "opening_hours": {
        "open_now": true
      },
      "photos": [
        {
          "height": 3024,
          "html_attributions": [
            "<a href=\"https://maps.google.com/maps/contrib/111152481343744219595\">Calvin Smith</a>"
          ],
          "photo_reference": "AeJbb3eFJkmR_DR5vSv_Fi8PD22oHl71RAgpI9gfxonJj58YcpkXK0ujq4nNiySOclXKxnxYuGh1XeoKeTsR1PmEu_847q4Bv_W_BqSWidjhD3sZX5W9ueNwjhM62qexTe1TO4NSfjzMYwszV1KvWcMCn4gcmatz4XNDzKrkp0pxu3m4YXpI",
          "width": 4032
        }
      ],
      "place_id": "ChIJr5n6cGv2wokRKR124APxjEE",
      "plus_code": {
        "compound_code": "Q3X6+5G \u7f8e\u570b\u7d10\u7d04",
        "global_code": "87G8Q3X6+5G"
      },
      "price_level": 1,
      "rating": 3.6,
      "reference": "ChIJr5n6cGv2wokRKR124APxjEE",
      "scope": "GOOGLE",
      "types": [
        "storage",
        "point_of_interest",
        "establishment"
      ],
      "user_ratings_total": 142,
      "vicinity": "220 East 117th Street, New York"
    },
    {
      "business_status": "OPERATIONAL",
      "geometry": {
        "location": {
          "lat": 40.798594,
          "lng": -73.93314699999999
        },
        "viewport": {
          "northeast": {
            "lat": 40.7998672802915,
            "lng": -73.93182701970849
          },
          "southwest": {
            "lat": 40.7971693197085,
            "lng": -73.9345249802915
          }
        }
      },
      "icon": "https://maps.gstatic.com/mapfiles/place_api/icons/v1/png_71/generic_business-71.png",
      "icon_background_color": "#7B9EB0",
      "icon_mask_base_uri": "https://maps.gstatic.com/mapfiles/place_api/icons/v2/generic_pinlet",
      "name": "Acacia Network: Persons with Developmental Disabilities (PWDD) Main Administrati",
      "photos": [
        {
          "height": 4608,
          "html_attributions": [
            "<a href=\"https://maps.google.com/maps/contrib/112577757805487708476\">Irma Flores</a>"
          ],
          "photo_reference": "AeJbb3cCYm79AJvYTOgXvOFuON4zGa1jOsFuoASzXHgBSbgOt0ORTapTUgB_ndp09FZ_Wd_HM4foVwitXmekb06xl9IWQkm9giRhIkLPkr6vr67H8eCeLnPdBHR0hgiRAae2uXButE3OhkNGADuXq1dHdmg1mpuM-27pU7btkANyzvSvzy-_",
          "width": 2592
        }
      ],
      "place_id": "ChIJS0aXGOP1wokR0SezyTVfpJE",
      "plus_code": {
        "compound_code": "Q3X8+CP \u7f8e\u570b\u7d10\u7d04",
        "global_code": "87G8Q3X8+CP"
      },
      "rating": 4.5,
      "reference": "ChIJS0aXGOP1wokR0SezyTVfpJE",
      "scope": "GOOGLE",
      "types": [
        "point_of_interest",
        "establishment"
      ],
      "user_ratings_total": 22,
      "vicinity": "413 East 120th Street, New York"
    },
    {
      "business_status": "OPERATIONAL",
      "geometry": {
        "location": {
          "lat": 40.8010976,
          "lng": -73.9380946
        },
        "viewport": {
          "northeast": {
            "lat": 40.80252933029149,
            "lng": -73.9366842697085
          },
          "southwest": {
            "lat": 40.7998313697085,
            "lng": -73.9393822302915
          }
        }
      },
      "icon": "https://maps.gstatic.com/mapfiles/place_api/icons/v1/png_71/generic_business-71.png",
      "icon_background_color": "#7B9EB0",
      "icon_mask_base_uri": "https://maps.gstatic.com/mapfiles/place_api/icons/v2/generic_pinlet",
      "name": "Project For Psychotherapy Outreach To",
      "place_id": "ChIJD_nduQn2wokR8rx9PNgXgQk",
      "plus_code": {
        "compound_code": "R326+CQ \u7f8e\u570b\u7d10\u7d04",
        "global_code": "87G8R326+CQ"
      },
      "reference": "ChIJD_nduQn2wokR8rx9PNgXgQk",
      "scope": "GOOGLE",
      "types": [
        "health",
        "point_of_interest",
        "establishment"
      ],
      "vicinity": "198 East 121st Street #5, New York"
    },
    {
      "business_status": "OPERATIONAL",
      "geometry": {
        "location": {
          "lat": 40.79859159999999,
          "lng": -73.9331286
        },
        "viewport": {
          "northeast": {
            "lat": 40.7998660802915,
            "lng": -73.93182631970849
          },
          "southwest": {
            "lat": 40.7971681197085,
            "lng": -73.9345242802915
          }
        }
      },
      "icon": "https://maps.gstatic.com/mapfiles/place_api/icons/v1/png_71/generic_business-71.png",
      "icon_background_color": "#7B9EB0",
      "icon_mask_base_uri": "https://maps.gstatic.com/mapfiles/place_api/icons/v2/generic_pinlet",
      "name": "East Harlem Multi-Service Center",
      "place_id": "ChIJS0aXGOP1wokRXYbrbInrmYY",
      "plus_code": {
        "compound_code": "Q3X8+CP \u7f8e\u570b\u7d10\u7d04",
        "global_code": "87G8Q3X8+CP"
      },
      "rating": 4.3,
      "reference": "ChIJS0aXGOP1wokRXYbrbInrmYY",
      "scope": "GOOGLE",
      "types": [
        "point_of_interest",
        "establishment"
      ],
      "user_ratings_total": 23,
      "vicinity": "413 East 120th Street, New York"
    },
    {
      "business_status": "OPERATIONAL",
      "geometry": {
        "location": {
          "lat": 40.80216060000001,
          "lng": -73.9371802
        },
        "viewport": {
          "northeast": {
            "lat": 40.8034735802915,
            "lng": -73.9357353697085
          },
          "southwest": {
            "lat": 40.8007756197085,
            "lng": -73.9384333302915
          }
        }
      },
      "icon": "https://maps.gstatic.com/mapfiles/place_api/icons/v1/png_71/shopping-71.png",
      "icon_background_color": "#4B96F3",
      "icon_mask_base_uri": "https://maps.gstatic.com/mapfiles/place_api/icons/v2/shopping_pinlet",
      "name": "J Department Store",
      "opening_hours": {
        "open_now": true
      },
      "place_id": "ChIJi8Qu7gn2wokRpcTLFxJYoaI",
      "plus_code": {
        "compound_code": "R327+V4 \u7f8e\u570b\u7d10\u7d04",
        "global_code": "87G8R327+V4"
      },
      "rating": 4.1,
      "reference": "ChIJi8Qu7gn2wokRpcTLFxJYoaI",
      "scope": "GOOGLE",
      "types": [
        "department_store",
        "store",
        "point_of_interest",
        "establishment"
      ],
      "user_ratings_total": 19,
      "vicinity": "2254 3rd Avenue, New York"
    },
    {
      "business_status": "CLOSED_TEMPORARILY",
      "geometry": {
        "location": {
          "lat": 40.7992366,
          "lng": -73.94366529999999
        },
        "viewport": {
          "northeast": {
            "lat": 40.8005711802915,
            "lng": -73.9422418697085
          },
          "southwest": {
            "lat": 40.7978732197085,
            "lng": -73.9449398302915
          }
        }
      },
      "icon": "https://maps.gstatic.com/mapfiles/place_api/icons/v1/png_71/restaurant-71.png",
      "icon_background_color": "#FF9E67",
      "icon_mask_base_uri": "https://maps.gstatic.com/mapfiles/place_api/icons/v2/restaurant_pinlet",
      "name": "The Kiosk",
      "permanently_closed": true,
      "photos": [
        {
          "height": 1342,
          "html_attributions": [
            "<a href=\"https://maps.google.com/maps/contrib/108378076149846267103\">The Kiosk</a>"
          ],
          "photo_reference": "AeJbb3c3DsaWHbwCVZi48AUsLoswJsXqb3YReSLvfwKMl_rzcrv8JPMSWZhG8NU-te5Dbs9HAG03f5NIbl5X3lCdkIEwRt9W9dgERFLuSfmQ3fF7OC32hEnU_Uffc_hQdmnGRpeH4XoKlWeshxwfVZVS8FDXtkhYocqXGThqut1hrw72HX1l",
          "width": 2000
        }
      ],
      "place_id": "ChIJ4-XSZQ_2wokR2VZKlzfz3tI",
      "plus_code": {
        "compound_code": "Q3X4+MG \u7f8e\u570b\u7d10\u7d04",
        "global_code": "87G8Q3X4+MG"
      },
      "price_level": 2,
      "rating": 4.2,
      "reference": "ChIJ4-XSZQ_2wokR2VZKlzfz3tI",
      "scope": "GOOGLE",
      "types": [
        "bar",
        "night_club",
        "restaurant",
        "food",
        "point_of_interest",
        "establishment"
      ],
      "user_ratings_total": 39,
      "vicinity": "80 East 116th Street, New York"
    },
    {
      "business_status": "CLOSED_TEMPORARILY",
      "geometry": {
        "location": {
          "lat": 40.797483,
          "lng": -73.9388927
        },
        "viewport": {
          "northeast": {
            "lat": 40.7988044802915,
            "lng": -73.93756401970849
          },
          "southwest": {
            "lat": 40.7961065197085,
            "lng": -73.9402619802915
          }
        }
      },
      "icon": "https://maps.gstatic.com/mapfiles/place_api/icons/v1/png_71/shopping-71.png",
      "icon_background_color": "#4B96F3",
      "icon_mask_base_uri": "https://maps.gstatic.com/mapfiles/place_api/icons/v2/shopping_pinlet",
      "name": "Just2Fierce",
      "permanently_closed": true,
      "place_id": "ChIJJQMyzQf2wokRa5Dg0ohQkKo",
      "plus_code": {
        "compound_code": "Q3W6+XC \u7f8e\u570b\u7d10\u7d04",
        "global_code": "87G8Q3W6+XC"
      },
      "reference": "ChIJJQMyzQf2wokRa5Dg0ohQkKo",
      "scope": "GOOGLE",
      "types": [
        "clothing_store",
        "store",
        "point_of_interest",
        "establishment"
      ],
      "vicinity": "116th Street Avenue, Lexington Avenue, New York"
    },
    {
      "business_status": "OPERATIONAL",
      "geometry": {
        "location": {
          "lat": 40.7964756,
          "lng": -73.9358525
        },
        "viewport": {
          "northeast": {
            "lat": 40.7977190302915,
            "lng": -73.9345809197085
          },
          "southwest": {
            "lat": 40.7950210697085,
            "lng": -73.9372788802915
          }
        }
      },
      "icon": "https://maps.gstatic.com/mapfiles/place_api/icons/v1/png_71/generic_business-71.png",
      "icon_background_color": "#7B9EB0",
      "icon_mask_base_uri": "https://maps.gstatic.com/mapfiles/place_api/icons/v2/generic_pinlet",
      "name": "First Avenue Funeral Services",
      "opening_hours": {
        "open_now": true
      },
      "photos": [
        {
          "height": 1269,
          "html_attributions": [
            "<a href=\"https://maps.google.com/maps/contrib/115500909664560944045\">Dominique Q Baked</a>"
          ],
          "photo_reference": "AeJbb3cJHHtRxUHvgSBb8iXTyvzw1aW6u-FrivMKFzvEFwU8lchKgkkOIo_0NImb-5rbZgcx75055gjJUfCQtsNSy_mMV3OAIYn1ZEDf6HUBW80hc-Hh7AjVNA_MkMptsxT-k4q6I8D-va1togNARDWXt50m4U8TOg_GAT7E-gUFEaQyPNGi",
          "width": 1836
        }
      ],
      "place_id": "ChIJRXPXfv31wokRlnHQLFJHb04",
      "plus_code": {
        "compound_code": "Q3W7+HM \u7f8e\u570b\u7d10\u7d04",
        "global_code": "87G8Q3W7+HM"
      },
      "rating": 3,
      "reference": "ChIJRXPXfv31wokRlnHQLFJHb04",
      "scope": "GOOGLE",
      "types": [
        "funeral_home",
        "point_of_interest",
        "establishment"
      ],
      "user_ratings_total": 29,
      "vicinity": "349 East 116th Street, New York"
    },
    {
      "business_status": "OPERATIONAL",
      "geometry": {
        "location": {
          "lat": 40.7967296,
          "lng": -73.93761239999999
        },
        "viewport": {
          "northeast": {
            "lat": 40.79815998029149,
            "lng": -73.93620386970848
          },
          "southwest": {
            "lat": 40.7954620197085,
            "lng": -73.9389018302915
          }
        }
      },
      "icon": "https://maps.gstatic.com/mapfiles/place_api/icons/v1/png_71/generic_business-71.png",
      "icon_background_color": "#7B9EB0",
      "icon_mask_base_uri": "https://maps.gstatic.com/mapfiles/place_api/icons/v2/generic_pinlet",
      "name": "Harlem Pediatric Associates",
      "opening_hours": {
        "open_now": true
      },
      "place_id": "ChIJyws1fxT2wokRPdm-Nf6LPLU",
      "plus_code": {
        "compound_code": "Q3W6+MX \u7f8e\u570b\u7d10\u7d04",
        "global_code": "87G8Q3W6+MX"
      },
      "rating": 4.6,
      "reference": "ChIJyws1fxT2wokRPdm-Nf6LPLU",
      "scope": "GOOGLE",
      "types": [
        "doctor",
        "health",
        "point_of_interest",
        "establishment"
      ],
      "user_ratings_total": 8,
      "vicinity": "2256 2nd Avenue 2nd floor, New York"
    },
    {
      "business_status": "OPERATIONAL",
      "geometry": {
        "location": {
          "lat": 40.80125899999999,
          "lng": -73.9384161
        },
        "viewport": {
          "northeast": {
            "lat": 40.80268128029149,
            "lng": -73.93701281970849
          },
          "southwest": {
            "lat": 40.7999833197085,
            "lng": -73.9397107802915
          }
        }
      },
      "icon": "https://maps.gstatic.com/mapfiles/place_api/icons/v1/png_71/civic_building-71.png",
      "icon_background_color": "#7B9EB0",
      "icon_mask_base_uri": "https://maps.gstatic.com/mapfiles/place_api/icons/v2/civic-bldg_pinlet",
      "name": "Harlem Youth Court",
      "opening_hours": {
        "open_now": false
      },
      "photos": [
        {
          "height": 1365,
          "html_attributions": [
            "<a href=\"https://maps.google.com/maps/contrib/114005098958647842300\">Harlem Youth Court</a>"
          ],
          "photo_reference": "AeJbb3cbk_p8kbqRGFU-RaMdQiIITEaoT8PDCG2ROAKY-OQIK4q11RY4TMfrUXxhjG8Q68o8MFvufNdLlsE_bjbnn7ANY5pqu_y-l9U7teEQ3blfNQrt1FmfC9-2gqa1wx4SHccmuAYoffAaD8adkNzknenH-23rSjvz0Eswo9v4--_CAnld",
          "width": 2048
        }
      ],
      "place_id": "ChIJJbYZpAn2wokRmW1b5SRz8ws",
      "plus_code": {
        "compound_code": "R326+GJ \u7f8e\u570b\u7d10\u7d04",
        "global_code": "87G8R326+GJ"
      },
      "rating": 3.7,
      "reference": "ChIJJbYZpAn2wokRmW1b5SRz8ws",
      "scope": "GOOGLE",
      "types": [
        "courthouse",
        "point_of_interest",
        "establishment"
      ],
      "user_ratings_total": 3,
      "vicinity": "170 East 121st Street, New York"
    },
    {
      "business_status": "OPERATIONAL",
      "geometry": {
        "location": {
          "lat": 40.7998327,
          "lng": -73.93889
        },
        "viewport": {
          "northeast": {
            "lat": 40.8012434802915,
            "lng": -73.9374810197085
          },
          "southwest": {
            "lat": 40.7985455197085,
            "lng": -73.9401789802915
          }
        }
      },
      "icon": "https://maps.gstatic.com/mapfiles/place_api/icons/v1/png_71/school-71.png",
      "icon_background_color": "#7B9EB0",
      "icon_mask_base_uri": "https://maps.gstatic.com/mapfiles/place_api/icons/v2/school_pinlet",
      "name": "Silberman School of Social Work",
      "photos": [
        {
          "height": 342,
          "html_attributions": [
            "<a href=\"https://maps.google.com/maps/contrib/109940272495430378504\">Arthur</a>"
          ],
          "photo_reference": "AeJbb3dCtR-QIzSWuiA5RnfzGjkbNTZng5aNpKEGKNZiQPfBIkXaWvM0pSNfY0k_9LWiu7IjoJCXZafsjMhw7e5zFEupzOmxOUYQmPfrEkone7dQ7oFRoFk9D4qnPMqKR3VyabbyITy5DACJz0n_JWoEKzHpCUBs-btXAl2xUTBNkb33ZjxA",
          "width": 528
        }
      ],
      "place_id": "ChIJkapnXwj2wokRYzFzXwdWZ-k",
      "plus_code": {
        "compound_code": "Q3X6+WC \u7f8e\u570b\u7d10\u7d04",
        "global_code": "87G8Q3X6+WC"
      },
      "rating": 4.5,
      "reference": "ChIJkapnXwj2wokRYzFzXwdWZ-k",
      "scope": "GOOGLE",
      "types": [
        "university",
        "point_of_interest",
        "establishment"
      ],
      "user_ratings_total": 15,
      "vicinity": "2180 3rd Avenue, New York"
    },
    {
      "geometry": {
        "location": {
          "lat": 40.8240478,
          "lng": -73.9447643
        },
        "viewport": {
          "northeast": {
            "lat": 40.87822003591612,
            "lng": -73.91064591328563
          },
          "southwest": {
            "lat": 40.78278392408598,
            "lng": -73.97119006413347
          }
        }
      },
      "icon": "https://maps.gstatic.com/mapfiles/place_api/icons/v1/png_71/geocode-71.png",
      "icon_background_color": "#7B9EB0",
      "icon_mask_base_uri": "https://maps.gstatic.com/mapfiles/place_api/icons/v2/generic_pinlet",
      "name": "\u66fc\u54c8\u9813\u4e0a\u57ce",
      "photos": [
        {
          "height": 4000,
          "html_attributions": [
            "<a href=\"https://maps.google.com/maps/contrib/108665206705263687409\">Chris Lidstone</a>"
          ],
          "photo_reference": "AeJbb3d-53GnQSeCJ7i800rZuWer4qLPMB0jBMo_HakvYtMR8F5avHtCvfOqfA3Ee3k6AiQluySNGNU87hNmP36_cXohjDYso0nokRHLnFCYZzEWWT4lYGsANJFp4r8QODPmmKEsAH_eHuwHE8_OyJkewJAV6dBU-Q3oHS4tVvlCmx_f2i81",
          "width": 3000
        }
      ],
      "place_id": "ChIJY50xHxP2wokR7WhhDNRmgRU",
      "reference": "ChIJY50xHxP2wokR7WhhDNRmgRU",
      "scope": "GOOGLE",
      "types": [
        "neighborhood",
        "political"
      ],
      "vicinity": "\u66fc\u54c8\u9813"
    },
    {
      "business_status": "OPERATIONAL",
      "geometry": {
        "location": {
          "lat": 40.801204,
          "lng": -73.938181
        },
        "viewport": {
          "northeast": {
            "lat": 40.80261788029149,
            "lng": -73.9368156697085
          },
          "southwest": {
            "lat": 40.79991991970849,
            "lng": -73.9395136302915
          }
        }
      },
      "icon": "https://maps.gstatic.com/mapfiles/place_api/icons/v1/png_71/generic_business-71.png",
      "icon_background_color": "#7B9EB0",
      "icon_mask_base_uri": "https://maps.gstatic.com/mapfiles/place_api/icons/v2/generic_pinlet",
      "name": "Center for Urban Community Services",
      "opening_hours": {
        "open_now": false
      },
      "place_id": "ChIJOf_duQn2wokRkKJo4w3WvFc",
      "plus_code": {
        "compound_code": "R326+FP New York, NY, USA",
        "global_code": "87G8R326+FP"
      },
      "rating": 4,
      "reference": "ChIJOf_duQn2wokRkKJo4w3WvFc",
      "scope": "GOOGLE",
      "types": [
        "doctor",
        "health",
        "point_of_interest",
        "establishment"
      ],
      "user_ratings_total": 35,
      "vicinity": "198 East 121st Street, New York"
    },
    {
      "business_status": "OPERATIONAL",
      "geometry": {
        "location": {
          "lat": 40.797102,
          "lng": -73.9368027
        },
        "viewport": {
          "northeast": {
            "lat": 40.7982599802915,
            "lng": -73.93562866970849
          },
          "southwest": {
            "lat": 40.7955620197085,
            "lng": -73.9383266302915
          }
        }
      },
      "icon": "https://maps.gstatic.com/mapfiles/place_api/icons/v1/png_71/generic_business-71.png",
      "icon_background_color": "#7B9EB0",
      "icon_mask_base_uri": "https://maps.gstatic.com/mapfiles/place_api/icons/v2/generic_pinlet",
      "name": "Corsi Houses",
      "place_id": "ChIJj90X5Af2wokRcN1BFJwhs7o",
      "plus_code": {
        "compound_code": "Q3W7+R7 New York, NY, USA",
        "global_code": "87G8Q3W7+R7"
      },
      "rating": 2.3,
      "reference": "ChIJj90X5Af2wokRcN1BFJwhs7o",
      "scope": "GOOGLE",
      "types": [
        "point_of_interest",
        "establishment"
      ],
      "user_ratings_total": 4,
      "vicinity": "306 East 117th Street, New York"
    },
    {
      "business_status": "OPERATIONAL",
      "geometry": {
        "location": {
          "lat": 40.79811410000001,
          "lng": -73.9413782
        },
        "viewport": {
          "northeast": {
            "lat": 40.79961413029151,
            "lng": -73.9398933697085
          },
          "southwest": {
            "lat": 40.79691616970851,
            "lng": -73.94259133029152
          }
        }
      },
      "icon": "https://maps.gstatic.com/mapfiles/place_api/icons/v1/png_71/generic_business-71.png",
      "icon_background_color": "#7B9EB0",
      "icon_mask_base_uri": "https://maps.gstatic.com/mapfiles/place_api/icons/v2/generic_pinlet",
      "name": "Harlem Dental Plaza",
      "opening_hours": {
        "open_now": true
      },
      "photos": [
        {
          "height": 4032,
          "html_attributions": [
            "<a href=\"https://maps.google.com/maps/contrib/105216112253091154331\">Anthanett McClendon</a>"
          ],
          "photo_reference": "AeJbb3deMAg_QVFKiRfGZGOSMGDweX9-V3-41TkLf8eSua-gglQPlY7hWNEPQNwQCyG1l8Q2iZSO4geLZC8aUVicHrXpQPB0OwGXoZ4AMkQsstdqMZp02G6PfkK9ub5LQnyNb74HEJZYSbH4Wn9MQ6N9dVTeu6vso4V8Ixt2Sf8sw_R7EBUD",
          "width": 3024
        }
      ],
      "place_id": "ChIJJVCOQAr2wokRfH3Wypl_G1c",
      "plus_code": {
        "compound_code": "Q3X5+6C New York, NY, USA",
        "global_code": "87G8Q3X5+6C"
      },
      "rating": 1.4,
      "reference": "ChIJJVCOQAr2wokRfH3Wypl_G1c",
      "scope": "GOOGLE",
      "types": [
        "dentist",
        "health",
        "point_of_interest",
        "establishment"
      ],
      "user_ratings_total": 77,
      "vicinity": "160 East 116th Street 2nd Floor, New York"
    },
    {
      "business_status": "OPERATIONAL",
      "geometry": {
        "location": {
          "lat": 40.80016940000001,
          "lng": -73.9395266
        },
        "viewport": {
          "northeast": {
            "lat": 40.8013558802915,
            "lng": -73.93779931970849
          },
          "southwest": {
            "lat": 40.7986579197085,
            "lng": -73.9404972802915
          }
        }
      },
      "icon": "https://maps.gstatic.com/mapfiles/place_api/icons/v1/png_71/generic_business-71.png",
      "icon_background_color": "#7B9EB0",
      "icon_mask_base_uri": "https://maps.gstatic.com/mapfiles/place_api/icons/v2/generic_pinlet",
      "name": "Hunter East Harlem Gallery",
      "opening_hours": {
        "open_now": true
      },
      "photos": [
        {
          "height": 4032,
          "html_attributions": [
            "<a href=\"https://maps.google.com/maps/contrib/100208594536758895901\">John Marshall</a>"
          ],
          "photo_reference": "AeJbb3dv2G08zx6oM2pu__VQ_vNh2aKKWJBVulWaLQ31l_-DbDqL-VODtBJhONc7kodzqFBn-cHhCq2DuRUHn7q5UTUVOlG67bhEOoWDZ8JQ_TFX9Ka31vAb76Jl8387Uw16M0jVYYUwx-fbb8ST6OnKMnrNbESx_cGnbVl2E0siSvJwhXWx",
          "width": 3024
        }
      ],
      "place_id": "ChIJK6IKWQj2wokR77TT82-dn9E",
      "plus_code": {
        "compound_code": "R326+35 New York, NY, USA",
        "global_code": "87G8R326+35"
      },
      "rating": 4.8,
      "reference": "ChIJK6IKWQj2wokR77TT82-dn9E",
      "scope": "GOOGLE",
      "types": [
        "art_gallery",
        "point_of_interest",
        "establishment"
      ],
      "user_ratings_total": 23,
      "vicinity": "2180 3rd Avenue, New York"
    },
    {
      "business_status": "OPERATIONAL",
      "geometry": {
        "location": {
          "lat": 40.79615489999999,
          "lng": -73.93510479999999
        },
        "viewport": {
          "northeast": {
            "lat": 40.79753483029149,
            "lng": -73.9338316197085
          },
          "southwest": {
            "lat": 40.79483686970849,
            "lng": -73.9365295802915
          }
        }
      },
      "icon": "https://maps.gstatic.com/mapfiles/place_api/icons/v1/png_71/restaurant-71.png",
      "icon_background_color": "#FF9E67",
      "icon_mask_base_uri": "https://maps.gstatic.com/mapfiles/place_api/icons/v2/restaurant_pinlet",
      "name": "Teng Dragon",
      "opening_hours": {
        "open_now": true
      },
      "photos": [
        {
          "height": 5312,
          "html_attributions": [
            "<a href=\"https://maps.google.com/maps/contrib/115276325606750148736\">Michael B</a>"
          ],
          "photo_reference": "AeJbb3fmQMUQ77C9GTzPTBCbP2iQKZC83LM9oB4E0YpkhTvWErQp7Oku2d24JTfSqin1FLhAxql_6wTK6SM34eOgJxi5TxHDpFYWC0BuakD1TD61l3Rw2K6NyEt8pWw8mcKNcHO0lwRay7IidKfJ4tUf47lva4k2JHDhX5Uwz8Q30pZkLjhx",
          "width": 2988
        }
      ],
      "place_id": "ChIJz-HPaP31wokRbO0KdpeF2g4",
      "plus_code": {
        "compound_code": "Q3W7+FX New York, NY, USA",
        "global_code": "87G8Q3W7+FX"
      },
      "price_level": 1,
      "rating": 3.7,
      "reference": "ChIJz-HPaP31wokRbO0KdpeF2g4",
      "scope": "GOOGLE",
      "types": [
        "meal_delivery",
        "restaurant",
        "food",
        "point_of_interest",
        "establishment"
      ],
      "user_ratings_total": 143,
      "vicinity": "2260 1st Avenue #1, New York"
    },
    {
      "business_status": "OPERATIONAL",
      "geometry": {
        "location": {
          "lat": 40.7996519,
          "lng": -73.9434559
        },
        "viewport": {
          "northeast": {
            "lat": 40.80095388029149,
            "lng": -73.9419952197085
          },
          "southwest": {
            "lat": 40.7982559197085,
            "lng": -73.94469318029151
          }
        }
      },
      "icon": "https://maps.gstatic.com/mapfiles/place_api/icons/v1/png_71/shopping-71.png",
      "icon_background_color": "#4B96F3",
      "icon_mask_base_uri": "https://maps.gstatic.com/mapfiles/place_api/icons/v2/shopping_pinlet",
      "name": "Urban Garden Center",
      "opening_hours": {
        "open_now": true
      },
      "photos": [
        {
          "height": 3024,
          "html_attributions": [
            "<a href=\"https://maps.google.com/maps/contrib/104044528977357225239\">Jeremy</a>"
          ],
          "photo_reference": "AeJbb3e12yejWTbgMFuYBtzQKTD2K44Xw8pZA8VdwTR0KqT07o9o6-5SAvVK1uxDqSF4aQgPDhNMaQkYFh5bVns_cbwE2Dx6jpHPH4y_9goycVIO734Vgav1IjnC3CpV8hexy5BrK2V6mIJ0WvlBls3MwWyV_R4LseApQXItSbczXzttp7-o",
          "width": 4032
        }
      ],
      "place_id": "ChIJDTVRaA_2wokRu88a-Nt1YjM",
      "plus_code": {
        "compound_code": "Q3X4+VJ New York, NY, USA",
        "global_code": "87G8Q3X4+VJ"
      },
      "rating": 4.3,
      "reference": "ChIJDTVRaA_2wokRu88a-Nt1YjM",
      "scope": "GOOGLE",
      "types": [
        "general_contractor",
        "store",
        "point_of_interest",
        "establishment"
      ],
      "user_ratings_total": 247,
      "vicinity": "1640 Park Avenue, New York"
    },
    {
      "business_status": "OPERATIONAL",
      "geometry": {
        "location": {
          "lat": 40.79743879999999,
          "lng": -73.9413223
        },
        "viewport": {
          "northeast": {
            "lat": 40.7988181802915,
            "lng": -73.9399268697085
          },
          "southwest": {
            "lat": 40.7961202197085,
            "lng": -73.9426248302915
          }
        }
      },
      "icon": "https://maps.gstatic.com/mapfiles/place_api/icons/v1/png_71/generic_business-71.png",
      "icon_background_color": "#7B9EB0",
      "icon_mask_base_uri": "https://maps.gstatic.com/mapfiles/place_api/icons/v2/generic_pinlet",
      "name": "James Weldon Johnson School-Based Health Center",
      "opening_hours": {
        "open_now": false
      },
      "photos": [
        {
          "height": 480,
          "html_attributions": [
            "<a href=\"https://maps.google.com/maps/contrib/110688763782984861249\">kat hallowell</a>"
          ],
          "photo_reference": "AeJbb3dns8a5L8maOCFt2_wAAtY8PJIu67cy0PJ54L1VZKqzbzHL1ReFu0wKUlvsDosB8oSdd3n3EhO5Mz-XDgsPjJjdTFtpWuhwgeWiKnseAyWr5LQzuxFTZjfieytrZyFj9Z9mksr7WDiHBdP-ToR8kD2JFW0RxlHGtczGhp-q9BDpcCPE",
          "width": 640
        }
      ],
      "place_id": "ChIJL931dAb2wokRIescR7EzdgU",
      "plus_code": {
        "compound_code": "Q3W5+XF New York, NY, USA",
        "global_code": "87G8Q3W5+XF"
      },
      "rating": 3.3,
      "reference": "ChIJL931dAb2wokRIescR7EzdgU",
      "scope": "GOOGLE",
      "types": [
        "health",
        "point_of_interest",
        "establishment"
      ],
      "user_ratings_total": 12,
      "vicinity": "176 East 115th Street, New York"
    },
    {
      "business_status": "OPERATIONAL",
      "geometry": {
        "location": {
          "lat": 40.79870349999999,
          "lng": -73.9391164
        },
        "viewport": {
          "northeast": {
            "lat": 40.80011153029149,
            "lng": -73.9379035197085
          },
          "southwest": {
            "lat": 40.79741356970849,
            "lng": -73.9406014802915
          }
        }
      },
      "icon": "https://maps.gstatic.com/mapfiles/place_api/icons/v1/png_71/generic_business-71.png",
      "icon_background_color": "#7B9EB0",
      "icon_mask_base_uri": "https://maps.gstatic.com/mapfiles/place_api/icons/v2/generic_pinlet",
      "name": "Health Jam Inc.",
      "place_id": "ChIJ0R733gn2wokRYj57nK3BhOY",
      "plus_code": {
        "compound_code": "Q3X6+F9 New York, NY, USA",
        "global_code": "87G8Q3X6+F9"
      },
      "rating": 3,
      "reference": "ChIJ0R733gn2wokRYj57nK3BhOY",
      "scope": "GOOGLE",
      "types": [
        "point_of_interest",
        "establishment"
      ],
      "user_ratings_total": 1,
      "vicinity": "2149 3rd Avenue, New York"
    },
    {
      "business_status": "OPERATIONAL",
      "geometry": {
        "location": {
          "lat": 40.80156299999999,
          "lng": -73.9390469
        },
        "viewport": {
          "northeast": {
            "lat": 40.8028890802915,
            "lng": -73.9376333697085
          },
          "southwest": {
            "lat": 40.8001911197085,
            "lng": -73.9403313302915
          }
        }
      },
      "icon": "https://maps.gstatic.com/mapfiles/place_api/icons/v1/png_71/generic_business-71.png",
      "icon_background_color": "#7B9EB0",
      "icon_mask_base_uri": "https://maps.gstatic.com/mapfiles/place_api/icons/v2/generic_pinlet",
      "name": "East Harlem Council-Human Services",
      "photos": [
        {
          "height": 3024,
          "html_attributions": [
            "<a href=\"https://maps.google.com/maps/contrib/106546522831507917907\">raymond perez</a>"
          ],
          "photo_reference": "AeJbb3dOanAZ_eZYh7HzqLDPB5uEzhPv8U1XDv5CWDQXyZ4_hVGWeSkyP8Qt4beneAfGeXFUP8uBdwbA9gVv5QKnlu0HKv0O-V5hvhYxQP5GfqJNncqtbmX3KbW0hkxyN4YI70r5XvylqfgCHUI55UrJcHSH5LRfO7FY22Dp3K1pK4np-s1d",
          "width": 4032
        }
      ],
      "place_id": "ChIJjfIdCgn2wokRhFLHVrTmeHE",
      "plus_code": {
        "compound_code": "R326+J9 New York, NY, USA",
        "global_code": "87G8R326+J9"
      },
      "rating": 4.2,
      "reference": "ChIJjfIdCgn2wokRhFLHVrTmeHE",
      "scope": "GOOGLE",
      "types": [
        "point_of_interest",
        "establishment"
      ],
      "user_ratings_total": 15,
      "vicinity": "150 E 121st St # Mgr, New York"
    },
    {
      "business_status": "OPERATIONAL",
      "geometry": {
        "location": {
          "lat": 40.7998061,
          "lng": -73.9420816
        },
        "viewport": {
          "northeast": {
            "lat": 40.8011097302915,
            "lng": -73.94073591970849
          },
          "southwest": {
            "lat": 40.7984117697085,
            "lng": -73.94343388029151
          }
        }
      },
      "icon": "https://maps.gstatic.com/mapfiles/place_api/icons/v1/png_71/worship_general-71.png",
      "icon_background_color": "#7B9EB0",
      "icon_mask_base_uri": "https://maps.gstatic.com/mapfiles/place_api/icons/v2/worship_christian_pinlet",
      "name": "St. Paul & Holy Rosary Roman Catholic Church",
      "photos": [
        {
          "height": 3456,
          "html_attributions": [
            "<a href=\"https://maps.google.com/maps/contrib/102745105564955755267\">Jacob</a>"
          ],
          "photo_reference": "AeJbb3fCHWtG_p_J4c-7zK8MFdzHsIojPZK6-a7mnKIjbchsnnkpojhwihftRsdhdB69W829fyMQf9ZY2gU-ilLWs40pbIvoAidUnRTJawBrTrCjEhK8HryuodoWI0neHIVscKaAG7jv4MLVGYxsmPsbqqZ5KFV8ilxoB8wS4OcPW7ZAJR-Y",
          "width": 4608
        }
      ],
      "place_id": "ChIJS-5bSg_2wokRMxmt7TSEEuE",
      "plus_code": {
        "compound_code": "Q3X5+W5 New York, NY, USA",
        "global_code": "87G8Q3X5+W5"
      },
      "rating": 4.7,
      "reference": "ChIJS-5bSg_2wokRMxmt7TSEEuE",
      "scope": "GOOGLE",
      "types": [
        "tourist_attraction",
        "church",
        "place_of_worship",
        "point_of_interest",
        "establishment"
      ],
      "user_ratings_total": 199,
      "vicinity": "113 East 117th Street, New York"
    },
    {
      "business_status": "OPERATIONAL",
      "geometry": {
        "location": {
          "lat": 40.7971435,
          "lng": -73.9389126
        },
        "viewport": {
          "northeast": {
            "lat": 40.79862468029149,
            "lng": -73.93746476970848
          },
          "southwest": {
            "lat": 40.7959267197085,
            "lng": -73.94016273029149
          }
        }
      },
      "icon": "https://maps.gstatic.com/mapfiles/place_api/icons/v1/png_71/shopping-71.png",
      "icon_background_color": "#4B96F3",
      "icon_mask_base_uri": "https://maps.gstatic.com/mapfiles/place_api/icons/v2/shopping_pinlet",
      "name": "116 Flowers",
      "opening_hours": {
        "open_now": true
      },
      "photos": [
        {
          "height": 500,
          "html_attributions": [
            "<a href=\"https://maps.google.com/maps/contrib/101523293730959956425\">Dave Cook</a>"
          ],
          "photo_reference": "AeJbb3deMJI1hpyF0bspNDq5a_Px8qGyuDphq70RRGZrNXwXkz7MkNSrNg7QgOSZYbArdtqoFS8NWuKK12y0AY5OaF9lCvev_jTvt5uXe03NdT7rc1TmDMLFSmD-1V9dpv_RaUsWPjDSODMiV6acdWrCAQZh7vObeaJLOZoZk_T0lbvbK-RS",
          "width": 750
        }
      ],
      "place_id": "ChIJcR5gywf2wokRoAU3MEm3j8Y",
      "plus_code": {
        "compound_code": "Q3W6+VC New York, NY, USA",
        "global_code": "87G8Q3W6+VC"
      },
      "rating": 4.6,
      "reference": "ChIJcR5gywf2wokRoAU3MEm3j8Y",
      "scope": "GOOGLE",
      "types": [
        "florist",
        "store",
        "point_of_interest",
        "establishment"
      ],
      "user_ratings_total": 47,
      "vicinity": "232 East 116th Street, New York"
    },
    {
      "business_status": "OPERATIONAL",
      "geometry": {
        "location": {
          "lat": 40.7984351,
          "lng": -73.9405747
        },
        "viewport": {
          "northeast": {
            "lat": 40.7996902302915,
            "lng": -73.93929081970849
          },
          "southwest": {
            "lat": 40.7969922697085,
            "lng": -73.9419887802915
          }
        }
      },
      "icon": "https://maps.gstatic.com/mapfiles/place_api/icons/v1/png_71/restaurant-71.png",
      "icon_background_color": "#FF9E67",
      "icon_mask_base_uri": "https://maps.gstatic.com/mapfiles/place_api/icons/v2/restaurant_pinlet",
      "name": "Taco Bell",
      "opening_hours": {
        "open_now": true
      },
      "photos": [
        {
          "height": 300,
          "html_attributions": [
            "<a href=\"https://maps.google.com/maps/contrib/117226607619447793906\">Taco Bell</a>"
          ],
          "photo_reference": "AeJbb3eZEGrOE0NDBR4JjAuD0tKUhbVGD15-n6MOGKXDEmKk4xqrb6gRuzqanoTtU4rc8Z7dqU5Dm0H7gCEg0BhJeNYAdYlocBdW865oME_R-hJsbhN0WWgNJAhhDbdYeT5CuZT6NDLuD_k6JANiU1cRjETsBXFTmJRfw6yPqSXD1C2Xx3Cd",
          "width": 300
        }
      ],
      "place_id": "ChIJXSKJHgb2wokRAiaJVO-emik",
      "plus_code": {
        "compound_code": "Q3X5+9Q New York, NY, USA",
        "global_code": "87G8Q3X5+9Q"
      },
      "price_level": 1,
      "rating": 3.8,
      "reference": "ChIJXSKJHgb2wokRAiaJVO-emik",
      "scope": "GOOGLE",
      "types": [
        "meal_takeaway",
        "restaurant",
        "food",
        "point_of_interest",
        "establishment"
      ],
      "user_ratings_total": 274,
      "vicinity": "173 East 116th Street, New York"
    },
    {
      "business_status": "OPERATIONAL",
      "geometry": {
        "location": {
          "lat": 40.8026887,
          "lng": -73.9403849
        },
        "viewport": {
          "northeast": {
            "lat": 40.8040892302915,
            "lng": -73.9390985197085
          },
          "southwest": {
            "lat": 40.8013912697085,
            "lng": -73.9417964802915
          }
        }
      },
      "icon": "https://maps.gstatic.com/mapfiles/place_api/icons/v1/png_71/generic_business-71.png",
      "icon_background_color": "#7B9EB0",
      "icon_mask_base_uri": "https://maps.gstatic.com/mapfiles/place_api/icons/v2/generic_pinlet",
      "name": "Bailey House Inc.",
      "opening_hours": {
        "open_now": false
      },
      "place_id": "ChIJqUXnQwn2wokRVR7Zo84AzV0",
      "plus_code": {
        "compound_code": "R335+3R New York, NY, USA",
        "global_code": "87G8R335+3R"
      },
      "rating": 4,
      "reference": "ChIJqUXnQwn2wokRVR7Zo84AzV0",
      "scope": "GOOGLE",
      "types": [
        "health",
        "point_of_interest",
        "establishment"
      ],
      "user_ratings_total": 19,
      "vicinity": "1751 Park Avenue, New York"
    },
    {
      "business_status": "OPERATIONAL",
      "geometry": {
        "location": {
          "lat": 40.7962993,
          "lng": -73.93552090000001
        },
        "viewport": {
          "northeast": {
            "lat": 40.79761198029149,
            "lng": -73.9340361697085
          },
          "southwest": {
            "lat": 40.79491401970849,
            "lng": -73.93673413029151
          }
        }
      },
      "icon": "https://maps.gstatic.com/mapfiles/place_api/icons/v1/png_71/bank-71.png",
      "icon_background_color": "#909CE1",
      "icon_mask_base_uri": "https://maps.gstatic.com/mapfiles/place_api/icons/v2/bank-intl_pinlet",
      "name": "Citi",
      "opening_hours": {
        "open_now": true
      },
      "photos": [
        {
          "height": 300,
          "html_attributions": [
            "<a href=\"https://maps.google.com/maps/contrib/114392743125819182174\">Citi</a>"
          ],
          "photo_reference": "AeJbb3deD_aNXJMAK0Vfh-peAeI5F8ZkyUHWxkq94O107Dgp0-iYQt7MfSzOawybDi7fypqDDmASk3mley2qTui0f0IdQnGEEj2YjSfMfseacSVuY6WMgXXhgNfN67NjP4gNNvjj_MtmCatweJperSmBtd6xOdJAScXw6ojZr8Msy8imtD2K",
          "width": 358
        }
      ],
      "place_id": "ChIJd_LFZv31wokRJH7Cahh1Yes",
      "plus_code": {
        "compound_code": "Q3W7+GQ New York, NY, USA",
        "global_code": "87G8Q3W7+GQ"
      },
      "rating": 2.4,
      "reference": "ChIJd_LFZv31wokRJH7Cahh1Yes",
      "scope": "GOOGLE",
      "types": [
        "bank",
        "atm",
        "finance",
        "point_of_interest",
        "establishment"
      ],
      "user_ratings_total": 38,
      "vicinity": "2261 1st Avenue, New York"
    },
    {
      "business_status": "OPERATIONAL",
      "geometry": {
        "location": {
          "lat": 40.7982409,
          "lng": -73.94019109999999
        },
        "viewport": {
          "northeast": {
            "lat": 40.79950983029151,
            "lng": -73.9389008197085
          },
          "southwest": {
            "lat": 40.79681186970851,
            "lng": -73.9415987802915
          }
        }
      },
      "icon": "https://maps.gstatic.com/mapfiles/place_api/icons/v1/png_71/shopping-71.png",
      "icon_background_color": "#4B96F3",
      "icon_mask_base_uri": "https://maps.gstatic.com/mapfiles/place_api/icons/v2/shopping_pinlet",
      "name": "LENS LAB OPTICAL",
      "opening_hours": {
        "open_now": true
      },
      "photos": [
        {
          "height": 720,
          "html_attributions": [
            "<a href=\"https://maps.google.com/maps/contrib/101792735236904318910\">Wizard of Eyes Optical</a>"
          ],
          "photo_reference": "AeJbb3e4lxA2uuW_hCJg8LFoq1l2ctZssM4jREdtDW0_hxgAs3j0-_jYrIRf3vk1dAtiR5ee64zLeU-j4xByxX6Ywe6i2pz56ILHbAYSAGGAzP8nOnOXI9ykEPwsgpyJ2hMfEViaccloQTMHLPonFt-_5n0JPPzXaVEy8vhSRV--ulSpFTNs",
          "width": 1280
        }
      ],
      "place_id": "ChIJr6C8IQb2wokRQx2PgLOg250",
      "plus_code": {
        "compound_code": "Q3X5+7W New York, NY, USA",
        "global_code": "87G8Q3X5+7W"
      },
      "rating": 1.9,
      "reference": "ChIJr6C8IQb2wokRQx2PgLOg250",
      "scope": "GOOGLE",
      "types": [
        "health",
        "store",
        "point_of_interest",
        "establishment"
      ],
      "user_ratings_total": 143,
      "vicinity": "187 East 116th Street, New York"
    },
    {
      "business_status": "OPERATIONAL",
      "geometry": {
        "location": {
          "lat": 40.7989085,
          "lng": -73.93903390000001
        },
        "viewport": {
          "northeast": {
            "lat": 40.8003046802915,
            "lng": -73.9377936697085
          },
          "southwest": {
            "lat": 40.7976067197085,
            "lng": -73.94049163029152
          }
        }
      },
      "icon": "https://maps.gstatic.com/mapfiles/place_api/icons/v1/png_71/shopping-71.png",
      "icon_background_color": "#4B96F3",
      "icon_mask_base_uri": "https://maps.gstatic.com/mapfiles/place_api/icons/v2/shopping_pinlet",
      "name": "American Outlet Inc",
      "opening_hours": {
        "open_now": true
      },
      "photos": [
        {
          "height": 1654,
          "html_attributions": [
            "<a href=\"https://maps.google.com/maps/contrib/106941016851690891002\">William V</a>"
          ],
          "photo_reference": "AeJbb3edA1u7i8eCuPCnIxPHDS-zQtDAzQSczoCTizODW06mqhWml92pbjzPE8GxLJBUFlXhIKuQ4Jw-wEDrehxRfCwupHNVXSbi-BGTJLsKDdbetzRdolC0-9qZdlkTS43Sa_rrEHQVf52Us--f1vIm29vpNE_tcaoctou73LrfLwZTvV-K",
          "width": 2474
        }
      ],
      "place_id": "ChIJfTAgiAj2wokRZAmtiwDBIRk",
      "plus_code": {
        "compound_code": "Q3X6+H9 New York, NY, USA",
        "global_code": "87G8Q3X6+H9"
      },
      "rating": 4.2,
      "reference": "ChIJfTAgiAj2wokRZAmtiwDBIRk",
      "scope": "GOOGLE",
      "types": [
        "department_store",
        "store",
        "point_of_interest",
        "establishment"
      ],
      "user_ratings_total": 195,
      "vicinity": "2151 3rd Avenue, New York"
    },
    {
      "business_status": "OPERATIONAL",
      "geometry": {
        "location": {
          "lat": 40.7982886,
          "lng": -73.9413792
        },
        "viewport": {
          "northeast": {
            "lat": 40.79973013029149,
            "lng": -73.9399623697085
          },
          "southwest": {
            "lat": 40.79703216970849,
            "lng": -73.94266033029152
          }
        }
      },
      "icon": "https://maps.gstatic.com/mapfiles/place_api/icons/v1/png_71/shopping-71.png",
      "icon_background_color": "#4B96F3",
      "icon_mask_base_uri": "https://maps.gstatic.com/mapfiles/place_api/icons/v2/shopping_pinlet",
      "name": "LoansRus",
      "opening_hours": {
        "open_now": true
      },
      "photos": [
        {
          "height": 1152,
          "html_attributions": [
            "<a href=\"https://maps.google.com/maps/contrib/103390521205253792049\">LoansRus</a>"
          ],
          "photo_reference": "AeJbb3cs96tp2vf4L5ZZRY4DaQCGK6C_B0aDkK7b9amFnmq0F0ADUsH4eEZ7lNwIp_JEjxwQznOSRGL_SX-9P4KMdZv8zA5y5sveDcG5Xm1alBt_DunKGqg2HLDBkO0lYuPWZZO5tftwol682AAluj-NSkYmGEWu-LUwaa-9x4_zGTyVaTAA",
          "width": 1728
        }
      ],
      "place_id": "ChIJsaa4Awb2wokRPvO3rRbH8KE",
      "plus_code": {
        "compound_code": "Q3X5+8C New York, NY, USA",
        "global_code": "87G8Q3X5+8C"
      },
      "rating": 4.6,
      "reference": "ChIJsaa4Awb2wokRPvO3rRbH8KE",
      "scope": "GOOGLE",
      "types": [
        "finance",
        "store",
        "point_of_interest",
        "establishment"
      ],
      "user_ratings_total": 318,
      "vicinity": "156 East 116th Street, New York"
    },
    {
      "business_status": "OPERATIONAL",
      "geometry": {
        "location": {
          "lat": 40.7986495,
          "lng": -73.9411238
        },
        "viewport": {
          "northeast": {
            "lat": 40.7999117802915,
            "lng": -73.9398375197085
          },
          "southwest": {
            "lat": 40.7972138197085,
            "lng": -73.94253548029151
          }
        }
      },
      "icon": "https://maps.gstatic.com/mapfiles/place_api/icons/v1/png_71/generic_business-71.png",
      "icon_background_color": "#7B9EB0",
      "icon_mask_base_uri": "https://maps.gstatic.com/mapfiles/place_api/icons/v2/generic_pinlet",
      "name": "Domino's Pizza",
      "opening_hours": {
        "open_now": true
      },
      "photos": [
        {
          "height": 1253,
          "html_attributions": [
            "<a href=\"https://maps.google.com/maps/contrib/114077192885813295260\">Domino&#39;s Pizza</a>"
          ],
          "photo_reference": "AeJbb3dWGEYC8-5YxDpw3RYKK-vxw8nf42x0fhv6PHmv0ng7Y4rR5syrWVq2Qztg0yM-ri8jE7rpb15k5f2QWH-w4hAv_sYBUk9AbXHmJPb_1_D_2ZIGPpuya8VrljEjX1Oy_taRVzTAwtg7qMdLgkyjygSm7EnHUTqVFAwHTw7geo7mrqLY",
          "width": 1080
        }
      ],
      "place_id": "ChIJtVYWqAj2wokRwgDGuzoGoQc",
      "plus_code": {
        "compound_code": "Q3X5+FH New York, NY, USA",
        "global_code": "87G8Q3X5+FH"
      },
      "price_level": 1,
      "rating": 3.2,
      "reference": "ChIJtVYWqAj2wokRwgDGuzoGoQc",
      "scope": "GOOGLE",
      "types": [
        "meal_delivery",
        "meal_takeaway",
        "restaurant",
        "food",
        "point_of_interest",
        "establishment"
      ],
      "user_ratings_total": 432,
      "vicinity": "153 East 116th Street, New York"
    },
    {
      "business_status": "CLOSED_TEMPORARILY",
      "geometry": {
        "location": {
          "lat": 40.80214429999999,
          "lng": -73.9430084
        },
        "viewport": {
          "northeast": {
            "lat": 40.8035369802915,
            "lng": -73.9417600697085
          },
          "southwest": {
            "lat": 40.8008390197085,
            "lng": -73.9444580302915
          }
        }
      },
      "icon": "https://maps.gstatic.com/mapfiles/place_api/icons/v1/png_71/generic_business-71.png",
      "icon_background_color": "#7B9EB0",
      "icon_mask_base_uri": "https://maps.gstatic.com/mapfiles/place_api/icons/v2/generic_pinlet",
      "name": "Hazel Marketing",
      "permanently_closed": true,
      "place_id": "ChIJvbbYww72wokRY0gCi1QhdmI",
      "plus_code": {
        "compound_code": "R324+VQ New York, NY, USA",
        "global_code": "87G8R324+VQ"
      },
      "reference": "ChIJvbbYww72wokRY0gCi1QhdmI",
      "scope": "GOOGLE",
      "types": [
        "point_of_interest",
        "establishment"
      ],
      "vicinity": "1831 Madison Avenue, New York"
    },
    {
      "business_status": "OPERATIONAL",
      "geometry": {
        "location": {
          "lat": 40.8004256,
          "lng": -73.9366251
        },
        "viewport": {
          "northeast": {
            "lat": 40.8018444302915,
            "lng": -73.9351199697085
          },
          "southwest": {
            "lat": 40.7991464697085,
            "lng": -73.9378179302915
          }
        }
      },
      "icon": "https://maps.gstatic.com/mapfiles/place_api/icons/v1/png_71/generic_business-71.png",
      "icon_background_color": "#7B9EB0",
      "icon_mask_base_uri": "https://maps.gstatic.com/mapfiles/place_api/icons/v2/generic_pinlet",
      "name": "Liffey Van Lines - NYC Moving Company",
      "opening_hours": {
        "open_now": true
      },
      "photos": [
        {
          "height": 2574,
          "html_attributions": [
            "<a href=\"https://maps.google.com/maps/contrib/112722873217847185441\">Liffey Van Lines - NYC Moving Company</a>"
          ],
          "photo_reference": "AeJbb3fpfhCOa_Rdj_MIZFj8YqUMNFehXeQOmy0aEytL1-QnNsRsWZZ8g77pK3lhuZiQBTdv6NwbzVN1n1yuQFatXCDM4LIrRR3XQiXigU0odzg1bY-ekjzegstqxK73VWURycpeldTUgMQx2VOxIy_Fa3pfZc9Y4c5XxSjeudijOxf5PDiq",
          "width": 3861
        }
      ],
      "place_id": "ChIJT4E80gn2wokRpEhvnNz86ec",
      "plus_code": {
        "compound_code": "R327+58 New York, NY, USA",
        "global_code": "87G8R327+58"
      },
      "rating": 4.8,
      "reference": "ChIJT4E80gn2wokRpEhvnNz86ec",
      "scope": "GOOGLE",
      "types": [
        "moving_company",
        "storage",
        "store",
        "point_of_interest",
        "establishment"
      ],
      "user_ratings_total": 405,
      "vicinity": "234 East 121st Street, New York"
    },
    {
      "business_status": "OPERATIONAL",
      "geometry": {
        "location": {
          "lat": 40.7980314,
          "lng": -73.9396943
        },
        "viewport": {
          "northeast": {
            "lat": 40.7994225302915,
            "lng": -73.93844621970848
          },
          "southwest": {
            "lat": 40.7967245697085,
            "lng": -73.9411441802915
          }
        }
      },
      "icon": "https://maps.gstatic.com/mapfiles/place_api/icons/v1/png_71/restaurant-71.png",
      "icon_background_color": "#FF9E67",
      "icon_mask_base_uri": "https://maps.gstatic.com/mapfiles/place_api/icons/v2/restaurant_pinlet",
      "name": "Subway",
      "opening_hours": {
        "open_now": true
      },
      "photos": [
        {
          "height": 3024,
          "html_attributions": [
            "<a href=\"https://maps.google.com/maps/contrib/116477588504359324456\">Katherine Horn</a>"
          ],
          "photo_reference": "AeJbb3cn-q7BmmkWCPfVO5Y8mrj_CI16q9tEJBuz2KCKUdvPAhbdkEWIYt0dulZPVQgLIIM6S_-O9GROKiVUabNM74_xbmOa8x5Bv5zgKab1IWOtjQsRLUrX4wcLjy3_OH-oFdEZH4PvMUCaty5g5EZe1g4kLeW4OdL5xCbjbY2-L_OlZk-1",
          "width": 4032
        }
      ],
      "place_id": "ChIJ12_gJQb2wokRLVw2EvNCsus",
      "plus_code": {
        "compound_code": "Q3X6+64 New York, NY, USA",
        "global_code": "87G8Q3X6+64"
      },
      "price_level": 1,
      "rating": 4,
      "reference": "ChIJ12_gJQb2wokRLVw2EvNCsus",
      "scope": "GOOGLE",
      "types": [
        "meal_takeaway",
        "restaurant",
        "point_of_interest",
        "food",
        "establishment"
      ],
      "user_ratings_total": 61,
      "vicinity": "201 East 116th Street, New York"
    },
    {
      "business_status": "OPERATIONAL",
      "geometry": {
        "location": {
          "lat": 40.8021363,
          "lng": -73.9429713
        },
        "viewport": {
          "northeast": {
            "lat": 40.80353298029149,
            "lng": -73.94174151970849
          },
          "southwest": {
            "lat": 40.8008350197085,
            "lng": -73.94443948029149
          }
        }
      },
      "icon": "https://maps.gstatic.com/mapfiles/place_api/icons/v1/png_71/generic_business-71.png",
      "icon_background_color": "#7B9EB0",
      "icon_mask_base_uri": "https://maps.gstatic.com/mapfiles/place_api/icons/v2/generic_pinlet",
      "name": "Madison Park Apartments",
      "place_id": "ChIJvbbYww72wokR8XYyLbvzk2E",
      "plus_code": {
        "compound_code": "R324+VR New York, NY, USA",
        "global_code": "87G8R324+VR"
      },
      "rating": 3.5,
      "reference": "ChIJvbbYww72wokR8XYyLbvzk2E",
      "scope": "GOOGLE",
      "types": [
        "point_of_interest",
        "establishment"
      ],
      "user_ratings_total": 2,
      "vicinity": "1831 Madison Avenue, New York"
    },
    {
      "business_status": "OPERATIONAL",
      "geometry": {
        "location": {
          "lat": 40.801377,
          "lng": -73.9350819
        },
        "viewport": {
          "northeast": {
            "lat": 40.80284378029149,
            "lng": -73.93364646970848
          },
          "southwest": {
            "lat": 40.8001458197085,
            "lng": -73.9363444302915
          }
        }
      },
      "icon": "https://maps.gstatic.com/mapfiles/place_api/icons/v1/png_71/generic_business-71.png",
      "icon_background_color": "#7B9EB0",
      "icon_mask_base_uri": "https://maps.gstatic.com/mapfiles/place_api/icons/v2/generic_pinlet",
      "name": "A&M Security Training",
      "opening_hours": {
        "open_now": false
      },
      "place_id": "ChIJ_Z2wP-L1wokRFXmHNhh-o2U",
      "plus_code": {
        "compound_code": "R327+HX New York, NY, USA",
        "global_code": "87G8R327+HX"
      },
      "rating": 3.6,
      "reference": "ChIJ_Z2wP-L1wokRFXmHNhh-o2U",
      "scope": "GOOGLE",
      "types": [
        "point_of_interest",
        "establishment"
      ],
      "user_ratings_total": 11,
      "vicinity": "2253 3rd Avenue Suite #229, New York"
    },
    {
      "business_status": "OPERATIONAL",
      "geometry": {
        "location": {
          "lat": 40.79598490000001,
          "lng": -73.93806599999999
        },
        "viewport": {
          "northeast": {
            "lat": 40.79742628029151,
            "lng": -73.9366493197085
          },
          "southwest": {
            "lat": 40.79472831970851,
            "lng": -73.9393472802915
          }
        }
      },
      "icon": "https://maps.gstatic.com/mapfiles/place_api/icons/v1/png_71/generic_business-71.png",
      "icon_background_color": "#7B9EB0",
      "icon_mask_base_uri": "https://maps.gstatic.com/mapfiles/place_api/icons/v2/generic_pinlet",
      "name": "Thomas Jefferson",
      "opening_hours": {
        "open_now": false
      },
      "photos": [
        {
          "height": 4000,
          "html_attributions": [
            "<a href=\"https://maps.google.com/maps/contrib/116567548180692752087\">Dianne Hart</a>"
          ],
          "photo_reference": "AeJbb3evV_pZZG2gjzsiEsL7qgvAmp9mU7ZWgbMdXj5hWzpMSsemE3GUDJlxtuH0PghPkGlD-ehFWmC9JzOoOoiWFGi7QwjNp3bSIIvHqdJSjmb8mxq8b99DmOU_7U6uI-etgAud7IP5tFwbDk9KCdLTKEJYDqVIfgVYdmGuPgsGULL9G0eN",
          "width": 3000
        }
      ],
      "place_id": "ChIJZxYfsAf2wokRbGQqDjWIIIc",
      "plus_code": {
        "compound_code": "Q3W6+9Q New York, NY, USA",
        "global_code": "87G8Q3W6+9Q"
      },
      "rating": 2,
      "reference": "ChIJZxYfsAf2wokRbGQqDjWIIIc",
      "scope": "GOOGLE",
      "types": [
        "local_government_office",
        "point_of_interest",
        "establishment"
      ],
      "user_ratings_total": 9,
      "vicinity": "310 East 115th Street, New York"
    },
    {
      "business_status": "OPERATIONAL",
      "geometry": {
        "location": {
          "lat": 40.7977423,
          "lng": -73.9390964
        },
        "viewport": {
          "northeast": {
            "lat": 40.7990252802915,
            "lng": -73.9377960697085
          },
          "southwest": {
            "lat": 40.7963273197085,
            "lng": -73.9404940302915
          }
        }
      },
      "icon": "https://maps.gstatic.com/mapfiles/place_api/icons/v1/png_71/generic_business-71.png",
      "icon_background_color": "#7B9EB0",
      "icon_mask_base_uri": "https://maps.gstatic.com/mapfiles/place_api/icons/v2/generic_pinlet",
      "name": "Mauro Brothers Real Estate",
      "opening_hours": {
        "open_now": true
      },
      "photos": [
        {
          "height": 352,
          "html_attributions": [
            "<a href=\"https://maps.google.com/maps/contrib/106288495556014884250\">Mauro Brothers Real Estate</a>"
          ],
          "photo_reference": "AeJbb3eZOO1w9Fq0ERC5zBS9PFlXLVEyC89t4ortxjq2hxlejmWhMwCnAhVkeVIWAPqtHn_VdKr_yGWvJ0han154fiNyYMYYEhAsRo2oRD6EALxgilSyCsRTe3U4kQbQQvtGjv8dGZNk_gGJZs0d7l9Lewb9uBFdUIR3UJAM664QGq4sts2S",
          "width": 352
        }
      ],
      "place_id": "ChIJYxwj0Af2wokRKveVNKJpHCM",
      "plus_code": {
        "compound_code": "Q3X6+39 New York, NY, USA",
        "global_code": "87G8Q3X6+39"
      },
      "rating": 3.1,
      "reference": "ChIJYxwj0Af2wokRKveVNKJpHCM",
      "scope": "GOOGLE",
      "types": [
        "real_estate_agency",
        "point_of_interest",
        "establishment"
      ],
      "user_ratings_total": 23,
      "vicinity": "239 East 116th Street # 2, New York"
    },
    {
      "business_status": "OPERATIONAL",
      "geometry": {
        "location": {
          "lat": 40.8028917,
          "lng": -73.9401379
        },
        "viewport": {
          "northeast": {
            "lat": 40.80425073029151,
            "lng": -73.93869151970848
          },
          "southwest": {
            "lat": 40.80155276970851,
            "lng": -73.94138948029149
          }
        }
      },
      "icon": "https://maps.gstatic.com/mapfiles/place_api/icons/v1/png_71/generic_business-71.png",
      "icon_background_color": "#7B9EB0",
      "icon_mask_base_uri": "https://maps.gstatic.com/mapfiles/place_api/icons/v2/generic_pinlet",
      "name": "Safe Horizon",
      "place_id": "ChIJKYCZuRL2wokRyone5F_AOXA",
      "plus_code": {
        "compound_code": "R335+5W New York, NY, USA",
        "global_code": "87G8R335+5W"
      },
      "rating": 4.6,
      "reference": "ChIJKYCZuRL2wokRyone5F_AOXA",
      "scope": "GOOGLE",
      "types": [
        "point_of_interest",
        "establishment"
      ],
      "user_ratings_total": 19,
      "vicinity": "1753 Park Avenue #1, New York"
    },
    {
      "business_status": "OPERATIONAL",
      "geometry": {
        "location": {
          "lat": 40.80093589999999,
          "lng": -73.9380789
        },
        "viewport": {
          "northeast": {
            "lat": 40.8022244802915,
            "lng": -73.9366664697085
          },
          "southwest": {
            "lat": 40.7995265197085,
            "lng": -73.9393644302915
          }
        }
      },
      "icon": "https://maps.gstatic.com/mapfiles/place_api/icons/v1/png_71/shopping-71.png",
      "icon_background_color": "#4B96F3",
      "icon_mask_base_uri": "https://maps.gstatic.com/mapfiles/place_api/icons/v2/shoppingcart_pinlet",
      "name": "City Fresh Market",
      "opening_hours": {
        "open_now": true
      },
      "photos": [
        {
          "height": 3024,
          "html_attributions": [
            "<a href=\"https://maps.google.com/maps/contrib/113131457100396461443\">O. Ogie</a>"
          ],
          "photo_reference": "AeJbb3enMQvFpvUj77QIZ4LdFLMjK8Lxb7eOo4qMNlwQBwhaCAw4Ds1m0vtaVZcLablIi5DnriC4hI7dNUk4lQOQ-BZgvMeR0c1Lai5kMTIPAgW5zok_93SeTlk2G5kcV0R1pzqZT9iiHr-aYfix97jr9kUyt7DlgQ7d1Y7u5THIbh3RgaHd",
          "width": 4032
        }
      ],
      "place_id": "ChIJ88OvsQn2wokRGQDD9kx6Wek",
      "plus_code": {
        "compound_code": "R326+9Q New York, NY, USA",
        "global_code": "87G8R326+9Q"
      },
      "rating": 4.1,
      "reference": "ChIJ88OvsQn2wokRGQDD9kx6Wek",
      "scope": "GOOGLE",
      "types": [
        "supermarket",
        "grocery_or_supermarket",
        "store",
        "point_of_interest",
        "food",
        "establishment"
      ],
      "user_ratings_total": 875,
      "vicinity": "2212 3rd Avenue #3536, New York"
    },
    {
      "business_status": "OPERATIONAL",
      "geometry": {
        "location": {
          "lat": 40.7980271,
          "lng": -73.93968339999999
        },
        "viewport": {
          "northeast": {
            "lat": 40.7994204802915,
            "lng": -73.93844071970848
          },
          "southwest": {
            "lat": 40.7967225197085,
            "lng": -73.94113868029149
          }
        }
      },
      "icon": "https://maps.gstatic.com/mapfiles/place_api/icons/v1/png_71/atm-71.png",
      "icon_background_color": "#909CE1",
      "icon_mask_base_uri": "https://maps.gstatic.com/mapfiles/place_api/icons/v2/atm_pinlet",
      "name": "Bank of America ATM",
      "opening_hours": {
        "open_now": true
      },
      "photos": [
        {
          "height": 4032,
          "html_attributions": [
            "<a href=\"https://maps.google.com/maps/contrib/117133156013227178383\">Lidy Santana</a>"
          ],
          "photo_reference": "AeJbb3caRqbhX6gICaudkNBi2e8OOFY5AoH_ouhv2Yv0cucItk7qMEdmTiFER_wgCB9Jy4ZUyxSAFu3GiooCbmDag1l4QBuKYVjcuwLU68C2cwzkr019de7kv_cCSCYj-mpPWoIpYEBlypkDsJtLabV2gMeL3_FxeOgTY26-bnvNduwxrs8t",
          "width": 3024
        }
      ],
      "place_id": "ChIJ12_gJQb2wokRVzIYpzyrrNI",
      "plus_code": {
        "compound_code": "Q3X6+64 New York, NY, USA",
        "global_code": "87G8Q3X6+64"
      },
      "rating": 2.1,
      "reference": "ChIJ12_gJQb2wokRVzIYpzyrrNI",
      "scope": "GOOGLE",
      "types": [
        "atm",
        "finance",
        "point_of_interest",
        "establishment"
      ],
      "user_ratings_total": 8,
      "vicinity": "201 East 116th Street, New York"
    },
    {
      "business_status": "CLOSED_TEMPORARILY",
      "geometry": {
        "location": {
          "lat": 40.8001763,
          "lng": -73.9389751
        },
        "viewport": {
          "northeast": {
            "lat": 40.80145213029149,
            "lng": -73.93740541970848
          },
          "southwest": {
            "lat": 40.79875416970849,
            "lng": -73.9401033802915
          }
        }
      },
      "icon": "https://maps.gstatic.com/mapfiles/place_api/icons/v1/png_71/generic_business-71.png",
      "icon_background_color": "#7B9EB0",
      "icon_mask_base_uri": "https://maps.gstatic.com/mapfiles/place_api/icons/v2/generic_pinlet",
      "name": "Muss Development",
      "permanently_closed": true,
      "place_id": "ChIJXVc4-Aj2wokRV53PujCA1RA",
      "plus_code": {
        "compound_code": "R326+3C New York, NY, USA",
        "global_code": "87G8R326+3C"
      },
      "rating": 4,
      "reference": "ChIJXVc4-Aj2wokRV53PujCA1RA",
      "scope": "GOOGLE",
      "types": [
        "real_estate_agency",
        "point_of_interest",
        "establishment"
      ],
      "user_ratings_total": 1,
      "vicinity": "181 East 119th Street, New York"
    },
    {
      "business_status": "OPERATIONAL",
      "geometry": {
        "location": {
          "lat": 40.8033902,
          "lng": -73.9383306
        },
        "viewport": {
          "northeast": {
            "lat": 40.80471053029149,
            "lng": -73.93691386970849
          },
          "southwest": {
            "lat": 40.80201256970849,
            "lng": -73.9396118302915
          }
        }
      },
      "icon": "https://maps.gstatic.com/mapfiles/place_api/icons/v1/png_71/generic_business-71.png",
      "icon_background_color": "#7B9EB0",
      "icon_mask_base_uri": "https://maps.gstatic.com/mapfiles/place_api/icons/v2/generic_pinlet",
      "name": "Bowery Resident Committee",
      "photos": [
        {
          "height": 4032,
          "html_attributions": [
            "<a href=\"https://maps.google.com/maps/contrib/102045066006390778529\">Adekoya Gbamuse</a>"
          ],
          "photo_reference": "AeJbb3dkcxJ2FtME5FvyyMlPEo1Bz6n2BpeEW8QjFCoELY0SNm22UGL3NAqoc1-wbLkg0yr-uQTlR24VgS6j7XuVAsu-F6BHmAuNVYjjlM4WIfwXCqbsLtDfyFKLTTQSqdfwljPtV2JN-dOFUR6_wu3FdotbKGWnER2lBcUv27ZPQQan8u__",
          "width": 3024
        }
      ],
      "place_id": "ChIJ84zuJQr2wokR5IlzVgEwufI",
      "plus_code": {
        "compound_code": "R336+9M New York, NY, USA",
        "global_code": "87G8R336+9M"
      },
      "rating": 3.8,
      "reference": "ChIJ84zuJQr2wokR5IlzVgEwufI",
      "scope": "GOOGLE",
      "types": [
        "point_of_interest",
        "establishment"
      ],
      "user_ratings_total": 13,
      "vicinity": "2027 Lexington Avenue, New York"
    },
    {
      "business_status": "OPERATIONAL",
      "geometry": {
        "location": {
          "lat": 40.8019999,
          "lng": -73.9365791
        },
        "viewport": {
          "northeast": {
            "lat": 40.8034691802915,
            "lng": -73.93514186970849
          },
          "southwest": {
            "lat": 40.8007712197085,
            "lng": -73.9378398302915
          }
        }
      },
      "icon": "https://maps.gstatic.com/mapfiles/place_api/icons/v1/png_71/generic_business-71.png",
      "icon_background_color": "#7B9EB0",
      "icon_mask_base_uri": "https://maps.gstatic.com/mapfiles/place_api/icons/v2/generic_pinlet",
      "name": "Rodolfo Uribe, PA",
      "place_id": "ChIJ2_bT7wn2wokRnuJuRmWWzAk",
      "plus_code": {
        "compound_code": "R327+Q9 New York, NY, USA",
        "global_code": "87G8R327+Q9"
      },
      "reference": "ChIJ2_bT7wn2wokRnuJuRmWWzAk",
      "scope": "GOOGLE",
      "types": [
        "health",
        "point_of_interest",
        "establishment"
      ],
      "vicinity": "New York"
    },
    {
      "business_status": "OPERATIONAL",
      "geometry": {
        "location": {
          "lat": 40.8020607,
          "lng": -73.9365594
        },
        "viewport": {
          "northeast": {
            "lat": 40.8035035802915,
            "lng": -73.9351415197085
          },
          "southwest": {
            "lat": 40.80080561970851,
            "lng": -73.9378394802915
          }
        }
      },
      "icon": "https://maps.gstatic.com/mapfiles/place_api/icons/v1/png_71/generic_business-71.png",
      "icon_background_color": "#7B9EB0",
      "icon_mask_base_uri": "https://maps.gstatic.com/mapfiles/place_api/icons/v2/generic_pinlet",
      "name": "Dr. Idaise Peguero, MD",
      "place_id": "ChIJ2_bT7wn2wokRRdbaPk8-6xM",
      "plus_code": {
        "compound_code": "R327+R9 New York, NY, USA",
        "global_code": "87G8R327+R9"
      },
      "reference": "ChIJ2_bT7wn2wokRRdbaPk8-6xM",
      "scope": "GOOGLE",
      "types": [
        "doctor",
        "health",
        "point_of_interest",
        "establishment"
      ],
      "vicinity": "2253 3rd Avenue, New York"
    },
    {
      "business_status": "OPERATIONAL",
      "geometry": {
        "location": {
          "lat": 40.8021372,
          "lng": -73.9373999
        },
        "viewport": {
          "northeast": {
            "lat": 40.8033978802915,
            "lng": -73.93587936970849
          },
          "southwest": {
            "lat": 40.8006999197085,
            "lng": -73.9385773302915
          }
        }
      },
      "icon": "https://maps.gstatic.com/mapfiles/place_api/icons/v1/png_71/atm-71.png",
      "icon_background_color": "#909CE1",
      "icon_mask_base_uri": "https://maps.gstatic.com/mapfiles/place_api/icons/v2/atm_pinlet",
      "name": "Bank of America ATM",
      "photos": [
        {
          "height": 3024,
          "html_attributions": [
            "<a href=\"https://maps.google.com/maps/contrib/112712499291620116325\">Jack Daise</a>"
          ],
          "photo_reference": "AeJbb3cKZyqjT6mcwA6QzJAnIsl9LUj-a5WKTTyviqHdM8c1rBNlKFa2HVHJZLjX5ix2UqgNy20mgTNZoyYkHB71dG7MHjPw2DOdmzxTHMyP2_bcHWLsADsisgYmeSidOYfoLdrlv1YQeFT2kkQfSiWcjbbMyVi-hAboSIPkXnugR5-KFNXz",
          "width": 4032
        }
      ],
      "place_id": "ChIJbZV3L971wokRxyWKWfLK834",
      "plus_code": {
        "compound_code": "R327+V2 New York, NY, USA",
        "global_code": "87G8R327+V2"
      },
      "rating": 4,
      "reference": "ChIJbZV3L971wokRxyWKWfLK834",
      "scope": "GOOGLE",
      "types": [
        "atm",
        "finance",
        "point_of_interest",
        "establishment"
      ],
      "user_ratings_total": 1,
      "vicinity": "2250 3rd Avenue, New York"
    },
    {
      "business_status": "OPERATIONAL",
      "geometry": {
        "location": {
          "lat": 40.7985543,
          "lng": -73.93685529999999
        },
        "viewport": {
          "northeast": {
            "lat": 40.7998719302915,
            "lng": -73.93542251970848
          },
          "southwest": {
            "lat": 40.7971739697085,
            "lng": -73.93812048029149
          }
        }
      },
      "icon": "https://maps.gstatic.com/mapfiles/place_api/icons/v1/png_71/generic_business-71.png",
      "icon_background_color": "#7B9EB0",
      "icon_mask_base_uri": "https://maps.gstatic.com/mapfiles/place_api/icons/v2/generic_pinlet",
      "name": "Aqel Sheet Metal",
      "opening_hours": {
        "open_now": true
      },
      "photos": [
        {
          "height": 1800,
          "html_attributions": [
            "<a href=\"https://maps.google.com/maps/contrib/116098268151201305443\">Ryan Heck</a>"
          ],
          "photo_reference": "AeJbb3eri7GyuNK5NPpFlmxSbUamRXIHUYuQqTnFpabJeTxiuU15DVMdVRl_LNUkGDY7Xr2U2lVr1xpA_2XCGAU2x38lOPj1q5_29_-voDZVaG30mU4pAf2iu6tFDq8A9BkMxHqDtwH5MGbgcU5Qxw0FT4Exkc4fGtvd9qdosT358cwIBHW1",
          "width": 1440
        }
      ],
      "place_id": "ChIJv8lBEAj2wokREbVLlfPBb5k",
      "plus_code": {
        "compound_code": "Q3X7+C7 New York, NY, USA",
        "global_code": "87G8Q3X7+C7"
      },
      "rating": 3.8,
      "reference": "ChIJv8lBEAj2wokREbVLlfPBb5k",
      "scope": "GOOGLE",
      "types": [
        "general_contractor",
        "store",
        "point_of_interest",
        "establishment"
      ],
      "user_ratings_total": 26,
      "vicinity": "2305 2nd Avenue, New York"
    },
    {
      "business_status": "OPERATIONAL",
      "geometry": {
        "location": {
          "lat": 40.79583100000001,
          "lng": -73.93669899999999
        },
        "viewport": {
          "northeast": {
            "lat": 40.79710703029151,
            "lng": -73.9353887697085
          },
          "southwest": {
            "lat": 40.79440906970851,
            "lng": -73.9380867302915
          }
        }
      },
      "icon": "https://maps.gstatic.com/mapfiles/place_api/icons/v1/png_71/generic_business-71.png",
      "icon_background_color": "#7B9EB0",
      "icon_mask_base_uri": "https://maps.gstatic.com/mapfiles/place_api/icons/v2/generic_pinlet",
      "name": "LSA Family Health Service",
      "opening_hours": {
        "open_now": false
      },
      "photos": [
        {
          "height": 356,
          "html_attributions": [
            "<a href=\"https://maps.google.com/maps/contrib/114004390987705403744\">LSA Family Health Service</a>"
          ],
          "photo_reference": "AeJbb3cyB0wfg89BXkP70Oeu5CKgCzmxLRGrKBjrqlCIT4-K3i9vFb3bAHfcTBNsf7i9bRl4nX9m2Sp8GctL0YSODrqwXDtsLK7uZ8847vQsn6yOjYmlH0njdkeB_dlLzIqiszxyFxPl49T5Fhq0drhL_RAjZsXqN1BccoFQ3UQ-jb25PL8",
          "width": 630
        }
      ],
      "place_id": "ChIJvXqihAf2wokRmRImf1yNSHI",
      "plus_code": {
        "compound_code": "Q3W7+88 New York, NY, USA",
        "global_code": "87G8Q3W7+88"
      },
      "rating": 4.4,
      "reference": "ChIJvXqihAf2wokRmRImf1yNSHI",
      "scope": "GOOGLE",
      "types": [
        "point_of_interest",
        "establishment"
      ],
      "user_ratings_total": 59,
      "vicinity": "333 East 115th Street, New York"
    },
    {
      "business_status": "OPERATIONAL",
      "geometry": {
        "location": {
          "lat": 40.7986128,
          "lng": -73.94094559999999
        },
        "viewport": {
          "northeast": {
            "lat": 40.7998607802915,
            "lng": -73.93967066970848
          },
          "southwest": {
            "lat": 40.7971628197085,
            "lng": -73.9423686302915
          }
        }
      },
      "icon": "https://maps.gstatic.com/mapfiles/place_api/icons/v1/png_71/generic_business-71.png",
      "icon_background_color": "#7B9EB0",
      "icon_mask_base_uri": "https://maps.gstatic.com/mapfiles/place_api/icons/v2/generic_pinlet",
      "name": "NYC Hispanic Chamber",
      "opening_hours": {
        "open_now": false
      },
      "place_id": "ChIJhU_1pwj2wokRAaqb7J4J48s",
      "plus_code": {
        "compound_code": "Q3X5+CJ New York, NY, USA",
        "global_code": "87G8Q3X5+CJ"
      },
      "rating": 5,
      "reference": "ChIJhU_1pwj2wokRAaqb7J4J48s",
      "scope": "GOOGLE",
      "types": [
        "point_of_interest",
        "establishment"
      ],
      "user_ratings_total": 3,
      "vicinity": "159 East 116th Street, New York"
    },
    {
      "business_status": "OPERATIONAL",
      "geometry": {
        "location": {
          "lat": 40.8020607,
          "lng": -73.9365594
        },
        "viewport": {
          "northeast": {
            "lat": 40.8035035802915,
            "lng": -73.9351415197085
          },
          "southwest": {
            "lat": 40.80080561970851,
            "lng": -73.9378394802915
          }
        }
      },
      "icon": "https://maps.gstatic.com/mapfiles/place_api/icons/v1/png_71/generic_business-71.png",
      "icon_background_color": "#7B9EB0",
      "icon_mask_base_uri": "https://maps.gstatic.com/mapfiles/place_api/icons/v2/generic_pinlet",
      "name": "Tina L. Pack, LMSW",
      "place_id": "ChIJH_TT7wn2wokRTnzoWqthWYQ",
      "plus_code": {
        "compound_code": "R327+R9 New York, NY, USA",
        "global_code": "87G8R327+R9"
      },
      "reference": "ChIJH_TT7wn2wokRTnzoWqthWYQ",
      "scope": "GOOGLE",
      "types": [
        "point_of_interest",
        "establishment"
      ],
      "vicinity": "2253 3rd Avenue, New York"
    },
    {
      "business_status": "OPERATIONAL",
      "geometry": {
        "location": {
          "lat": 40.7982278,
          "lng": -73.9335368
        },
        "viewport": {
          "northeast": {
            "lat": 40.79954438029149,
            "lng": -73.93224731970851
          },
          "southwest": {
            "lat": 40.79684641970849,
            "lng": -73.93494528029152
          }
        }
      },
      "icon": "https://maps.gstatic.com/mapfiles/place_api/icons/v1/png_71/shopping-71.png",
      "icon_background_color": "#4B96F3",
      "icon_mask_base_uri": "https://maps.gstatic.com/mapfiles/place_api/icons/v2/shoppingcart_pinlet",
      "name": "Fine Fare Supermarkets",
      "opening_hours": {
        "open_now": true
      },
      "photos": [
        {
          "height": 3024,
          "html_attributions": [
            "<a href=\"https://maps.google.com/maps/contrib/103225052775976724804\">Luis Paulino</a>"
          ],
          "photo_reference": "AeJbb3dm9DG8wy0ulGTggC5HzukzEaK_vJziPzCRBPKITXt3N5WjbrR6uvApPTKHwYCQsLpgrww-n8QwLZxaGHLGBUEJywEkrElETfjhSvuRvCeHbhk9gz5-SawDn_M3zDzlktSfUzP5kqsT_r5PRZpEx-1k6gymaTs0jIhlqPVYZxjmZP3A",
          "width": 4032
        }
      ],
      "place_id": "ChIJt5iH2eL1wokR8QdYCh6PUGA",
      "plus_code": {
        "compound_code": "Q3X8+7H New York, NY, USA",
        "global_code": "87G8Q3X8+7H"
      },
      "rating": 3.6,
      "reference": "ChIJt5iH2eL1wokR8QdYCh6PUGA",
      "scope": "GOOGLE",
      "types": [
        "supermarket",
        "grocery_or_supermarket",
        "store",
        "point_of_interest",
        "food",
        "establishment"
      ],
      "user_ratings_total": 285,
      "vicinity": "2330 1st Avenue, New York"
    },
    {
      "business_status": "OPERATIONAL",
      "geometry": {
        "location": {
          "lat": 40.8017548,
          "lng": -73.9367
        },
        "viewport": {
          "northeast": {
            "lat": 40.8029987802915,
            "lng": -73.9352685697085
          },
          "southwest": {
            "lat": 40.8003008197085,
            "lng": -73.9379665302915
          }
        }
      },
      "icon": "https://maps.gstatic.com/mapfiles/place_api/icons/v1/png_71/generic_business-71.png",
      "icon_background_color": "#7B9EB0",
      "icon_mask_base_uri": "https://maps.gstatic.com/mapfiles/place_api/icons/v2/generic_pinlet",
      "name": "Cardinal Mc Closkey School-Home",
      "place_id": "ChIJITcp6An2wokRArmv4X_6vEs",
      "plus_code": {
        "compound_code": "R327+P8 New York, NY, USA",
        "global_code": "87G8R327+P8"
      },
      "reference": "ChIJITcp6An2wokRArmv4X_6vEs",
      "scope": "GOOGLE",
      "types": [
        "health",
        "point_of_interest",
        "establishment"
      ],
      "vicinity": "205 East 122nd Street #2, New York"
    },
    {
      "business_status": "OPERATIONAL",
      "geometry": {
        "location": {
          "lat": 40.801627,
          "lng": -73.93619720000001
        },
        "viewport": {
          "northeast": {
            "lat": 40.80286538029149,
            "lng": -73.9349593697085
          },
          "southwest": {
            "lat": 40.80016741970849,
            "lng": -73.93765733029151
          }
        }
      },
      "icon": "https://maps.gstatic.com/mapfiles/place_api/icons/v1/png_71/generic_business-71.png",
      "icon_background_color": "#7B9EB0",
      "icon_mask_base_uri": "https://maps.gstatic.com/mapfiles/place_api/icons/v2/generic_pinlet",
      "name": "Harlem Drummers Steppers",
      "place_id": "ChIJ0R733gn2wokR0DlOW85DziU",
      "plus_code": {
        "compound_code": "R327+MG New York, NY, USA",
        "global_code": "87G8R327+MG"
      },
      "reference": "ChIJ0R733gn2wokR0DlOW85DziU",
      "scope": "GOOGLE",
      "types": [
        "point_of_interest",
        "establishment"
      ],
      "vicinity": "221 East 122nd Street #1603, New York"
    }
  ],
  "status": "OK"
}