{
  "html_attributions": [],
  "results": [
    {
      "geometry": {
        "location": {
          "lat": 40.7127753,
          "lng": -74.0059728
        },
        "viewport": {
          "northeast": {
            "lat": 40.91757705070789,
            "lng": -73.70027206817629
          },
          "southwest": {
            "lat": 40.47739906045452,
            "lng": -74.25908991427882
          }
        }
      },
      "icon": "https://maps.gstatic.com/mapfiles/place_api/icons/v1/png_71/geocode-71.png",
      "icon_background_color": "#7B9EB0",
      "icon_mask_base_uri": "https://maps.gstatic.com/mapfiles/place_api/icons/v2/generic_pinlet",
      "name": "\u7d10\u7d04",
      "photos": [
        {
          "height": 600,
          "html_attributions": [
            "<a href=\"https://maps.google.com/maps/contrib/102389334567210814614\">Bukurie</a>"
          ],
          "photo_reference": "AeJbb3cGfmq5XwaXzlwYe31u56X23Dl4USP_nwGA1nMTDJDzJSpjAfqtHU-wb2ViiLQ08EGFfIcw5BfO8HKqjmpQ-Tw5FA59zb-Y_ye8qOOq4Hbh4T2jzFR_524O-QQa_jBskzxwcCiWe-7dWO5-gxZt-FWjNoyYGDbjbuaD6bPTixdlhiSe",
          "width": 480
        }
      ],
      "place_id": "ChIJOwg_06VPwokRYv534QaPC8g",
      "reference": "ChIJOwg_06VPwokRYv534QaPC8g",
      "scope": "GOOGLE",
      "types": [
        "locality",
        "political"
      ],
      "vicinity": "\u7d10\u7d04"
    },
    {
      "business_status": "OPERATIONAL",
      "geometry": {
        "location": {
          "lat": 40.7051238,
          "lng": -74.006147
        },
        "viewport": {
          "northeast": {
            "lat": 40.7065268802915,
            "lng": -74.00488746970849
          },
          "southwest": {
            "lat": 40.7038289197085,
            "lng": -74.0075854302915
          }
        }
      },
      "icon": "https://maps.gstatic.com/mapfiles/place_api/icons/v1/png_71/lodging-71.png",
      "icon_background_color": "#909CE1",
      "icon_mask_base_uri": "https://maps.gstatic.com/mapfiles/place_api/icons/v2/hotel_pinlet",
      "name": "Eurostars Wall Street",
      "opening_hours": {
        "open_now": true
      },
      "photos": [
        {
          "height": 800,
          "html_attributions": [
            "<a href=\"https://maps.google.com/maps/contrib/101017581358652003093\">Eurostars Wall Street</a>"
          ],
          "photo_reference": "AeJbb3c9oyUfFRTUe_z7m2piyqYXfed_kgRMbCZeyUUB0Dwpw1FqqFXEvru9zIy89LBTyvNrdpGlOuyQdV9WZFldyKZJ-zcgL1YEpq7kzOyHexuPMEVZcVQcUDtShZId57N0NJhg0n_Rveev3LoNhcSJ1sa1IQ3iqSHtPT9vUl4723mopxyu",
          "width": 1200
        }
      ],
      "place_id": "ChIJ7xcL8z1awokRPFmLkB9tXHc",
      "plus_code": {
        "compound_code": "PX4V+2G \u7f8e\u570b\u7d10\u7d04",
        "global_code": "87G7PX4V+2G"
      },
      "rating": 3.9,
      "reference": "ChIJ7xcL8z1awokRPFmLkB9tXHc",
      "scope": "GOOGLE",
      "types": [
        "lodging",
        "point_of_interest",
        "establishment"
      ],
      "user_ratings_total": 464,
      "vicinity": "129 Front Street, New York"
    },
    {
      "business_status": "OPERATIONAL",
      "geometry": {
        "location": {
          "lat": 40.7055616,
          "lng": -74.00718909999999
        },
        "viewport": {
          "northeast": {
            "lat": 40.7068676802915,
            "lng": -74.00573626970849
          },
          "southwest": {
            "lat": 40.7041697197085,
            "lng": -74.0084342302915
          }
        }
      },
      "icon": "https://maps.gstatic.com/mapfiles/place_api/icons/v1/png_71/lodging-71.png",
      "icon_background_color": "#909CE1",
      "icon_mask_base_uri": "https://maps.gstatic.com/mapfiles/place_api/icons/v2/hotel_pinlet",
      "name": "\u7d10\u7d04\u5e02\u83ef\u723e\u8857\u667a\u9078\u5047\u65e5\u9152\u5e97",
      "photos": [
        {
          "height": 4640,
          "html_attributions": [
            "<a href=\"https://maps.google.com/maps/contrib/101583038758636718083\">Ratheesh Panicker</a>"
          ],
          "photo_reference": "AeJbb3dv7VWKc8mEoFfrvh8IDT0blq5rLPNP6aoTmhv5tp8yEycAxBcW8_o0VukorElNwP3bGf0Ab16jsRVRs3SGYAZ5aIYMfB1rQ_JvbTzTYyy8al7QB-PeJXfF_MjudbPMV6y_uqwUcUPp3GICGeRuxVZN9f3I6kOxBrXwGB2vtY79G8_g",
          "width": 3480
        }
      ],
      "place_id": "ChIJuydjIhZawokRG1-vnBMShEw",
      "plus_code": {
        "compound_code": "PX4V+64 \u7f8e\u570b\u7d10\u7d04",
        "global_code": "87G7PX4V+64"
      },
      "rating": 3.8,
      "reference": "ChIJuydjIhZawokRG1-vnBMShEw",
      "scope": "GOOGLE",
      "types": [
        "lodging",
        "point_of_interest",
        "establishment"
      ],
      "user_ratings_total": 858,
      "vicinity": "126 Water Street, New York"
    },
    {
      "business_status": "OPERATIONAL",
      "geometry": {
        "location": {
          "lat": 40.7051285,
          "lng": -74.0079362
        },
        "viewport": {
          "northeast": {
            "lat": 40.7064043302915,
            "lng": -74.0065007197085
          },
          "southwest": {
            "lat": 40.7037063697085,
            "lng": -74.0091986802915
          }
        }
      },
      "icon": "https://maps.gstatic.com/mapfiles/place_api/icons/v1/png_71/lodging-71.png",
      "icon_background_color": "#909CE1",
      "icon_mask_base_uri": "https://maps.gstatic.com/mapfiles/place_api/icons/v2/hotel_pinlet",
      "name": "\u83ef\u723e\u8857\u5b89\u9054\u4ed5\u9152\u5e97",
      "opening_hours": {
        "open_now": true
      },
      "photos": [
        {
          "height": 3337,
          "html_attributions": [
            "<a href=\"https://maps.google.com/maps/contrib/106042972071479476601\">Hyatt Centric Wall Street New York</a>"
          ],
          "photo_reference": "AeJbb3c9M3U8wRYCRT1KQRglY8Fy38pLvbVk7vpBg81oSn6fEJQsyiE96VRlbaIBtKh_xTpyK4uCZmkj57BzEz2M2P_YfaQm41WF39tkuDhly2svtq2AmebJ_7-3KTs0DO-6Nh425hI-7NEFWOmY-3cwC2JORtIRFo66aMST_g9fIVmCQ6Rc",
          "width": 5000
        }
      ],
      "place_id": "ChIJbd_WExZawokRbBhzy1Hc4Ms",
      "plus_code": {
        "compound_code": "PX4R+3R \u7f8e\u570b\u7d10\u7d04",
        "global_code": "87G7PX4R+3R"
      },
      "rating": 4.4,
      "reference": "ChIJbd_WExZawokRbBhzy1Hc4Ms",
      "scope": "GOOGLE",
      "types": [
        "lodging",
        "point_of_interest",
        "establishment"
      ],
      "user_ratings_total": 1275,
      "vicinity": "75 Wall Street Entrance On, 75 Water Street, New York"
    },
    {
      "business_status": "CLOSED_TEMPORARILY",
      "geometry": {
        "location": {
          "lat": 40.7067619,
          "lng": -74.0089447
        },
        "viewport": {
          "northeast": {
            "lat": 40.70812753029149,
            "lng": -74.00770291970849
          },
          "southwest": {
            "lat": 40.7054295697085,
            "lng": -74.0104008802915
          }
        }
      },
      "icon": "https://maps.gstatic.com/mapfiles/place_api/icons/v1/png_71/lodging-71.png",
      "icon_background_color": "#909CE1",
      "icon_mask_base_uri": "https://maps.gstatic.com/mapfiles/place_api/icons/v2/hotel_pinlet",
      "name": "Radisson Hotel New York Wall Street",
      "permanently_closed": true,
      "photos": [
        {
          "height": 3840,
          "html_attributions": [
            "<a href=\"https://maps.google.com/maps/contrib/100167876802188638962\">Radisson Hotel New York Wall Street</a>"
          ],
          "photo_reference": "AeJbb3est-HMw5J20gK_X0DMbKKtY18Bi772coN6ZyJGB5tKcFlbeR7Rbo8Gxiko2x7TySXKCrS07RjbhKFQqK2Ufdp69Hx3mk2wZRVVNAkifPNidECN_6D4kiwb9nJ2TmZ1Sy0TbVI249yAZr1fL9TyJPZ5QwNeYIo2GPV5rAzg_F1Za8bN",
          "width": 5760
        }
      ],
      "place_id": "ChIJ-ziaVBZawokRj7B7C4qAWPY",
      "plus_code": {
        "compound_code": "PX4R+PC \u7f8e\u570b\u7d10\u7d04",
        "global_code": "87G7PX4R+PC"
      },
      "rating": 4.1,
      "reference": "ChIJ-ziaVBZawokRj7B7C4qAWPY",
      "scope": "GOOGLE",
      "types": [
        "lodging",
        "point_of_interest",
        "establishment"
      ],
      "user_ratings_total": 1276,
      "vicinity": "52 William Street, New York"
    },
    {
      "business_status": "OPERATIONAL",
      "geometry": {
        "location": {
          "lat": 40.7079177,
          "lng": -74.0072143
        },
        "viewport": {
          "northeast": {
            "lat": 40.7093174802915,
            "lng": -74.0058039697085
          },
          "southwest": {
            "lat": 40.7066195197085,
            "lng": -74.00850193029152
          }
        }
      },
      "icon": "https://maps.gstatic.com/mapfiles/place_api/icons/v1/png_71/lodging-71.png",
      "icon_background_color": "#909CE1",
      "icon_mask_base_uri": "https://maps.gstatic.com/mapfiles/place_api/icons/v2/hotel_pinlet",
      "name": "Gild Hall, A Thompson Hotel",
      "opening_hours": {
        "open_now": true
      },
      "photos": [
        {
          "height": 1988,
          "html_attributions": [
            "<a href=\"https://maps.google.com/maps/contrib/111150212005244354522\">Gild Hall, A Thompson Hotel</a>"
          ],
          "photo_reference": "AeJbb3cIgJ-j0reMuVhxOypustA6vNBw0dcwzpWqzA2a5gU0oJbYv_qVgWO9HZ0rIQ8RJ3c_SzNyBEd8-FdOcVeMtRLx1e74gxCN4lJMn3N7bEIoTuoAkmpH8vnoyGVegKCxYs5tTZx62Ehknd0eesJZFvf4wsJBabv_p-yTSSgpvkmPAh2M",
          "width": 2880
        }
      ],
      "place_id": "ChIJNfKP5xdawokRyCFSWap_ogE",
      "plus_code": {
        "compound_code": "PX5V+54 \u7f8e\u570b\u7d10\u7d04",
        "global_code": "87G7PX5V+54"
      },
      "rating": 4.4,
      "reference": "ChIJNfKP5xdawokRyCFSWap_ogE",
      "scope": "GOOGLE",
      "types": [
        "lodging",
        "point_of_interest",
        "establishment"
      ],
      "user_ratings_total": 676,
      "vicinity": "15 Gold Street, New York"
    },
    {
      "business_status": "OPERATIONAL",
      "geometry": {
        "location": {
          "lat": 40.7046417,
          "lng": -74.0103215
        },
        "viewport": {
          "northeast": {
            "lat": 40.7060193302915,
            "lng": -74.0090234197085
          },
          "southwest": {
            "lat": 40.7033213697085,
            "lng": -74.0117213802915
          }
        }
      },
      "icon": "https://maps.gstatic.com/mapfiles/place_api/icons/v1/png_71/lodging-71.png",
      "icon_background_color": "#909CE1",
      "icon_mask_base_uri": "https://maps.gstatic.com/mapfiles/place_api/icons/v2/hotel_pinlet",
      "name": "The Wall Street Inn",
      "opening_hours": {
        "open_now": true
      },
      "photos": [
        {
          "height": 2358,
          "html_attributions": [
            "<a href=\"https://maps.google.com/maps/contrib/114347845590581291333\">The Wall Street Inn</a>"
          ],
          "photo_reference": "AeJbb3fQtqVFQ2hX5GtjhODrI7mV40M8ZRGoBqn4PBNDRjKI0YMf6ltIJUN5ByxO93yowMkXVjfvilxdVTlCGgrFZ6Vh8u2wiR-u-6cFut0LibA9CsW8SMS0fzAA7ePHw2LXjeQzz2q97Td1F74i05aQS1E52t6UegsvY_odF58EgrlodhDc",
          "width": 4192
        }
      ],
      "place_id": "ChIJ_7B6nRZawokRRg3UBR5XohI",
      "plus_code": {
        "compound_code": "PX3Q+VV \u7f8e\u570b\u7d10\u7d04",
        "global_code": "87G7PX3Q+VV"
      },
      "rating": 4.3,
      "reference": "ChIJ_7B6nRZawokRRg3UBR5XohI",
      "scope": "GOOGLE",
      "types": [
        "lodging",
        "point_of_interest",
        "establishment"
      ],
      "user_ratings_total": 380,
      "vicinity": "9 South William Street, New York"
    },
    {
      "business_status": "OPERATIONAL",
      "geometry": {
        "location": {
          "lat": 40.70897670000001,
          "lng": -74.0091231
        },
        "viewport": {
          "northeast": {
            "lat": 40.7102783802915,
            "lng": -74.0077723197085
          },
          "southwest": {
            "lat": 40.7075804197085,
            "lng": -74.0104702802915
          }
        }
      },
      "icon": "https://maps.gstatic.com/mapfiles/place_api/icons/v1/png_71/lodging-71.png",
      "icon_background_color": "#909CE1",
      "icon_mask_base_uri": "https://maps.gstatic.com/mapfiles/place_api/icons/v2/hotel_pinlet",
      "name": "\u7d10\u7d04\u5e02\u83ef\u723e\u8857\u5047\u65e5\u9152\u5e97",
      "photos": [
        {
          "height": 1359,
          "html_attributions": [
            "<a href=\"https://maps.google.com/maps/contrib/105313419301385888476\">Holiday Inn New York City - Wall Street, an IHG Hotel</a>"
          ],
          "photo_reference": "AeJbb3ffu9wYXma4AF-n4wNQ-cnYH2IhMzq0lp8HDx_24DypXFsij2LN2vY9s85hb3CPQfIwEQXtvZQ7ip7YlNKNuSzTiXQqPfAvEm8wwc3V6H4Wct_zMM-M5DDqZ_u73zlLf7ThzKAIsGs9QlQChimNGUePWsepPt8FDWGPvs0-TyHV769G",
          "width": 2048
        }
      ],
      "place_id": "ChIJPTJohhdawokR5-M2cwZ2WDo",
      "plus_code": {
        "compound_code": "PX5R+H9 \u7f8e\u570b\u7d10\u7d04",
        "global_code": "87G7PX5R+H9"
      },
      "rating": 3.9,
      "reference": "ChIJPTJohhdawokR5-M2cwZ2WDo",
      "scope": "GOOGLE",
      "types": [
        "lodging",
        "point_of_interest",
        "establishment"
      ],
      "user_ratings_total": 636,
      "vicinity": "51 Nassau Street, New York"
    },
    {
      "business_status": "OPERATIONAL",
      "geometry": {
        "location": {
          "lat": 40.70412899999999,
          "lng": -74.010336
        },
        "viewport": {
          "northeast": {
            "lat": 40.70541433029149,
            "lng": -74.0089459197085
          },
          "southwest": {
            "lat": 40.70271636970849,
            "lng": -74.0116438802915
          }
        }
      },
      "icon": "https://maps.gstatic.com/mapfiles/place_api/icons/v1/png_71/bar-71.png",
      "icon_background_color": "#FF9E67",
      "icon_mask_base_uri": "https://maps.gstatic.com/mapfiles/place_api/icons/v2/bar_pinlet",
      "name": "Beckett's Bar & Grill",
      "opening_hours": {
        "open_now": true
      },
      "photos": [
        {
          "height": 450,
          "html_attributions": [
            "<a href=\"https://maps.google.com/maps/contrib/116422841424895618318\">Beckett&#39;s Bar &amp; Grill</a>"
          ],
          "photo_reference": "AeJbb3fyJjD4Xi4U-tRqjPhnpxtW-WPS3cv7BjoY5Ukfspsd34DbAk3yOUPmdb_J13mTXxSIdxYnL3kEjCvpCpPVnOo9X0fBYPnwRaliJx3Pr6ii63oze5pJmh-aFOqt27MlkAOz__zqnfn4itDwaOd56kyP49qxPsPvdRxbckBGKE7SJWid",
          "width": 800
        }
      ],
      "place_id": "ChIJ3blcJRRawokRex4mbeb9Ix4",
      "plus_code": {
        "compound_code": "PX3Q+MV \u7f8e\u570b\u7d10\u7d04",
        "global_code": "87G7PX3Q+MV"
      },
      "price_level": 2,
      "rating": 4,
      "reference": "ChIJ3blcJRRawokRex4mbeb9Ix4",
      "scope": "GOOGLE",
      "types": [
        "bar",
        "restaurant",
        "food",
        "point_of_interest",
        "establishment"
      ],
      "user_ratings_total": 369,
      "vicinity": "81 Pearl Street, New York"
    },
    {
      "business_status": "OPERATIONAL",
      "geometry": {
        "location": {
          "lat": 40.7067018,
          "lng": -74.00644550000001
        },
        "viewport": {
          "northeast": {
            "lat": 40.7079968302915,
            "lng": -74.00516826970849
          },
          "southwest": {
            "lat": 40.7052988697085,
            "lng": -74.00786623029151
          }
        }
      },
      "icon": "https://maps.gstatic.com/mapfiles/place_api/icons/v1/png_71/generic_business-71.png",
      "icon_background_color": "#7B9EB0",
      "icon_mask_base_uri": "https://maps.gstatic.com/mapfiles/place_api/icons/v2/generic_pinlet",
      "name": "Manhattan CPA",
      "place_id": "ChIJD6rvGBdawokRWAnglPJa6vM",
      "plus_code": {
        "compound_code": "PX4V+MC \u7f8e\u570b\u7d10\u7d04",
        "global_code": "87G7PX4V+MC"
      },
      "rating": 5,
      "reference": "ChIJD6rvGBdawokRWAnglPJa6vM",
      "scope": "GOOGLE",
      "types": [
        "accounting",
        "finance",
        "point_of_interest",
        "establishment"
      ],
      "user_ratings_total": 1,
      "vicinity": "125 Maiden Lane, New York"
    },
    {
      "business_status": "OPERATIONAL",
      "geometry": {
        "location": {
          "lat": 40.70647830000001,
          "lng": -74.0032751
        },
        "viewport": {
          "northeast": {
            "lat": 40.70774198029149,
            "lng": -74.0018410697085
          },
          "southwest": {
            "lat": 40.7050440197085,
            "lng": -74.00453903029151
          }
        }
      },
      "icon": "https://maps.gstatic.com/mapfiles/place_api/icons/v1/png_71/generic_business-71.png",
      "icon_background_color": "#13B5C7",
      "icon_mask_base_uri": "https://maps.gstatic.com/mapfiles/place_api/icons/v2/generic_pinlet",
      "name": "The Seaport",
      "opening_hours": {
        "open_now": true
      },
      "photos": [
        {
          "height": 3818,
          "html_attributions": [
            "<a href=\"https://maps.google.com/maps/contrib/103103785514156616359\">Seaport District NYC</a>"
          ],
          "photo_reference": "AeJbb3cMu6nLAj24pwNSkD_Ka9vTWnQEFBmt3sGMlZci8VPioBtgQL0Y1OT2xVBCnVFZuoiyt96w-Q-A9zIBuu9O732-tyUYujOm7VGqOh2Qs6KpFotCCG3UpKSd4ltldw6troZdm_aGDw2LfAZjDngHuAK-2DJYbPoO_gE_8VblV3v7KQOy",
          "width": 5728
        }
      ],
      "place_id": "ChIJ48y8-TxawokROJTPwB3cxz8",
      "plus_code": {
        "compound_code": "PX4W+HM \u7f8e\u570b\u7d10\u7d04",
        "global_code": "87G7PX4W+HM"
      },
      "price_level": 2,
      "rating": 4.5,
      "reference": "ChIJ48y8-TxawokROJTPwB3cxz8",
      "scope": "GOOGLE",
      "types": [
        "point_of_interest",
        "establishment"
      ],
      "user_ratings_total": 2151,
      "vicinity": "19 Fulton Street, New York"
    },
    {
      "business_status": "OPERATIONAL",
      "geometry": {
        "location": {
          "lat": 40.7074723,
          "lng": -74.0068304
        },
        "viewport": {
          "northeast": {
            "lat": 40.7087847802915,
            "lng": -74.0056690697085
          },
          "southwest": {
            "lat": 40.7060868197085,
            "lng": -74.00836703029151
          }
        }
      },
      "icon": "https://maps.gstatic.com/mapfiles/place_api/icons/v1/png_71/generic_business-71.png",
      "icon_background_color": "#7B9EB0",
      "icon_mask_base_uri": "https://maps.gstatic.com/mapfiles/place_api/icons/v2/generic_pinlet",
      "name": "2 Gold St by TF Cornerstone",
      "opening_hours": {
        "open_now": true
      },
      "photos": [
        {
          "height": 1191,
          "html_attributions": [
            "<a href=\"https://maps.google.com/maps/contrib/102219275952344465022\">2 Gold St by TF Cornerstone</a>"
          ],
          "photo_reference": "AeJbb3cX_fG_5TdXTqGQIDpOeguLwH6tO6n_gvNST6isjS_rDGAvE18J_PFw9qExSwXHMjQKFd890k8d-EnaH9poF3JG_e5_yHJB5kFV3yQglOt45kW7q4TCiGOAQFvoJyNu3fPcaNvQneypg6ZoLDXxBBcYWDOVNRLPX_cwsM70mECTlJ7O",
          "width": 2120
        }
      ],
      "place_id": "ChIJXyPH2hdawokRxtbulbIcnD8",
      "plus_code": {
        "compound_code": "PX4V+X7 \u7f8e\u570b\u7d10\u7d04",
        "global_code": "87G7PX4V+X7"
      },
      "rating": 4.4,
      "reference": "ChIJXyPH2hdawokRxtbulbIcnD8",
      "scope": "GOOGLE",
      "types": [
        "real_estate_agency",
        "point_of_interest",
        "establishment"
      ],
      "user_ratings_total": 51,
      "vicinity": "2 Gold Street, New York"
    },
    {
      "business_status": "CLOSED_TEMPORARILY",
      "geometry": {
        "location": {
          "lat": 40.7050268,
          "lng": -74.0102557
        },
        "viewport": {
          "northeast": {
            "lat": 40.7064280302915,
            "lng": -74.0089947697085
          },
          "southwest": {
            "lat": 40.7037300697085,
            "lng": -74.01169273029151
          }
        }
      },
      "icon": "https://maps.gstatic.com/mapfiles/place_api/icons/v1/png_71/restaurant-71.png",
      "icon_background_color": "#FF9E67",
      "icon_mask_base_uri": "https://maps.gstatic.com/mapfiles/place_api/icons/v2/restaurant_pinlet",
      "name": "Delmonico's",
      "permanently_closed": true,
      "photos": [
        {
          "height": 1333,
          "html_attributions": [
            "<a href=\"https://maps.google.com/maps/contrib/102545235519786681266\">Delmonico&#39;s</a>"
          ],
          "photo_reference": "AeJbb3daDz8brotFCqrhBES6FV4cdb0Z4VjssTWXXWX4uZAQnoLr-jiyGgBlgDH3-NTTMPr84r8O0YFoqJQ6uIyQ532D9MtH96mYyVOl4lxZ5trYbWFkavdfTRyProLA1-gYM5wo6fS7XBKGMxKzrCfA4WmRNeZSrn6wdg_ifJocPl4Mfilz",
          "width": 2000
        }
      ],
      "place_id": "ChIJwy8lmxZawokRtWUTg5wuv6I",
      "plus_code": {
        "compound_code": "PX4Q+2V \u7f8e\u570b\u7d10\u7d04",
        "global_code": "87G7PX4Q+2V"
      },
      "price_level": 4,
      "rating": 4.5,
      "reference": "ChIJwy8lmxZawokRtWUTg5wuv6I",
      "scope": "GOOGLE",
      "types": [
        "bar",
        "restaurant",
        "food",
        "point_of_interest",
        "establishment"
      ],
      "user_ratings_total": 1812,
      "vicinity": "56 Beaver Street, New York"
    },
    {
      "business_status": "OPERATIONAL",
      "geometry": {
        "location": {
          "lat": 40.7046763,
          "lng": -74.0097371
        },
        "viewport": {
          "northeast": {
            "lat": 40.7060525302915,
            "lng": -74.0083603697085
          },
          "southwest": {
            "lat": 40.7033545697085,
            "lng": -74.0110583302915
          }
        }
      },
      "icon": "https://maps.gstatic.com/mapfiles/place_api/icons/v1/png_71/restaurant-71.png",
      "icon_background_color": "#FF9E67",
      "icon_mask_base_uri": "https://maps.gstatic.com/mapfiles/place_api/icons/v2/restaurant_pinlet",
      "name": "Harry's",
      "opening_hours": {
        "open_now": true
      },
      "photos": [
        {
          "height": 1115,
          "html_attributions": [
            "<a href=\"https://maps.google.com/maps/contrib/112015490673510260198\">Harry&#39;s</a>"
          ],
          "photo_reference": "AeJbb3d4tV2FQB8xI2JF2bmtFpUbTd5XjaeOm5qkN8OCSxoup3OAO1OX8vJaP9f3PD30RdeVTGKp0bWKpHdO5GkhZlC6wrK_waKu07dpOWJhgPd4K8gqzpG3awpHZv_ARebbuBDUvXz4ZhmPtJ81sN1thhqP5U9a7AJlbK8kTNvC_qqx1_Jb",
          "width": 1671
        }
      ],
      "place_id": "ChIJoSqkgRZawokR_ZAqr3pOMO8",
      "plus_code": {
        "compound_code": "PX3R+V4 \u7f8e\u570b\u7d10\u7d04",
        "global_code": "87G7PX3R+V4"
      },
      "price_level": 3,
      "rating": 4.5,
      "reference": "ChIJoSqkgRZawokR_ZAqr3pOMO8",
      "scope": "GOOGLE",
      "types": [
        "restaurant",
        "food",
        "point_of_interest",
        "establishment"
      ],
      "user_ratings_total": 1119,
      "vicinity": "1 Hanover Square, New York"
    },
    {
      "business_status": "OPERATIONAL",
      "geometry": {
        "location": {
          "lat": 40.7057717,
          "lng": -74.0017925
        },
        "viewport": {
          "northeast": {
            "lat": 40.70720308029149,
            "lng": -74.00056641970849
          },
          "southwest": {
            "lat": 40.7045051197085,
            "lng": -74.0032643802915
          }
        }
      },
      "icon": "https://maps.gstatic.com/mapfiles/place_api/icons/v1/png_71/restaurant-71.png",
      "icon_background_color": "#FF9E67",
      "icon_mask_base_uri": "https://maps.gstatic.com/mapfiles/place_api/icons/v2/restaurant_pinlet",
      "name": "Momofuku Ssam Bar",
      "opening_hours": {
        "open_now": true
      },
      "photos": [
        {
          "height": 800,
          "html_attributions": [
            "<a href=\"https://maps.google.com/maps/contrib/115287156292193056136\">Momofuku Ssam Bar</a>"
          ],
          "photo_reference": "AeJbb3fGYT4Yw6txoJdA8ZNEvT5f_DjmFYJN2nUQYuivlowOBYZi-4n_X43VgiMbXzQRP1iduN_9sHUPutF-XodcVplqL2dYu027sg0wYvF0DcxcZbYmCUbx76WGO18aBOTk617g5-UV-swz3taz6Qzdv7H0gsaBEzX_vVvig8OgA6pXBF2R",
          "width": 1200
        }
      ],
      "place_id": "ChIJkXQ3_INZwokRbCMEByaQ_VE",
      "plus_code": {
        "compound_code": "PX4X+87 \u7f8e\u570b\u7d10\u7d04",
        "global_code": "87G7PX4X+87"
      },
      "price_level": 3,
      "rating": 4.4,
      "reference": "ChIJkXQ3_INZwokRbCMEByaQ_VE",
      "scope": "GOOGLE",
      "types": [
        "restaurant",
        "food",
        "point_of_interest",
        "establishment"
      ],
      "user_ratings_total": 1683,
      "vicinity": "89 South Street, Pier 17, New York"
    },
    {
      "business_status": "CLOSED_TEMPORARILY",
      "geometry": {
        "location": {
          "lat": 40.70739930000001,
          "lng": -74.0102088
        },
        "viewport": {
          "northeast": {
            "lat": 40.7086738802915,
            "lng": -74.0089252697085
          },
          "southwest": {
            "lat": 40.70597591970851,
            "lng": -74.0116232302915
          }
        }
      },
      "icon": "https://maps.gstatic.com/mapfiles/place_api/icons/v1/png_71/museum-71.png",
      "icon_background_color": "#13B5C7",
      "icon_mask_base_uri": "https://maps.gstatic.com/mapfiles/place_api/icons/v2/museum_pinlet",
      "name": "Federal Hall",
      "permanently_closed": true,
      "photos": [
        {
          "height": 3456,
          "html_attributions": [
            "<a href=\"https://maps.google.com/maps/contrib/111225829246070063729\">Andryas Mawardi</a>"
          ],
          "photo_reference": "AeJbb3cKO3V7_Hl1shuXDrwI3n_sHg0dpZIyV2Y9byDZQ6LOCX3fQ8_RRMyUieCVcja7AULHRGv2XFkuYvJDK6kVtSxHTHfv1TUcuJzjuv3cFPNMaJm0VbbAJzoHMpMqgk3zFAVnRQkF4dq0RQBY8rW_oD1n4f37yfl_hGq4OzPdo4EPAjWc",
          "width": 4608
        }
      ],
      "place_id": "ChIJAaIFAxdawokR8txc3YPbD3A",
      "plus_code": {
        "compound_code": "PX4Q+XW \u7f8e\u570b\u7d10\u7d04",
        "global_code": "87G7PX4Q+XW"
      },
      "rating": 4.5,
      "reference": "ChIJAaIFAxdawokR8txc3YPbD3A",
      "scope": "GOOGLE",
      "types": [
        "museum",
        "tourist_attraction",
        "point_of_interest",
        "establishment"
      ],
      "user_ratings_total": 2138,
      "vicinity": "26 Wall Street, New York"
    },
    {
      "business_status": "OPERATIONAL",
      "geometry": {
        "location": {
          "lat": 40.709258,
          "lng": -74.007035
        },
        "viewport": {
          "northeast": {
            "lat": 40.7105552302915,
            "lng": -74.0055958697085
          },
          "southwest": {
            "lat": 40.7078572697085,
            "lng": -74.0082938302915
          }
        }
      },
      "icon": "https://maps.gstatic.com/mapfiles/place_api/icons/v1/png_71/civic_building-71.png",
      "icon_background_color": "#7B9EB0",
      "icon_mask_base_uri": "https://maps.gstatic.com/mapfiles/place_api/icons/v2/civic-bldg_pinlet",
      "name": "US Social Security Administration",
      "opening_hours": {
        "open_now": false
      },
      "photos": [
        {
          "height": 2268,
          "html_attributions": [
            "<a href=\"https://maps.google.com/maps/contrib/110553232466483377901\">Roni Goldberg</a>"
          ],
          "photo_reference": "AeJbb3e5awaYd3bmC_T8_vlh_JlcuZ3MmEz_qq0hlxI1VwvgChMbsQ-tmDa8-4sCxf3dD30XgFiE9126jwDZ5Bkg_VMAJbD1NDQMpTtITqxSZERWvRIo7zd_V0xW3Ka0tiIJemQM7EcaDx0AvVIbE8kKe2WdUFwG6zdjou-H4zSK0XJS8FMy",
          "width": 4032
        }
      ],
      "place_id": "ChIJLUturiFawokRPg-ThfQeHaM",
      "plus_code": {
        "compound_code": "PX5V+P5 \u7f8e\u570b\u7d10\u7d04",
        "global_code": "87G7PX5V+P5"
      },
      "rating": 4.1,
      "reference": "ChIJLUturiFawokRPg-ThfQeHaM",
      "scope": "GOOGLE",
      "types": [
        "local_government_office",
        "point_of_interest",
        "establishment"
      ],
      "user_ratings_total": 318,
      "vicinity": "123 William Street 4th floor, New York"
    },
    {
      "business_status": "OPERATIONAL",
      "geometry": {
        "location": {
          "lat": 40.704912,
          "lng": -74.00639699999999
        },
        "viewport": {
          "northeast": {
            "lat": 40.7062302802915,
            "lng": -74.0051373697085
          },
          "southwest": {
            "lat": 40.7035323197085,
            "lng": -74.00783533029151
          }
        }
      },
      "icon": "https://maps.gstatic.com/mapfiles/place_api/icons/v1/png_71/school-71.png",
      "icon_background_color": "#7B9EB0",
      "icon_mask_base_uri": "https://maps.gstatic.com/mapfiles/place_api/icons/v2/school_pinlet",
      "name": "Absolute Best Care Nanny Agency",
      "opening_hours": {
        "open_now": false
      },
      "place_id": "ChIJ96Lm5QBZwokRNDphvZmw5BU",
      "plus_code": {
        "compound_code": "PX3V+XC \u7f8e\u570b\u7d10\u7d04",
        "global_code": "87G7PX3V+XC"
      },
      "rating": 4.3,
      "reference": "ChIJ96Lm5QBZwokRNDphvZmw5BU",
      "scope": "GOOGLE",
      "types": [
        "point_of_interest",
        "establishment"
      ],
      "user_ratings_total": 32,
      "vicinity": "110 Wall Street 2nd floor, New York"
    },
    {
      "business_status": "OPERATIONAL",
      "geometry": {
        "location": {
          "lat": 40.7045211,
          "lng": -74.00890749999999
        },
        "viewport": {
          "northeast": {
            "lat": 40.7057781802915,
            "lng": -74.0077193197085
          },
          "southwest": {
            "lat": 40.7030802197085,
            "lng": -74.0104172802915
          }
        }
      },
      "icon": "https://maps.gstatic.com/mapfiles/place_api/icons/v1/png_71/generic_business-71.png",
      "icon_background_color": "#7B9EB0",
      "icon_mask_base_uri": "https://maps.gstatic.com/mapfiles/place_api/icons/v2/generic_pinlet",
      "name": "10 Hanover Square",
      "opening_hours": {
        "open_now": true
      },
      "photos": [
        {
          "height": 1267,
          "html_attributions": [
            "<a href=\"https://maps.google.com/maps/contrib/108173442397783191198\">10 Hanover Square</a>"
          ],
          "photo_reference": "AeJbb3d2U2oSgPlYjskI7D2S6rpno769ZIYt22Yl9VaqKtLSP92XTDjxxwpH_fPmYq0yNIyvUwCaV3EfveLMv7TEt3xHQGrK2E7OyjKCV4DXSNBjBWnjHWXQ5sUFB4eqKQEHtl15-vpyvHKo63iHxx1YD8FaaMJ-rcR_zcppcO5FaJDXgoqU",
          "width": 1882
        }
      ],
      "place_id": "ChIJsxFVfxZawokRFvFa_yneIIo",
      "plus_code": {
        "compound_code": "PX3R+RC \u7f8e\u570b\u7d10\u7d04",
        "global_code": "87G7PX3R+RC"
      },
      "rating": 4,
      "reference": "ChIJsxFVfxZawokRFvFa_yneIIo",
      "scope": "GOOGLE",
      "types": [
        "real_estate_agency",
        "point_of_interest",
        "establishment"
      ],
      "user_ratings_total": 48,
      "vicinity": "10 Hanover Square, New York"
    },
    {
      "geometry": {
        "location": {
          "lat": 40.7208595,
          "lng": -74.0006686
        },
        "viewport": {
          "northeast": {
            "lat": 40.74252626980653,
            "lng": -73.97164456012949
          },
          "southwest": {
            "lat": 40.7004631483133,
            "lng": -74.01933501070937
          }
        }
      },
      "icon": "https://maps.gstatic.com/mapfiles/place_api/icons/v1/png_71/geocode-71.png",
      "icon_background_color": "#7B9EB0",
      "icon_mask_base_uri": "https://maps.gstatic.com/mapfiles/place_api/icons/v2/generic_pinlet",
      "name": "\u66fc\u54c8\u9813\u4e0b\u57ce",
      "photos": [
        {
          "height": 2250,
          "html_attributions": [
            "<a href=\"https://maps.google.com/maps/contrib/112269732478250326030\">Lorri Smalls</a>"
          ],
          "photo_reference": "AeJbb3fJ165hCAPeWozfdbK3iRNAeQBVL__evqcQ-qRZASV3y6idbyrkZnIt5hS_yKxMgy1Y7Jpy79LtJ72lwt3OS9ah2mgLs9PchLCIjK_qSaE5VHh1R4JZ0abuyT5gurs4ZZuaF90B5qtzm9kVBj3gVqKkNMKjMTbtxf7VyF0uXFxcem87",
          "width": 4000
        }
      ],
      "place_id": "ChIJi4MZVIhZwokRPNvWbi-c0wI",
      "reference": "ChIJi4MZVIhZwokRPNvWbi-c0wI",
      "scope": "GOOGLE",
      "types": [
        "neighborhood",
        "political"
      ],
      "vicinity": "\u66fc\u54c8\u9813"
    },
    {
      "business_status": "OPERATIONAL",
      "geometry": {
        "location": {
          "lat": 40.70697699999999,
          "lng": -74.00952199999999
        },
        "viewport": {
          "northeast": {
            "lat": 40.70802948029149,
            "lng": -74.00836596970849
          },
          "southwest": {
            "lat": 40.7053315197085,
            "lng": -74.0110639302915
          }
        }
      },
      "icon": "https://maps.gstatic.com/mapfiles/place_api/icons/v1/png_71/generic_business-71.png",
      "icon_background_color": "#7B9EB0",
      "icon_mask_base_uri": "https://maps.gstatic.com/mapfiles/place_api/icons/v2/generic_pinlet",
      "name": "XO Communications",
      "opening_hours": {
        "open_now": false
      },
      "place_id": "ChIJo3eptxZawokRkKXSttZfHww",
      "plus_code": {
        "compound_code": "PX4R+Q5 New York, NY, USA",
        "global_code": "87G7PX4R+Q5"
      },
      "rating": 1,
      "reference": "ChIJo3eptxZawokRkKXSttZfHww",
      "scope": "GOOGLE",
      "types": [
        "point_of_interest",
        "establishment"
      ],
      "user_ratings_total": 4,
      "vicinity": "40 Wall Street, New York"
    },
    {
      "business_status": "OPERATIONAL",
      "geometry": {
        "location": {
          "lat": 40.706877,
          "lng": -74.0112654
        },
        "viewport": {
          "northeast": {
            "lat": 40.70861558029149,
            "lng": -74.00939196970849
          },
          "southwest": {
            "lat": 40.7059176197085,
            "lng": -74.0120899302915
          }
        }
      },
      "icon": "https://maps.gstatic.com/mapfiles/place_api/icons/v1/png_71/generic_business-71.png",
      "icon_background_color": "#7B9EB0",
      "icon_mask_base_uri": "https://maps.gstatic.com/mapfiles/place_api/icons/v2/generic_pinlet",
      "name": "New York Stock Exchange",
      "opening_hours": {
        "open_now": false
      },
      "photos": [
        {
          "height": 4032,
          "html_attributions": [
            "<a href=\"https://maps.google.com/maps/contrib/106721076132061240220\">HA THAN HONG</a>"
          ],
          "photo_reference": "AeJbb3flWQzYhuaZmo2B68aNFlVob2zJmAhdtW1sJ0tsQIygzSDmmZKqD2illQ_u6zqjDDEfmqKNBktJDke3VUZezu0BSVgp30CQbEeFFVR7UkbNyGUh1wGzjuI8Zv723t7z_ryDvznCJ8jhivIO13oEiIIooTnqA_GlgeMhJpHnO6KOi3HK",
          "width": 3024
        }
      ],
      "place_id": "ChIJodiAGRZawokRHXCBqdWXV54",
      "plus_code": {
        "compound_code": "PX4Q+QF New York, NY, USA",
        "global_code": "87G7PX4Q+QF"
      },
      "rating": 4.3,
      "reference": "ChIJodiAGRZawokRHXCBqdWXV54",
      "scope": "GOOGLE",
      "types": [
        "tourist_attraction",
        "finance",
        "point_of_interest",
        "establishment"
      ],
      "user_ratings_total": 1973,
      "vicinity": "11 Wall Street, New York"
    },
    {
      "business_status": "OPERATIONAL",
      "geometry": {
        "location": {
          "lat": 40.7073539,
          "lng": -74.0048051
        },
        "viewport": {
          "northeast": {
            "lat": 40.70859048029149,
            "lng": -74.0033316697085
          },
          "southwest": {
            "lat": 40.7058925197085,
            "lng": -74.00602963029151
          }
        }
      },
      "icon": "https://maps.gstatic.com/mapfiles/place_api/icons/v1/png_71/generic_business-71.png",
      "icon_background_color": "#7B9EB0",
      "icon_mask_base_uri": "https://maps.gstatic.com/mapfiles/place_api/icons/v2/generic_pinlet",
      "name": "200 Water Street Apartments by Rockrose",
      "opening_hours": {
        "open_now": true
      },
      "photos": [
        {
          "height": 2533,
          "html_attributions": [
            "<a href=\"https://maps.google.com/maps/contrib/109483781400125317928\">200 Water Street Apartments by Rockrose</a>"
          ],
          "photo_reference": "AeJbb3eJkJjWzYnRpjSFB-SkLPxmOgCWOlUgCtYM5dh4ZByOzuDSind2V-jA2YDACreImbe1MQjQprMLxz047NMb8dsc41nAwpeB1sS9S1V8J7V4Xm3pVnikrT0qNFoiZaVOUF9r1QHsoNFwq8k2jAH7jQGbt1RQmI7Ux3Bjs-IIRx1PhyR1",
          "width": 3800
        }
      ],
      "place_id": "ChIJ-drqFj1awokRFbxHtIFaQnw",
      "plus_code": {
        "compound_code": "PX4W+W3 New York, NY, USA",
        "global_code": "87G7PX4W+W3"
      },
      "rating": 3.5,
      "reference": "ChIJ-drqFj1awokRFbxHtIFaQnw",
      "scope": "GOOGLE",
      "types": [
        "real_estate_agency",
        "point_of_interest",
        "establishment"
      ],
      "user_ratings_total": 21,
      "vicinity": "200 Water Street, New York"
    },
    {
      "business_status": "OPERATIONAL",
      "geometry": {
        "location": {
          "lat": 40.7031921,
          "lng": -74.009368
        },
        "viewport": {
          "northeast": {
            "lat": 40.7047226802915,
            "lng": -74.00823051970849
          },
          "southwest": {
            "lat": 40.7020247197085,
            "lng": -74.0109284802915
          }
        }
      },
      "icon": "https://maps.gstatic.com/mapfiles/place_api/icons/v1/png_71/generic_business-71.png",
      "icon_background_color": "#7B9EB0",
      "icon_mask_base_uri": "https://maps.gstatic.com/mapfiles/place_api/icons/v2/generic_pinlet",
      "name": "MetTel",
      "opening_hours": {
        "open_now": false
      },
      "photos": [
        {
          "height": 1192,
          "html_attributions": [
            "<a href=\"https://maps.google.com/maps/contrib/117640189196949861461\">Manhattan Telecommunications Corporation</a>"
          ],
          "photo_reference": "AeJbb3eXvr5JlV8InEGLJam3UuXoNXfkmm3pznIFzXxNLZAfHbxqbRlrQF9nIToesCgNQMrGmwCb-dYVTdtFkLP56t9Xa5Sl-YBjDwV0VQe-QwRfI7SEAHPgetQhnrcNQHGbghVBGnUgyodxi5Wfm8exs-fdiPz2PWk1XJi2QvOGxxBG9yIK",
          "width": 2120
        }
      ],
      "place_id": "ChIJI3aq-BZawokRuwby1XABMjc",
      "plus_code": {
        "compound_code": "PX3R+77 New York, NY, USA",
        "global_code": "87G7PX3R+77"
      },
      "rating": 2.5,
      "reference": "ChIJI3aq-BZawokRuwby1XABMjc",
      "scope": "GOOGLE",
      "types": [
        "point_of_interest",
        "establishment"
      ],
      "user_ratings_total": 34,
      "vicinity": "55 Water Street 32nd fl, New York"
    },
    {
      "business_status": "OPERATIONAL",
      "geometry": {
        "location": {
          "lat": 40.7076689,
          "lng": -74.00978599999999
        },
        "viewport": {
          "northeast": {
            "lat": 40.7089521802915,
            "lng": -74.00851481970848
          },
          "southwest": {
            "lat": 40.70625421970851,
            "lng": -74.0112127802915
          }
        }
      },
      "icon": "https://maps.gstatic.com/mapfiles/place_api/icons/v1/png_71/generic_business-71.png",
      "icon_background_color": "#7B9EB0",
      "icon_mask_base_uri": "https://maps.gstatic.com/mapfiles/place_api/icons/v2/generic_pinlet",
      "name": "20 Pine Street - The Collection",
      "opening_hours": {
        "open_now": true
      },
      "photos": [
        {
          "height": 800,
          "html_attributions": [
            "<a href=\"https://maps.google.com/maps/contrib/105607445499997349919\">20 Pine Street - The Collection</a>"
          ],
          "photo_reference": "AeJbb3ftVAz2k789S6nZcLzW7Mv9dlmeKCQyALicKhKJfEdQv8iOqFO8yfrR0uBm7Hetcctz2HvpUxOAT0za9L_xZtBp0Iz8p4qCOAwtKlbSWu6C2FbGuZFqbqLoixPts9_0sOn5QOoTaxwkF941LF2KgChLDl_QVgDhMA_O76qIOMRbF_Sz",
          "width": 1202
        }
      ],
      "place_id": "ChIJa9uPBhdawokRUpYBnSLIIlQ",
      "plus_code": {
        "compound_code": "PX5R+33 New York, NY, USA",
        "global_code": "87G7PX5R+33"
      },
      "rating": 4.5,
      "reference": "ChIJa9uPBhdawokRUpYBnSLIIlQ",
      "scope": "GOOGLE",
      "types": [
        "point_of_interest",
        "establishment"
      ],
      "user_ratings_total": 26,
      "vicinity": "20 Pine Street, New York"
    },
    {
      "business_status": "OPERATIONAL",
      "geometry": {
        "location": {
          "lat": 40.707462,
          "lng": -74.0067869
        },
        "viewport": {
          "northeast": {
            "lat": 40.7089220802915,
            "lng": -74.0054303197085
          },
          "southwest": {
            "lat": 40.7062241197085,
            "lng": -74.0081282802915
          }
        }
      },
      "icon": "https://maps.gstatic.com/mapfiles/place_api/icons/v1/png_71/restaurant-71.png",
      "icon_background_color": "#FF9E67",
      "icon_mask_base_uri": "https://maps.gstatic.com/mapfiles/place_api/icons/v2/restaurant_pinlet",
      "name": "Harry's Italian",
      "opening_hours": {
        "open_now": true
      },
      "photos": [
        {
          "height": 1000,
          "html_attributions": [
            "<a href=\"https://maps.google.com/maps/contrib/103850208069557010572\">Harry&#39;s Italian</a>"
          ],
          "photo_reference": "AeJbb3cqALSYfVxyxLgPAEB8KWHHTPrT8xoA01hBaUYqrkGEgKGQ3uQnbWM6osEqHMbO_gwQT1sqh2E3wUJQZ1dIbS0OLj5ub3Ijnw0VGnvHubmr1jdbFk-q39rDiA7h1yTD9GgkyUYExncxh5uxBamEBcHdZB8FOzFkLWpX4L3Qc8CflukR",
          "width": 750
        }
      ],
      "place_id": "ChIJtfyA3hdawokRQ6bgjbSJN3o",
      "plus_code": {
        "compound_code": "PX4V+X7 New York, NY, USA",
        "global_code": "87G7PX4V+X7"
      },
      "price_level": 2,
      "rating": 4.3,
      "reference": "ChIJtfyA3hdawokRQ6bgjbSJN3o",
      "scope": "GOOGLE",
      "types": [
        "restaurant",
        "food",
        "point_of_interest",
        "establishment"
      ],
      "user_ratings_total": 930,
      "vicinity": "2 Gold Street, New York"
    },
    {
      "business_status": "OPERATIONAL",
      "geometry": {
        "location": {
          "lat": 40.706855,
          "lng": -74.0098519
        },
        "viewport": {
          "northeast": {
            "lat": 40.70840783029151,
            "lng": -74.00828841970849
          },
          "southwest": {
            "lat": 40.70570986970851,
            "lng": -74.0109863802915
          }
        }
      },
      "icon": "https://maps.gstatic.com/mapfiles/place_api/icons/v1/png_71/school-71.png",
      "icon_background_color": "#7B9EB0",
      "icon_mask_base_uri": "https://maps.gstatic.com/mapfiles/place_api/icons/v2/school_pinlet",
      "name": "Trump Entrepreneur Initiative",
      "opening_hours": {
        "open_now": true
      },
      "photos": [
        {
          "height": 2736,
          "html_attributions": [
            "<a href=\"https://maps.google.com/maps/contrib/102144309287765145115\">Christof Verboven</a>"
          ],
          "photo_reference": "AeJbb3dLNOOohVU-xya3IqKEl257U2ZOCYRbEMIyODQ51PfQUyoAh_h2Lu-_bgyNHg7CUQlpnd5xYMvoWVN_XhmZbgukEUEZMV2Zi2k16qCiRRchQEXMnklhOtDOJofcjjGjlfxTLsfQ2-FiNjfL-Q_hjVD0U8_U6kZsomtGvMNTKn471vRI",
          "width": 3648
        }
      ],
      "place_id": "ChIJeZAh_hZawokRWPiK6G0DLik",
      "plus_code": {
        "compound_code": "PX4R+P3 New York, NY, USA",
        "global_code": "87G7PX4R+P3"
      },
      "rating": 1.8,
      "reference": "ChIJeZAh_hZawokRWPiK6G0DLik",
      "scope": "GOOGLE",
      "types": [
        "point_of_interest",
        "establishment"
      ],
      "user_ratings_total": 12,
      "vicinity": "40 Wall St #3200, New York"
    },
    {
      "business_status": "OPERATIONAL",
      "geometry": {
        "location": {
          "lat": 40.70437140000001,
          "lng": -74.0100467
        },
        "viewport": {
          "northeast": {
            "lat": 40.7056617802915,
            "lng": -74.00862211970849
          },
          "southwest": {
            "lat": 40.70296381970851,
            "lng": -74.01132008029151
          }
        }
      },
      "icon": "https://maps.gstatic.com/mapfiles/place_api/icons/v1/png_71/bar-71.png",
      "icon_background_color": "#FF9E67",
      "icon_mask_base_uri": "https://maps.gstatic.com/mapfiles/place_api/icons/v2/bar_pinlet",
      "name": "Ulysses",
      "opening_hours": {
        "open_now": true
      },
      "photos": [
        {
          "height": 9000,
          "html_attributions": [
            "<a href=\"https://maps.google.com/maps/contrib/112051454711651434795\">Jim Kelly</a>"
          ],
          "photo_reference": "AeJbb3fyz7MCTTKoj-ao-csc35IFFZh68T41ZL7nuf6kJG30wOFE8Up3QPhnVGeZbPVR7QiPuEAwlrqW2kTuCgOa0q2zEBUg6HqOWb9_MKtW5EJjCUFyE2faXfL68MjRcPb3C7nfLPeyJ5ozO3N7815XoHwkxXVzfgE3fEPKmCf_YXPJLc_8",
          "width": 12000
        }
      ],
      "place_id": "ChIJV_vNLhRawokRt36u5nIPaVw",
      "plus_code": {
        "compound_code": "PX3Q+PX New York, NY, USA",
        "global_code": "87G7PX3Q+PX"
      },
      "price_level": 2,
      "rating": 4.2,
      "reference": "ChIJV_vNLhRawokRt36u5nIPaVw",
      "scope": "GOOGLE",
      "types": [
        "bar",
        "restaurant",
        "food",
        "point_of_interest",
        "establishment"
      ],
      "user_ratings_total": 1779,
      "vicinity": "58 Stone Street, 95 Pearl Street, New York"
    },
    {
      "business_status": "OPERATIONAL",
      "geometry": {
        "location": {
          "lat": 40.7077585,
          "lng": -74.00885029999999
        },
        "viewport": {
          "northeast": {
            "lat": 40.70900123029151,
            "lng": -74.00730686970849
          },
          "southwest": {
            "lat": 40.70630326970851,
            "lng": -74.0100048302915
          }
        }
      },
      "icon": "https://maps.gstatic.com/mapfiles/place_api/icons/v1/png_71/generic_business-71.png",
      "icon_background_color": "#7B9EB0",
      "icon_mask_base_uri": "https://maps.gstatic.com/mapfiles/place_api/icons/v2/generic_pinlet",
      "name": "Wolters Kluwer Corporation Legal Services",
      "photos": [
        {
          "height": 4032,
          "html_attributions": [
            "<a href=\"https://maps.google.com/maps/contrib/107285347802175878245\">Nitin Garg</a>"
          ],
          "photo_reference": "AeJbb3cX88213TJZ8pg2xFqCHs-2hEjUnC79wfSam83-WjuHGHWzn0F4hG9nCgdvLkg7c3dFSgNQHFyuCfk_XlJmLlbnOaxmwCdOBL2Hj9y3Pb8xpI6v-i94bhIuU6Ur0CvkKesg3DSNLoF4OyHcWFVazAOdCMHXfNw0Qjc-WvDjpJfB-HAX",
          "width": 3024
        }
      ],
      "place_id": "ChIJF6vVir5ZwokRlDZg3AkYoSo",
      "plus_code": {
        "compound_code": "PX5R+4F New York, NY, USA",
        "global_code": "87G7PX5R+4F"
      },
      "rating": 4.6,
      "reference": "ChIJF6vVir5ZwokRlDZg3AkYoSo",
      "scope": "GOOGLE",
      "types": [
        "point_of_interest",
        "establishment"
      ],
      "user_ratings_total": 8,
      "vicinity": "28 Liberty Street 26th Floor, New York"
    },
    {
      "business_status": "OPERATIONAL",
      "geometry": {
        "location": {
          "lat": 40.7076082,
          "lng": -74.0104393
        },
        "viewport": {
          "northeast": {
            "lat": 40.7089596302915,
            "lng": -74.00900676970849
          },
          "southwest": {
            "lat": 40.70626166970851,
            "lng": -74.01170473029151
          }
        }
      },
      "icon": "https://maps.gstatic.com/mapfiles/place_api/icons/v1/png_71/shopping-71.png",
      "icon_background_color": "#4B96F3",
      "icon_mask_base_uri": "https://maps.gstatic.com/mapfiles/place_api/icons/v2/shopping_pinlet",
      "name": "T.J. Maxx",
      "opening_hours": {
        "open_now": true
      },
      "photos": [
        {
          "height": 2448,
          "html_attributions": [
            "<a href=\"https://maps.google.com/maps/contrib/115424386048552355015\">Gershon Rozner</a>"
          ],
          "photo_reference": "AeJbb3ehS8O6zUI__1sd_INm5KuvXG3KyGryeYzVNBQS1-9YLzZgwTIA1ddkjrwnfPad6LYc5RO2U3nvXi3fQ4HycrLO3FP8QKpsncQvq-ksfmO93XUJ2J9CsR6pqzfrdFCkFCCU41bf63Rcs45zO8qSsfkGwKhrgFHFfv0rQNzwLLMx0kSC",
          "width": 3264
        }
      ],
      "place_id": "ChIJLRLFGBdawokRyuYGWwfb9rQ",
      "plus_code": {
        "compound_code": "PX5Q+2R New York, NY, USA",
        "global_code": "87G7PX5Q+2R"
      },
      "price_level": 1,
      "rating": 4.2,
      "reference": "ChIJLRLFGBdawokRyuYGWwfb9rQ",
      "scope": "GOOGLE",
      "types": [
        "department_store",
        "jewelry_store",
        "clothing_store",
        "store",
        "point_of_interest",
        "establishment"
      ],
      "user_ratings_total": 2139,
      "vicinity": "14 Wall Street, New York"
    },
    {
      "business_status": "OPERATIONAL",
      "geometry": {
        "location": {
          "lat": 40.7064573,
          "lng": -74.00909899999999
        },
        "viewport": {
          "northeast": {
            "lat": 40.7079540302915,
            "lng": -74.00785971970849
          },
          "southwest": {
            "lat": 40.7052560697085,
            "lng": -74.0105576802915
          }
        }
      },
      "icon": "https://maps.gstatic.com/mapfiles/place_api/icons/v1/png_71/generic_business-71.png",
      "icon_background_color": "#7B9EB0",
      "icon_mask_base_uri": "https://maps.gstatic.com/mapfiles/place_api/icons/v2/generic_pinlet",
      "name": "Callahead Corporation",
      "opening_hours": {
        "open_now": true
      },
      "photos": [
        {
          "height": 850,
          "html_attributions": [
            "<a href=\"https://maps.google.com/maps/contrib/101708552488905299310\">Callahead Corporation</a>"
          ],
          "photo_reference": "AeJbb3czAQfiO5Duk7O6yB2oHn8xZFAD6dWC3CmIuNnAZjGv6W5vsYoxAnNbk_O_iPrpX_iNWaXABGY-L1uJIIPEDYs9w24icbUiDO-lIBeaVI0uF00RvGa289DcB-VHL5ipBvWNYc0RiOeYoqwea6KHEoxLvVj0XExI3w4mY4BiJQfL66xR",
          "width": 1920
        }
      ],
      "place_id": "ChIJeZAh_hZawokR4U7fO8GhMp8",
      "plus_code": {
        "compound_code": "PX4R+H9 New York, NY, USA",
        "global_code": "87G7PX4R+H9"
      },
      "rating": 3.4,
      "reference": "ChIJeZAh_hZawokR4U7fO8GhMp8",
      "scope": "GOOGLE",
      "types": [
        "point_of_interest",
        "establishment"
      ],
      "user_ratings_total": 12,
      "vicinity": "48 Wall Street #11Fl, New York"
    },
    {
      "business_status": "OPERATIONAL",
      "geometry": {
        "location": {
          "lat": 40.70744029999999,
          "lng": -74.0048334
        },
        "viewport": {
          "northeast": {
            "lat": 40.70886728029149,
            "lng": -74.00359781970849
          },
          "southwest": {
            "lat": 40.70616931970849,
            "lng": -74.00629578029151
          }
        }
      },
      "icon": "https://maps.gstatic.com/mapfiles/place_api/icons/v1/png_71/generic_business-71.png",
      "icon_background_color": "#7B9EB0",
      "icon_mask_base_uri": "https://maps.gstatic.com/mapfiles/place_api/icons/v2/generic_pinlet",
      "name": "The Big City Woof Walker, LLC",
      "opening_hours": {
        "open_now": false
      },
      "photos": [
        {
          "height": 1365,
          "html_attributions": [
            "<a href=\"https://maps.google.com/maps/contrib/113768340714587486631\">The Big City Woof Walker, LLC</a>"
          ],
          "photo_reference": "AeJbb3dsLTIDzaxPIWlTZM19V-hfWTzqobuelxK32qoDNsIgiysdaWSxf0l19oLaPSOiDsa8miTdTR8kw1qAZVb3JGmGOqQwHI2Kf_grkwkGduZmRjC6qxZQzwmxJui0jWftP3HIDX_kpTD5Hnh8U193RHwdZbDw0yAYhCJospbhq4_--eKV",
          "width": 2048
        }
      ],
      "place_id": "ChIJ-drqFj1awokR-XfEPmIMvdk",
      "plus_code": {
        "compound_code": "PX4W+X3 New York, NY, USA",
        "global_code": "87G7PX4W+X3"
      },
      "rating": 4.9,
      "reference": "ChIJ-drqFj1awokR-XfEPmIMvdk",
      "scope": "GOOGLE",
      "types": [
        "point_of_interest",
        "establishment"
      ],
      "user_ratings_total": 56,
      "vicinity": "38 Peck Slip, New York"
    },
    {
      "business_status": "OPERATIONAL",
      "geometry": {
        "location": {
          "lat": 40.7042597,
          "lng": -74.01024129999999
        },
        "viewport": {
          "northeast": {
            "lat": 40.70564743029151,
            "lng": -74.00912431970849
          },
          "southwest": {
            "lat": 40.70294946970851,
            "lng": -74.0118222802915
          }
        }
      },
      "icon": "https://maps.gstatic.com/mapfiles/place_api/icons/v1/png_71/bar-71.png",
      "icon_background_color": "#FF9E67",
      "icon_mask_base_uri": "https://maps.gstatic.com/mapfiles/place_api/icons/v2/bar_pinlet",
      "name": "Stone Street Tavern",
      "opening_hours": {
        "open_now": true
      },
      "photos": [
        {
          "height": 4032,
          "html_attributions": [
            "<a href=\"https://maps.google.com/maps/contrib/117979923502670835126\">Keith Mulvin</a>"
          ],
          "photo_reference": "AeJbb3dxiaNW08E14at5gi7pOLh61KUUbXAd2z3LZtr7z9s84abELiHyNGtOKqqcmbA86uHbT1BYtjJ0ksXwt-vXPrKqlQCZNUpviGDrFt2JH-mKabrGhWxrOIzh9BYi93yt4q1wHVZpwM4MJ34f1CIA-QNn4WhV7n0rSSqudiuMHAZL7mVj",
          "width": 3024
        }
      ],
      "place_id": "ChIJRXAoKBRawokR8U8kqAMMwSU",
      "plus_code": {
        "compound_code": "PX3Q+PW New York, NY, USA",
        "global_code": "87G7PX3Q+PW"
      },
      "price_level": 2,
      "rating": 4.2,
      "reference": "ChIJRXAoKBRawokR8U8kqAMMwSU",
      "scope": "GOOGLE",
      "types": [
        "bar",
        "restaurant",
        "food",
        "point_of_interest",
        "establishment"
      ],
      "user_ratings_total": 815,
      "vicinity": "52 Stone Street, New York"
    },
    {
      "business_status": "OPERATIONAL",
      "geometry": {
        "location": {
          "lat": 40.7064181,
          "lng": -74.01062480000002
        },
        "viewport": {
          "northeast": {
            "lat": 40.7076746302915,
            "lng": -74.0089960197085
          },
          "southwest": {
            "lat": 40.7049766697085,
            "lng": -74.01169398029151
          }
        }
      },
      "icon": "https://maps.gstatic.com/mapfiles/place_api/icons/v1/png_71/generic_business-71.png",
      "icon_background_color": "#7B9EB0",
      "icon_mask_base_uri": "https://maps.gstatic.com/mapfiles/place_api/icons/v2/generic_pinlet",
      "name": "Cultural Capital",
      "place_id": "ChIJx_966RZawokRKt_0fWJDl1Q",
      "plus_code": {
        "compound_code": "PX4Q+HQ New York, NY, USA",
        "global_code": "87G7PX4Q+HQ"
      },
      "reference": "ChIJx_966RZawokRKt_0fWJDl1Q",
      "scope": "GOOGLE",
      "types": [
        "point_of_interest",
        "establishment"
      ],
      "vicinity": "15 Broad Street, New York"
    },
    {
      "business_status": "OPERATIONAL",
      "geometry": {
        "location": {
          "lat": 40.707559,
          "lng": -74.00240029999999
        },
        "viewport": {
          "northeast": {
            "lat": 40.70885028029149,
            "lng": -74.00100121970848
          },
          "southwest": {
            "lat": 40.7061523197085,
            "lng": -74.00369918029149
          }
        }
      },
      "icon": "https://maps.gstatic.com/mapfiles/place_api/icons/v1/png_71/generic_business-71.png",
      "icon_background_color": "#7B9EB0",
      "icon_mask_base_uri": "https://maps.gstatic.com/mapfiles/place_api/icons/v2/generic_pinlet",
      "name": "The Dermatology Specialists - South Street Seaport",
      "opening_hours": {
        "open_now": false
      },
      "photos": [
        {
          "height": 3456,
          "html_attributions": [
            "<a href=\"https://maps.google.com/maps/contrib/114658755264477916303\">The Dermatology Specialists - South Street Seaport</a>"
          ],
          "photo_reference": "AeJbb3cqQ9c_r1fNWGpZUMMxrqy7s2-33-Wv2Pm-i36Fna-gB4XryuszeWqkFK4b2jbhj1YWy1avE-r8Zfk3akwo_Nw0X6zX9LQv01uQNu9KUbdgmovrTt6kDNyMGvs8NX1Rr1bBVvPpkOZnymEwotW0nPmFG2H0sbYczwUe5ZmmIgTDd_qG",
          "width": 5184
        }
      ],
      "place_id": "ChIJa0pawTxawokR8z9VQvdKgiU",
      "plus_code": {
        "compound_code": "PX5X+22 New York, NY, USA",
        "global_code": "87G7PX5X+22"
      },
      "rating": 4.2,
      "reference": "ChIJa0pawTxawokR8z9VQvdKgiU",
      "scope": "GOOGLE",
      "types": [
        "doctor",
        "health",
        "point_of_interest",
        "establishment"
      ],
      "user_ratings_total": 415,
      "vicinity": "220 Front Street, New York"
    },
    {
      "business_status": "OPERATIONAL",
      "geometry": {
        "location": {
          "lat": 40.7038029,
          "lng": -74.0080329
        },
        "viewport": {
          "northeast": {
            "lat": 40.7050022302915,
            "lng": -74.00640676970849
          },
          "southwest": {
            "lat": 40.7023042697085,
            "lng": -74.00910473029151
          }
        }
      },
      "icon": "https://maps.gstatic.com/mapfiles/place_api/icons/v1/png_71/generic_business-71.png",
      "icon_background_color": "#7B9EB0",
      "icon_mask_base_uri": "https://maps.gstatic.com/mapfiles/place_api/icons/v2/generic_pinlet",
      "name": "Cahill Gordon & Reindel LLP",
      "opening_hours": {
        "open_now": true
      },
      "photos": [
        {
          "height": 292,
          "html_attributions": [
            "<a href=\"https://maps.google.com/maps/contrib/103697125878680450508\">Cahill Gordon &amp; Reindel LLP</a>"
          ],
          "photo_reference": "AeJbb3eKvJsnqcyLlnT8bwZauqA95Jnq6youF67trLzENIetjJwyk5h_OLFF0zJCKF9TEsSjzOUWwp5ZtJ5E7ENEIGUCoPfYjQRbmC4VWhntuYV25CU_8m3Hl17Lvx_Lu2ql-Qz2sAhyGnaZakZdSCKmv7Z1R5v-XY1N5drcQrCLG68tKNAa",
          "width": 646
        }
      ],
      "place_id": "ChIJRWYXMBZawokRevi2HDY9kRo",
      "plus_code": {
        "compound_code": "PX3R+GQ New York, NY, USA",
        "global_code": "87G7PX3R+GQ"
      },
      "rating": 4.8,
      "reference": "ChIJRWYXMBZawokRevi2HDY9kRo",
      "scope": "GOOGLE",
      "types": [
        "lawyer",
        "point_of_interest",
        "establishment"
      ],
      "user_ratings_total": 5,
      "vicinity": "32 Old Slip, New York"
    },
    {
      "business_status": "OPERATIONAL",
      "geometry": {
        "location": {
          "lat": 40.7081605,
          "lng": -74.0091305
        },
        "viewport": {
          "northeast": {
            "lat": 40.70924248029149,
            "lng": -74.0073918197085
          },
          "southwest": {
            "lat": 40.7065445197085,
            "lng": -74.01008978029151
          }
        }
      },
      "icon": "https://maps.gstatic.com/mapfiles/place_api/icons/v1/png_71/generic_business-71.png",
      "icon_background_color": "#7B9EB0",
      "icon_mask_base_uri": "https://maps.gstatic.com/mapfiles/place_api/icons/v2/generic_pinlet",
      "name": "C T Corporation System (CT Corporation)",
      "opening_hours": {
        "open_now": false
      },
      "photos": [
        {
          "height": 888,
          "html_attributions": [
            "<a href=\"https://maps.google.com/maps/contrib/113604397343577388146\">C T Corporation System (CT Corporation)</a>"
          ],
          "photo_reference": "AeJbb3fJ7Akqh7AGWlixNIcg_k8wuGilxVG_07_aeAbWCgDEUDGp4FGxZXKY7sgYKUEHXO8L9CrOGbhfsX1n92nSvKn-Nmsf2KLpdvzgpoIZt-o7SzcAzybopbLP937bRN6d6RBewYrlHpwmgEqWj3zw61L3gLUl-cR5hDSGkHHkgBNT1HMf",
          "width": 1334
        }
      ],
      "place_id": "ChIJF6vVir5ZwokRWPURE45FUL8",
      "plus_code": {
        "compound_code": "PX5R+78 New York, NY, USA",
        "global_code": "87G7PX5R+78"
      },
      "rating": 4.4,
      "reference": "ChIJF6vVir5ZwokRWPURE45FUL8",
      "scope": "GOOGLE",
      "types": [
        "point_of_interest",
        "establishment"
      ],
      "user_ratings_total": 49,
      "vicinity": "28 Liberty Street 42nd Floor, New York"
    },
    {
      "business_status": "OPERATIONAL",
      "geometry": {
        "location": {
          "lat": 40.708499,
          "lng": -74.0067778
        },
        "viewport": {
          "northeast": {
            "lat": 40.7098213302915,
            "lng": -74.00546281970848
          },
          "southwest": {
            "lat": 40.7071233697085,
            "lng": -74.0081607802915
          }
        }
      },
      "icon": "https://maps.gstatic.com/mapfiles/place_api/icons/v1/png_71/generic_business-71.png",
      "icon_background_color": "#7B9EB0",
      "icon_mask_base_uri": "https://maps.gstatic.com/mapfiles/place_api/icons/v2/generic_pinlet",
      "name": "New York City Housing Development",
      "opening_hours": {
        "open_now": false
      },
      "place_id": "ChIJjR2F_hdawokRD4FEGvVvw_Y",
      "plus_code": {
        "compound_code": "PX5V+97 New York, NY, USA",
        "global_code": "87G7PX5V+97"
      },
      "rating": 3.6,
      "reference": "ChIJjR2F_hdawokRD4FEGvVvw_Y",
      "scope": "GOOGLE",
      "types": [
        "local_government_office",
        "point_of_interest",
        "establishment"
      ],
      "user_ratings_total": 17,
      "vicinity": "110 William Street, New York"
    },
    {
      "business_status": "OPERATIONAL",
      "geometry": {
        "location": {
          "lat": 40.7033226,
          "lng": -74.0088962
        },
        "viewport": {
          "northeast": {
            "lat": 40.7044681302915,
            "lng": -74.00726831970849
          },
          "southwest": {
            "lat": 40.7017701697085,
            "lng": -74.00996628029151
          }
        }
      },
      "icon": "https://maps.gstatic.com/mapfiles/place_api/icons/v1/png_71/generic_business-71.png",
      "icon_background_color": "#7B9EB0",
      "icon_mask_base_uri": "https://maps.gstatic.com/mapfiles/place_api/icons/v2/generic_pinlet",
      "name": "Hoey, King, Epstein, Prezioso & Marquez",
      "place_id": "ChIJ6UIVsxVawokRNc7H0GC1OR4",
      "plus_code": {
        "compound_code": "PX3R+8C New York, NY, USA",
        "global_code": "87G7PX3R+8C"
      },
      "rating": 3,
      "reference": "ChIJ6UIVsxVawokRNc7H0GC1OR4",
      "scope": "GOOGLE",
      "types": [
        "point_of_interest",
        "establishment"
      ],
      "user_ratings_total": 2,
      "vicinity": "55 Water Street, New York"
    },
    {
      "business_status": "CLOSED_TEMPORARILY",
      "geometry": {
        "location": {
          "lat": 40.7069615,
          "lng": -74.0097684
        },
        "viewport": {
          "northeast": {
            "lat": 40.7080217302915,
            "lng": -74.00842881970848
          },
          "southwest": {
            "lat": 40.7053237697085,
            "lng": -74.0111267802915
          }
        }
      },
      "icon": "https://maps.gstatic.com/mapfiles/place_api/icons/v1/png_71/generic_business-71.png",
      "icon_background_color": "#7B9EB0",
      "icon_mask_base_uri": "https://maps.gstatic.com/mapfiles/place_api/icons/v2/generic_pinlet",
      "name": "Marte Multimedia",
      "permanently_closed": true,
      "place_id": "ChIJeZAh_hZawokREWgZyOXbp6A",
      "plus_code": {
        "compound_code": "PX4R+Q3 New York, NY, USA",
        "global_code": "87G7PX4R+Q3"
      },
      "reference": "ChIJeZAh_hZawokREWgZyOXbp6A",
      "scope": "GOOGLE",
      "types": [
        "store",
        "point_of_interest",
        "establishment"
      ],
      "vicinity": "Trump Building, 40 Wall Street, New York"
    },
    {
      "business_status": "OPERATIONAL",
      "geometry": {
        "location": {
          "lat": 40.7069491,
          "lng": -74.0090606
        },
        "viewport": {
          "northeast": {
            "lat": 40.7080155302915,
            "lng": -74.00809936970849
          },
          "southwest": {
            "lat": 40.7053175697085,
            "lng": -74.01079733029151
          }
        }
      },
      "icon": "https://maps.gstatic.com/mapfiles/place_api/icons/v1/png_71/generic_business-71.png",
      "icon_background_color": "#7B9EB0",
      "icon_mask_base_uri": "https://maps.gstatic.com/mapfiles/place_api/icons/v2/generic_pinlet",
      "name": "Room Real Estate",
      "opening_hours": {
        "open_now": false
      },
      "place_id": "ChIJeZAh_hZawokRu1Rbl9a245E",
      "plus_code": {
        "compound_code": "PX4R+Q9 New York, NY, USA",
        "global_code": "87G7PX4R+Q9"
      },
      "rating": 2,
      "reference": "ChIJeZAh_hZawokRu1Rbl9a245E",
      "scope": "GOOGLE",
      "types": [
        "real_estate_agency",
        "point_of_interest",
        "establishment"
      ],
      "user_ratings_total": 1,
      "vicinity": "Trump Building, 40 Wall Street, New York"
    },
    {
      "business_status": "CLOSED_TEMPORARILY",
      "geometry": {
        "location": {
          "lat": 40.7069615,
          "lng": -74.0097684
        },
        "viewport": {
          "northeast": {
            "lat": 40.7080217302915,
            "lng": -74.00842881970848
          },
          "southwest": {
            "lat": 40.7053237697085,
            "lng": -74.0111267802915
          }
        }
      },
      "icon": "https://maps.gstatic.com/mapfiles/place_api/icons/v1/png_71/generic_business-71.png",
      "icon_background_color": "#7B9EB0",
      "icon_mask_base_uri": "https://maps.gstatic.com/mapfiles/place_api/icons/v2/generic_pinlet",
      "name": "PDCD",
      "permanently_closed": true,
      "place_id": "ChIJeZAh_hZawokRkZyvjisSTKw",
      "plus_code": {
        "compound_code": "PX4R+Q3 New York, NY, USA",
        "global_code": "87G7PX4R+Q3"
      },
      "reference": "ChIJeZAh_hZawokRkZyvjisSTKw",
      "scope": "GOOGLE",
      "types": [
        "point_of_interest",
        "establishment"
      ],
      "vicinity": "Trump Building, 40 Wall Street, New York"
    },
    {
      "business_status": "OPERATIONAL",
      "geometry": {
        "location": {
          "lat": 40.704751,
          "lng": -74.006027
        },
        "viewport": {
          "northeast": {
            "lat": 40.70593823029149,
            "lng": -74.00491406970849
          },
          "southwest": {
            "lat": 40.7032402697085,
            "lng": -74.0076120302915
          }
        }
      },
      "icon": "https://maps.gstatic.com/mapfiles/place_api/icons/v1/png_71/generic_business-71.png",
      "icon_background_color": "#7B9EB0",
      "icon_mask_base_uri": "https://maps.gstatic.com/mapfiles/place_api/icons/v2/generic_pinlet",
      "name": "American Foundation For Suicide Prevention - Car Donation",
      "place_id": "ChIJ8xA67j1awokRKd88WVYCNiU",
      "plus_code": {
        "compound_code": "PX3V+WH New York, NY, USA",
        "global_code": "87G7PX3V+WH"
      },
      "reference": "ChIJ8xA67j1awokRKd88WVYCNiU",
      "scope": "GOOGLE",
      "types": [
        "point_of_interest",
        "establishment"
      ],
      "vicinity": "120 Wall Street, New York"
    },
    {
      "business_status": "OPERATIONAL",
      "geometry": {
        "location": {
          "lat": 40.7056323,
          "lng": -74.0062714
        },
        "viewport": {
          "northeast": {
            "lat": 40.7069775302915,
            "lng": -74.00468611970851
          },
          "southwest": {
            "lat": 40.7042795697085,
            "lng": -74.00738408029152
          }
        }
      },
      "icon": "https://maps.gstatic.com/mapfiles/place_api/icons/v1/png_71/generic_business-71.png",
      "icon_background_color": "#7B9EB0",
      "icon_mask_base_uri": "https://maps.gstatic.com/mapfiles/place_api/icons/v2/generic_pinlet",
      "name": "Children's Rights Inc",
      "place_id": "ChIJDUiwlK9ZwokRVoRDJLsUcW4",
      "plus_code": {
        "compound_code": "PX4V+7F New York, NY, USA",
        "global_code": "87G7PX4V+7F"
      },
      "reference": "ChIJDUiwlK9ZwokRVoRDJLsUcW4",
      "scope": "GOOGLE",
      "types": [
        "point_of_interest",
        "establishment"
      ],
      "vicinity": "88 Pine Street, New York"
    },
    {
      "business_status": "OPERATIONAL",
      "geometry": {
        "location": {
          "lat": 40.7069066,
          "lng": -74.0097122
        },
        "viewport": {
          "northeast": {
            "lat": 40.7079942802915,
            "lng": -74.00832921970849
          },
          "southwest": {
            "lat": 40.7052963197085,
            "lng": -74.0110271802915
          }
        }
      },
      "icon": "https://maps.gstatic.com/mapfiles/place_api/icons/v1/png_71/shopping-71.png",
      "icon_background_color": "#4B96F3",
      "icon_mask_base_uri": "https://maps.gstatic.com/mapfiles/place_api/icons/v2/shopping_pinlet",
      "name": "Voice & Wireless Communication Systems",
      "opening_hours": {
        "open_now": true
      },
      "photos": [
        {
          "height": 500,
          "html_attributions": [
            "<a href=\"https://maps.google.com/maps/contrib/102323370015071582325\">Voice &amp; Wireless Communication Systems</a>"
          ],
          "photo_reference": "AeJbb3etS1KMyERQnN_974Jnqdo0j19tUM8wXgGKNZ4XiuLYFUsUan4YkAgKe9U1sCCEwVc1SgWkbAQe9nFBiaYF24sjfP2AvRX0Visu_A_8jYVb-fwvpWAaBOV1Pb5ZXfPAOpbGUi5NfqXPvSYNN72GVu2eUrgCW87MSjiPuFHD-E-quvLH",
          "width": 872
        }
      ],
      "place_id": "ChIJeZAh_hZawokRhmV-5yQUQIE",
      "plus_code": {
        "compound_code": "PX4R+Q4 New York, NY, USA",
        "global_code": "87G7PX4R+Q4"
      },
      "reference": "ChIJeZAh_hZawokRhmV-5yQUQIE",
      "scope": "GOOGLE",
      "types": [
        "electronics_store",
        "store",
        "point_of_interest",
        "establishment"
      ],
      "vicinity": "Trump Building, New York"
    },
    {
      "business_status": "OPERATIONAL",
      "geometry": {
        "location": {
          "lat": 40.70614179999999,
          "lng": -74.00983819999999
        },
        "viewport": {
          "northeast": {
            "lat": 40.7073215802915,
            "lng": -74.0085490697085
          },
          "southwest": {
            "lat": 40.7046236197085,
            "lng": -74.0112470302915
          }
        }
      },
      "icon": "https://maps.gstatic.com/mapfiles/place_api/icons/v1/png_71/generic_business-71.png",
      "icon_background_color": "#7B9EB0",
      "icon_mask_base_uri": "https://maps.gstatic.com/mapfiles/place_api/icons/v2/generic_pinlet",
      "name": "Global Alliance TB Drug Development",
      "place_id": "ChIJR3ljBRRawokRM7OtBsDyn0A",
      "plus_code": {
        "compound_code": "PX4R+F3 New York, NY, USA",
        "global_code": "87G7PX4R+F3"
      },
      "rating": 5,
      "reference": "ChIJR3ljBRRawokRM7OtBsDyn0A",
      "scope": "GOOGLE",
      "types": [
        "point_of_interest",
        "establishment"
      ],
      "user_ratings_total": 1,
      "vicinity": "40 Wall Street # 24, New York"
    },
    {
      "business_status": "OPERATIONAL",
      "geometry": {
        "location": {
          "lat": 40.70404600000001,
          "lng": -74.0096618
        },
        "viewport": {
          "northeast": {
            "lat": 40.70528018029151,
            "lng": -74.00818076970849
          },
          "southwest": {
            "lat": 40.70258221970851,
            "lng": -74.0108787302915
          }
        }
      },
      "icon": "https://maps.gstatic.com/mapfiles/place_api/icons/v1/png_71/shopping-71.png",
      "icon_background_color": "#4B96F3",
      "icon_mask_base_uri": "https://maps.gstatic.com/mapfiles/place_api/icons/v2/shopping_pinlet",
      "name": "Myoptics",
      "opening_hours": {
        "open_now": false
      },
      "place_id": "ChIJFRmrLRRawokRElgm8srpBlg",
      "plus_code": {
        "compound_code": "PX3R+J4 New York, NY, USA",
        "global_code": "87G7PX3R+J4"
      },
      "reference": "ChIJFRmrLRRawokRElgm8srpBlg",
      "scope": "GOOGLE",
      "types": [
        "health",
        "store",
        "point_of_interest",
        "establishment"
      ],
      "vicinity": "7 Hanover Square, New York"
    },
    {
      "business_status": "OPERATIONAL",
      "geometry": {
        "location": {
          "lat": 40.7068658,
          "lng": -74.0097068
        },
        "viewport": {
          "northeast": {
            "lat": 40.7079738802915,
            "lng": -74.0083804697085
          },
          "southwest": {
            "lat": 40.7052759197085,
            "lng": -74.0110784302915
          }
        }
      },
      "icon": "https://maps.gstatic.com/mapfiles/place_api/icons/v1/png_71/generic_business-71.png",
      "icon_background_color": "#7B9EB0",
      "icon_mask_base_uri": "https://maps.gstatic.com/mapfiles/place_api/icons/v2/generic_pinlet",
      "name": "Bureau van Dijk",
      "place_id": "ChIJrxO2pRZawokRvDBA4J4sLe4",
      "plus_code": {
        "compound_code": "PX4R+P4 New York, NY, USA",
        "global_code": "87G7PX4R+P4"
      },
      "reference": "ChIJrxO2pRZawokRvDBA4J4sLe4",
      "scope": "GOOGLE",
      "types": [
        "point_of_interest",
        "establishment"
      ],
      "vicinity": "40 Wall Street, New York"
    },
    {
      "business_status": "OPERATIONAL",
      "geometry": {
        "location": {
          "lat": 40.7057883,
          "lng": -74.01024989999999
        },
        "viewport": {
          "northeast": {
            "lat": 40.7071724802915,
            "lng": -74.00872331970848
          },
          "southwest": {
            "lat": 40.7044745197085,
            "lng": -74.01142128029149
          }
        }
      },
      "icon": "https://maps.gstatic.com/mapfiles/place_api/icons/v1/png_71/generic_business-71.png",
      "icon_background_color": "#7B9EB0",
      "icon_mask_base_uri": "https://maps.gstatic.com/mapfiles/place_api/icons/v2/generic_pinlet",
      "name": "40 Exchange Place",
      "opening_hours": {
        "open_now": true
      },
      "photos": [
        {
          "height": 3024,
          "html_attributions": [
            "<a href=\"https://maps.google.com/maps/contrib/108778477067413990481\">Azamat Nassipov</a>"
          ],
          "photo_reference": "AeJbb3df1GriWb_w93UMeHzP1975UGAja3QOaH33mba4n9YRzlCOfsvldZfSAcatiRd6usNvdV3buOJBTyrcgG_YsPCCPPxquBmlqvSMO7tZsry9J2LkgTzq2bZ0BcTXIruyWX-w2x_jgsTMGeY_pBwO_bqbezgN31Xq9KmU3DJ09tNh58us",
          "width": 4032
        }
      ],
      "place_id": "ChIJ_Wl47RZawokRxugWFwyYKmY",
      "plus_code": {
        "compound_code": "PX4Q+8W New York, NY, USA",
        "global_code": "87G7PX4Q+8W"
      },
      "rating": 4.1,
      "reference": "ChIJ_Wl47RZawokRxugWFwyYKmY",
      "scope": "GOOGLE",
      "types": [
        "point_of_interest",
        "establishment"
      ],
      "user_ratings_total": 236,
      "vicinity": "40 Exchange Place, New York"
    },
    {
      "business_status": "OPERATIONAL",
      "geometry": {
        "location": {
          "lat": 40.7077585,
          "lng": -74.00885029999999
        },
        "viewport": {
          "northeast": {
            "lat": 40.70897283029149,
            "lng": -74.00733386970849
          },
          "southwest": {
            "lat": 40.7062748697085,
            "lng": -74.01003183029151
          }
        }
      },
      "icon": "https://maps.gstatic.com/mapfiles/place_api/icons/v1/png_71/civic_building-71.png",
      "icon_background_color": "#7B9EB0",
      "icon_mask_base_uri": "https://maps.gstatic.com/mapfiles/place_api/icons/v2/civic-bldg_pinlet",
      "name": "Office of the New York State Attorney General",
      "opening_hours": {
        "open_now": true
      },
      "photos": [
        {
          "height": 1920,
          "html_attributions": [
            "<a href=\"https://maps.google.com/maps/contrib/101537663963451661660\">Abdellah Moujahid</a>"
          ],
          "photo_reference": "AeJbb3db_j8RDCl94eqS3Ijo31lktaGBwdSnoQhfwGRTAFPOiRNUOjYlKDbwCc6T5dxtPnBDwso6Q9wdRgU3re7gdXurxi45E1Yjz-DOD6ecuFqzdwS-uw1XC0AHmEuXYOzCWw4TAxTfeuQzcOKfcumWJLllviRX4E8ikh-QnbzBthbUcgGl",
          "width": 1080
        }
      ],
      "place_id": "ChIJp4OyaxdawokRpA8ek33qmG4",
      "plus_code": {
        "compound_code": "PX5R+4F New York, NY, USA",
        "global_code": "87G7PX5R+4F"
      },
      "rating": 3.6,
      "reference": "ChIJp4OyaxdawokRpA8ek33qmG4",
      "scope": "GOOGLE",
      "types": [
        "point_of_interest",
        "establishment"
      ],
      "user_ratings_total": 20,
      "vicinity": "28 Liberty Street, New York"
    },
    {
      "business_status": "OPERATIONAL",
      "geometry": {
        "location": {
          "lat": 40.70772119999999,
          "lng": -74.00555039999999
        },
        "viewport": {
          "northeast": {
            "lat": 40.7090248302915,
            "lng": -74.0042786197085
          },
          "southwest": {
            "lat": 40.70632686970851,
            "lng": -74.00697658029151
          }
        }
      },
      "icon": "https://maps.gstatic.com/mapfiles/place_api/icons/v1/png_71/civic_building-71.png",
      "icon_background_color": "#7B9EB0",
      "icon_mask_base_uri": "https://maps.gstatic.com/mapfiles/place_api/icons/v2/civic-bldg_pinlet",
      "name": "New York City City Marshal",
      "place_id": "ChIJjThPZj1awokRm6q4j1iofOE",
      "plus_code": {
        "compound_code": "PX5V+3Q New York, NY, USA",
        "global_code": "87G7PX5V+3Q"
      },
      "reference": "ChIJjThPZj1awokRm6q4j1iofOE",
      "scope": "GOOGLE",
      "types": [
        "local_government_office",
        "point_of_interest",
        "establishment"
      ],
      "vicinity": "111 John Street #500, New York"
    },
    {
      "business_status": "OPERATIONAL",
      "geometry": {
        "location": {
          "lat": 40.7061417,
          "lng": -74.0110439
        },
        "viewport": {
          "northeast": {
            "lat": 40.70730398029151,
            "lng": -74.00914755
          },
          "southwest": {
            "lat": 40.70460601970851,
            "lng": -74.01195495
          }
        }
      },
      "icon": "https://maps.gstatic.com/mapfiles/place_api/icons/v1/png_71/restaurant-71.png",
      "icon_background_color": "#FF9E67",
      "icon_mask_base_uri": "https://maps.gstatic.com/mapfiles/place_api/icons/v2/restaurant_pinlet",
      "name": "Bobby Van's",
      "opening_hours": {
        "open_now": false
      },
      "photos": [
        {
          "height": 608,
          "html_attributions": [
            "<a href=\"https://maps.google.com/maps/contrib/112739013657264391718\">Bobby Van&#39;s</a>"
          ],
          "photo_reference": "AeJbb3d2pCUEQ_Yc95qI3JZnYy4RYXQEH1fXqZRMQJHS_LkR3y0CQeo0qi441he1pQ3_X5mRZNm3TXqG_E9i4IUrH8qUwurcgTntXeYRENA0aajO0QdLTEcqmIa96ax4C0_R_TxDBUVeDIgxcqunaB2OhseXrf0KAVkRGs7ch2yYw_bPqO5r",
          "width": 1080
        }
      ],
      "place_id": "ChIJGaoRuRZawokRBjROjwe6Ie4",
      "plus_code": {
        "compound_code": "PX4Q+FH New York, NY, USA",
        "global_code": "87G7PX4Q+FH"
      },
      "price_level": 3,
      "rating": 4.2,
      "reference": "ChIJGaoRuRZawokRBjROjwe6Ie4",
      "scope": "GOOGLE",
      "types": [
        "bar",
        "restaurant",
        "food",
        "point_of_interest",
        "establishment"
      ],
      "user_ratings_total": 604,
      "vicinity": "25 Broad Street, New York"
    },
    {
      "business_status": "OPERATIONAL",
      "geometry": {
        "location": {
          "lat": 40.7069772,
          "lng": -74.0095219
        },
        "viewport": {
          "northeast": {
            "lat": 40.70802958029149,
            "lng": -74.00836596970849
          },
          "southwest": {
            "lat": 40.7053316197085,
            "lng": -74.0110639302915
          }
        }
      },
      "icon": "https://maps.gstatic.com/mapfiles/place_api/icons/v1/png_71/generic_business-71.png",
      "icon_background_color": "#7B9EB0",
      "icon_mask_base_uri": "https://maps.gstatic.com/mapfiles/place_api/icons/v2/generic_pinlet",
      "name": "May Law Group, LLC",
      "opening_hours": {
        "open_now": true
      },
      "place_id": "ChIJeZAh_hZawokRijdeotKHu54",
      "plus_code": {
        "compound_code": "PX4R+Q5 New York, NY, USA",
        "global_code": "87G7PX4R+Q5"
      },
      "rating": 2.3,
      "reference": "ChIJeZAh_hZawokRijdeotKHu54",
      "scope": "GOOGLE",
      "types": [
        "lawyer",
        "point_of_interest",
        "establishment"
      ],
      "user_ratings_total": 3,
      "vicinity": "Trump Building, 40 Wall Street, New York"
    },
    {
      "business_status": "CLOSED_TEMPORARILY",
      "geometry": {
        "location": {
          "lat": 40.70887579999999,
          "lng": -74.0066886
        },
        "viewport": {
          "northeast": {
            "lat": 40.7103058302915,
            "lng": -74.00548086970849
          },
          "southwest": {
            "lat": 40.7076078697085,
            "lng": -74.00817883029151
          }
        }
      },
      "icon": "https://maps.gstatic.com/mapfiles/place_api/icons/v1/png_71/civic_building-71.png",
      "icon_background_color": "#7B9EB0",
      "icon_mask_base_uri": "https://maps.gstatic.com/mapfiles/place_api/icons/v2/civic-bldg_pinlet",
      "name": "New York City Juvenile Justice",
      "permanently_closed": true,
      "place_id": "ChIJjR2F_hdawokRL5RJsOq9b3A",
      "plus_code": {
        "compound_code": "PX5V+H8 New York, NY, USA",
        "global_code": "87G7PX5V+H8"
      },
      "reference": "ChIJjR2F_hdawokRL5RJsOq9b3A",
      "scope": "GOOGLE",
      "types": [
        "local_government_office",
        "point_of_interest",
        "establishment"
      ],
      "vicinity": "110 William Street, New York"
    },
    {
      "business_status": "OPERATIONAL",
      "geometry": {
        "location": {
          "lat": 40.7069615,
          "lng": -74.0097684
        },
        "viewport": {
          "northeast": {
            "lat": 40.7083540802915,
            "lng": -74.0083888197085
          },
          "southwest": {
            "lat": 40.7056561197085,
            "lng": -74.0110867802915
          }
        }
      },
      "icon": "https://maps.gstatic.com/mapfiles/place_api/icons/v1/png_71/generic_business-71.png",
      "icon_background_color": "#7B9EB0",
      "icon_mask_base_uri": "https://maps.gstatic.com/mapfiles/place_api/icons/v2/generic_pinlet",
      "name": "Misiti Global, PLLC",
      "place_id": "ChIJeZAh_hZawokRxhkJUC1u2wE",
      "plus_code": {
        "compound_code": "PX4R+Q3 New York, NY, USA",
        "global_code": "87G7PX4R+Q3"
      },
      "reference": "ChIJeZAh_hZawokRxhkJUC1u2wE",
      "scope": "GOOGLE",
      "types": [
        "lawyer",
        "point_of_interest",
        "establishment"
      ],
      "vicinity": "Trump Building, 40 Wall Street, New York"
    },
    {
      "business_status": "CLOSED_TEMPORARILY",
      "geometry": {
        "location": {
          "lat": 40.70404600000001,
          "lng": -74.0096618
        },
        "viewport": {
          "northeast": {
            "lat": 40.70528018029151,
            "lng": -74.00818076970849
          },
          "southwest": {
            "lat": 40.70258221970851,
            "lng": -74.0108787302915
          }
        }
      },
      "icon": "https://maps.gstatic.com/mapfiles/place_api/icons/v1/png_71/generic_business-71.png",
      "icon_background_color": "#7B9EB0",
      "icon_mask_base_uri": "https://maps.gstatic.com/mapfiles/place_api/icons/v2/generic_pinlet",
      "name": "Michael D. Patrick",
      "permanently_closed": true,
      "place_id": "ChIJFRmrLRRawokR0AtCZ4lcUGA",
      "plus_code": {
        "compound_code": "PX3R+J4 New York, NY, USA",
        "global_code": "87G7PX3R+J4"
      },
      "reference": "ChIJFRmrLRRawokR0AtCZ4lcUGA",
      "scope": "GOOGLE",
      "types": [
        "lawyer",
        "point_of_interest",
        "establishment"
      ],
      "vicinity": "7 Hanover Square, New York"
    },
    {
      "business_status": "OPERATIONAL",
      "geometry": {
        "location": {
          "lat": 40.7041331,
          "lng": -74.0085656
        },
        "viewport": {
          "northeast": {
            "lat": 40.70545378029149,
            "lng": -74.00725721970849
          },
          "southwest": {
            "lat": 40.7027558197085,
            "lng": -74.0099551802915
          }
        }
      },
      "icon": "https://maps.gstatic.com/mapfiles/place_api/icons/v1/png_71/generic_business-71.png",
      "icon_background_color": "#7B9EB0",
      "icon_mask_base_uri": "https://maps.gstatic.com/mapfiles/place_api/icons/v2/generic_pinlet",
      "name": "Daiwa Asset Management",
      "place_id": "ChIJVbu0gRZawokROsTUTnuHJQA",
      "plus_code": {
        "compound_code": "PX3R+MH New York, NY, USA",
        "global_code": "87G7PX3R+MH"
      },
      "reference": "ChIJVbu0gRZawokROsTUTnuHJQA",
      "scope": "GOOGLE",
      "types": [
        "finance",
        "point_of_interest",
        "establishment"
      ],
      "vicinity": "1 Old Slip, New York"
    },
    {
      "business_status": "OPERATIONAL",
      "geometry": {
        "location": {
          "lat": 40.7078278,
          "lng": -74.0056597
        },
        "viewport": {
          "northeast": {
            "lat": 40.70910518029149,
            "lng": -74.00438771970849
          },
          "southwest": {
            "lat": 40.7064072197085,
            "lng": -74.0070856802915
          }
        }
      },
      "icon": "https://maps.gstatic.com/mapfiles/place_api/icons/v1/png_71/generic_business-71.png",
      "icon_background_color": "#7B9EB0",
      "icon_mask_base_uri": "https://maps.gstatic.com/mapfiles/place_api/icons/v2/generic_pinlet",
      "name": "Mehran Morovati D.D.S. Century Dental Associates",
      "opening_hours": {
        "open_now": false
      },
      "photos": [
        {
          "height": 478,
          "html_attributions": [
            "<a href=\"https://maps.google.com/maps/contrib/109329919807956063738\">Mehran Morovati D.D.S. Century Dental Associates</a>"
          ],
          "photo_reference": "AeJbb3f7UgTKQFd90m9Zq6h4BvEjK-x0GEhp8yFUQjZ4rcunceGNPaGLgLuxl-TRyQuRj0-ns9H_l9Z8R-Hh55ONJ1ufOgqAT25q0ZsMkLqh0YD7uzbNxCIjHU7191fz1pNuuSh-uq8PFVv-4_Pmad3SBn7KaoS8Tt0j2POyjbCCe-tT1zVr",
          "width": 640
        }
      ],
      "place_id": "ChIJIQhUQj1awokRF1OslAs7Qs0",
      "plus_code": {
        "compound_code": "PX5V+4P New York, NY, USA",
        "global_code": "87G7PX5V+4P"
      },
      "rating": 4.4,
      "reference": "ChIJIQhUQj1awokRF1OslAs7Qs0",
      "scope": "GOOGLE",
      "types": [
        "dentist",
        "health",
        "point_of_interest",
        "establishment"
      ],
      "user_ratings_total": 110,
      "vicinity": "111 John Street Lobby, New York"
    },
    {
      "business_status": "CLOSED_TEMPORARILY",
      "geometry": {
        "location": {
          "lat": 40.70690829999999,
          "lng": -74.0096853
        },
        "viewport": {
          "northeast": {
            "lat": 40.70799513029149,
            "lng": -74.00838846970849
          },
          "southwest": {
            "lat": 40.7052971697085,
            "lng": -74.0110864302915
          }
        }
      },
      "icon": "https://maps.gstatic.com/mapfiles/place_api/icons/v1/png_71/generic_business-71.png",
      "icon_background_color": "#7B9EB0",
      "icon_mask_base_uri": "https://maps.gstatic.com/mapfiles/place_api/icons/v2/generic_pinlet",
      "name": "Private Placement memorandum",
      "permanently_closed": true,
      "place_id": "ChIJeZAh_hZawokRVqL3l5WxX8c",
      "plus_code": {
        "compound_code": "PX4R+Q4 New York, NY, USA",
        "global_code": "87G7PX4R+Q4"
      },
      "reference": "ChIJeZAh_hZawokRVqL3l5WxX8c",
      "scope": "GOOGLE",
      "types": [
        "point_of_interest",
        "establishment"
      ],
      "vicinity": "40 Wall Street, New York"
    },
    {
      "business_status": "OPERATIONAL",
      "geometry": {
        "location": {
          "lat": 40.70686569999999,
          "lng": -74.0097069
        },
        "viewport": {
          "northeast": {
            "lat": 40.70797383029149,
            "lng": -74.0083804697085
          },
          "southwest": {
            "lat": 40.7052758697085,
            "lng": -74.0110784302915
          }
        }
      },
      "icon": "https://maps.gstatic.com/mapfiles/place_api/icons/v1/png_71/generic_business-71.png",
      "icon_background_color": "#7B9EB0",
      "icon_mask_base_uri": "https://maps.gstatic.com/mapfiles/place_api/icons/v2/generic_pinlet",
      "name": "Balestri Architects",
      "opening_hours": {
        "open_now": false
      },
      "place_id": "ChIJeZAh_hZawokR1Z7LkRT-qSw",
      "plus_code": {
        "compound_code": "PX4R+P4 New York, NY, USA",
        "global_code": "87G7PX4R+P4"
      },
      "reference": "ChIJeZAh_hZawokR1Z7LkRT-qSw",
      "scope": "GOOGLE",
      "types": [
        "point_of_interest",
        "establishment"
      ],
      "vicinity": "40 Wall Street, New York"
    }
  ],
  "status": "OK"
}