{
  "html_attributions": [],
  "results": [
    {
      "geometry": {
        "location": {
          "lat": 40.7127753,
          "lng": -74.0059728
        },
        "viewport": {
          "northeast": {
            "lat": 40.91757705070789,
            "lng": -73.70027206817629
          },
          "southwest": {
            "lat": 40.47739906045452,
            "lng": -74.25908991427882
          }
        }
      },
      "icon": "https://maps.gstatic.com/mapfiles/place_api/icons/v1/png_71/geocode-71.png",
      "icon_background_color": "#7B9EB0",
      "icon_mask_base_uri": "https://maps.gstatic.com/mapfiles/place_api/icons/v2/generic_pinlet",
      "name": "\u7d10\u7d04",
      "photos": [
        {
          "height": 600,
          "html_attributions": [
            "<a href=\"https://maps.google.com/maps/contrib/102389334567210814614\">Bukurie</a>"
          ],
          "photo_reference": "AeJbb3f85QXiWRLaUxzyN2i-uFlyf2z_70drb-Fz9ekezKTjshBIgPE3u2VKm_F-2_78tnFem1R27mL9T8ki0K1jLBDGbdK7igcdMmRCkRncRVv48I_GPZhvMd_u9dbe_SO6Ea5mTgNPFCru1huYz74fyXIUIsi5Ji3RU22ODdA5tLprVUmb",
          "width": 480
        }
      ],
      "place_id": "ChIJOwg_06VPwokRYv534QaPC8g",
      "reference": "ChIJOwg_06VPwokRYv534QaPC8g",
      "scope": "GOOGLE",
      "types": [
        "locality",
        "political"
      ],
      "vicinity": "\u7d10\u7d04"
    },
    {
      "business_status": "OPERATIONAL",
      "geometry": {
        "location": {
          "lat": 40.8081052,
          "lng": -73.9447692
        },
        "viewport": {
          "northeast": {
            "lat": 40.8094922302915,
            "lng": -73.9436034197085
          },
          "southwest": {
            "lat": 40.8067942697085,
            "lng": -73.9463013802915
          }
        }
      },
      "icon": "https://maps.gstatic.com/mapfiles/place_api/icons/v1/png_71/restaurant-71.png",
      "icon_background_color": "#FF9E67",
      "icon_mask_base_uri": "https://maps.gstatic.com/mapfiles/place_api/icons/v2/restaurant_pinlet",
      "name": "Red Rooster Harlem",
      "opening_hours": {
        "open_now": true
      },
      "photos": [
        {
          "height": 1012,
          "html_attributions": [
            "<a href=\"https://maps.google.com/maps/contrib/104729380633163557830\">Red Rooster Harlem</a>"
          ],
          "photo_reference": "AeJbb3eAzjYFihQAWr2AJE6Hh1QP56uWq_XqOLArbkCf6-VQrrpLVdlo81xyL8Q5VCZXZoMAWFwoUXUXUIxHh4yXP5k_TimQ56cTxhoMjRNgEdu08R1YvgCDbjSEdG5ujO24yv6jL2JnM3cla7d5SD8YYgHmp8i9mX-so24IwU9dMIKM_Zs",
          "width": 1799
        }
      ],
      "place_id": "ChIJFcYLJw32wokRnP5A9xO9JqM",
      "plus_code": {
        "compound_code": "R354+63 \u7f8e\u570b\u7d10\u7d04",
        "global_code": "87G8R354+63"
      },
      "price_level": 2,
      "rating": 4.4,
      "reference": "ChIJFcYLJw32wokRnP5A9xO9JqM",
      "scope": "GOOGLE",
      "types": [
        "restaurant",
        "food",
        "point_of_interest",
        "establishment"
      ],
      "user_ratings_total": 5648,
      "vicinity": "310 Lenox Avenue, New York"
    },
    {
      "business_status": "OPERATIONAL",
      "geometry": {
        "location": {
          "lat": 40.8025539,
          "lng": -73.9502679
        },
        "viewport": {
          "northeast": {
            "lat": 40.8038024802915,
            "lng": -73.94900731970849
          },
          "southwest": {
            "lat": 40.8011045197085,
            "lng": -73.9517052802915
          }
        }
      },
      "icon": "https://maps.gstatic.com/mapfiles/place_api/icons/v1/png_71/restaurant-71.png",
      "icon_background_color": "#FF9E67",
      "icon_mask_base_uri": "https://maps.gstatic.com/mapfiles/place_api/icons/v2/restaurant_pinlet",
      "name": "Amy Ruth's",
      "opening_hours": {
        "open_now": true
      },
      "photos": [
        {
          "height": 563,
          "html_attributions": [
            "<a href=\"https://maps.google.com/maps/contrib/107819344768680553449\">Amy Ruth&#39;s</a>"
          ],
          "photo_reference": "AeJbb3fs6g7CFe9IaYCHW5mFLKvht_MIzEwu9uETQxAvJlYmffgyAogeCYkTiPQOT-ELljGObvavWOMhCTfstAyY4YnaLnMPpsH413KBzKxYur_7dUnTpUhR1qYg32nBzP7N4fxrOJhq3OKrkYhsvsQJvNQPpOt_lSW1IBHARY8_ssfKfCon",
          "width": 900
        }
      ],
      "place_id": "ChIJ7V-ZqxH2wokRwaES4IMqwQU",
      "plus_code": {
        "compound_code": "R23X+2V \u7f8e\u570b\u7d10\u7d04",
        "global_code": "87G8R23X+2V"
      },
      "price_level": 2,
      "rating": 4.3,
      "reference": "ChIJ7V-ZqxH2wokRwaES4IMqwQU",
      "scope": "GOOGLE",
      "types": [
        "restaurant",
        "food",
        "point_of_interest",
        "establishment"
      ],
      "user_ratings_total": 5047,
      "vicinity": "113 West 116th Street, New York"
    },
    {
      "business_status": "OPERATIONAL",
      "geometry": {
        "location": {
          "lat": 40.80694020000001,
          "lng": -73.9441988
        },
        "viewport": {
          "northeast": {
            "lat": 40.80840643029151,
            "lng": -73.9427699697085
          },
          "southwest": {
            "lat": 40.80570846970851,
            "lng": -73.9454679302915
          }
        }
      },
      "icon": "https://maps.gstatic.com/mapfiles/place_api/icons/v1/png_71/shopping-71.png",
      "icon_background_color": "#4B96F3",
      "icon_mask_base_uri": "https://maps.gstatic.com/mapfiles/place_api/icons/v2/shopping_pinlet",
      "name": "Black Ink",
      "opening_hours": {
        "open_now": true
      },
      "photos": [
        {
          "height": 3120,
          "html_attributions": [
            "<a href=\"https://maps.google.com/maps/contrib/108142562801688666217\">Ronald Harvin, Jr</a>"
          ],
          "photo_reference": "AeJbb3cV7nGQ-7ETEeYeFBr8y0HphxB5QEstrRTUVrMs1EMrmynLtR-Ji0zTWDuY3uMmA121osP4mYhxS6193OC_cwFZs7kk9loq29J60Pwlszp9ujKHnjI9LN1tMHVv1DS8t7N_Vnv0fSq0cJGQ1dsLj5YbxZbnQyvJfmH7hPb-Ro2qB71H",
          "width": 3120
        }
      ],
      "place_id": "ChIJne6eghD2wokRxu_OKnBKjd8",
      "plus_code": {
        "compound_code": "R344+Q8 \u7f8e\u570b\u7d10\u7d04",
        "global_code": "87G8R344+Q8"
      },
      "rating": 4.2,
      "reference": "ChIJne6eghD2wokRxu_OKnBKjd8",
      "scope": "GOOGLE",
      "types": [
        "store",
        "point_of_interest",
        "establishment"
      ],
      "user_ratings_total": 581,
      "vicinity": "50 West 125th Street, New York"
    },
    {
      "business_status": "OPERATIONAL",
      "geometry": {
        "location": {
          "lat": 40.80106729999999,
          "lng": -73.9465026
        },
        "viewport": {
          "northeast": {
            "lat": 40.8024898302915,
            "lng": -73.9449613197085
          },
          "southwest": {
            "lat": 40.7997918697085,
            "lng": -73.9476592802915
          }
        }
      },
      "icon": "https://maps.gstatic.com/mapfiles/place_api/icons/v1/png_71/generic_business-71.png",
      "icon_background_color": "#7B9EB0",
      "icon_mask_base_uri": "https://maps.gstatic.com/mapfiles/place_api/icons/v2/generic_pinlet",
      "name": "West 116th Street Associates",
      "opening_hours": {
        "open_now": false
      },
      "photos": [
        {
          "height": 4032,
          "html_attributions": [
            "<a href=\"https://maps.google.com/maps/contrib/114694358039077327497\">Hilda Pena</a>"
          ],
          "photo_reference": "AeJbb3fxIVrYdPpN4oBgGflVwAvKkp1TTDCVi6sqETESZFuZCfeaqyqHCE2SvJ3bFH_yd7iQnzLMKqbtf3blinluigROToe1b-dyM_OJgCrZ7LUzy1XyQ5oPY7eitKlGYSrqCO7cJPxN6bQam19Er1hstWrhujdP77p2MI6x6paYjms4vvJm",
          "width": 3024
        }
      ],
      "place_id": "ChIJr2Qb0g_2wokR7oq0i97qqC0",
      "plus_code": {
        "compound_code": "R323+C9 \u7f8e\u570b\u7d10\u7d04",
        "global_code": "87G8R323+C9"
      },
      "rating": 5,
      "reference": "ChIJr2Qb0g_2wokR7oq0i97qqC0",
      "scope": "GOOGLE",
      "types": [
        "point_of_interest",
        "establishment"
      ],
      "user_ratings_total": 10,
      "vicinity": "1428 5th Avenue #1, New York"
    },
    {
      "business_status": "OPERATIONAL",
      "geometry": {
        "location": {
          "lat": 40.8044257,
          "lng": -73.9437629
        },
        "viewport": {
          "northeast": {
            "lat": 40.80789235,
            "lng": -73.93952185
          },
          "southwest": {
            "lat": 40.80103335000001,
            "lng": -73.94783125
          }
        }
      },
      "icon": "https://maps.gstatic.com/mapfiles/place_api/icons/v1/png_71/park-71.png",
      "icon_background_color": "#4DB546",
      "icon_mask_base_uri": "https://maps.gstatic.com/mapfiles/place_api/icons/v2/tree_pinlet",
      "name": "\u99ac\u5eab\u65af\u00b7\u52a0\u7dad\u516c\u5712",
      "opening_hours": {
        "open_now": true
      },
      "photos": [
        {
          "height": 1800,
          "html_attributions": [
            "<a href=\"https://maps.google.com/maps/contrib/107730330789332981724\">Marcus Garvey Park</a>"
          ],
          "photo_reference": "AeJbb3ej3oNT46Uvb-u6rlTffnRow4SWGZNIHwBxszzEu05cUNHg0ptDMVJToNpfyH3z247ag6m2lQGZlo5Ijwt4KaOwVN01_--TR4gKyGOTG6meQsBeown6OQTJf7uiFRT5-z9C_XqaEbPbhwvjgTsdcJ_LPR-TF-X1fF_pgn8LwzaMp3oY",
          "width": 2700
        }
      ],
      "place_id": "ChIJHa6lPAz2wokRlRyxNExaJbQ",
      "plus_code": {
        "compound_code": "R334+QF \u7f8e\u570b\u7d10\u7d04",
        "global_code": "87G8R334+QF"
      },
      "rating": 4.3,
      "reference": "ChIJHa6lPAz2wokRlRyxNExaJbQ",
      "scope": "GOOGLE",
      "types": [
        "park",
        "tourist_attraction",
        "point_of_interest",
        "establishment"
      ],
      "user_ratings_total": 3911,
      "vicinity": "6316, Mount Morris Park West, New York"
    },
    {
      "business_status": "OPERATIONAL",
      "geometry": {
        "location": {
          "lat": 40.8081263,
          "lng": -73.94585649999999
        },
        "viewport": {
          "northeast": {
            "lat": 40.8094077802915,
            "lng": -73.9445654197085
          },
          "southwest": {
            "lat": 40.8067098197085,
            "lng": -73.9472633802915
          }
        }
      },
      "icon": "https://maps.gstatic.com/mapfiles/place_api/icons/v1/png_71/shopping-71.png",
      "icon_background_color": "#4B96F3",
      "icon_mask_base_uri": "https://maps.gstatic.com/mapfiles/place_api/icons/v2/shopping_pinlet",
      "name": "Marshalls",
      "opening_hours": {
        "open_now": true
      },
      "photos": [
        {
          "height": 3264,
          "html_attributions": [
            "<a href=\"https://maps.google.com/maps/contrib/115176422602545138418\">Ali Bassi</a>"
          ],
          "photo_reference": "AeJbb3fgz1b4ABKO-RUmgk3CPb49zYDdu7JDfpN6PZo3qfmQkbz0I-0r3LciJmk3MCJGNyAL_8k1gvsUQO7DLCHDR5zbRIl4YdV_mGUF7RA-BTv9CjeXgtA-rViHJQN56sRlSSG6Uy_OKF_-li945EBM-oo498J3E4eHfZ6xAVRV_E5BgFIh",
          "width": 1836
        }
      ],
      "place_id": "ChIJ3S5wPQ32wokRs_6c2hrBt6g",
      "plus_code": {
        "compound_code": "R353+7M \u7f8e\u570b\u7d10\u7d04\u66fc\u54c8\u9813",
        "global_code": "87G8R353+7M"
      },
      "rating": 4.2,
      "reference": "ChIJ3S5wPQ32wokRs_6c2hrBt6g",
      "scope": "GOOGLE",
      "types": [
        "department_store",
        "clothing_store",
        "store",
        "point_of_interest",
        "establishment"
      ],
      "user_ratings_total": 2714,
      "vicinity": "125 West 125th Street, Manhattan"
    },
    {
      "business_status": "OPERATIONAL",
      "geometry": {
        "location": {
          "lat": 40.8051247,
          "lng": -73.9495755
        },
        "viewport": {
          "northeast": {
            "lat": 40.8065509302915,
            "lng": -73.94816966970849
          },
          "southwest": {
            "lat": 40.80385296970851,
            "lng": -73.9508676302915
          }
        }
      },
      "icon": "https://maps.gstatic.com/mapfiles/place_api/icons/v1/png_71/lodging-71.png",
      "icon_background_color": "#909CE1",
      "icon_mask_base_uri": "https://maps.gstatic.com/mapfiles/place_api/icons/v2/hotel_pinlet",
      "name": "Harlem 144 Guest House",
      "photos": [
        {
          "height": 4032,
          "html_attributions": [
            "<a href=\"https://maps.google.com/maps/contrib/114531040718121425875\">Hattie Moore-bradley</a>"
          ],
          "photo_reference": "AeJbb3eXDHJOImZYVZlXo08dbOXQP8vbUcm0CfLvDQyDq0UCTKtZAFLSuZJFC053FEUwO5fkyZFZFipLthmvz8BksZmEXQ_7_GlTA90d9CCiIMtkgKSI7CNoVFmZPj9Ghy8WTEIt5xDhz50AaXx9P4MtAiI6QHcG3r6kpPLOBcw-AqKb3Q0C",
          "width": 3024
        }
      ],
      "place_id": "ChIJvQKAJBL2wokRt7nR55KUDBE",
      "plus_code": {
        "compound_code": "R342+25 \u7f8e\u570b\u7d10\u7d04",
        "global_code": "87G8R342+25"
      },
      "rating": 2.8,
      "reference": "ChIJvQKAJBL2wokRt7nR55KUDBE",
      "scope": "GOOGLE",
      "types": [
        "lodging",
        "point_of_interest",
        "establishment"
      ],
      "user_ratings_total": 5,
      "vicinity": "144 West 120th Street, New York"
    },
    {
      "business_status": "OPERATIONAL",
      "geometry": {
        "location": {
          "lat": 40.8019146,
          "lng": -73.9487949
        },
        "viewport": {
          "northeast": {
            "lat": 40.8031659302915,
            "lng": -73.94751836970849
          },
          "southwest": {
            "lat": 40.8004679697085,
            "lng": -73.9502163302915
          }
        }
      },
      "icon": "https://maps.gstatic.com/mapfiles/place_api/icons/v1/png_71/school-71.png",
      "icon_background_color": "#7B9EB0",
      "icon_mask_base_uri": "https://maps.gstatic.com/mapfiles/place_api/icons/v2/school_pinlet",
      "name": "Mama Gena's School of Womanly Arts",
      "opening_hours": {
        "open_now": false
      },
      "place_id": "ChIJvSVvYYNYwokR-_e6e1F2Q9w",
      "plus_code": {
        "compound_code": "R322+QF \u7f8e\u570b\u7d10\u7d04",
        "global_code": "87G8R322+QF"
      },
      "rating": 4.5,
      "reference": "ChIJvSVvYYNYwokR-_e6e1F2Q9w",
      "scope": "GOOGLE",
      "types": [
        "school",
        "point_of_interest",
        "establishment"
      ],
      "user_ratings_total": 2,
      "vicinity": "55 West 116th Street #277, New York"
    },
    {
      "business_status": "OPERATIONAL",
      "geometry": {
        "location": {
          "lat": 40.8060507,
          "lng": -73.9464026
        },
        "viewport": {
          "northeast": {
            "lat": 40.8074400302915,
            "lng": -73.9451553697085
          },
          "southwest": {
            "lat": 40.8047420697085,
            "lng": -73.94785333029151
          }
        }
      },
      "icon": "https://maps.gstatic.com/mapfiles/place_api/icons/v1/png_71/lodging-71.png",
      "icon_background_color": "#909CE1",
      "icon_mask_base_uri": "https://maps.gstatic.com/mapfiles/place_api/icons/v2/hotel_pinlet",
      "name": "The International Cozy Inn",
      "opening_hours": {
        "open_now": true
      },
      "photos": [
        {
          "height": 3687,
          "html_attributions": [
            "<a href=\"https://maps.google.com/maps/contrib/106896252833392982474\">The International Cozy Inn</a>"
          ],
          "photo_reference": "AeJbb3chvAGM-Gsko7tW3qZtonfyxpHtPYrErMuAgc4_Cu7iPBTRupc_yyvpCrmaFtvK9gJdIx-HdhBaxDtDtPx4LXKligOg0cw3E4QulkrAS6M3-EfT9m-lcYUuK0DLL5hzXbIZmP8HBPyHWnudO3mPzdA_2DuToP6Uy-Gzn0OPsvOmVyvp",
          "width": 5531
        }
      ],
      "place_id": "ChIJoT3ilw32wokRBAom-f6kAd4",
      "plus_code": {
        "compound_code": "R343+CC \u7f8e\u570b\u7d10\u7d04",
        "global_code": "87G8R343+CC"
      },
      "rating": 4.2,
      "reference": "ChIJoT3ilw32wokRBAom-f6kAd4",
      "scope": "GOOGLE",
      "types": [
        "lodging",
        "point_of_interest",
        "establishment"
      ],
      "user_ratings_total": 57,
      "vicinity": "248 Malcolm X Boulevard, New York"
    },
    {
      "business_status": "OPERATIONAL",
      "geometry": {
        "location": {
          "lat": 40.8029864,
          "lng": -73.9493796
        },
        "viewport": {
          "northeast": {
            "lat": 40.80424688029151,
            "lng": -73.94804991970851
          },
          "southwest": {
            "lat": 40.80154891970851,
            "lng": -73.95074788029152
          }
        }
      },
      "icon": "https://maps.gstatic.com/mapfiles/place_api/icons/v1/png_71/bank-71.png",
      "icon_background_color": "#909CE1",
      "icon_mask_base_uri": "https://maps.gstatic.com/mapfiles/place_api/icons/v2/bank-intl_pinlet",
      "name": "Wells Fargo Bank",
      "opening_hours": {
        "open_now": false
      },
      "photos": [
        {
          "height": 4032,
          "html_attributions": [
            "<a href=\"https://maps.google.com/maps/contrib/114169183569284266370\">Jeff Yuk</a>"
          ],
          "photo_reference": "AeJbb3e9VbwSscoLKaJ2Y6RgQ7mWVRe66VisTUy7pPgn7HoYgv6X_mqvJaOW2t4_2n9LXhaZKMxR6CgPtg5Vdlkc96v1Zra2aun7T79fVd0AGPpzNABekw4Mb7Zdl61q4PTZVY4mpdMbW1DSFvSiuwjnD2fQPCAkxv2ADCOpU1BdytFkMm_5",
          "width": 3024
        }
      ],
      "place_id": "ChIJa3OtuRH2wokRiZfT4cw3jnw",
      "plus_code": {
        "compound_code": "R332+56 \u7f8e\u570b\u7d10\u7d04",
        "global_code": "87G8R332+56"
      },
      "rating": 2.7,
      "reference": "ChIJa3OtuRH2wokRiZfT4cw3jnw",
      "scope": "GOOGLE",
      "types": [
        "bank",
        "atm",
        "finance",
        "point_of_interest",
        "establishment"
      ],
      "user_ratings_total": 97,
      "vicinity": "143 Lenox Avenue, New York"
    },
    {
      "business_status": "OPERATIONAL",
      "geometry": {
        "location": {
          "lat": 40.8082859,
          "lng": -73.9476926
        },
        "viewport": {
          "northeast": {
            "lat": 40.8097944302915,
            "lng": -73.9462278197085
          },
          "southwest": {
            "lat": 40.8070964697085,
            "lng": -73.9489257802915
          }
        }
      },
      "icon": "https://maps.gstatic.com/mapfiles/place_api/icons/v1/png_71/museum-71.png",
      "icon_background_color": "#13B5C7",
      "icon_mask_base_uri": "https://maps.gstatic.com/mapfiles/place_api/icons/v2/museum_pinlet",
      "name": "The Studio Museum in Harlem",
      "opening_hours": {
        "open_now": true
      },
      "photos": [
        {
          "height": 3265,
          "html_attributions": [
            "<a href=\"https://maps.google.com/maps/contrib/103205021402123407356\">Otto Cheung</a>"
          ],
          "photo_reference": "AeJbb3envJK7IlbON0bA7LHQe7EcsFFPCuQvy0fwhQFAm6vzbJt9yj3Vb3RlGaM7jNq6oQdst9GJa38FGSPqdR-ghLMwDsoB_W6owocSQdrPhm2okvPaN1Ko_SEboFYKHph86mF7zN5PtJ7UZqRg0HcjQuz-K_3Mw7_nIfljyULm2YFznhrV",
          "width": 4898
        }
      ],
      "place_id": "ChIJ_ShwXw32wokRQJpaKAIcCOo",
      "plus_code": {
        "compound_code": "R352+8W \u7f8e\u570b\u7d10\u7d04",
        "global_code": "87G8R352+8W"
      },
      "price_level": 2,
      "rating": 4.4,
      "reference": "ChIJ_ShwXw32wokRQJpaKAIcCOo",
      "scope": "GOOGLE",
      "types": [
        "tourist_attraction",
        "museum",
        "point_of_interest",
        "establishment"
      ],
      "user_ratings_total": 264,
      "vicinity": "144 West 125th Street, New York"
    },
    {
      "business_status": "OPERATIONAL",
      "geometry": {
        "location": {
          "lat": 40.8043587,
          "lng": -73.95064289999999
        },
        "viewport": {
          "northeast": {
            "lat": 40.8056314802915,
            "lng": -73.9493688697085
          },
          "southwest": {
            "lat": 40.8029335197085,
            "lng": -73.9520668302915
          }
        }
      },
      "icon": "https://maps.gstatic.com/mapfiles/place_api/icons/v1/png_71/lodging-71.png",
      "icon_background_color": "#909CE1",
      "icon_mask_base_uri": "https://maps.gstatic.com/mapfiles/place_api/icons/v2/hotel_pinlet",
      "name": "NYC Townhouse Apartment",
      "place_id": "ChIJAQB9ghH2wokRhyeLHFb6D9c",
      "plus_code": {
        "compound_code": "R23X+PP \u7f8e\u570b\u7d10\u7d04",
        "global_code": "87G8R23X+PP"
      },
      "reference": "ChIJAQB9ghH2wokRhyeLHFb6D9c",
      "scope": "GOOGLE",
      "types": [
        "lodging",
        "point_of_interest",
        "establishment"
      ],
      "vicinity": "149 West 118th Street, New York"
    },
    {
      "business_status": "OPERATIONAL",
      "geometry": {
        "location": {
          "lat": 40.8025896,
          "lng": -73.9433766
        },
        "viewport": {
          "northeast": {
            "lat": 40.8039402302915,
            "lng": -73.94193266970849
          },
          "southwest": {
            "lat": 40.8012422697085,
            "lng": -73.94463063029151
          }
        }
      },
      "icon": "https://maps.gstatic.com/mapfiles/place_api/icons/v1/png_71/school-71.png",
      "icon_background_color": "#7B9EB0",
      "icon_mask_base_uri": "https://maps.gstatic.com/mapfiles/place_api/icons/v2/school_pinlet",
      "name": "Helene Fuld College of Nursing",
      "opening_hours": {
        "open_now": false
      },
      "photos": [
        {
          "height": 638,
          "html_attributions": [
            "<a href=\"https://maps.google.com/maps/contrib/107284468466080435125\">Helene Fuld College of Nursing</a>"
          ],
          "photo_reference": "AeJbb3fMjC3HfZIcaUrt1wrACGf2RHlkS9-oogWJ--2GBBhLqei-mzdaqrYhfVd4l0nXbstwpbTyss4m4WyfhLruGPcNWZmZXrvm9rLtV3adXgL-VtwW5Y7ZOHNoAngehBV1QbhBjddKRnxGRTp1ynqDgYudYHJU9Flzpkl2QoFNh5qqUXzm",
          "width": 960
        }
      ],
      "place_id": "ChIJT7L7vw72wokRUdmYsb4rLR8",
      "plus_code": {
        "compound_code": "R334+2J \u7f8e\u570b\u7d10\u7d04",
        "global_code": "87G8R334+2J"
      },
      "rating": 2.9,
      "reference": "ChIJT7L7vw72wokRUdmYsb4rLR8",
      "scope": "GOOGLE",
      "types": [
        "university",
        "point_of_interest",
        "establishment"
      ],
      "user_ratings_total": 49,
      "vicinity": "24 East 120th Street, New York"
    },
    {
      "business_status": "OPERATIONAL",
      "geometry": {
        "location": {
          "lat": 40.801499,
          "lng": -73.94399680000001
        },
        "viewport": {
          "northeast": {
            "lat": 40.8028106302915,
            "lng": -73.94255821970852
          },
          "southwest": {
            "lat": 40.8001126697085,
            "lng": -73.94525618029152
          }
        }
      },
      "icon": "https://maps.gstatic.com/mapfiles/place_api/icons/v1/png_71/restaurant-71.png",
      "icon_background_color": "#FF9E67",
      "icon_mask_base_uri": "https://maps.gstatic.com/mapfiles/place_api/icons/v2/restaurant_pinlet",
      "name": "Subway",
      "opening_hours": {
        "open_now": true
      },
      "photos": [
        {
          "height": 766,
          "html_attributions": [
            "<a href=\"https://maps.google.com/maps/contrib/115201930007444487857\">Subway</a>"
          ],
          "photo_reference": "AeJbb3dG7NNvIszRXHY19RHROXQpdICiLSJvTZrkBmh38qIvaCflJEKmuI0LBlmBIz_p_8S0mFqH1d5i4be262ntMo945pcGdHp-rwxjSNM9PQlHf8Gf9lINFHpvn4JN938OkilC63LkvpC5iMHbUTsbMjf2E7YcFP5LO55GPpBxDFov2XUY",
          "width": 766
        }
      ],
      "place_id": "ChIJG0S94g72wokRbCoKKuCGTrM",
      "plus_code": {
        "compound_code": "R324+HC \u7f8e\u570b\u7d10\u7d04",
        "global_code": "87G8R324+HC"
      },
      "price_level": 1,
      "rating": 4.2,
      "reference": "ChIJG0S94g72wokRbCoKKuCGTrM",
      "scope": "GOOGLE",
      "types": [
        "meal_takeaway",
        "restaurant",
        "food",
        "point_of_interest",
        "establishment"
      ],
      "user_ratings_total": 90,
      "vicinity": "1814 Madison Avenue, New York"
    },
    {
      "business_status": "CLOSED_TEMPORARILY",
      "geometry": {
        "location": {
          "lat": 40.80668,
          "lng": -73.94352599999999
        },
        "viewport": {
          "northeast": {
            "lat": 40.8081338802915,
            "lng": -73.94209881970849
          },
          "southwest": {
            "lat": 40.8054359197085,
            "lng": -73.9447967802915
          }
        }
      },
      "icon": "https://maps.gstatic.com/mapfiles/place_api/icons/v1/png_71/generic_business-71.png",
      "icon_background_color": "#4B96F3",
      "icon_mask_base_uri": "https://maps.gstatic.com/mapfiles/place_api/icons/v2/generic_pinlet",
      "name": "Rite Aid",
      "permanently_closed": true,
      "photos": [
        {
          "height": 250,
          "html_attributions": [
            "<a href=\"https://maps.google.com/maps/contrib/118083496541613129885\">Rite Aid</a>"
          ],
          "photo_reference": "AeJbb3fh521OTHTnKDe0Rs3swr6diZB79K8mVEWyy6oRjiQXJKFQy47No2EqZK_dZqUPz8Rc6eVPHXLZPGpC7nKttSdt0rUot4UOomHKL5cAMc1iGg_VJNIWJfl-yy-Zo8r77VdkU0LeTOAR-XJg4MBsNXPPcPrakah0h_ZFrMdK2zGwwI86",
          "width": 251
        }
      ],
      "place_id": "ChIJ11p96Qz2wokR2tyfqDdjBRk",
      "plus_code": {
        "compound_code": "R344+MH \u7f8e\u570b\u7d10\u7d04",
        "global_code": "87G8R344+MH"
      },
      "price_level": 2,
      "rating": 2.6,
      "reference": "ChIJ11p96Qz2wokR2tyfqDdjBRk",
      "scope": "GOOGLE",
      "types": [
        "drugstore",
        "convenience_store",
        "health",
        "store",
        "food",
        "point_of_interest",
        "establishment"
      ],
      "user_ratings_total": 37,
      "vicinity": "35-45 West 125th Street, New York"
    },
    {
      "business_status": "OPERATIONAL",
      "geometry": {
        "location": {
          "lat": 40.80784510000001,
          "lng": -73.9449982
        },
        "viewport": {
          "northeast": {
            "lat": 40.8090852302915,
            "lng": -73.94370566970849
          },
          "southwest": {
            "lat": 40.80638726970851,
            "lng": -73.94640363029151
          }
        }
      },
      "icon": "https://maps.gstatic.com/mapfiles/place_api/icons/v1/png_71/shopping-71.png",
      "icon_background_color": "#4B96F3",
      "icon_mask_base_uri": "https://maps.gstatic.com/mapfiles/place_api/icons/v2/shopping_pinlet",
      "name": "AT&T Store",
      "opening_hours": {
        "open_now": true
      },
      "photos": [
        {
          "height": 4032,
          "html_attributions": [
            "<a href=\"https://maps.google.com/maps/contrib/112566489492407362903\">Willy Gil</a>"
          ],
          "photo_reference": "AeJbb3dlECuXLI_PA3HdkXo3edI6XKu8dZWeYtt3JjuZIE-rKRZ8JtFZPf6mma7dmhgamZP5dZrf77ADnEdNQkduEv3_bGG9RUX5ZuSkoBZho_fd4TLj434dzcHNDvuGzNKqloqMt7f8zlN4X6GokLd22XBnXCJbJadzG6NiFTQcM3HbR1Ks",
          "width": 3024
        }
      ],
      "place_id": "ChIJZVI9Hw32wokRND7OWRV48yA",
      "plus_code": {
        "compound_code": "R354+42 \u7f8e\u570b\u7d10\u7d04",
        "global_code": "87G8R354+42"
      },
      "price_level": 2,
      "rating": 4,
      "reference": "ChIJZVI9Hw32wokRND7OWRV48yA",
      "scope": "GOOGLE",
      "types": [
        "store",
        "point_of_interest",
        "establishment"
      ],
      "user_ratings_total": 241,
      "vicinity": "81 West 125th Street, New York"
    },
    {
      "business_status": "OPERATIONAL",
      "geometry": {
        "location": {
          "lat": 40.80711,
          "lng": -73.9463378
        },
        "viewport": {
          "northeast": {
            "lat": 40.8085049302915,
            "lng": -73.94494296970848
          },
          "southwest": {
            "lat": 40.80580696970851,
            "lng": -73.9476409302915
          }
        }
      },
      "icon": "https://maps.gstatic.com/mapfiles/place_api/icons/v1/png_71/restaurant-71.png",
      "icon_background_color": "#FF9E67",
      "icon_mask_base_uri": "https://maps.gstatic.com/mapfiles/place_api/icons/v2/restaurant_pinlet",
      "name": "Harlem Shake",
      "opening_hours": {
        "open_now": true
      },
      "photos": [
        {
          "height": 1597,
          "html_attributions": [
            "<a href=\"https://maps.google.com/maps/contrib/110690128355020339999\">Harlem Shake</a>"
          ],
          "photo_reference": "AeJbb3dprw2hfvka6bvxg7oW0bfjS2t0CTLwZ2RuKbBaIJviA5tzpEfj5sOzLLy3jp-zotFIjQCUQhF48b0fD5syydraOg6DPmIx02Z9X0c2XlFMc-HzmH82v8Nth4taS8VvP_zLWuFeiZwL22eKc6DR5Aa4NKBs6RVz0zIE-dquoIGyf3Ol",
          "width": 2400
        }
      ],
      "place_id": "ChIJ_Wfccg32wokR_0Yoxz3R9a0",
      "plus_code": {
        "compound_code": "R343+RF \u7f8e\u570b\u7d10\u7d04",
        "global_code": "87G8R343+RF"
      },
      "price_level": 2,
      "rating": 4.2,
      "reference": "ChIJ_Wfccg32wokR_0Yoxz3R9a0",
      "scope": "GOOGLE",
      "types": [
        "restaurant",
        "food",
        "point_of_interest",
        "establishment"
      ],
      "user_ratings_total": 2927,
      "vicinity": "100 West 124th Street, New York"
    },
    {
      "business_status": "OPERATIONAL",
      "geometry": {
        "location": {
          "lat": 40.8013442,
          "lng": -73.948878
        },
        "viewport": {
          "northeast": {
            "lat": 40.8028400802915,
            "lng": -73.9474643697085
          },
          "southwest": {
            "lat": 40.8001421197085,
            "lng": -73.9501623302915
          }
        }
      },
      "icon": "https://maps.gstatic.com/mapfiles/place_api/icons/v1/png_71/shopping-71.png",
      "icon_background_color": "#4B96F3",
      "icon_mask_base_uri": "https://maps.gstatic.com/mapfiles/place_api/icons/v2/shopping_pinlet",
      "name": "Malcolm Shabazz Harlem Market",
      "opening_hours": {
        "open_now": true
      },
      "photos": [
        {
          "height": 655,
          "html_attributions": [
            "<a href=\"https://maps.google.com/maps/contrib/111256337977338907868\">Osman J\u00e9r\u00f4me</a>"
          ],
          "photo_reference": "AeJbb3c6uOP9GNxsXVuDSbILsA5UKHrD5EMDqK0ikJJnozdHiBpTOR1dhghAa2vFcZS8xLLe8eLGFoJd01K3zVhyhikX2NzGi5Qxi2_dTWEznD7wuQk-RwyODSCNoNf4NyzUI2beK9jE_hzmnuQ05zfJdjv2vpv5NGax9VBR8DBzQX-lYlWf",
          "width": 1170
        }
      ],
      "place_id": "ChIJhdF9TRD2wokROv6jKsY9UDs",
      "plus_code": {
        "compound_code": "R322+GC \u7f8e\u570b\u7d10\u7d04",
        "global_code": "87G8R322+GC"
      },
      "rating": 4.4,
      "reference": "ChIJhdF9TRD2wokROv6jKsY9UDs",
      "scope": "GOOGLE",
      "types": [
        "tourist_attraction",
        "point_of_interest",
        "establishment"
      ],
      "user_ratings_total": 1478,
      "vicinity": "52 West 116th Street, New York"
    },
    {
      "geometry": {
        "location": {
          "lat": 40.8240478,
          "lng": -73.9447643
        },
        "viewport": {
          "northeast": {
            "lat": 40.87822003591612,
            "lng": -73.91064591328563
          },
          "southwest": {
            "lat": 40.78278392408598,
            "lng": -73.97119006413347
          }
        }
      },
      "icon": "https://maps.gstatic.com/mapfiles/place_api/icons/v1/png_71/geocode-71.png",
      "icon_background_color": "#7B9EB0",
      "icon_mask_base_uri": "https://maps.gstatic.com/mapfiles/place_api/icons/v2/generic_pinlet",
      "name": "\u66fc\u54c8\u9813\u4e0a\u57ce",
      "photos": [
        {
          "height": 4000,
          "html_attributions": [
            "<a href=\"https://maps.google.com/maps/contrib/108665206705263687409\">Chris Lidstone</a>"
          ],
          "photo_reference": "AeJbb3eSdmF6b1dU6Y4eu0q9OX5ZuR6hjmbIvP5_NJlFJDC69twJvsnG3FqUubpLww_U7PbzWrEeXpqEWj61h3CCFivaHPGdpc6iKmiy7icnDiYb_13oIEqOf0aUCoDRjyh9sXWwPg57z8Xolu84VRamrksTEKYveL0Hh85vVwlmUBJrs_Bc",
          "width": 3000
        }
      ],
      "place_id": "ChIJY50xHxP2wokR7WhhDNRmgRU",
      "reference": "ChIJY50xHxP2wokR7WhhDNRmgRU",
      "scope": "GOOGLE",
      "types": [
        "neighborhood",
        "political"
      ],
      "vicinity": "\u66fc\u54c8\u9813"
    },
    {
      "business_status": "OPERATIONAL",
      "geometry": {
        "location": {
          "lat": 40.8016429,
          "lng": -73.9439688
        },
        "viewport": {
          "northeast": {
            "lat": 40.80293743029149,
            "lng": -73.94250431970849
          },
          "southwest": {
            "lat": 40.8002394697085,
            "lng": -73.9452022802915
          }
        }
      },
      "icon": "https://maps.gstatic.com/mapfiles/place_api/icons/v1/png_71/generic_business-71.png",
      "icon_background_color": "#7B9EB0",
      "icon_mask_base_uri": "https://maps.gstatic.com/mapfiles/place_api/icons/v2/generic_pinlet",
      "name": "Madison Avenue Radiology Center",
      "opening_hours": {
        "open_now": false
      },
      "photos": [
        {
          "height": 4160,
          "html_attributions": [
            "<a href=\"https://maps.google.com/maps/contrib/113705606578704167870\">Tomfrank Tomfrank</a>"
          ],
          "photo_reference": "AeJbb3c6o_gWGd8WpPvqXFzfS1rVqsGxBET93T0v9TMCXhnanT1q4vIZJ7KkZ42y1sP3wqqvgh6SOfPXYZrjpiydWj9W6tlTKroaa1Dro-II2iuk5lgGS1JbeXR-Yx6IdO_TfPSFWdezBqDJrDELMnkRoEfSuaJ6n-oHM5dFUnybCXMX6T0o",
          "width": 3120
        }
      ],
      "place_id": "ChIJdeYU4g72wokRw1s3QeNGx_o",
      "plus_code": {
        "compound_code": "R324+MC New York, NY, USA",
        "global_code": "87G8R324+MC"
      },
      "rating": 2,
      "reference": "ChIJdeYU4g72wokRw1s3QeNGx_o",
      "scope": "GOOGLE",
      "types": [
        "health",
        "point_of_interest",
        "establishment"
      ],
      "user_ratings_total": 39,
      "vicinity": "1820 Madison Avenue, New York"
    },
    {
      "business_status": "OPERATIONAL",
      "geometry": {
        "location": {
          "lat": 40.8080989,
          "lng": -73.94475349999999
        },
        "viewport": {
          "northeast": {
            "lat": 40.80950808029149,
            "lng": -73.94357061970848
          },
          "southwest": {
            "lat": 40.80681011970849,
            "lng": -73.9462685802915
          }
        }
      },
      "icon": "https://maps.gstatic.com/mapfiles/place_api/icons/v1/png_71/generic_business-71.png",
      "icon_background_color": "#7B9EB0",
      "icon_mask_base_uri": "https://maps.gstatic.com/mapfiles/place_api/icons/v2/generic_pinlet",
      "name": "Ginny's Supper Club",
      "photos": [
        {
          "height": 3467,
          "html_attributions": [
            "<a href=\"https://maps.google.com/maps/contrib/117629045022544070319\">Ginny&#39;s Supper Club</a>"
          ],
          "photo_reference": "AeJbb3efYi5Qs_CIs1VZ7LXuS79w_ZwCjP38fvP7uTfzJW74ZMwMcTq3sa5V9oBufODOyFlfBVM3bL7Avl9SVHEIlqahAvdiRD5a52ksOZEW5DU5RCODhrd3wZRqKPpXvKXg-XyI9gedUBu8DklRlmHH_VPz1uIkLCj4u49EM1lx3PTEL4C5",
          "width": 5200
        }
      ],
      "place_id": "ChIJH-kbJw32wokR_UxCBmg1weg",
      "plus_code": {
        "compound_code": "R354+63 New York, NY, USA",
        "global_code": "87G8R354+63"
      },
      "price_level": 2,
      "rating": 4.5,
      "reference": "ChIJH-kbJw32wokR_UxCBmg1weg",
      "scope": "GOOGLE",
      "types": [
        "night_club",
        "bar",
        "restaurant",
        "food",
        "point_of_interest",
        "establishment"
      ],
      "user_ratings_total": 266,
      "vicinity": "310 Malcolm X Boulevard, New York"
    },
    {
      "business_status": "OPERATIONAL",
      "geometry": {
        "location": {
          "lat": 40.8049519,
          "lng": -73.9403658
        },
        "viewport": {
          "northeast": {
            "lat": 40.80620538029149,
            "lng": -73.9390461197085
          },
          "southwest": {
            "lat": 40.8035074197085,
            "lng": -73.9417440802915
          }
        }
      },
      "icon": "https://maps.gstatic.com/mapfiles/place_api/icons/v1/png_71/school-71.png",
      "icon_background_color": "#7B9EB0",
      "icon_mask_base_uri": "https://maps.gstatic.com/mapfiles/place_api/icons/v2/school_pinlet",
      "name": "New York College Of Podiatric Medicine",
      "place_id": "ChIJq8W0uQv2wokR5tmms6rcKTs",
      "plus_code": {
        "compound_code": "R335+XV New York, NY, USA",
        "global_code": "87G8R335+XV"
      },
      "rating": 3.6,
      "reference": "ChIJq8W0uQv2wokR5tmms6rcKTs",
      "scope": "GOOGLE",
      "types": [
        "university",
        "doctor",
        "health",
        "point_of_interest",
        "establishment"
      ],
      "user_ratings_total": 15,
      "vicinity": "53 East 124th Street, New York"
    },
    {
      "business_status": "OPERATIONAL",
      "geometry": {
        "location": {
          "lat": 40.8068725,
          "lng": -73.9440396
        },
        "viewport": {
          "northeast": {
            "lat": 40.8083357802915,
            "lng": -73.94260316970849
          },
          "southwest": {
            "lat": 40.8056378197085,
            "lng": -73.9453011302915
          }
        }
      },
      "icon": "https://maps.gstatic.com/mapfiles/place_api/icons/v1/png_71/school-71.png",
      "icon_background_color": "#7B9EB0",
      "icon_mask_base_uri": "https://maps.gstatic.com/mapfiles/place_api/icons/v2/school_pinlet",
      "name": "Harlem Yoga Studio",
      "opening_hours": {
        "open_now": true
      },
      "photos": [
        {
          "height": 950,
          "html_attributions": [
            "<a href=\"https://maps.google.com/maps/contrib/103702448815502267415\">Harlem Yoga Studio</a>"
          ],
          "photo_reference": "AeJbb3cJJzxj01aEuaiHfc0cf8cnAN6L7tKVDmJpm_mThEptwqNm0MwPqECu6ZVHgUdv--vJQYToYx7fCCSzBylLxewhVBOfHleYt37TCVOemsQb8y59FcjZ9j4zrR8o1TuFGkIDP1HW8EmKRpZOnk7dAHRI7JogUoiAgUjciIV3c3kDj6eQ",
          "width": 2084
        }
      ],
      "place_id": "ChIJ0Td28Az2wokRvis5wsKbxfQ",
      "plus_code": {
        "compound_code": "R344+P9 New York, NY, USA",
        "global_code": "87G8R344+P9"
      },
      "rating": 4.5,
      "reference": "ChIJ0Td28Az2wokRvis5wsKbxfQ",
      "scope": "GOOGLE",
      "types": [
        "school",
        "gym",
        "health",
        "point_of_interest",
        "establishment"
      ],
      "user_ratings_total": 26,
      "vicinity": "44 West 125th Street 3rd Floor, New York"
    },
    {
      "business_status": "OPERATIONAL",
      "geometry": {
        "location": {
          "lat": 40.8029506,
          "lng": -73.9444346
        },
        "viewport": {
          "northeast": {
            "lat": 40.8044117802915,
            "lng": -73.94313056970849
          },
          "southwest": {
            "lat": 40.8017138197085,
            "lng": -73.94582853029151
          }
        }
      },
      "icon": "https://maps.gstatic.com/mapfiles/place_api/icons/v1/png_71/generic_business-71.png",
      "icon_background_color": "#7B9EB0",
      "icon_mask_base_uri": "https://maps.gstatic.com/mapfiles/place_api/icons/v2/generic_pinlet",
      "name": "Brett Design",
      "place_id": "ChIJP-kLjA72wokRNQpkystW0oo",
      "plus_code": {
        "compound_code": "R334+56 New York, NY, USA",
        "global_code": "87G8R334+56"
      },
      "reference": "ChIJP-kLjA72wokRNQpkystW0oo",
      "scope": "GOOGLE",
      "types": [
        "general_contractor",
        "point_of_interest",
        "establishment"
      ],
      "vicinity": "1485 5th Avenue # 15K, New York"
    },
    {
      "business_status": "OPERATIONAL",
      "geometry": {
        "location": {
          "lat": 40.8026661,
          "lng": -73.9482563
        },
        "viewport": {
          "northeast": {
            "lat": 40.8038806802915,
            "lng": -73.94700666970849
          },
          "southwest": {
            "lat": 40.8011827197085,
            "lng": -73.94970463029149
          }
        }
      },
      "icon": "https://maps.gstatic.com/mapfiles/place_api/icons/v1/png_71/generic_business-71.png",
      "icon_background_color": "#7B9EB0",
      "icon_mask_base_uri": "https://maps.gstatic.com/mapfiles/place_api/icons/v2/generic_pinlet",
      "name": "Parents Help Center",
      "place_id": "ChIJ5VHUzxH2wokRzrBNiuVddt4",
      "plus_code": {
        "compound_code": "R332+3M New York, NY, USA",
        "global_code": "87G8R332+3M"
      },
      "reference": "ChIJ5VHUzxH2wokRzrBNiuVddt4",
      "scope": "GOOGLE",
      "types": [
        "point_of_interest",
        "establishment"
      ],
      "vicinity": "41 West 117th Street, New York"
    },
    {
      "business_status": "OPERATIONAL",
      "geometry": {
        "location": {
          "lat": 40.8044155,
          "lng": -73.94611909999999
        },
        "viewport": {
          "northeast": {
            "lat": 40.8057233802915,
            "lng": -73.94465061970848
          },
          "southwest": {
            "lat": 40.8030254197085,
            "lng": -73.94734858029149
          }
        }
      },
      "icon": "https://maps.gstatic.com/mapfiles/place_api/icons/v1/png_71/lodging-71.png",
      "icon_background_color": "#909CE1",
      "icon_mask_base_uri": "https://maps.gstatic.com/mapfiles/place_api/icons/v2/hotel_pinlet",
      "name": "Mount Morris House NYC",
      "opening_hours": {
        "open_now": true
      },
      "photos": [
        {
          "height": 1936,
          "html_attributions": [
            "<a href=\"https://maps.google.com/maps/contrib/102392847474956948682\">Mount Morris House NYC</a>"
          ],
          "photo_reference": "AeJbb3cs-gRGDEyyggMPFUY7EvclfeIIvbydDPu4JxJeESAePeFhVPgGOT27eMCJtBmk5AJmxcEbF09r17MfmZsEdYySI5H_2KocCT_3HmUk5gpSllgToR-AXnr0oTAo6RtnpW-lhKZH2cvD0fopU-deCzz1chlRaesIToFoi4BMBDXMpOvJ",
          "width": 2592
        }
      ],
      "place_id": "ChIJ5YpO3A32wokRBCzsWKT5WtU",
      "plus_code": {
        "compound_code": "R333+QH New York, NY, USA",
        "global_code": "87G8R333+QH"
      },
      "rating": 4.7,
      "reference": "ChIJ5YpO3A32wokRBCzsWKT5WtU",
      "scope": "GOOGLE",
      "types": [
        "lodging",
        "point_of_interest",
        "establishment"
      ],
      "user_ratings_total": 47,
      "vicinity": "Fifth Avenue at, West 121st Street, New York"
    },
    {
      "business_status": "OPERATIONAL",
      "geometry": {
        "location": {
          "lat": 40.806331,
          "lng": -73.9484722
        },
        "viewport": {
          "northeast": {
            "lat": 40.8077516802915,
            "lng": -73.94707036970848
          },
          "southwest": {
            "lat": 40.8050537197085,
            "lng": -73.9497683302915
          }
        }
      },
      "icon": "https://maps.gstatic.com/mapfiles/place_api/icons/v1/png_71/school-71.png",
      "icon_background_color": "#7B9EB0",
      "icon_mask_base_uri": "https://maps.gstatic.com/mapfiles/place_api/icons/v2/school_pinlet",
      "name": "Future Leaders Institute Charter School",
      "opening_hours": {
        "open_now": false
      },
      "photos": [
        {
          "height": 4320,
          "html_attributions": [
            "<a href=\"https://maps.google.com/maps/contrib/102414821763087230348\">Future Leaders Institute Charter School</a>"
          ],
          "photo_reference": "AeJbb3f2Dh5MIRRCDM1L0E7lDVstkg1jrOLr8jxZ9ElKeBNqvLx8Jd7ggn18RAL6nPWN7CXw5EQIP13SwCLyHwIUB5kyXRM6FlbMBpzbn4jqZ1__5HkYrxt6R9oefZrOuzxryzg4QDuwngWXL5GBDNJpFVNe7m2aYkAJD7CHEv9DewHETXJq",
          "width": 6480
        }
      ],
      "place_id": "ChIJd3r1ehL2wokRSODlFZOLdgY",
      "plus_code": {
        "compound_code": "R342+GJ New York, NY, USA",
        "global_code": "87G8R342+GJ"
      },
      "rating": 4.1,
      "reference": "ChIJd3r1ehL2wokRSODlFZOLdgY",
      "scope": "GOOGLE",
      "types": [
        "primary_school",
        "school",
        "point_of_interest",
        "establishment"
      ],
      "user_ratings_total": 20,
      "vicinity": "134 West 122nd Street, New York"
    },
    {
      "business_status": "OPERATIONAL",
      "geometry": {
        "location": {
          "lat": 40.8023203,
          "lng": -73.9469254
        },
        "viewport": {
          "northeast": {
            "lat": 40.8038424802915,
            "lng": -73.94565536970849
          },
          "southwest": {
            "lat": 40.8011445197085,
            "lng": -73.9483533302915
          }
        }
      },
      "icon": "https://maps.gstatic.com/mapfiles/place_api/icons/v1/png_71/generic_business-71.png",
      "icon_background_color": "#7B9EB0",
      "icon_mask_base_uri": "https://maps.gstatic.com/mapfiles/place_api/icons/v2/generic_pinlet",
      "name": "Children's Aid - Dunlevy Milbank Center",
      "opening_hours": {
        "open_now": true
      },
      "photos": [
        {
          "height": 3024,
          "html_attributions": [
            "<a href=\"https://maps.google.com/maps/contrib/117209297040406894629\">Coach V</a>"
          ],
          "photo_reference": "AeJbb3fv_0wMBwIht20GizcDRw9Pox3TsDiDR_9eKkn0sY5Z8unp2p4ivzZCy_9dvOTcgPa5UMGo6XPUGeJ_yDv5SKi2wGYYOO5B1dD2DhU_ITMBkZ8Cs0HHYTqcSatchxws4WEFCkljOldw0ALrxBstBTgs8jTJqYHhyJgeIrxUM9R6zELD",
          "width": 4032
        }
      ],
      "place_id": "ChIJOf0cOg72wokRt_r6M5eBa80",
      "plus_code": {
        "compound_code": "R323+W6 New York, NY, USA",
        "global_code": "87G8R323+W6"
      },
      "rating": 4.4,
      "reference": "ChIJOf0cOg72wokRt_r6M5eBa80",
      "scope": "GOOGLE",
      "types": [
        "health",
        "point_of_interest",
        "establishment"
      ],
      "user_ratings_total": 128,
      "vicinity": "14-32 West 118th Street, New York"
    },
    {
      "business_status": "OPERATIONAL",
      "geometry": {
        "location": {
          "lat": 40.8003881,
          "lng": -73.9470053
        },
        "viewport": {
          "northeast": {
            "lat": 40.8016829802915,
            "lng": -73.94552806970849
          },
          "southwest": {
            "lat": 40.7989850197085,
            "lng": -73.94822603029151
          }
        }
      },
      "icon": "https://maps.gstatic.com/mapfiles/place_api/icons/v1/png_71/generic_business-71.png",
      "icon_background_color": "#7B9EB0",
      "icon_mask_base_uri": "https://maps.gstatic.com/mapfiles/place_api/icons/v2/generic_pinlet",
      "name": "Holt Thomas DDS",
      "place_id": "ChIJCdub6A_2wokR2xhT13ud_O4",
      "plus_code": {
        "compound_code": "R323+55 New York, NY, USA",
        "global_code": "87G8R323+55"
      },
      "reference": "ChIJCdub6A_2wokR2xhT13ud_O4",
      "scope": "GOOGLE",
      "types": [
        "dentist",
        "health",
        "point_of_interest",
        "establishment"
      ],
      "vicinity": "1400 5th Avenue # 4M, New York"
    },
    {
      "business_status": "OPERATIONAL",
      "geometry": {
        "location": {
          "lat": 40.8043667,
          "lng": -73.9483333
        },
        "viewport": {
          "northeast": {
            "lat": 40.8056728302915,
            "lng": -73.9468837697085
          },
          "southwest": {
            "lat": 40.8029748697085,
            "lng": -73.94958173029151
          }
        }
      },
      "icon": "https://maps.gstatic.com/mapfiles/place_api/icons/v1/png_71/restaurant-71.png",
      "icon_background_color": "#FF9E67",
      "icon_mask_base_uri": "https://maps.gstatic.com/mapfiles/place_api/icons/v2/restaurant_pinlet",
      "name": "Il Cafe Latte 1",
      "opening_hours": {
        "open_now": true
      },
      "photos": [
        {
          "height": 3468,
          "html_attributions": [
            "<a href=\"https://maps.google.com/maps/contrib/112032719607803940997\">Didier</a>"
          ],
          "photo_reference": "AeJbb3ctyg6n41Nw8j0sJAViRhYFVHCe4YjKAvPRCvsX3dO3C-DWb_qGlQNrUvcvqq794CjDoSsSLuA3w75hLQRaf2WUItmmcAhoEbkWGk6-6WuClCPmZaJhUa3NjWRF0wa1nsIyot5bfKuNu9pmiHxzeZ-zLrAR1fywavaKp7jl8tAm6rHt",
          "width": 4624
        }
      ],
      "place_id": "ChIJmQZU-BH2wokR77fs9FoxIrg",
      "plus_code": {
        "compound_code": "R332+PM New York, NY, USA",
        "global_code": "87G8R332+PM"
      },
      "price_level": 2,
      "rating": 4.4,
      "reference": "ChIJmQZU-BH2wokR77fs9FoxIrg",
      "scope": "GOOGLE",
      "types": [
        "cafe",
        "restaurant",
        "food",
        "point_of_interest",
        "establishment"
      ],
      "user_ratings_total": 536,
      "vicinity": "189 Malcolm X Boulevard # 1, New York"
    },
    {
      "business_status": "OPERATIONAL",
      "geometry": {
        "location": {
          "lat": 40.8015171,
          "lng": -73.94972539999999
        },
        "viewport": {
          "northeast": {
            "lat": 40.80291758029151,
            "lng": -73.94846996970848
          },
          "southwest": {
            "lat": 40.80021961970851,
            "lng": -73.95116793029149
          }
        }
      },
      "icon": "https://maps.gstatic.com/mapfiles/place_api/icons/v1/png_71/generic_business-71.png",
      "icon_background_color": "#7B9EB0",
      "icon_mask_base_uri": "https://maps.gstatic.com/mapfiles/place_api/icons/v2/generic_pinlet",
      "name": "Harlem Heritage Tourism and Cultural Center",
      "opening_hours": {
        "open_now": true
      },
      "photos": [
        {
          "height": 960,
          "html_attributions": [
            "<a href=\"https://maps.google.com/maps/contrib/100934962460931115209\">Harlem Heritage Tourism and Cultural Center</a>"
          ],
          "photo_reference": "AeJbb3diomM3pNq3pji4BC36zBmywONYJ6W_BtWPnVKgqsPFTD0WyGXrvYYerszKqdH4CmVbs6uSsFY8RzGoYoO2NeBiBO_8WfagjOXs8KlxWNeifI_oQyPsv8PIPcEGXUOuDrFnXef20dS4A8lD7rnx2DELad_3FkKRLSze9VIFDUxtkeqG",
          "width": 876
        }
      ],
      "place_id": "ChIJmSKXRRD2wokR8MEnxPDuGMA",
      "plus_code": {
        "compound_code": "R322+J4 New York, NY, USA",
        "global_code": "87G8R322+J4"
      },
      "rating": 4.7,
      "reference": "ChIJmSKXRRD2wokR8MEnxPDuGMA",
      "scope": "GOOGLE",
      "types": [
        "travel_agency",
        "point_of_interest",
        "establishment"
      ],
      "user_ratings_total": 100,
      "vicinity": "104 Malcolm X Boulevard, New York"
    },
    {
      "business_status": "CLOSED_TEMPORARILY",
      "geometry": {
        "location": {
          "lat": 40.80214429999999,
          "lng": -73.9430084
        },
        "viewport": {
          "northeast": {
            "lat": 40.8035369802915,
            "lng": -73.9417600697085
          },
          "southwest": {
            "lat": 40.8008390197085,
            "lng": -73.9444580302915
          }
        }
      },
      "icon": "https://maps.gstatic.com/mapfiles/place_api/icons/v1/png_71/generic_business-71.png",
      "icon_background_color": "#7B9EB0",
      "icon_mask_base_uri": "https://maps.gstatic.com/mapfiles/place_api/icons/v2/generic_pinlet",
      "name": "Hazel Marketing",
      "permanently_closed": true,
      "place_id": "ChIJvbbYww72wokRY0gCi1QhdmI",
      "plus_code": {
        "compound_code": "R324+VQ New York, NY, USA",
        "global_code": "87G8R324+VQ"
      },
      "reference": "ChIJvbbYww72wokRY0gCi1QhdmI",
      "scope": "GOOGLE",
      "types": [
        "point_of_interest",
        "establishment"
      ],
      "vicinity": "1831 Madison Avenue, New York"
    },
    {
      "business_status": "OPERATIONAL",
      "geometry": {
        "location": {
          "lat": 40.8076686,
          "lng": -73.9475672
        },
        "viewport": {
          "northeast": {
            "lat": 40.80905403029151,
            "lng": -73.9461922197085
          },
          "southwest": {
            "lat": 40.80635606970851,
            "lng": -73.9488901802915
          }
        }
      },
      "icon": "https://maps.gstatic.com/mapfiles/place_api/icons/v1/png_71/generic_business-71.png",
      "icon_background_color": "#7B9EB0",
      "icon_mask_base_uri": "https://maps.gstatic.com/mapfiles/place_api/icons/v2/generic_pinlet",
      "name": "Beth Israel Med Center-Mmtp Clinic",
      "opening_hours": {
        "open_now": false
      },
      "photos": [
        {
          "height": 1632,
          "html_attributions": [
            "<a href=\"https://maps.google.com/maps/contrib/108210100406353764955\">Drew A Gutman</a>"
          ],
          "photo_reference": "AeJbb3cGgwPCEb3InkjRRtmlrvEdcMD4ATZjgnk-7-ODpOTYKVJNBpIrNF7MFr1WS6gwU6m1-1dmMfTRpAd0jRaooSOFLNDqzuAn4dmflQEX7N2Nwf90jG15IZhAPl7wnyjMc8VAAuz1l5jbPCzQ0mVLIMGY3IyFQ-MzDVyi8oNQIE450_Uk",
          "width": 1224
        }
      ],
      "place_id": "ChIJk3hoWw32wokR4K8G2ZaZQIU",
      "plus_code": {
        "compound_code": "R352+3X New York, NY, USA",
        "global_code": "87G8R352+3X"
      },
      "rating": 4,
      "reference": "ChIJk3hoWw32wokR4K8G2ZaZQIU",
      "scope": "GOOGLE",
      "types": [
        "health",
        "point_of_interest",
        "establishment"
      ],
      "user_ratings_total": 5,
      "vicinity": "140 West 125th Street # 6, New York"
    },
    {
      "business_status": "OPERATIONAL",
      "geometry": {
        "location": {
          "lat": 40.8003881,
          "lng": -73.9470053
        },
        "viewport": {
          "northeast": {
            "lat": 40.8016829802915,
            "lng": -73.94552806970849
          },
          "southwest": {
            "lat": 40.7989850197085,
            "lng": -73.94822603029151
          }
        }
      },
      "icon": "https://maps.gstatic.com/mapfiles/place_api/icons/v1/png_71/generic_business-71.png",
      "icon_background_color": "#7B9EB0",
      "icon_mask_base_uri": "https://maps.gstatic.com/mapfiles/place_api/icons/v2/generic_pinlet",
      "name": "Althera Medical",
      "place_id": "ChIJCdub6A_2wokR6nHZFrz1WRQ",
      "plus_code": {
        "compound_code": "R323+55 New York, NY, USA",
        "global_code": "87G8R323+55"
      },
      "reference": "ChIJCdub6A_2wokR6nHZFrz1WRQ",
      "scope": "GOOGLE",
      "types": [
        "health",
        "point_of_interest",
        "establishment"
      ],
      "vicinity": "1400 5th Avenue # 1, New York"
    },
    {
      "business_status": "OPERATIONAL",
      "geometry": {
        "location": {
          "lat": 40.8018721,
          "lng": -73.9487985
        },
        "viewport": {
          "northeast": {
            "lat": 40.8031374302915,
            "lng": -73.9475031697085
          },
          "southwest": {
            "lat": 40.8004394697085,
            "lng": -73.9502011302915
          }
        }
      },
      "icon": "https://maps.gstatic.com/mapfiles/place_api/icons/v1/png_71/generic_business-71.png",
      "icon_background_color": "#7B9EB0",
      "icon_mask_base_uri": "https://maps.gstatic.com/mapfiles/place_api/icons/v2/generic_pinlet",
      "name": "The UPS Store",
      "opening_hours": {
        "open_now": true
      },
      "photos": [
        {
          "height": 3072,
          "html_attributions": [
            "<a href=\"https://maps.google.com/maps/contrib/103237729589375373179\">Sebastian Sinisterra</a>"
          ],
          "photo_reference": "AeJbb3fnfL6NHyW-MChi2yYBJFkrdkEKhqGyw54n7ZdxnjuF8W0wqD6ASxKPZT9shqmlibsJ6rVYmy2xiPL8KxCsNQ7d1PJqE4KSOK1hrbnltsJxwkdVqBUEv1t11ZHIsoMsrMHfq1kPde-t7dWhsqTtht16xOji9IfszZqrRNeh3RMIX-FD",
          "width": 4096
        }
      ],
      "place_id": "ChIJnao2MRD2wokRO0uCBYPYpqU",
      "plus_code": {
        "compound_code": "R322+PF New York, NY, USA",
        "global_code": "87G8R322+PF"
      },
      "rating": 2.7,
      "reference": "ChIJnao2MRD2wokRO0uCBYPYpqU",
      "scope": "GOOGLE",
      "types": [
        "finance",
        "store",
        "point_of_interest",
        "establishment"
      ],
      "user_ratings_total": 124,
      "vicinity": "55 West 116th Street, New York"
    },
    {
      "business_status": "OPERATIONAL",
      "geometry": {
        "location": {
          "lat": 40.8045382,
          "lng": -73.94989
        },
        "viewport": {
          "northeast": {
            "lat": 40.8059242302915,
            "lng": -73.94849931970849
          },
          "southwest": {
            "lat": 40.8032262697085,
            "lng": -73.9511972802915
          }
        }
      },
      "icon": "https://maps.gstatic.com/mapfiles/place_api/icons/v1/png_71/lodging-71.png",
      "icon_background_color": "#909CE1",
      "icon_mask_base_uri": "https://maps.gstatic.com/mapfiles/place_api/icons/v2/hotel_pinlet",
      "name": "New York Gisele's Guest House",
      "place_id": "ChIJ5eYAhhH2wokRYAtzbqYJ6Cs",
      "plus_code": {
        "compound_code": "R332+R2 New York, NY, USA",
        "global_code": "87G8R332+R2"
      },
      "rating": 4.8,
      "reference": "ChIJ5eYAhhH2wokRYAtzbqYJ6Cs",
      "scope": "GOOGLE",
      "types": [
        "lodging",
        "point_of_interest",
        "establishment"
      ],
      "user_ratings_total": 5,
      "vicinity": "134 West 119th Street, New York"
    },
    {
      "business_status": "OPERATIONAL",
      "geometry": {
        "location": {
          "lat": 40.80250880000001,
          "lng": -73.9432978
        },
        "viewport": {
          "northeast": {
            "lat": 40.8040041802915,
            "lng": -73.9421803697085
          },
          "southwest": {
            "lat": 40.80130621970851,
            "lng": -73.9448783302915
          }
        }
      },
      "icon": "https://maps.gstatic.com/mapfiles/place_api/icons/v1/png_71/worship_general-71.png",
      "icon_background_color": "#7B9EB0",
      "icon_mask_base_uri": "https://maps.gstatic.com/mapfiles/place_api/icons/v2/worship_christian_pinlet",
      "name": "Bethel Gospel Assembly",
      "photos": [
        {
          "height": 4624,
          "html_attributions": [
            "<a href=\"https://maps.google.com/maps/contrib/106476288240550188473\">Victor Olaore Omoshehin</a>"
          ],
          "photo_reference": "AeJbb3f7P7upqhlH5ytGwB7-xKtSQ6UvWAQzZc04UZGxX1S-5uiNKhFGKc_v5W2G-MJeKFg8_akCOEJaJEkjP6KDFFCXj9qHbZ3nf4Uujl_k3Vk0HpG74FUexkqFq3qnmj39ihI7kWFFpWji1d0jRH_l-fcc-KlJmsq118m4c4hQ_FWNq5rJ",
          "width": 3468
        }
      ],
      "place_id": "ChIJ9VO3vw72wokRh1NpIfnaog4",
      "plus_code": {
        "compound_code": "R334+2M New York, NY, USA",
        "global_code": "87G8R334+2M"
      },
      "rating": 4.5,
      "reference": "ChIJ9VO3vw72wokRh1NpIfnaog4",
      "scope": "GOOGLE",
      "types": [
        "church",
        "tourist_attraction",
        "place_of_worship",
        "point_of_interest",
        "establishment"
      ],
      "user_ratings_total": 822,
      "vicinity": "2-26 East 120th Street, New York"
    },
    {
      "business_status": "OPERATIONAL",
      "geometry": {
        "location": {
          "lat": 40.8073413,
          "lng": -73.9455038
        },
        "viewport": {
          "northeast": {
            "lat": 40.8087234302915,
            "lng": -73.94422521970849
          },
          "southwest": {
            "lat": 40.8060254697085,
            "lng": -73.9469231802915
          }
        }
      },
      "icon": "https://maps.gstatic.com/mapfiles/place_api/icons/v1/png_71/generic_business-71.png",
      "icon_background_color": "#7B9EB0",
      "icon_mask_base_uri": "https://maps.gstatic.com/mapfiles/place_api/icons/v2/generic_pinlet",
      "name": "Prevention Program Testing Services",
      "place_id": "ChIJd5F7Gg32wokRb9Bka0U2Ap0",
      "plus_code": {
        "compound_code": "R343+WQ New York, NY, USA",
        "global_code": "87G8R343+WQ"
      },
      "reference": "ChIJd5F7Gg32wokRb9Bka0U2Ap0",
      "scope": "GOOGLE",
      "types": [
        "point_of_interest",
        "establishment"
      ],
      "vicinity": "290 Malcolm X Boulevard, New York"
    },
    {
      "business_status": "OPERATIONAL",
      "geometry": {
        "location": {
          "lat": 40.8021363,
          "lng": -73.9429713
        },
        "viewport": {
          "northeast": {
            "lat": 40.80353298029149,
            "lng": -73.94174151970849
          },
          "southwest": {
            "lat": 40.8008350197085,
            "lng": -73.94443948029149
          }
        }
      },
      "icon": "https://maps.gstatic.com/mapfiles/place_api/icons/v1/png_71/generic_business-71.png",
      "icon_background_color": "#7B9EB0",
      "icon_mask_base_uri": "https://maps.gstatic.com/mapfiles/place_api/icons/v2/generic_pinlet",
      "name": "Madison Park Apartments",
      "place_id": "ChIJvbbYww72wokR8XYyLbvzk2E",
      "plus_code": {
        "compound_code": "R324+VR New York, NY, USA",
        "global_code": "87G8R324+VR"
      },
      "rating": 3.5,
      "reference": "ChIJvbbYww72wokR8XYyLbvzk2E",
      "scope": "GOOGLE",
      "types": [
        "point_of_interest",
        "establishment"
      ],
      "user_ratings_total": 2,
      "vicinity": "1831 Madison Avenue, New York"
    },
    {
      "business_status": "OPERATIONAL",
      "geometry": {
        "location": {
          "lat": 40.8078233,
          "lng": -73.9450956
        },
        "viewport": {
          "northeast": {
            "lat": 40.80909183029151,
            "lng": -73.94379736970849
          },
          "southwest": {
            "lat": 40.80639386970851,
            "lng": -73.94649533029151
          }
        }
      },
      "icon": "https://maps.gstatic.com/mapfiles/place_api/icons/v1/png_71/cafe-71.png",
      "icon_background_color": "#FF9E67",
      "icon_mask_base_uri": "https://maps.gstatic.com/mapfiles/place_api/icons/v2/cafe_pinlet",
      "name": "Starbucks",
      "opening_hours": {
        "open_now": true
      },
      "photos": [
        {
          "height": 1080,
          "html_attributions": [
            "<a href=\"https://maps.google.com/maps/contrib/114850973614904013252\">Max M\u00fcller</a>"
          ],
          "photo_reference": "AeJbb3eyDIyayK-W-nfX-Nxp89mn1QQuFIAarulUDOV9O7ETwQ6YamwunK26JXfTydMCIyVPRq811vGpnx3REkbte4Joqj2utqZVsj6a-QU3I4x_cwM4pNuq40V_-8Mv6la6hKXTEXUU9RtgHNpyeFcAU3WkPQcilaIylT2qMbnFh_JRE2fa",
          "width": 1920
        }
      ],
      "place_id": "ChIJfxyTIQ32wokRxjovn0UE72M",
      "plus_code": {
        "compound_code": "R353+4X New York, NY, USA",
        "global_code": "87G8R353+4X"
      },
      "price_level": 2,
      "rating": 3.8,
      "reference": "ChIJfxyTIQ32wokRxjovn0UE72M",
      "scope": "GOOGLE",
      "types": [
        "cafe",
        "restaurant",
        "food",
        "store",
        "point_of_interest",
        "establishment"
      ],
      "user_ratings_total": 546,
      "vicinity": "83 West 125th Street, New York"
    },
    {
      "business_status": "CLOSED_TEMPORARILY",
      "geometry": {
        "location": {
          "lat": 40.8068725,
          "lng": -73.9440396
        },
        "viewport": {
          "northeast": {
            "lat": 40.8083368302915,
            "lng": -73.94260561970849
          },
          "southwest": {
            "lat": 40.8056388697085,
            "lng": -73.9453035802915
          }
        }
      },
      "icon": "https://maps.gstatic.com/mapfiles/place_api/icons/v1/png_71/generic_business-71.png",
      "icon_background_color": "#7B9EB0",
      "icon_mask_base_uri": "https://maps.gstatic.com/mapfiles/place_api/icons/v2/generic_pinlet",
      "name": "Black Shoppers Union Inc",
      "permanently_closed": true,
      "place_id": "ChIJ0Td28Az2wokRLSDU3dpFmSc",
      "plus_code": {
        "compound_code": "R344+P9 New York, NY, USA",
        "global_code": "87G8R344+P9"
      },
      "reference": "ChIJ0Td28Az2wokRLSDU3dpFmSc",
      "scope": "GOOGLE",
      "types": [
        "finance",
        "point_of_interest",
        "establishment"
      ],
      "vicinity": "44 West 125th Street #4, New York"
    },
    {
      "business_status": "OPERATIONAL",
      "geometry": {
        "location": {
          "lat": 40.80187119999999,
          "lng": -73.948645
        },
        "viewport": {
          "northeast": {
            "lat": 40.80311463029149,
            "lng": -73.9473738197085
          },
          "southwest": {
            "lat": 40.8004166697085,
            "lng": -73.95007178029152
          }
        }
      },
      "icon": "https://maps.gstatic.com/mapfiles/place_api/icons/v1/png_71/restaurant-71.png",
      "icon_background_color": "#FF9E67",
      "icon_mask_base_uri": "https://maps.gstatic.com/mapfiles/place_api/icons/v2/restaurant_pinlet",
      "name": "Popeyes Louisiana Kitchen",
      "opening_hours": {
        "open_now": true
      },
      "photos": [
        {
          "height": 1192,
          "html_attributions": [
            "<a href=\"https://maps.google.com/maps/contrib/107109315799896802865\">Popeyes Louisiana Kitchen</a>"
          ],
          "photo_reference": "AeJbb3c6aM2gk0VGOdiU52Uo_qAN1oADzphooM771TCRsLSn2Pyz5AnMMuX057jNp4WhlRyAT7X8wTI7sgZcHSHepGQw6_SoGMRlUZkrSkskIyoxUojp91uBJnM1pxQutWkthDeBam6NaI1F4KC4-CW9_5Epr_9ZIT7EQ9E2RruicmVd-kSd",
          "width": 2119
        }
      ],
      "place_id": "ChIJP8XRMxD2wokRcp8sQG8bvNo",
      "plus_code": {
        "compound_code": "R322+PG New York, NY, USA",
        "global_code": "87G8R322+PG"
      },
      "price_level": 1,
      "rating": 3.6,
      "reference": "ChIJP8XRMxD2wokRcp8sQG8bvNo",
      "scope": "GOOGLE",
      "types": [
        "restaurant",
        "food",
        "point_of_interest",
        "establishment"
      ],
      "user_ratings_total": 570,
      "vicinity": "53 West 116th Street, New York"
    },
    {
      "business_status": "OPERATIONAL",
      "geometry": {
        "location": {
          "lat": 40.8074323,
          "lng": -73.94415359999999
        },
        "viewport": {
          "northeast": {
            "lat": 40.8087013802915,
            "lng": -73.94286336970849
          },
          "southwest": {
            "lat": 40.8060034197085,
            "lng": -73.94556133029151
          }
        }
      },
      "icon": "https://maps.gstatic.com/mapfiles/place_api/icons/v1/png_71/generic_business-71.png",
      "icon_background_color": "#7B9EB0",
      "icon_mask_base_uri": "https://maps.gstatic.com/mapfiles/place_api/icons/v2/generic_pinlet",
      "name": "Cogswell Realty Group",
      "place_id": "ChIJ527d5wz2wokRgI5t1naD5Is",
      "plus_code": {
        "compound_code": "R344+X8 New York, NY, USA",
        "global_code": "87G8R344+X8"
      },
      "rating": 3,
      "reference": "ChIJ527d5wz2wokRgI5t1naD5Is",
      "scope": "GOOGLE",
      "types": [
        "real_estate_agency",
        "point_of_interest",
        "establishment"
      ],
      "user_ratings_total": 2,
      "vicinity": "55 West 125th Street #1300, New York"
    },
    {
      "business_status": "OPERATIONAL",
      "geometry": {
        "location": {
          "lat": 40.8029506,
          "lng": -73.9444346
        },
        "viewport": {
          "northeast": {
            "lat": 40.8044117802915,
            "lng": -73.94313056970849
          },
          "southwest": {
            "lat": 40.8017138197085,
            "lng": -73.94582853029151
          }
        }
      },
      "icon": "https://maps.gstatic.com/mapfiles/place_api/icons/v1/png_71/generic_business-71.png",
      "icon_background_color": "#7B9EB0",
      "icon_mask_base_uri": "https://maps.gstatic.com/mapfiles/place_api/icons/v2/generic_pinlet",
      "name": "Property Roster LLC",
      "place_id": "ChIJA5TWYQ72wokRMzsev8IOF5w",
      "plus_code": {
        "compound_code": "R334+56 New York, NY, USA",
        "global_code": "87G8R334+56"
      },
      "rating": 5,
      "reference": "ChIJA5TWYQ72wokRMzsev8IOF5w",
      "scope": "GOOGLE",
      "types": [
        "point_of_interest",
        "establishment"
      ],
      "user_ratings_total": 1,
      "vicinity": "1485 5th Avenue, New York"
    },
    {
      "business_status": "OPERATIONAL",
      "geometry": {
        "location": {
          "lat": 40.8031323,
          "lng": -73.94855749999999
        },
        "viewport": {
          "northeast": {
            "lat": 40.8045313302915,
            "lng": -73.94717156970849
          },
          "southwest": {
            "lat": 40.8018333697085,
            "lng": -73.9498695302915
          }
        }
      },
      "icon": "https://maps.gstatic.com/mapfiles/place_api/icons/v1/png_71/school-71.png",
      "icon_background_color": "#7B9EB0",
      "icon_mask_base_uri": "https://maps.gstatic.com/mapfiles/place_api/icons/v2/school_pinlet",
      "name": "Success Academy Harlem 1",
      "opening_hours": {
        "open_now": false
      },
      "photos": [
        {
          "height": 2667,
          "html_attributions": [
            "<a href=\"https://maps.google.com/maps/contrib/116984916077660071999\">Success Academy Harlem 1</a>"
          ],
          "photo_reference": "AeJbb3flLzlnEYF-ARI_SxF_K8JFTN583UvBuZO84F7d7BjYMonUxnev_rVKflRz99dtMd0jLIKFn1ae6N9wtnhpuMAuzJ-mMr1JTWi5DeUP56qUDh4zQ2DVEEZyF39PWp5empNVR0ryKUDes4_GTje0zITksu8hBOchGcSSPaGKB8pA0yDZ",
          "width": 4000
        }
      ],
      "place_id": "ChIJr3mbMA72wokR0LFnz9Gew9g",
      "plus_code": {
        "compound_code": "R332+7H New York, NY, USA",
        "global_code": "87G8R332+7H"
      },
      "rating": 3.3,
      "reference": "ChIJr3mbMA72wokR0LFnz9Gew9g",
      "scope": "GOOGLE",
      "types": [
        "primary_school",
        "school",
        "point_of_interest",
        "establishment"
      ],
      "user_ratings_total": 18,
      "vicinity": "34 West 118th Street, New York"
    },
    {
      "business_status": "OPERATIONAL",
      "geometry": {
        "location": {
          "lat": 40.8032081,
          "lng": -73.9418144
        },
        "viewport": {
          "northeast": {
            "lat": 40.8044302802915,
            "lng": -73.94055866970848
          },
          "southwest": {
            "lat": 40.8017323197085,
            "lng": -73.9432566302915
          }
        }
      },
      "icon": "https://maps.gstatic.com/mapfiles/place_api/icons/v1/png_71/generic_business-71.png",
      "icon_background_color": "#7B9EB0",
      "icon_mask_base_uri": "https://maps.gstatic.com/mapfiles/place_api/icons/v2/generic_pinlet",
      "name": "Dr. Joshua P. Issack, MD",
      "place_id": "ChIJe19pQRD2wokRcsrGW_XzwOA",
      "plus_code": {
        "compound_code": "R335+77 New York, NY, USA",
        "global_code": "87G8R335+77"
      },
      "reference": "ChIJe19pQRD2wokRcsrGW_XzwOA",
      "scope": "GOOGLE",
      "types": [
        "doctor",
        "health",
        "point_of_interest",
        "establishment"
      ],
      "vicinity": "1752 Park Avenue, New York"
    },
    {
      "business_status": "OPERATIONAL",
      "geometry": {
        "location": {
          "lat": 40.8083906,
          "lng": -73.9453802
        },
        "viewport": {
          "northeast": {
            "lat": 40.8096971302915,
            "lng": -73.94394481970849
          },
          "southwest": {
            "lat": 40.8069991697085,
            "lng": -73.94664278029151
          }
        }
      },
      "icon": "https://maps.gstatic.com/mapfiles/place_api/icons/v1/png_71/civic_building-71.png",
      "icon_background_color": "#7B9EB0",
      "icon_mask_base_uri": "https://maps.gstatic.com/mapfiles/place_api/icons/v2/civic-bldg_pinlet",
      "name": "Neighborhood Defender Service of Harlem",
      "opening_hours": {
        "open_now": false
      },
      "place_id": "ChIJy_c8Lw32wokRcvG1dN63mj8",
      "plus_code": {
        "compound_code": "R353+9R New York, NY, USA",
        "global_code": "87G8R353+9R"
      },
      "rating": 3.2,
      "reference": "ChIJy_c8Lw32wokRcvG1dN63mj8",
      "scope": "GOOGLE",
      "types": [
        "local_government_office",
        "point_of_interest",
        "establishment"
      ],
      "user_ratings_total": 26,
      "vicinity": "Parking lot, 317 Lenox Avenue, New York"
    },
    {
      "business_status": "CLOSED_TEMPORARILY",
      "geometry": {
        "location": {
          "lat": 40.807961,
          "lng": -73.94491699999999
        },
        "viewport": {
          "northeast": {
            "lat": 40.8093671802915,
            "lng": -73.9437048197085
          },
          "southwest": {
            "lat": 40.8066692197085,
            "lng": -73.9464027802915
          }
        }
      },
      "icon": "https://maps.gstatic.com/mapfiles/place_api/icons/v1/png_71/generic_business-71.png",
      "icon_background_color": "#7B9EB0",
      "icon_mask_base_uri": "https://maps.gstatic.com/mapfiles/place_api/icons/v2/generic_pinlet",
      "name": "Bill Lynch Associates LLC",
      "permanently_closed": true,
      "place_id": "ChIJ7bdRFXv2wokRY64KuQU6fHI",
      "plus_code": {
        "compound_code": "R354+52 New York, NY, USA",
        "global_code": "87G8R354+52"
      },
      "reference": "ChIJ7bdRFXv2wokRY64KuQU6fHI",
      "scope": "GOOGLE",
      "types": [
        "lawyer",
        "point_of_interest",
        "establishment"
      ],
      "vicinity": "New York"
    },
    {
      "business_status": "OPERATIONAL",
      "geometry": {
        "location": {
          "lat": 40.8076493,
          "lng": -73.94444969999999
        },
        "viewport": {
          "northeast": {
            "lat": 40.8088831302915,
            "lng": -73.9431853697085
          },
          "southwest": {
            "lat": 40.8061851697085,
            "lng": -73.94588333029151
          }
        }
      },
      "icon": "https://maps.gstatic.com/mapfiles/place_api/icons/v1/png_71/school-71.png",
      "icon_background_color": "#7B9EB0",
      "icon_mask_base_uri": "https://maps.gstatic.com/mapfiles/place_api/icons/v2/school_pinlet",
      "name": "Acelero Learning Center",
      "place_id": "ChIJ31kB3gz2wokRelVwAro5WsA",
      "plus_code": {
        "compound_code": "R354+36 New York, NY, USA",
        "global_code": "87G8R354+36"
      },
      "reference": "ChIJ31kB3gz2wokRelVwAro5WsA",
      "scope": "GOOGLE",
      "types": [
        "point_of_interest",
        "establishment"
      ],
      "vicinity": "63 West 125th Street, New York"
    },
    {
      "business_status": "OPERATIONAL",
      "geometry": {
        "location": {
          "lat": 40.80824150000001,
          "lng": -73.9477287
        },
        "viewport": {
          "northeast": {
            "lat": 40.80977283029151,
            "lng": -73.94624736970849
          },
          "southwest": {
            "lat": 40.80707486970851,
            "lng": -73.94894533029151
          }
        }
      },
      "icon": "https://maps.gstatic.com/mapfiles/place_api/icons/v1/png_71/generic_business-71.png",
      "icon_background_color": "#7B9EB0",
      "icon_mask_base_uri": "https://maps.gstatic.com/mapfiles/place_api/icons/v2/generic_pinlet",
      "name": "National Association-Advancement-Colored",
      "place_id": "ChIJ_ShwXw32wokRXKrgXn9Of88",
      "plus_code": {
        "compound_code": "R352+7W New York, NY, USA",
        "global_code": "87G8R352+7W"
      },
      "rating": 3,
      "reference": "ChIJ_ShwXw32wokRXKrgXn9Of88",
      "scope": "GOOGLE",
      "types": [
        "point_of_interest",
        "establishment"
      ],
      "user_ratings_total": 1,
      "vicinity": "144 West 125th Street M, New York"
    },
    {
      "business_status": "OPERATIONAL",
      "geometry": {
        "location": {
          "lat": 40.80416609999999,
          "lng": -73.9513891
        },
        "viewport": {
          "northeast": {
            "lat": 40.80556908029149,
            "lng": -73.9501702197085
          },
          "southwest": {
            "lat": 40.80287111970849,
            "lng": -73.9528681802915
          }
        }
      },
      "icon": "https://maps.gstatic.com/mapfiles/place_api/icons/v1/png_71/shopping-71.png",
      "icon_background_color": "#4B96F3",
      "icon_mask_base_uri": "https://maps.gstatic.com/mapfiles/place_api/icons/v2/shopping_pinlet",
      "name": "enduranceWERX",
      "opening_hours": {
        "open_now": true
      },
      "photos": [
        {
          "height": 4624,
          "html_attributions": [
            "<a href=\"https://maps.google.com/maps/contrib/110357823088343643840\">Dhary Ceballos</a>"
          ],
          "photo_reference": "AeJbb3cMNSxB-fm2htRXIyvji-KNb1YvWPvnOqhlHY3koQC7GoKNKy0sYLk0DrkZ3VPBOZDOWXfFKlAZgN_5LqSiloGkqRXwJkbtdtvgTdbid-A9zzoxw3_8twZrsvTStz3CIRbEnG-yajUp4Gt38lIDqXPziVcl9f62qZuhGumJ7egnpHb-",
          "width": 3472
        }
      ],
      "place_id": "ChIJoYw7c61ZwokR-G05N_6frHE",
      "plus_code": {
        "compound_code": "R23X+MC New York, NY, USA",
        "global_code": "87G8R23X+MC"
      },
      "rating": 5,
      "reference": "ChIJoYw7c61ZwokR-G05N_6frHE",
      "scope": "GOOGLE",
      "types": [
        "bicycle_store",
        "store",
        "point_of_interest",
        "establishment"
      ],
      "user_ratings_total": 81,
      "vicinity": "1949 Adam Clayton Powell Junior Boulevard, BSMNT South"
    },
    {
      "business_status": "OPERATIONAL",
      "geometry": {
        "location": {
          "lat": 40.8073576,
          "lng": -73.94394009999999
        },
        "viewport": {
          "northeast": {
            "lat": 40.80863033029149,
            "lng": -73.94267666970849
          },
          "southwest": {
            "lat": 40.80593236970849,
            "lng": -73.9453746302915
          }
        }
      },
      "icon": "https://maps.gstatic.com/mapfiles/place_api/icons/v1/png_71/shopping-71.png",
      "icon_background_color": "#4B96F3",
      "icon_mask_base_uri": "https://maps.gstatic.com/mapfiles/place_api/icons/v2/shopping_pinlet",
      "name": "T-Mobile",
      "opening_hours": {
        "open_now": true
      },
      "photos": [
        {
          "height": 4032,
          "html_attributions": [
            "<a href=\"https://maps.google.com/maps/contrib/116810590011564193995\">Rohan Wilson</a>"
          ],
          "photo_reference": "AeJbb3eRHMdEeRTieBt3bNa_a0Ga0MAp4HNJF0y7MT3SY-O2c3wKt7KFQyCRWEn3sep0PuUfiJos6ZMWYmFJlDLiKepDni5Q4ckR57dSni6mCJ-NuiQO2GE3bhE9W8rVCSSc6e7DuF5-mApUL0fxhJc8bifwBopwbLQlUvL6kIr4wdFr0bPP",
          "width": 3024
        }
      ],
      "place_id": "ChIJIQMm5Az2wokR6nWLJ0kVaCc",
      "plus_code": {
        "compound_code": "R344+WC New York, NY, USA",
        "global_code": "87G8R344+WC"
      },
      "price_level": 2,
      "rating": 4,
      "reference": "ChIJIQMm5Az2wokR6nWLJ0kVaCc",
      "scope": "GOOGLE",
      "types": [
        "store",
        "point_of_interest",
        "establishment"
      ],
      "user_ratings_total": 94,
      "vicinity": "55 West 125th Street, New York"
    },
    {
      "business_status": "OPERATIONAL",
      "geometry": {
        "location": {
          "lat": 40.8032081,
          "lng": -73.9418144
        },
        "viewport": {
          "northeast": {
            "lat": 40.8044302802915,
            "lng": -73.94055866970848
          },
          "southwest": {
            "lat": 40.8017323197085,
            "lng": -73.9432566302915
          }
        }
      },
      "icon": "https://maps.gstatic.com/mapfiles/place_api/icons/v1/png_71/generic_business-71.png",
      "icon_background_color": "#7B9EB0",
      "icon_mask_base_uri": "https://maps.gstatic.com/mapfiles/place_api/icons/v2/generic_pinlet",
      "name": "Dr. Ofelia Martinez, MD",
      "place_id": "ChIJXzEnAQz2wokRX2IcLJ28rYE",
      "plus_code": {
        "compound_code": "R335+77 New York, NY, USA",
        "global_code": "87G8R335+77"
      },
      "reference": "ChIJXzEnAQz2wokRX2IcLJ28rYE",
      "scope": "GOOGLE",
      "types": [
        "doctor",
        "health",
        "point_of_interest",
        "establishment"
      ],
      "vicinity": "1752 Park Avenue, New York"
    },
    {
      "business_status": "OPERATIONAL",
      "geometry": {
        "location": {
          "lat": 40.80253739999999,
          "lng": -73.9478109
        },
        "viewport": {
          "northeast": {
            "lat": 40.80372913029149,
            "lng": -73.94657816970849
          },
          "southwest": {
            "lat": 40.80103116970849,
            "lng": -73.94927613029151
          }
        }
      },
      "icon": "https://maps.gstatic.com/mapfiles/place_api/icons/v1/png_71/school-71.png",
      "icon_background_color": "#7B9EB0",
      "icon_mask_base_uri": "https://maps.gstatic.com/mapfiles/place_api/icons/v2/school_pinlet",
      "name": "Public School 149",
      "opening_hours": {
        "open_now": false
      },
      "photos": [
        {
          "height": 3000,
          "html_attributions": [
            "<a href=\"https://maps.google.com/maps/contrib/118175815795002911535\">\u041b\u044e\u0434\u043c\u0438\u043b\u0430 \u0420\u0430\u0434\u0438\u043a</a>"
          ],
          "photo_reference": "AeJbb3dhEskWB2tHqNdhwcpNodwrh1vCccl8hSCwwtS6Ea1XyDusNsDNdowIXV_vw21OcI89IMaO1dxHbyFyTyNlHAvr2GjnQNWHIpHvgdsOIMX9P-1GBPi2wMMEbS8ulEeJH6RUppRiYafBiN2R5FClt_EZzqBoTYKwzq4LqUDwyw9gHQtR",
          "width": 4000
        }
      ],
      "place_id": "ChIJI_A0zhH2wokR_fTzlhkXRk8",
      "plus_code": {
        "compound_code": "R332+2V New York, NY, USA",
        "global_code": "87G8R332+2V"
      },
      "rating": 4.1,
      "reference": "ChIJI_A0zhH2wokR_fTzlhkXRk8",
      "scope": "GOOGLE",
      "types": [
        "school",
        "point_of_interest",
        "establishment"
      ],
      "user_ratings_total": 20,
      "vicinity": "41 West 117th Street, New York"
    },
    {
      "business_status": "OPERATIONAL",
      "geometry": {
        "location": {
          "lat": 40.808203,
          "lng": -73.94603099999999
        },
        "viewport": {
          "northeast": {
            "lat": 40.8094842302915,
            "lng": -73.94474321970849
          },
          "southwest": {
            "lat": 40.8067862697085,
            "lng": -73.9474411802915
          }
        }
      },
      "icon": "https://maps.gstatic.com/mapfiles/place_api/icons/v1/png_71/shopping-71.png",
      "icon_background_color": "#4B96F3",
      "icon_mask_base_uri": "https://maps.gstatic.com/mapfiles/place_api/icons/v2/shopping_pinlet",
      "name": "Staples",
      "opening_hours": {
        "open_now": true
      },
      "photos": [
        {
          "height": 5312,
          "html_attributions": [
            "<a href=\"https://maps.google.com/maps/contrib/100154803005127422110\">ALLEN C. Dawson</a>"
          ],
          "photo_reference": "AeJbb3di2pv-eW-XKxptO0IN9HH83uyJR40SqWcDxr-0Y4_MdfWXL-6EFiTK_LyYHQCxXyxWNciDvnQ6LYY2ctnb7BRBc4wowZj8Cbykv49HE36cAsyasHSK3EvWLxPOy4RSJPEyv5jTUHCflR3TrhpvUS794zVsSo_37DoduW5U4pWVaM46",
          "width": 2988
        }
      ],
      "place_id": "ChIJ3S5wPQ32wokRJ0-Udr4Z9OU",
      "plus_code": {
        "compound_code": "R353+7H Harlem, New York, NY, USA",
        "global_code": "87G8R353+7H"
      },
      "price_level": 2,
      "rating": 3.9,
      "reference": "ChIJ3S5wPQ32wokRJ0-Udr4Z9OU",
      "scope": "GOOGLE",
      "types": [
        "electronics_store",
        "furniture_store",
        "home_goods_store",
        "store",
        "point_of_interest",
        "establishment"
      ],
      "user_ratings_total": 224,
      "vicinity": "105 West 125th Street, Harlem"
    },
    {
      "business_status": "OPERATIONAL",
      "geometry": {
        "location": {
          "lat": 40.80679019999999,
          "lng": -73.94696019999999
        },
        "viewport": {
          "northeast": {
            "lat": 40.80805908029149,
            "lng": -73.94534271970849
          },
          "southwest": {
            "lat": 40.80536111970849,
            "lng": -73.9480406802915
          }
        }
      },
      "icon": "https://maps.gstatic.com/mapfiles/place_api/icons/v1/png_71/worship_general-71.png",
      "icon_background_color": "#7B9EB0",
      "icon_mask_base_uri": "https://maps.gstatic.com/mapfiles/place_api/icons/v2/worship_christian_pinlet",
      "name": "New York Ephesus Seventh-day Adventist Church",
      "opening_hours": {
        "open_now": true
      },
      "photos": [
        {
          "height": 2992,
          "html_attributions": [
            "<a href=\"https://maps.google.com/maps/contrib/109986108464089091776\">Antonio Penedo Arag\u00f3n</a>"
          ],
          "photo_reference": "AeJbb3cVR_ebIJMH9EGIacd47bTtA43OLVY3jTHmetIQiyFIHvTMIG4qzH2gANpSvayF6-e-23UX_N2Kr26Dg8Y3t-c_XoxC1uJKCWmbfg10hahht4tUSrOgepVlKvLc5I2xJ05Uzx0bvWcZAdomKW1owRkblDPdtrqJusxNy1_Svbd11smg",
          "width": 2992
        }
      ],
      "place_id": "ChIJxxgknQ32wokRIN8Dyt0vSwg",
      "plus_code": {
        "compound_code": "R343+P6 New York, NY, USA",
        "global_code": "87G8R343+P6"
      },
      "rating": 4.6,
      "reference": "ChIJxxgknQ32wokRIN8Dyt0vSwg",
      "scope": "GOOGLE",
      "types": [
        "church",
        "place_of_worship",
        "point_of_interest",
        "establishment"
      ],
      "user_ratings_total": 89,
      "vicinity": "101 West 123rd Street, New York"
    },
    {
      "business_status": "OPERATIONAL",
      "geometry": {
        "location": {
          "lat": 40.802645,
          "lng": -73.9481517
        },
        "viewport": {
          "northeast": {
            "lat": 40.8041642802915,
            "lng": -73.94667696970849
          },
          "southwest": {
            "lat": 40.8014663197085,
            "lng": -73.94937493029151
          }
        }
      },
      "icon": "https://maps.gstatic.com/mapfiles/place_api/icons/v1/png_71/school-71.png",
      "icon_background_color": "#7B9EB0",
      "icon_mask_base_uri": "https://maps.gstatic.com/mapfiles/place_api/icons/v2/school_pinlet",
      "name": "Special Educ School 811M At P149",
      "place_id": "ChIJr3mbMA72wokRhSNXMgmo4rQ",
      "plus_code": {
        "compound_code": "R332+3P New York, NY, USA",
        "global_code": "87G8R332+3P"
      },
      "reference": "ChIJr3mbMA72wokRhSNXMgmo4rQ",
      "scope": "GOOGLE",
      "types": [
        "school",
        "point_of_interest",
        "establishment"
      ],
      "vicinity": "34 West 118th Street #101, New York"
    },
    {
      "business_status": "OPERATIONAL",
      "geometry": {
        "location": {
          "lat": 40.80594929999999,
          "lng": -73.94069069999999
        },
        "viewport": {
          "northeast": {
            "lat": 40.80726648029149,
            "lng": -73.93927201970848
          },
          "southwest": {
            "lat": 40.80456851970849,
            "lng": -73.9419699802915
          }
        }
      },
      "icon": "https://maps.gstatic.com/mapfiles/place_api/icons/v1/png_71/hospital-71.png",
      "icon_background_color": "#F88181",
      "icon_mask_base_uri": "https://maps.gstatic.com/mapfiles/place_api/icons/v2/hospital-H_pinlet",
      "name": "Harlem Children's Health Project",
      "photos": [
        {
          "height": 1433,
          "html_attributions": [
            "<a href=\"https://maps.google.com/maps/contrib/110658478852736436179\">Harlem Children&#39;s Health Project</a>"
          ],
          "photo_reference": "AeJbb3d6nBqm5Rs3F_Okc1oT7RkJ5klAgb3Yx_baOdm3TuPbJF93Xl80P3PdK_ARD-WRjqAxdNRrdDgcUOCGzvO9XJbnKnMA1kpahvDd2TjgXxNevMJOc8JhrDEru8_R3rcG8yTYt2FWtHI45wjmhvJAowbFU6jSXYF5r-LkkCz9x7aAGn1q",
          "width": 2048
        }
      ],
      "place_id": "ChIJUynRdQv2wokRBGS_5Padc68",
      "plus_code": {
        "compound_code": "R345+9P New York, NY, USA",
        "global_code": "87G8R345+9P"
      },
      "reference": "ChIJUynRdQv2wokRBGS_5Padc68",
      "scope": "GOOGLE",
      "types": [
        "hospital",
        "school",
        "health",
        "point_of_interest",
        "establishment"
      ],
      "vicinity": "35 East 125th Street, New York"
    },
    {
      "business_status": "OPERATIONAL",
      "geometry": {
        "location": {
          "lat": 40.8071771,
          "lng": -73.9434813
        },
        "viewport": {
          "northeast": {
            "lat": 40.8084352302915,
            "lng": -73.9422000697085
          },
          "southwest": {
            "lat": 40.8057372697085,
            "lng": -73.94489803029151
          }
        }
      },
      "icon": "https://maps.gstatic.com/mapfiles/place_api/icons/v1/png_71/shopping-71.png",
      "icon_background_color": "#4B96F3",
      "icon_mask_base_uri": "https://maps.gstatic.com/mapfiles/place_api/icons/v2/shopping_pinlet",
      "name": "Mushtari Hardware & Garden",
      "opening_hours": {
        "open_now": true
      },
      "photos": [
        {
          "height": 4032,
          "html_attributions": [
            "<a href=\"https://maps.google.com/maps/contrib/112219332463761829861\">Mushtari Hardware &amp; Garden</a>"
          ],
          "photo_reference": "AeJbb3dDBva4NG64nOXqktLcJcytZf_e-vXHAxfKeDWm23PHOVnWqXV3iV28YLUSiOF099dqVLxbF72vpo7TT4y8vynMLI4WOYHWb0j7upM_7In59jc6raeLu-aXh3mpot8EQ5qM2kE3vNnvwwSF1l5OeLgdNhYqm1E2s5x4g3yvuo7nJX_0",
          "width": 3024
        }
      ],
      "place_id": "ChIJIX9q7Az2wokRulgv0a8Kh_4",
      "plus_code": {
        "compound_code": "R344+VJ New York, NY, USA",
        "global_code": "87G8R344+VJ"
      },
      "rating": 4.4,
      "reference": "ChIJIX9q7Az2wokRulgv0a8Kh_4",
      "scope": "GOOGLE",
      "types": [
        "hardware_store",
        "home_goods_store",
        "store",
        "point_of_interest",
        "establishment"
      ],
      "user_ratings_total": 120,
      "vicinity": "31 West 125th Street, New York"
    }
  ],
  "status": "OK"
}