{
  "html_attributions": [],
  "results": [
    {
      "geometry": {
        "location": {
          "lat": 40.7127753,
          "lng": -74.0059728
        },
        "viewport": {
          "northeast": {
            "lat": 40.91757705070789,
            "lng": -73.70027206817629
          },
          "southwest": {
            "lat": 40.47739906045452,
            "lng": -74.25908991427882
          }
        }
      },
      "icon": "https://maps.gstatic.com/mapfiles/place_api/icons/v1/png_71/geocode-71.png",
      "icon_background_color": "#7B9EB0",
      "icon_mask_base_uri": "https://maps.gstatic.com/mapfiles/place_api/icons/v2/generic_pinlet",
      "name": "\u7d10\u7d04",
      "photos": [
        {
          "height": 600,
          "html_attributions": [
            "<a href=\"https://maps.google.com/maps/contrib/102389334567210814614\">Bukurie</a>"
          ],
          "photo_reference": "AeJbb3edVCVYYMCynCnhtq_N3AmcvPsp0LtVFMOlbu0oFC9fiQvhuVTGHqCElpZcUaHo915YmBkcuCGvqNiAihzet2bX4yk5qoIpU_Pbs_Wnq8rspd88KvbgyInRewve2zx1JuESnc_YYyaqHBkN2NUYs1hWAfdgAM6MMRa8Xs6cEvOnnRyo",
          "width": 480
        }
      ],
      "place_id": "ChIJOwg_06VPwokRYv534QaPC8g",
      "reference": "ChIJOwg_06VPwokRYv534QaPC8g",
      "scope": "GOOGLE",
      "types": [
        "locality",
        "political"
      ],
      "vicinity": "\u7d10\u7d04"
    },
    {
      "business_status": "OPERATIONAL",
      "geometry": {
        "location": {
          "lat": 40.6934448,
          "lng": -73.9637226
        },
        "viewport": {
          "northeast": {
            "lat": 40.6949216802915,
            "lng": -73.96242426970849
          },
          "southwest": {
            "lat": 40.6922237197085,
            "lng": -73.9651222302915
          }
        }
      },
      "icon": "https://maps.gstatic.com/mapfiles/place_api/icons/v1/png_71/shopping-71.png",
      "icon_background_color": "#4B96F3",
      "icon_mask_base_uri": "https://maps.gstatic.com/mapfiles/place_api/icons/v2/shopping_pinlet",
      "name": "Blick Art Materials",
      "opening_hours": {
        "open_now": true
      },
      "photos": [
        {
          "height": 3024,
          "html_attributions": [
            "<a href=\"https://maps.google.com/maps/contrib/115446831749564010577\">Corey Ashley</a>"
          ],
          "photo_reference": "AeJbb3d2SxFaxAQGqa24j2nuatAJZoHuRTRwOrWtbFfqpJ93xkW_HwGLLNzP0JPDfPJQUSnayVoUQG5ekED705T7JvWFuWOniRGAIS8ZoCYuO8bt4O5EYl0NHS4gJhbKSSJHN6vd42RHaneIX-xgaxi65BOoqDnzbTFMvm8Nll9KqC8pfMUw",
          "width": 4032
        }
      ],
      "place_id": "ChIJ3VdBl8BbwokRXjI4x33wkF0",
      "plus_code": {
        "compound_code": "M2VP+9G \u7f8e\u570b\u7d10\u7d04",
        "global_code": "87G8M2VP+9G"
      },
      "price_level": 2,
      "rating": 4.6,
      "reference": "ChIJ3VdBl8BbwokRXjI4x33wkF0",
      "scope": "GOOGLE",
      "types": [
        "store",
        "point_of_interest",
        "establishment"
      ],
      "user_ratings_total": 569,
      "vicinity": "536 Myrtle Avenue, Brooklyn"
    },
    {
      "business_status": "OPERATIONAL",
      "geometry": {
        "location": {
          "lat": 40.69373969999999,
          "lng": -73.964499
        },
        "viewport": {
          "northeast": {
            "lat": 40.69503243029149,
            "lng": -73.9631288697085
          },
          "southwest": {
            "lat": 40.69233446970849,
            "lng": -73.9658268302915
          }
        }
      },
      "icon": "https://maps.gstatic.com/mapfiles/place_api/icons/v1/png_71/restaurant-71.png",
      "icon_background_color": "#FF9E67",
      "icon_mask_base_uri": "https://maps.gstatic.com/mapfiles/place_api/icons/v2/restaurant_pinlet",
      "name": "Soco",
      "opening_hours": {
        "open_now": true
      },
      "photos": [
        {
          "height": 1042,
          "html_attributions": [
            "<a href=\"https://maps.google.com/maps/contrib/113643214082127761911\">Soco</a>"
          ],
          "photo_reference": "AeJbb3fcE3gDnHttzaWATOfMCBHJ9zr_IvNPP9Ha-mdX1X35vdC5fMoDSN75SrkjktYN8YFw386YkGPhfb36X3EMWtKkn5lwy8UYMl-Ilp0yjmmqjc0Bj9B2pwN4EGM1okMLGa-9k99NhWrmpXPjxfawipsShL1yiWUQkzg1FyZMXeGvW_EM",
          "width": 1853
        }
      ],
      "place_id": "ChIJta_DusBbwokRcg_BmnpvW-g",
      "plus_code": {
        "compound_code": "M2VP+F6 \u7f8e\u570b\u7d10\u7d04",
        "global_code": "87G8M2VP+F6"
      },
      "price_level": 2,
      "rating": 4.1,
      "reference": "ChIJta_DusBbwokRcg_BmnpvW-g",
      "scope": "GOOGLE",
      "types": [
        "restaurant",
        "food",
        "point_of_interest",
        "establishment"
      ],
      "user_ratings_total": 2299,
      "vicinity": "509 Myrtle Avenue, Brooklyn"
    },
    {
      "business_status": "OPERATIONAL",
      "geometry": {
        "location": {
          "lat": 40.69590139999999,
          "lng": -73.9628634
        },
        "viewport": {
          "northeast": {
            "lat": 40.69727613029149,
            "lng": -73.9613918197085
          },
          "southwest": {
            "lat": 40.69457816970849,
            "lng": -73.9640897802915
          }
        }
      },
      "icon": "https://maps.gstatic.com/mapfiles/place_api/icons/v1/png_71/generic_business-71.png",
      "icon_background_color": "#7B9EB0",
      "icon_mask_base_uri": "https://maps.gstatic.com/mapfiles/place_api/icons/v2/generic_pinlet",
      "name": "Public Storage",
      "opening_hours": {
        "open_now": true
      },
      "photos": [
        {
          "height": 1080,
          "html_attributions": [
            "<a href=\"https://maps.google.com/maps/contrib/114648741085423471019\">Public Storage</a>"
          ],
          "photo_reference": "AeJbb3dygTntWern2BUeGfwhUpk-vKn3JQ8q303XsmRWtqHyLfGtZVi_G25QdCuNWay7nlhnM2eSvDHLHskuDFh6nAqyDoDkFBf4zz4j9drmo_sAjelsTLrsUreeiNjki5kVsYJNDmgT2dHg6mHNaMckLQAbcMtYcW84Hn_g5XhKJ6ImIpFQ",
          "width": 1920
        }
      ],
      "place_id": "ChIJvRnvAMFbwokRMH0SgOOeXjI",
      "plus_code": {
        "compound_code": "M2WP+9V \u7f8e\u570b\u7d10\u7d04\u5e03\u9c81\u514b\u6797",
        "global_code": "87G8M2WP+9V"
      },
      "rating": 4.7,
      "reference": "ChIJvRnvAMFbwokRMH0SgOOeXjI",
      "scope": "GOOGLE",
      "types": [
        "storage",
        "store",
        "point_of_interest",
        "establishment"
      ],
      "user_ratings_total": 381,
      "vicinity": "72 Emerson Place, Brooklyn"
    },
    {
      "business_status": "OPERATIONAL",
      "geometry": {
        "location": {
          "lat": 40.6907519,
          "lng": -73.9582747
        },
        "viewport": {
          "northeast": {
            "lat": 40.6920224302915,
            "lng": -73.9569087197085
          },
          "southwest": {
            "lat": 40.6893244697085,
            "lng": -73.95960668029151
          }
        }
      },
      "icon": "https://maps.gstatic.com/mapfiles/place_api/icons/v1/png_71/restaurant-71.png",
      "icon_background_color": "#FF9E67",
      "icon_mask_base_uri": "https://maps.gstatic.com/mapfiles/place_api/icons/v2/restaurant_pinlet",
      "name": "Rustik Tavern",
      "opening_hours": {
        "open_now": true
      },
      "photos": [
        {
          "height": 3024,
          "html_attributions": [
            "<a href=\"https://maps.google.com/maps/contrib/111107507993520293074\">Fatma B</a>"
          ],
          "photo_reference": "AeJbb3dW1CHSifJJ-A4JUYJS96MICgFoMOKqtLEAMUiEid14Yp4MBKqN_FaoM8CxzLmhbt0scRB2J7k_kNY6kYmjf4HpuFMyCvmOVVoi61Rc6uSHy7vdkkJd1RAbEF8Eb6YBb6EbL5con7SgdnIV0iqz7tcPsujkP69ebSSa4QN4LFqjOwcl",
          "width": 4032
        }
      ],
      "place_id": "ChIJd9qVa5VbwokRJ7q_7M3XbIQ",
      "plus_code": {
        "compound_code": "M2RR+8M \u7f8e\u570b\u7d10\u7d04",
        "global_code": "87G8M2RR+8M"
      },
      "price_level": 2,
      "rating": 4.5,
      "reference": "ChIJd9qVa5VbwokRJ7q_7M3XbIQ",
      "scope": "GOOGLE",
      "types": [
        "restaurant",
        "food",
        "point_of_interest",
        "establishment"
      ],
      "user_ratings_total": 1115,
      "vicinity": "471 DeKalb Avenue, Brooklyn"
    },
    {
      "business_status": "OPERATIONAL",
      "geometry": {
        "location": {
          "lat": 40.6923118,
          "lng": -73.9653256
        },
        "viewport": {
          "northeast": {
            "lat": 40.6937093302915,
            "lng": -73.96378036970849
          },
          "southwest": {
            "lat": 40.6910113697085,
            "lng": -73.96647833029151
          }
        }
      },
      "icon": "https://maps.gstatic.com/mapfiles/place_api/icons/v1/png_71/generic_business-71.png",
      "icon_background_color": "#7B9EB0",
      "icon_mask_base_uri": "https://maps.gstatic.com/mapfiles/place_api/icons/v2/generic_pinlet",
      "name": "Car Rental Brooklyn, NY",
      "opening_hours": {
        "open_now": false
      },
      "photos": [
        {
          "height": 1000,
          "html_attributions": [
            "<a href=\"https://maps.google.com/maps/contrib/103305939556813659280\">Car Rental Brooklyn, NY</a>"
          ],
          "photo_reference": "AeJbb3cRVjh_M_456hFzNrZMXEXMg81MdgECnuBSKKyUYUh7J6mptu5scy7MIRxs4rbRmgcw-OKF4IdGWAyB5kEeXKoctuHLjv4S4UqWDC4vRrlqeDk6MFLmyvCCplVy-8cHsipZo-JElWMDydooAGTGKrQhttZgshdK7atBiTGV1sbPdayw",
          "width": 1804
        }
      ],
      "place_id": "ChIJAemV5_NbwokRMhKLZOQUEOA",
      "plus_code": {
        "compound_code": "M2RM+WV \u7f8e\u570b\u7d10\u7d04\u5e03\u9c81\u514b\u6797",
        "global_code": "87G8M2RM+WV"
      },
      "rating": 5,
      "reference": "ChIJAemV5_NbwokRMhKLZOQUEOA",
      "scope": "GOOGLE",
      "types": [
        "car_rental",
        "point_of_interest",
        "establishment"
      ],
      "user_ratings_total": 17,
      "vicinity": "185 Hall Street, Brooklyn"
    },
    {
      "business_status": "OPERATIONAL",
      "geometry": {
        "location": {
          "lat": 40.6927416,
          "lng": -73.95920559999999
        },
        "viewport": {
          "northeast": {
            "lat": 40.6940426302915,
            "lng": -73.95818611970849
          },
          "southwest": {
            "lat": 40.6913446697085,
            "lng": -73.9608840802915
          }
        }
      },
      "icon": "https://maps.gstatic.com/mapfiles/place_api/icons/v1/png_71/worship_general-71.png",
      "icon_background_color": "#7B9EB0",
      "icon_mask_base_uri": "https://maps.gstatic.com/mapfiles/place_api/icons/v2/worship_christian_pinlet",
      "name": "St Lucy- St Patrick's Roman Catholic Church",
      "place_id": "ChIJ1c18AcBbwokRzyPheJW81kI",
      "plus_code": {
        "compound_code": "M2VR+38 \u7f8e\u570b\u7d10\u7d04",
        "global_code": "87G8M2VR+38"
      },
      "rating": 4.6,
      "reference": "ChIJ1c18AcBbwokRzyPheJW81kI",
      "scope": "GOOGLE",
      "types": [
        "church",
        "place_of_worship",
        "point_of_interest",
        "establishment"
      ],
      "user_ratings_total": 10,
      "vicinity": "285 Willoughby Avenue, Brooklyn"
    },
    {
      "business_status": "OPERATIONAL",
      "geometry": {
        "location": {
          "lat": 40.6935271,
          "lng": -73.96673799999999
        },
        "viewport": {
          "northeast": {
            "lat": 40.6947928302915,
            "lng": -73.96537041970849
          },
          "southwest": {
            "lat": 40.69209486970851,
            "lng": -73.9680683802915
          }
        }
      },
      "icon": "https://maps.gstatic.com/mapfiles/place_api/icons/v1/png_71/restaurant-71.png",
      "icon_background_color": "#FF9E67",
      "icon_mask_base_uri": "https://maps.gstatic.com/mapfiles/place_api/icons/v2/restaurant_pinlet",
      "name": "Kum Kau",
      "opening_hours": {
        "open_now": true
      },
      "photos": [
        {
          "height": 3000,
          "html_attributions": [
            "<a href=\"https://maps.google.com/maps/contrib/112572461551852069945\">Marc Mendez</a>"
          ],
          "photo_reference": "AeJbb3fZSp51D5C8s02VPFLGQ4F3DwQwhZnMUl55IDonSO5_JRUNoTQ3StlnZjLi2LLbtYVdplff7UjS8i847HuY3cSI27FsZFFsQBb7rHiObhDWD3tmvQkSYpGWyFy0__nlEWvU32CTknlOWtK7hwgOx6FAM2h61C2K1QZIHHCANHyqrhKS",
          "width": 4000
        }
      ],
      "place_id": "ChIJG4WAoLhbwokRyn0RE1BW2Mg",
      "plus_code": {
        "compound_code": "M2VM+C8 \u7f8e\u570b\u7d10\u7d04",
        "global_code": "87G8M2VM+C8"
      },
      "price_level": 1,
      "rating": 4.1,
      "reference": "ChIJG4WAoLhbwokRyn0RE1BW2Mg",
      "scope": "GOOGLE",
      "types": [
        "restaurant",
        "food",
        "point_of_interest",
        "establishment"
      ],
      "user_ratings_total": 1298,
      "vicinity": "463 Myrtle Avenue, Brooklyn"
    },
    {
      "business_status": "OPERATIONAL",
      "geometry": {
        "location": {
          "lat": 40.6900855,
          "lng": -73.9604962
        },
        "viewport": {
          "northeast": {
            "lat": 40.6914777302915,
            "lng": -73.95902966970849
          },
          "southwest": {
            "lat": 40.6887797697085,
            "lng": -73.9617276302915
          }
        }
      },
      "icon": "https://maps.gstatic.com/mapfiles/place_api/icons/v1/png_71/civic_building-71.png",
      "icon_background_color": "#7B9EB0",
      "icon_mask_base_uri": "https://maps.gstatic.com/mapfiles/place_api/icons/v2/civic-bldg_pinlet",
      "name": "New York City Police Department - 88th Precinct",
      "opening_hours": {
        "open_now": true
      },
      "photos": [
        {
          "height": 1809,
          "html_attributions": [
            "<a href=\"https://maps.google.com/maps/contrib/103599397142767094990\">Henry Woodlock</a>"
          ],
          "photo_reference": "AeJbb3eVRJujSMltbzJS13NyuLDBJqKR8lf4BNQ4KIkJdUNvaOrYDEisxPqWul-t1AcOULNvW6t9nqQvKeO46luNzqBiI4XDMdaXY29bJizpL0jBZlH54a_FOcFk_TBpt5aa9gXcoiIExX1qGOOMD2gowFsUGEC8GAhMdDHn1j8cQw1-xqOK",
          "width": 1424
        }
      ],
      "place_id": "ChIJ2Sojzb9bwokRD1H7L1FCsRU",
      "plus_code": {
        "compound_code": "M2RQ+2R \u7f8e\u570b\u7d10\u7d04\u5e03\u9c81\u514b\u6797",
        "global_code": "87G8M2RQ+2R"
      },
      "rating": 3.1,
      "reference": "ChIJ2Sojzb9bwokRD1H7L1FCsRU",
      "scope": "GOOGLE",
      "types": [
        "police",
        "local_government_office",
        "point_of_interest",
        "establishment"
      ],
      "user_ratings_total": 30,
      "vicinity": "298 Classon Avenue, Brooklyn"
    },
    {
      "business_status": "OPERATIONAL",
      "geometry": {
        "location": {
          "lat": 40.6934016,
          "lng": -73.9675425
        },
        "viewport": {
          "northeast": {
            "lat": 40.6946861802915,
            "lng": -73.9662086697085
          },
          "southwest": {
            "lat": 40.6919882197085,
            "lng": -73.9689066302915
          }
        }
      },
      "icon": "https://maps.gstatic.com/mapfiles/place_api/icons/v1/png_71/atm-71.png",
      "icon_background_color": "#909CE1",
      "icon_mask_base_uri": "https://maps.gstatic.com/mapfiles/place_api/icons/v2/atm_pinlet",
      "name": "Bank of America ATM",
      "opening_hours": {
        "open_now": true
      },
      "place_id": "ChIJ5YHmnLhbwokR0O2FkB3KqHE",
      "plus_code": {
        "compound_code": "M2VJ+9X \u7f8e\u570b\u7d10\u7d04",
        "global_code": "87G8M2VJ+9X"
      },
      "rating": 1,
      "reference": "ChIJ5YHmnLhbwokR0O2FkB3KqHE",
      "scope": "GOOGLE",
      "types": [
        "atm",
        "finance",
        "point_of_interest",
        "establishment"
      ],
      "user_ratings_total": 3,
      "vicinity": "449 Myrtle Avenue, Brooklyn"
    },
    {
      "business_status": "OPERATIONAL",
      "geometry": {
        "location": {
          "lat": 40.69549200000001,
          "lng": -73.961124
        },
        "viewport": {
          "northeast": {
            "lat": 40.6968531302915,
            "lng": -73.95992581970849
          },
          "southwest": {
            "lat": 40.69415516970851,
            "lng": -73.96262378029151
          }
        }
      },
      "icon": "https://maps.gstatic.com/mapfiles/place_api/icons/v1/png_71/shopping-71.png",
      "icon_background_color": "#4B96F3",
      "icon_mask_base_uri": "https://maps.gstatic.com/mapfiles/place_api/icons/v2/shopping_pinlet",
      "name": "Classon Ave Plumbing Contractors",
      "opening_hours": {
        "open_now": false
      },
      "place_id": "ChIJF4KytsFbwokRU79H_Wzqj4I",
      "plus_code": {
        "compound_code": "M2WQ+5H \u7f8e\u570b\u7d10\u7d04\u5e03\u9c81\u514b\u6797",
        "global_code": "87G8M2WQ+5H"
      },
      "reference": "ChIJF4KytsFbwokRU79H_Wzqj4I",
      "scope": "GOOGLE",
      "types": [
        "store",
        "point_of_interest",
        "establishment"
      ],
      "vicinity": "163 Classon Avenue, Brooklyn"
    },
    {
      "business_status": "CLOSED_TEMPORARILY",
      "geometry": {
        "location": {
          "lat": 40.6925304,
          "lng": -73.9586246
        },
        "viewport": {
          "northeast": {
            "lat": 40.6939476302915,
            "lng": -73.9572890697085
          },
          "southwest": {
            "lat": 40.6912496697085,
            "lng": -73.9599870302915
          }
        }
      },
      "icon": "https://maps.gstatic.com/mapfiles/place_api/icons/v1/png_71/school-71.png",
      "icon_background_color": "#7B9EB0",
      "icon_mask_base_uri": "https://maps.gstatic.com/mapfiles/place_api/icons/v2/school_pinlet",
      "name": "Kappa Vii",
      "permanently_closed": true,
      "photos": [
        {
          "height": 3024,
          "html_attributions": [
            "<a href=\"https://maps.google.com/maps/contrib/113151506387623700108\">\u05d9\u05d5\u05d3\u05d9 \u05de\u05e2\u05dc\u05d1\u05e2\u05e8</a>"
          ],
          "photo_reference": "AeJbb3c3_D4i2hOsphsx01i8shmopZ8ltevma96xfEajlhfRRYv_zN65oRL47Px5IaNxNrEA6gMQv1uq6q-fVK5UJTYVQ_kLJMs_tcRosvK7aQNVif5OpkRxoYEMnAlv8erPpaJkm7ARg95wjvB2IljvfieJU8_p0iHgGoCxHjfjaAWbkSL0",
          "width": 4032
        }
      ],
      "place_id": "ChIJu5pFsupbwokRzAJCEZDShN4",
      "plus_code": {
        "compound_code": "M2VR+2H \u7f8e\u570b\u7d10\u7d04\u5e03\u9c81\u514b\u6797",
        "global_code": "87G8M2VR+2H"
      },
      "reference": "ChIJu5pFsupbwokRzAJCEZDShN4",
      "scope": "GOOGLE",
      "types": [
        "school",
        "point_of_interest",
        "establishment"
      ],
      "vicinity": "300 Willoughby Avenue, Brooklyn"
    },
    {
      "business_status": "OPERATIONAL",
      "geometry": {
        "location": {
          "lat": 40.69491490000001,
          "lng": -73.96228359999999
        },
        "viewport": {
          "northeast": {
            "lat": 40.69625138029151,
            "lng": -73.9609996197085
          },
          "southwest": {
            "lat": 40.69355341970851,
            "lng": -73.96369758029151
          }
        }
      },
      "icon": "https://maps.gstatic.com/mapfiles/place_api/icons/v1/png_71/shopping-71.png",
      "icon_background_color": "#4B96F3",
      "icon_mask_base_uri": "https://maps.gstatic.com/mapfiles/place_api/icons/v2/shopping_pinlet",
      "name": "Print on Broadway",
      "opening_hours": {
        "open_now": false
      },
      "photos": [
        {
          "height": 4032,
          "html_attributions": [
            "<a href=\"https://maps.google.com/maps/contrib/113565206009013889762\">Shia h glick</a>"
          ],
          "photo_reference": "AeJbb3cspG51qSJqKdWJPjgKyaBL6WQUW6ZwK4XfTpW7ITurQTv6exaM4Ec-cSB6ohPQCGVl4pR4Q_Xu0-QX_mzQXG7SAXvjv4zbYeY0FvoEROaRYeepN5GLcsQ0mpxKIEL2zMgpI7W5M2ulRqZWy_8wU1hKdMNceLA_Yqmam4uIopNYMxMt",
          "width": 3024
        }
      ],
      "place_id": "ChIJMZeCLdlbwokRxNuuvRGcb2o",
      "plus_code": {
        "compound_code": "M2VQ+X3 \u7f8e\u570b\u7d10\u7d04",
        "global_code": "87G8M2VQ+X3"
      },
      "rating": 4.5,
      "reference": "ChIJMZeCLdlbwokRxNuuvRGcb2o",
      "scope": "GOOGLE",
      "types": [
        "store",
        "point_of_interest",
        "establishment"
      ],
      "user_ratings_total": 82,
      "vicinity": "91 Emerson Place, Brooklyn"
    },
    {
      "business_status": "OPERATIONAL",
      "geometry": {
        "location": {
          "lat": 40.6953058,
          "lng": -73.9619276
        },
        "viewport": {
          "northeast": {
            "lat": 40.6967129302915,
            "lng": -73.96031856970849
          },
          "southwest": {
            "lat": 40.6940149697085,
            "lng": -73.9630165302915
          }
        }
      },
      "icon": "https://maps.gstatic.com/mapfiles/place_api/icons/v1/png_71/shopping-71.png",
      "icon_background_color": "#4B96F3",
      "icon_mask_base_uri": "https://maps.gstatic.com/mapfiles/place_api/icons/v2/shopping_pinlet",
      "name": "Certified Lumber of Williamsburg",
      "opening_hours": {
        "open_now": false
      },
      "photos": [
        {
          "height": 561,
          "html_attributions": [
            "<a href=\"https://maps.google.com/maps/contrib/112185531446748368769\">Certified Lumber of Williamsburg</a>"
          ],
          "photo_reference": "AeJbb3fDzeCKOqLvZrm8xuRkPNrmdmJRMqj0ZmGoHw55ycPxKjLR8cD6idaA3VoAqhF86r5T-CsI-caTKM_6m-2QzsM1ypPrpqc2UcOf7JXZ02RG3F0RrlHEuxyJkHtdmmSLKCubnUcNBng-ZzNED8Ng6kK3Y3jPtCAfhn0elotevI7PJ_hK",
          "width": 996
        }
      ],
      "place_id": "ChIJfyS9NdpbwokR_N_-7APr0Sc",
      "plus_code": {
        "compound_code": "M2WQ+46 \u7f8e\u570b\u7d10\u7d04",
        "global_code": "87G8M2WQ+46"
      },
      "rating": 4.3,
      "reference": "ChIJfyS9NdpbwokR_N_-7APr0Sc",
      "scope": "GOOGLE",
      "types": [
        "home_goods_store",
        "store",
        "point_of_interest",
        "establishment"
      ],
      "user_ratings_total": 150,
      "vicinity": "148 Classon Avenue, Brooklyn"
    },
    {
      "business_status": "OPERATIONAL",
      "geometry": {
        "location": {
          "lat": 40.6935111,
          "lng": -73.96357499999999
        },
        "viewport": {
          "northeast": {
            "lat": 40.69496598029149,
            "lng": -73.96224001970847
          },
          "southwest": {
            "lat": 40.6922680197085,
            "lng": -73.9649379802915
          }
        }
      },
      "icon": "https://maps.gstatic.com/mapfiles/place_api/icons/v1/png_71/restaurant-71.png",
      "icon_background_color": "#FF9E67",
      "icon_mask_base_uri": "https://maps.gstatic.com/mapfiles/place_api/icons/v2/restaurant_pinlet",
      "name": "Bergen Bagels on Myrtle",
      "opening_hours": {
        "open_now": true
      },
      "photos": [
        {
          "height": 1960,
          "html_attributions": [
            "<a href=\"https://maps.google.com/maps/contrib/101800518386822062927\">Shady Mickhail</a>"
          ],
          "photo_reference": "AeJbb3f-Zx4aKj6w1LxclnevfQDUw6BBQSRwPCTenmnNuUvA5QxpnUCnKpKV2inF_33kGAUSZdJN2NFMVJv8Vvz8iPaJABV8BjPhleg-D6lbgO6PH1PiVO55WgxvUqfP0AsLRJowSgScuHXo3S8TDeQ45sl3we3wP3mZIModDDerqNBuGqjg",
          "width": 4032
        }
      ],
      "place_id": "ChIJubB2qrhbwokRjY4VmpPPkbM",
      "plus_code": {
        "compound_code": "M2VP+CH \u7f8e\u570b\u7d10\u7d04\u5e03\u9c81\u514b\u6797",
        "global_code": "87G8M2VP+CH"
      },
      "price_level": 1,
      "rating": 4,
      "reference": "ChIJubB2qrhbwokRjY4VmpPPkbM",
      "scope": "GOOGLE",
      "types": [
        "bakery",
        "meal_takeaway",
        "store",
        "restaurant",
        "food",
        "point_of_interest",
        "establishment"
      ],
      "user_ratings_total": 278,
      "vicinity": "536 Myrtle Avenue, Brooklyn"
    },
    {
      "business_status": "OPERATIONAL",
      "geometry": {
        "location": {
          "lat": 40.6934101,
          "lng": -73.9675007
        },
        "viewport": {
          "northeast": {
            "lat": 40.6946957302915,
            "lng": -73.9661273197085
          },
          "southwest": {
            "lat": 40.6919977697085,
            "lng": -73.96882528029151
          }
        }
      },
      "icon": "https://maps.gstatic.com/mapfiles/place_api/icons/v1/png_71/bank-71.png",
      "icon_background_color": "#909CE1",
      "icon_mask_base_uri": "https://maps.gstatic.com/mapfiles/place_api/icons/v2/bank-intl_pinlet",
      "name": "Bank of America Financial Center",
      "opening_hours": {
        "open_now": true
      },
      "photos": [
        {
          "height": 980,
          "html_attributions": [
            "<a href=\"https://maps.google.com/maps/contrib/114436825488019742591\">Bank of America Financial Center</a>"
          ],
          "photo_reference": "AeJbb3cuAygEBCwFR6kdi24eA0pfmlmZANYisRQkRg6eJREQw2Rcd10uJF6bL0KSj2sGYvU4wG0HkI00jydD4K7XjweueyWBw4utPK8VPAt-LRS4jMjGxVuN_PwUKN1wLaNdnCWqjfX6vKC6efnmLzvP5Xh99wHEa9zQykCh0N-jtO8lCRH8",
          "width": 1742
        }
      ],
      "place_id": "ChIJ5YHmnLhbwokRmUtYMPGvdDQ",
      "plus_code": {
        "compound_code": "M2VJ+9X \u7f8e\u570b\u7d10\u7d04",
        "global_code": "87G8M2VJ+9X"
      },
      "rating": 3.2,
      "reference": "ChIJ5YHmnLhbwokRmUtYMPGvdDQ",
      "scope": "GOOGLE",
      "types": [
        "bank",
        "finance",
        "point_of_interest",
        "establishment"
      ],
      "user_ratings_total": 40,
      "vicinity": "449 Myrtle Avenue, Brooklyn"
    },
    {
      "business_status": "OPERATIONAL",
      "geometry": {
        "location": {
          "lat": 40.69705400000001,
          "lng": -73.964942
        },
        "viewport": {
          "northeast": {
            "lat": 40.6983938802915,
            "lng": -73.96350296970849
          },
          "southwest": {
            "lat": 40.69569591970851,
            "lng": -73.96620093029149
          }
        }
      },
      "icon": "https://maps.gstatic.com/mapfiles/place_api/icons/v1/png_71/generic_business-71.png",
      "icon_background_color": "#7B9EB0",
      "icon_mask_base_uri": "https://maps.gstatic.com/mapfiles/place_api/icons/v2/generic_pinlet",
      "name": "Insight Onsite LLC",
      "opening_hours": {
        "open_now": false
      },
      "photos": [
        {
          "height": 602,
          "html_attributions": [
            "<a href=\"https://maps.google.com/maps/contrib/106185726469943156119\">Insight Onsite LLC</a>"
          ],
          "photo_reference": "AeJbb3c7DBRHOuNe2UcYpB4yyEiD9ULVLewgs-7bJB57Loa8FX-qrnkRAh52G76o4ta0aI4Nj6BXlXCr9HZO79TcfLIDS0A1RWG2DLddac-qgix2JCE3hmYYWWbyZCOjXU-Iz30t6Xz4qMx_l9QOMl9DdIURKOZbyg3df96w7gL0elBmC6j6",
          "width": 802
        }
      ],
      "place_id": "ChIJDYX_wRhawokRIVuE4tpXhZE",
      "plus_code": {
        "compound_code": "M2WP+R2 \u7f8e\u570b\u7d10\u7d04\u5e03\u9c81\u514b\u6797",
        "global_code": "87G8M2WP+R2"
      },
      "rating": 1,
      "reference": "ChIJDYX_wRhawokRIVuE4tpXhZE",
      "scope": "GOOGLE",
      "types": [
        "electronics_store",
        "store",
        "point_of_interest",
        "establishment"
      ],
      "user_ratings_total": 1,
      "vicinity": "20 Grand Avenue #103, Brooklyn"
    },
    {
      "business_status": "OPERATIONAL",
      "geometry": {
        "location": {
          "lat": 40.6914315,
          "lng": -73.959848
        },
        "viewport": {
          "northeast": {
            "lat": 40.6927309802915,
            "lng": -73.9583770197085
          },
          "southwest": {
            "lat": 40.6900330197085,
            "lng": -73.96107498029151
          }
        }
      },
      "icon": "https://maps.gstatic.com/mapfiles/place_api/icons/v1/png_71/generic_business-71.png",
      "icon_background_color": "#7B9EB0",
      "icon_mask_base_uri": "https://maps.gstatic.com/mapfiles/place_api/icons/v2/generic_pinlet",
      "name": "Taaffe Lofts",
      "place_id": "ChIJ22xo4L9bwokRKUoZaXI-d9s",
      "plus_code": {
        "compound_code": "M2RR+H3 \u7f8e\u570b\u7d10\u7d04\u5e03\u9c81\u514b\u6797",
        "global_code": "87G8M2RR+H3"
      },
      "rating": 3.2,
      "reference": "ChIJ22xo4L9bwokRKUoZaXI-d9s",
      "scope": "GOOGLE",
      "types": [
        "point_of_interest",
        "establishment"
      ],
      "user_ratings_total": 5,
      "vicinity": "226-262 Taaffe Place, Brooklyn"
    },
    {
      "business_status": "OPERATIONAL",
      "geometry": {
        "location": {
          "lat": 40.6914694,
          "lng": -73.9628951
        },
        "viewport": {
          "northeast": {
            "lat": 40.6928317302915,
            "lng": -73.9614364697085
          },
          "southwest": {
            "lat": 40.6901337697085,
            "lng": -73.96413443029151
          }
        }
      },
      "icon": "https://maps.gstatic.com/mapfiles/place_api/icons/v1/png_71/generic_business-71.png",
      "icon_background_color": "#7B9EB0",
      "icon_mask_base_uri": "https://maps.gstatic.com/mapfiles/place_api/icons/v2/generic_pinlet",
      "name": "Pratt Center for Community Development",
      "opening_hours": {
        "open_now": false
      },
      "photos": [
        {
          "height": 1331,
          "html_attributions": [
            "<a href=\"https://maps.google.com/maps/contrib/106423433960883845001\">Pratt Center for Community Development</a>"
          ],
          "photo_reference": "AeJbb3ftInsLQwpLHUS6OuuFQAl4AWO3ikL_rKTpQXcUml0SPsT_Rv9kP4A5NAMa9wKsww_lGhSIK-kYuHCVGgYI6nggdnemEd3913Tns85aBpUpQPNdJxZsbtUTpIQY3WVemptDoAiIIN3iAdR3ZkixP0LytvmUNgIqA89MkEgoml_FH9Gz",
          "width": 2048
        }
      ],
      "place_id": "ChIJ9b1Al8BbwokRpV_-dy2HPbg",
      "plus_code": {
        "compound_code": "M2RP+HR \u7f8e\u570b\u7d10\u7d04",
        "global_code": "87G8M2RP+HR"
      },
      "rating": 4.6,
      "reference": "ChIJ9b1Al8BbwokRpV_-dy2HPbg",
      "scope": "GOOGLE",
      "types": [
        "point_of_interest",
        "establishment"
      ],
      "user_ratings_total": 5,
      "vicinity": "200 Willoughby Avenue, Brooklyn"
    },
    {
      "geometry": {
        "location": {
          "lat": 40.6781784,
          "lng": -73.9441579
        },
        "viewport": {
          "northeast": {
            "lat": 40.73944597129348,
            "lng": -73.83336505117123
          },
          "southwest": {
            "lat": 40.55104197967331,
            "lng": -74.05662998413648
          }
        }
      },
      "icon": "https://maps.gstatic.com/mapfiles/place_api/icons/v1/png_71/geocode-71.png",
      "icon_background_color": "#7B9EB0",
      "icon_mask_base_uri": "https://maps.gstatic.com/mapfiles/place_api/icons/v2/generic_pinlet",
      "name": "\u5e03\u9c81\u514b\u6797",
      "photos": [
        {
          "height": 3024,
          "html_attributions": [
            "<a href=\"https://maps.google.com/maps/contrib/114417859579881743500\">Chengxiang Yuan</a>"
          ],
          "photo_reference": "AeJbb3ea0q2z-ZX_cUwe5iltCC62zXcKpgtMYKxSaOuXfaxlctmF62adXAHWj2f8Pxc0jxdH4u94lwnUOk1XWdW_GG6zUUrkDpbvH7yM01dD4TVjCWfR_VMNXl0DumbeFb66TNl_q6HPOiaHHMkvFw6SyNLkydjIOoXztQE-X1DQnD6Ur_xc",
          "width": 4032
        }
      ],
      "place_id": "ChIJCSF8lBZEwokRhngABHRcdoI",
      "reference": "ChIJCSF8lBZEwokRhngABHRcdoI",
      "scope": "GOOGLE",
      "types": [
        "sublocality_level_1",
        "sublocality",
        "political"
      ],
      "vicinity": "\u5e03\u9c81\u514b\u6797"
    },
    {
      "business_status": "OPERATIONAL",
      "geometry": {
        "location": {
          "lat": 40.6926596,
          "lng": -73.960329
        },
        "viewport": {
          "northeast": {
            "lat": 40.69391708029149,
            "lng": -73.9589593197085
          },
          "southwest": {
            "lat": 40.69121911970849,
            "lng": -73.96165728029152
          }
        }
      },
      "icon": "https://maps.gstatic.com/mapfiles/place_api/icons/v1/png_71/generic_business-71.png",
      "icon_background_color": "#7B9EB0",
      "icon_mask_base_uri": "https://maps.gstatic.com/mapfiles/place_api/icons/v2/generic_pinlet",
      "name": "Mercy Home for Children",
      "opening_hours": {
        "open_now": true
      },
      "photos": [
        {
          "height": 3000,
          "html_attributions": [
            "<a href=\"https://maps.google.com/maps/contrib/112572461551852069945\">Marc Mendez</a>"
          ],
          "photo_reference": "AeJbb3eGt7CttpU9c2IVltvs2VAbqm_ga0jOMQCkkmxlVHYeyrwt9DS32StPYFt6u_VGjzL4V5NDGWyftniqg0R-G67xb1YiW8O4jOrGwaPKPujEallsDFbRhiGxuZOAsqHGjNk-ibWvMDn07_eQuBFlo2ywa8UJLOivpyc96QCO0Mq9iGHX",
          "width": 4000
        }
      ],
      "place_id": "ChIJLY_7RR5bwokRXdv4NjUnY-o",
      "plus_code": {
        "compound_code": "M2VQ+3V Brooklyn, NY, USA",
        "global_code": "87G8M2VQ+3V"
      },
      "rating": 3.7,
      "reference": "ChIJLY_7RR5bwokRXdv4NjUnY-o",
      "scope": "GOOGLE",
      "types": [
        "health",
        "point_of_interest",
        "establishment"
      ],
      "user_ratings_total": 6,
      "vicinity": "273 Willoughby Avenue, Brooklyn"
    },
    {
      "business_status": "OPERATIONAL",
      "geometry": {
        "location": {
          "lat": 40.6931047,
          "lng": -73.9673837
        },
        "viewport": {
          "northeast": {
            "lat": 40.6945448802915,
            "lng": -73.96605106970848
          },
          "southwest": {
            "lat": 40.6918469197085,
            "lng": -73.96874903029149
          }
        }
      },
      "icon": "https://maps.gstatic.com/mapfiles/place_api/icons/v1/png_71/shopping-71.png",
      "icon_background_color": "#4B96F3",
      "icon_mask_base_uri": "https://maps.gstatic.com/mapfiles/place_api/icons/v2/shopping_pinlet",
      "name": "Clinton Hill Ace Hardware",
      "opening_hours": {
        "open_now": true
      },
      "photos": [
        {
          "height": 4032,
          "html_attributions": [
            "<a href=\"https://maps.google.com/maps/contrib/112177181420266670747\">Clinton Hill Ace Hardware</a>"
          ],
          "photo_reference": "AeJbb3e4UAfVEOCXZIGypGQtRaepaSME0QszPlH6wEJfAc9Jdg0Z4o1Mv7ljP0Td11paqFAJjrUYQfxDpozUKgb1ce2oY3grg89X4amYCwX6sEohFRWrUXST7BaOmsFxJ0sVWHxeKv77DxTf2WxpjLzQh3-FDm1Imnkb4zms_j1pteC472kj",
          "width": 3024
        }
      ],
      "place_id": "ChIJGcyfm7hbwokRTCNYsQopZyE",
      "plus_code": {
        "compound_code": "M2VM+62 New York, NY, USA",
        "global_code": "87G8M2VM+62"
      },
      "rating": 4.4,
      "reference": "ChIJGcyfm7hbwokRTCNYsQopZyE",
      "scope": "GOOGLE",
      "types": [
        "hardware_store",
        "home_goods_store",
        "store",
        "point_of_interest",
        "establishment"
      ],
      "user_ratings_total": 171,
      "vicinity": "452 Myrtle Avenue, Brooklyn"
    },
    {
      "business_status": "OPERATIONAL",
      "geometry": {
        "location": {
          "lat": 40.6945365,
          "lng": -73.9613927
        },
        "viewport": {
          "northeast": {
            "lat": 40.6960206302915,
            "lng": -73.9599825697085
          },
          "southwest": {
            "lat": 40.6933226697085,
            "lng": -73.96268053029151
          }
        }
      },
      "icon": "https://maps.gstatic.com/mapfiles/place_api/icons/v1/png_71/generic_business-71.png",
      "icon_background_color": "#7B9EB0",
      "icon_mask_base_uri": "https://maps.gstatic.com/mapfiles/place_api/icons/v2/generic_pinlet",
      "name": "Tristate Low Voltage Supply (Williamsburg)",
      "opening_hours": {
        "open_now": false
      },
      "photos": [
        {
          "height": 3024,
          "html_attributions": [
            "<a href=\"https://maps.google.com/maps/contrib/116199565715458018371\">Yoel Goldstein</a>"
          ],
          "photo_reference": "AeJbb3e-6fb0a8OGHwxguFzJ_OBMphEAxv051LuhdfjVMyv2P1X-85FFG-kEEYQEUXPQpaxI6IcKPWqTWQUCgYWj4hBvnh-YsIKUPyA0s4n0Z5f22iK2XIHZlZ4LIK6sDC7JtDnzT9s0G83Ufz1xHFl9bKxb4a-6mvZMjJZTXNDclyZNZpda",
          "width": 4032
        }
      ],
      "place_id": "ChIJKe7TTsBbwokRWXikRzOpmUI",
      "plus_code": {
        "compound_code": "M2VQ+RC New York, NY, USA",
        "global_code": "87G8M2VQ+RC"
      },
      "rating": 5,
      "reference": "ChIJKe7TTsBbwokRWXikRzOpmUI",
      "scope": "GOOGLE",
      "types": [
        "point_of_interest",
        "establishment"
      ],
      "user_ratings_total": 116,
      "vicinity": "172 Classon Avenue, Brooklyn"
    },
    {
      "business_status": "OPERATIONAL",
      "geometry": {
        "location": {
          "lat": 40.6942587,
          "lng": -73.96259870000002
        },
        "viewport": {
          "northeast": {
            "lat": 40.6956254802915,
            "lng": -73.96109941970852
          },
          "southwest": {
            "lat": 40.6929275197085,
            "lng": -73.96379738029152
          }
        }
      },
      "icon": "https://maps.gstatic.com/mapfiles/place_api/icons/v1/png_71/generic_business-71.png",
      "icon_background_color": "#7B9EB0",
      "icon_mask_base_uri": "https://maps.gstatic.com/mapfiles/place_api/icons/v2/generic_pinlet",
      "name": "S&F Supplies Inc",
      "opening_hours": {
        "open_now": false
      },
      "photos": [
        {
          "height": 3024,
          "html_attributions": [
            "<a href=\"https://maps.google.com/maps/contrib/103967061093453033505\">Richard Rogers</a>"
          ],
          "photo_reference": "AeJbb3edo6aK-zf_K2OiqrkxgFCfV8eLkMMYS0n_B28SoIqpV8FYm_FM_CjSxxgZyimUtx8pkTMhUXuFK2wOFM3DSkmvbjs9BmGJupZTYa4iO0vC9ri2rCrn4d2Yceot_9YcYzPB2ciZsKzAvqLPY8teoiuunS5PIIuNGmGQxCY2qtA6masq",
          "width": 4032
        }
      ],
      "place_id": "ChIJBeUxUcBbwokRjy_8kRoJKV4",
      "plus_code": {
        "compound_code": "M2VP+PX New York, NY, USA",
        "global_code": "87G8M2VP+PX"
      },
      "rating": 4.3,
      "reference": "ChIJBeUxUcBbwokRjy_8kRoJKV4",
      "scope": "GOOGLE",
      "types": [
        "store",
        "point_of_interest",
        "establishment"
      ],
      "user_ratings_total": 122,
      "vicinity": "110 Emerson Place, Brooklyn"
    },
    {
      "business_status": "OPERATIONAL",
      "geometry": {
        "location": {
          "lat": 40.6925239,
          "lng": -73.96504209999999
        },
        "viewport": {
          "northeast": {
            "lat": 40.6938767302915,
            "lng": -73.96366016970849
          },
          "southwest": {
            "lat": 40.6911787697085,
            "lng": -73.96635813029151
          }
        }
      },
      "icon": "https://maps.gstatic.com/mapfiles/place_api/icons/v1/png_71/generic_business-71.png",
      "icon_background_color": "#7B9EB0",
      "icon_mask_base_uri": "https://maps.gstatic.com/mapfiles/place_api/icons/v2/generic_pinlet",
      "name": "Willoughby Apartments",
      "opening_hours": {
        "open_now": true
      },
      "photos": [
        {
          "height": 1920,
          "html_attributions": [
            "<a href=\"https://maps.google.com/maps/contrib/117728618399464672494\">LUCAS GREER</a>"
          ],
          "photo_reference": "AeJbb3d1dk5MRj7as6jWlkSjQkIzIvB7YorUp_8oF_4c9uGSmg3YDfrh4euzBAdvVZzG00TgCy0fnlsnoT5emRkzWDb7auzbfhdgibhh8YseDTaUcxUH-ie218DBMCaeJYURV4PojJ_ZJMmzNEw5j8I5BetGa8M55QgHSQjUOasMUBQy0i5h",
          "width": 1080
        }
      ],
      "place_id": "ChIJ2y3SZb9bwokRT22TBTjpiqk",
      "plus_code": {
        "compound_code": "M2VM+2X New York, NY, USA",
        "global_code": "87G8M2VM+2X"
      },
      "rating": 5,
      "reference": "ChIJ2y3SZb9bwokRT22TBTjpiqk",
      "scope": "GOOGLE",
      "types": [
        "point_of_interest",
        "establishment"
      ],
      "user_ratings_total": 4,
      "vicinity": "195 Willoughby Avenue, Brooklyn"
    },
    {
      "business_status": "CLOSED_TEMPORARILY",
      "geometry": {
        "location": {
          "lat": 40.6967015,
          "lng": -73.9592961
        },
        "viewport": {
          "northeast": {
            "lat": 40.6979385802915,
            "lng": -73.9579246697085
          },
          "southwest": {
            "lat": 40.6952406197085,
            "lng": -73.96062263029151
          }
        }
      },
      "icon": "https://maps.gstatic.com/mapfiles/place_api/icons/v1/png_71/shopping-71.png",
      "icon_background_color": "#4B96F3",
      "icon_mask_base_uri": "https://maps.gstatic.com/mapfiles/place_api/icons/v2/shopping_pinlet",
      "name": "Blue Heaven Hosiery Co Inc",
      "permanently_closed": true,
      "place_id": "ChIJDcUcCepbwokRlTh9jUWxQ_w",
      "plus_code": {
        "compound_code": "M2WR+M7 Brooklyn, NY, USA",
        "global_code": "87G8M2WR+M7"
      },
      "reference": "ChIJDcUcCepbwokRlTh9jUWxQ_w",
      "scope": "GOOGLE",
      "types": [
        "clothing_store",
        "store",
        "point_of_interest",
        "establishment"
      ],
      "vicinity": "445 Park Avenue, Brooklyn"
    },
    {
      "business_status": "OPERATIONAL",
      "geometry": {
        "location": {
          "lat": 40.6923118,
          "lng": -73.9653256
        },
        "viewport": {
          "northeast": {
            "lat": 40.6937093302915,
            "lng": -73.96378036970849
          },
          "southwest": {
            "lat": 40.6910113697085,
            "lng": -73.96647833029151
          }
        }
      },
      "icon": "https://maps.gstatic.com/mapfiles/place_api/icons/v1/png_71/generic_business-71.png",
      "icon_background_color": "#7B9EB0",
      "icon_mask_base_uri": "https://maps.gstatic.com/mapfiles/place_api/icons/v2/generic_pinlet",
      "name": "Karen G. Schwartz, LMSW",
      "place_id": "ChIJedcLTb9bwokRqN4TG-x3-LM",
      "plus_code": {
        "compound_code": "M2RM+WV New York, NY, USA",
        "global_code": "87G8M2RM+WV"
      },
      "reference": "ChIJedcLTb9bwokRqN4TG-x3-LM",
      "scope": "GOOGLE",
      "types": [
        "point_of_interest",
        "establishment"
      ],
      "vicinity": "185 Hall Street, Brooklyn"
    },
    {
      "business_status": "OPERATIONAL",
      "geometry": {
        "location": {
          "lat": 40.6924643,
          "lng": -73.9642235
        },
        "viewport": {
          "northeast": {
            "lat": 40.69385028029149,
            "lng": -73.96273911970849
          },
          "southwest": {
            "lat": 40.69115231970849,
            "lng": -73.96543708029151
          }
        }
      },
      "icon": "https://maps.gstatic.com/mapfiles/place_api/icons/v1/png_71/generic_business-71.png",
      "icon_background_color": "#7B9EB0",
      "icon_mask_base_uri": "https://maps.gstatic.com/mapfiles/place_api/icons/v2/generic_pinlet",
      "name": "Veronica R. Lynch, LCSW",
      "place_id": "ChIJ2y3SZb9bwokRH5Zcm0gk1xk",
      "plus_code": {
        "compound_code": "M2RP+X8 New York, NY, USA",
        "global_code": "87G8M2RP+X8"
      },
      "reference": "ChIJ2y3SZb9bwokRH5Zcm0gk1xk",
      "scope": "GOOGLE",
      "types": [
        "point_of_interest",
        "establishment"
      ],
      "vicinity": "195 Willoughby Avenue, Brooklyn"
    },
    {
      "business_status": "OPERATIONAL",
      "geometry": {
        "location": {
          "lat": 40.6936608,
          "lng": -73.9677962
        },
        "viewport": {
          "northeast": {
            "lat": 40.69501018029151,
            "lng": -73.96651971970849
          },
          "southwest": {
            "lat": 40.69231221970851,
            "lng": -73.9692176802915
          }
        }
      },
      "icon": "https://maps.gstatic.com/mapfiles/place_api/icons/v1/png_71/generic_business-71.png",
      "icon_background_color": "#7B9EB0",
      "icon_mask_base_uri": "https://maps.gstatic.com/mapfiles/place_api/icons/v2/generic_pinlet",
      "name": "Trilok Fusion Center For Arts",
      "photos": [
        {
          "height": 3024,
          "html_attributions": [
            "<a href=\"https://maps.google.com/maps/contrib/116698065075227300909\">Aline B.</a>"
          ],
          "photo_reference": "AeJbb3fxMA2ITBZ386d2bpi3JL5ylYF5GpeMNbc3L0_OT9myOjepf_6Ow71IJVI1NWX9HCRQlZExlbPkGtV2eFS3xTf729oiUnESx5K-5lwSEY3irxdcfDcd2GTelHUC5kvTU6LxkVZlCWSAdHy91xl6lVNoOgA6Hs_3Vpfu4TcXSFdat4gz",
          "width": 4032
        }
      ],
      "place_id": "ChIJh8FffcdbwokRsEeNjjdWYKc",
      "plus_code": {
        "compound_code": "M2VJ+FV New York, NY, USA",
        "global_code": "87G8M2VJ+FV"
      },
      "rating": 3,
      "reference": "ChIJh8FffcdbwokRsEeNjjdWYKc",
      "scope": "GOOGLE",
      "types": [
        "school",
        "point_of_interest",
        "establishment"
      ],
      "user_ratings_total": 2,
      "vicinity": "143 Waverly Avenue, Brooklyn"
    },
    {
      "business_status": "OPERATIONAL",
      "geometry": {
        "location": {
          "lat": 40.6914766,
          "lng": -73.959448
        },
        "viewport": {
          "northeast": {
            "lat": 40.6928151802915,
            "lng": -73.9581883697085
          },
          "southwest": {
            "lat": 40.6901172197085,
            "lng": -73.9608863302915
          }
        }
      },
      "icon": "https://maps.gstatic.com/mapfiles/place_api/icons/v1/png_71/school-71.png",
      "icon_background_color": "#7B9EB0",
      "icon_mask_base_uri": "https://maps.gstatic.com/mapfiles/place_api/icons/v2/school_pinlet",
      "name": "Brooklyn Doula -- Megan Davidson, PhD",
      "opening_hours": {
        "open_now": true
      },
      "photos": [
        {
          "height": 5220,
          "html_attributions": [
            "<a href=\"https://maps.google.com/maps/contrib/112662164459937212769\">Brooklyn Doula -- Megan Davidson, PhD</a>"
          ],
          "photo_reference": "AeJbb3dxKKmn7ry79ADDQEcHdUUpulMOA-b5AEQYbHXydDsk2KWNIHJ7yeBBrexT8i5jvnAV40rUxY0Hu4MdRoZk8bFL6tkyPUANRqofvmkWjuSnzG7n3nlrG1B-s4dsoPah8vUczeGHV1ZVgcCeCWjIkaEI3JyzPTaCVVWf2vKdG9vD7QtN",
          "width": 3480
        }
      ],
      "place_id": "ChIJH3Y94r9bwokRDJYNECtoSK0",
      "plus_code": {
        "compound_code": "M2RR+H6 Brooklyn, NY, USA",
        "global_code": "87G8M2RR+H6"
      },
      "reference": "ChIJH3Y94r9bwokRDJYNECtoSK0",
      "scope": "GOOGLE",
      "types": [
        "point_of_interest",
        "establishment"
      ],
      "vicinity": "213 Taaffe Place, Brooklyn"
    },
    {
      "business_status": "OPERATIONAL",
      "geometry": {
        "location": {
          "lat": 40.6974914,
          "lng": -73.9617585
        },
        "viewport": {
          "northeast": {
            "lat": 40.6989261302915,
            "lng": -73.9604506697085
          },
          "southwest": {
            "lat": 40.6962281697085,
            "lng": -73.9631486302915
          }
        }
      },
      "icon": "https://maps.gstatic.com/mapfiles/place_api/icons/v1/png_71/generic_business-71.png",
      "icon_background_color": "#7B9EB0",
      "icon_mask_base_uri": "https://maps.gstatic.com/mapfiles/place_api/icons/v2/generic_pinlet",
      "name": "All United Window & Glass",
      "opening_hours": {
        "open_now": false
      },
      "photos": [
        {
          "height": 1360,
          "html_attributions": [
            "<a href=\"https://maps.google.com/maps/contrib/110256769695153125462\">All United Window &amp; Glass</a>"
          ],
          "photo_reference": "AeJbb3eowznBhVhNDPPwwn2NExXW0S2O-tj0RwZnevp3O6koFKAIVI-6HrSZR0OiVpYbjixnIEVpbGHZmSPgl098A-ay-X-JHyHqNa4t05_mWc7Qu_sVrlkdEpm5X2q23EiIyemFHxyY6IwscJlfGf6wexwLo7Sagnnt_31ypn_XPHDfq2w",
          "width": 2048
        }
      ],
      "place_id": "ChIJOeoiKMJbwokRdquCp1DN72Q",
      "plus_code": {
        "compound_code": "M2WQ+X7 New York, NY, USA",
        "global_code": "87G8M2WQ+X7"
      },
      "rating": 4.5,
      "reference": "ChIJOeoiKMJbwokRdquCp1DN72Q",
      "scope": "GOOGLE",
      "types": [
        "point_of_interest",
        "establishment"
      ],
      "user_ratings_total": 112,
      "vicinity": "97 Classon Avenue, Brooklyn"
    },
    {
      "business_status": "OPERATIONAL",
      "geometry": {
        "location": {
          "lat": 40.6930815,
          "lng": -73.96747979999999
        },
        "viewport": {
          "northeast": {
            "lat": 40.6945270302915,
            "lng": -73.9661595697085
          },
          "southwest": {
            "lat": 40.6918290697085,
            "lng": -73.9688575302915
          }
        }
      },
      "icon": "https://maps.gstatic.com/mapfiles/place_api/icons/v1/png_71/restaurant-71.png",
      "icon_background_color": "#FF9E67",
      "icon_mask_base_uri": "https://maps.gstatic.com/mapfiles/place_api/icons/v2/restaurant_pinlet",
      "name": "Thai 101",
      "opening_hours": {
        "open_now": true
      },
      "photos": [
        {
          "height": 1960,
          "html_attributions": [
            "<a href=\"https://maps.google.com/maps/contrib/118361994339533691769\">Hillary Hopkins</a>"
          ],
          "photo_reference": "AeJbb3cKOHJxcxsvOZO0RPiMNxFY5CPaOOrJ9CGWQ95hlilPskPSrv_z12c0BEiWbU3qlz9cM543ltOczCdEJKHrVyH8KwNZgVFcuUdl6KRc67gE1QRMgg1B_4xXUJB5aZaNH-9KX853JsRdI7Va-IrKOYAGReLFkrwuW76TXUhboYcXmfj-",
          "width": 4032
        }
      ],
      "place_id": "ChIJGQfym7hbwokRCPtkeUPDllk",
      "plus_code": {
        "compound_code": "M2VM+62 New York, NY, USA",
        "global_code": "87G8M2VM+62"
      },
      "price_level": 1,
      "rating": 4.2,
      "reference": "ChIJGQfym7hbwokRCPtkeUPDllk",
      "scope": "GOOGLE",
      "types": [
        "restaurant",
        "food",
        "point_of_interest",
        "establishment"
      ],
      "user_ratings_total": 301,
      "vicinity": "448 Myrtle Avenue, Brooklyn"
    },
    {
      "business_status": "OPERATIONAL",
      "geometry": {
        "location": {
          "lat": 40.6911434,
          "lng": -73.95967519999999
        },
        "viewport": {
          "northeast": {
            "lat": 40.6925036302915,
            "lng": -73.95827261970848
          },
          "southwest": {
            "lat": 40.68980566970851,
            "lng": -73.96097058029149
          }
        }
      },
      "icon": "https://maps.gstatic.com/mapfiles/place_api/icons/v1/png_71/generic_business-71.png",
      "icon_background_color": "#7B9EB0",
      "icon_mask_base_uri": "https://maps.gstatic.com/mapfiles/place_api/icons/v2/generic_pinlet",
      "name": "Alma Realty Co",
      "place_id": "ChIJ22xo4L9bwokR91y6lPn2-qg",
      "plus_code": {
        "compound_code": "M2RR+F4 New York, NY, USA",
        "global_code": "87G8M2RR+F4"
      },
      "rating": 2.3,
      "reference": "ChIJ22xo4L9bwokR91y6lPn2-qg",
      "scope": "GOOGLE",
      "types": [
        "real_estate_agency",
        "point_of_interest",
        "establishment"
      ],
      "user_ratings_total": 3,
      "vicinity": "262 Taaffe Place, Brooklyn"
    },
    {
      "business_status": "OPERATIONAL",
      "geometry": {
        "location": {
          "lat": 40.6923421,
          "lng": -73.9632258
        },
        "viewport": {
          "northeast": {
            "lat": 40.6936901802915,
            "lng": -73.9618764697085
          },
          "southwest": {
            "lat": 40.6909922197085,
            "lng": -73.9645744302915
          }
        }
      },
      "icon": "https://maps.gstatic.com/mapfiles/place_api/icons/v1/png_71/generic_business-71.png",
      "icon_background_color": "#7B9EB0",
      "icon_mask_base_uri": "https://maps.gstatic.com/mapfiles/place_api/icons/v2/generic_pinlet",
      "name": "Martha A. Cedarholm, NP",
      "place_id": "ChIJgSwFfb9bwokRUKmujtCMq-8",
      "plus_code": {
        "compound_code": "M2RP+WP Brooklyn, NY, USA",
        "global_code": "87G8M2RP+WP"
      },
      "reference": "ChIJgSwFfb9bwokRUKmujtCMq-8",
      "scope": "GOOGLE",
      "types": [
        "health",
        "point_of_interest",
        "establishment"
      ],
      "vicinity": "215 Willoughby Avenue #115, Brooklyn"
    },
    {
      "business_status": "OPERATIONAL",
      "geometry": {
        "location": {
          "lat": 40.6923118,
          "lng": -73.9653256
        },
        "viewport": {
          "northeast": {
            "lat": 40.6937093302915,
            "lng": -73.96378036970849
          },
          "southwest": {
            "lat": 40.6910113697085,
            "lng": -73.96647833029151
          }
        }
      },
      "icon": "https://maps.gstatic.com/mapfiles/place_api/icons/v1/png_71/generic_business-71.png",
      "icon_background_color": "#7B9EB0",
      "icon_mask_base_uri": "https://maps.gstatic.com/mapfiles/place_api/icons/v2/generic_pinlet",
      "name": "Dawn J. Brown, LPN",
      "place_id": "ChIJedcLTb9bwokRtLHmV5432cM",
      "plus_code": {
        "compound_code": "M2RM+WV New York, NY, USA",
        "global_code": "87G8M2RM+WV"
      },
      "reference": "ChIJedcLTb9bwokRtLHmV5432cM",
      "scope": "GOOGLE",
      "types": [
        "health",
        "point_of_interest",
        "establishment"
      ],
      "vicinity": "185 Hall Street, Brooklyn"
    },
    {
      "business_status": "OPERATIONAL",
      "geometry": {
        "location": {
          "lat": 40.69194689999999,
          "lng": -73.9586747
        },
        "viewport": {
          "northeast": {
            "lat": 40.6936060302915,
            "lng": -73.9574393197085
          },
          "southwest": {
            "lat": 40.6909080697085,
            "lng": -73.9601372802915
          }
        }
      },
      "icon": "https://maps.gstatic.com/mapfiles/place_api/icons/v1/png_71/school-71.png",
      "icon_background_color": "#7B9EB0",
      "icon_mask_base_uri": "https://maps.gstatic.com/mapfiles/place_api/icons/v2/school_pinlet",
      "name": "Brooklyn Community Arts & Media High School (BCAM)",
      "photos": [
        {
          "height": 4032,
          "html_attributions": [
            "<a href=\"https://maps.google.com/maps/contrib/102327376685987955309\">teresa</a>"
          ],
          "photo_reference": "AeJbb3dQE1XxoUIAqNh42A3M-XpsBY2om4D0H3-CFJC1JbLd9Yx_JURlqN2X0JGQtVJfg-ticjKbObc-Gx6-lts-s_4O3Q-rUU2s6Difba14jBB8mMYiU-m6uzUcb1DJG5w5UCKrQA3a9QuYnKKr5dzggR11WYrdpUvqet6o0z7Lw3N5iXiW",
          "width": 3024
        }
      ],
      "place_id": "ChIJu5pFsupbwokRrs3rxeL1Ano",
      "plus_code": {
        "compound_code": "M2RR+QG New York, NY, USA",
        "global_code": "87G8M2RR+QG"
      },
      "rating": 4.1,
      "reference": "ChIJu5pFsupbwokRrs3rxeL1Ano",
      "scope": "GOOGLE",
      "types": [
        "secondary_school",
        "school",
        "point_of_interest",
        "establishment"
      ],
      "user_ratings_total": 23,
      "vicinity": "300 Willoughby Avenue, Brooklyn"
    },
    {
      "business_status": "OPERATIONAL",
      "geometry": {
        "location": {
          "lat": 40.69556499999999,
          "lng": -73.963301
        },
        "viewport": {
          "northeast": {
            "lat": 40.6969018802915,
            "lng": -73.9620543697085
          },
          "southwest": {
            "lat": 40.6942039197085,
            "lng": -73.96475233029152
          }
        }
      },
      "icon": "https://maps.gstatic.com/mapfiles/place_api/icons/v1/png_71/generic_business-71.png",
      "icon_background_color": "#7B9EB0",
      "icon_mask_base_uri": "https://maps.gstatic.com/mapfiles/place_api/icons/v2/generic_pinlet",
      "name": "DecoCraft USA",
      "opening_hours": {
        "open_now": false
      },
      "photos": [
        {
          "height": 270,
          "html_attributions": [
            "<a href=\"https://maps.google.com/maps/contrib/116365515636869495171\">DecoCraft USA</a>"
          ],
          "photo_reference": "AeJbb3cYOY6QTaCPL8NiEx8plhYGSqoSUNoOWbkFtdJE8BsJrIlv0bjtx33ss1NweNOsBdwYjdybDjBV9yHVkgAMyz1qPR32FNjoeRsFneXhqoMgjMWrOlikLJGZ46YwlH2wOxpuPLJvAsVd_c5ACnNv2gXKLSNhsUChH0VMhGaCaPd9Jp1k",
          "width": 1118
        }
      ],
      "place_id": "ChIJQ5cuQN5bwokRjYmJ_lAfRMs",
      "plus_code": {
        "compound_code": "M2WP+6M Brooklyn, NY, USA",
        "global_code": "87G8M2WP+6M"
      },
      "rating": 5,
      "reference": "ChIJQ5cuQN5bwokRjYmJ_lAfRMs",
      "scope": "GOOGLE",
      "types": [
        "general_contractor",
        "home_goods_store",
        "store",
        "point_of_interest",
        "establishment"
      ],
      "user_ratings_total": 1,
      "vicinity": "67 Steuben Street, Brooklyn"
    },
    {
      "business_status": "OPERATIONAL",
      "geometry": {
        "location": {
          "lat": 40.6954635,
          "lng": -73.9660072
        },
        "viewport": {
          "northeast": {
            "lat": 40.69679433029149,
            "lng": -73.96481466970849
          },
          "southwest": {
            "lat": 40.69409636970849,
            "lng": -73.96751263029151
          }
        }
      },
      "icon": "https://maps.gstatic.com/mapfiles/place_api/icons/v1/png_71/generic_business-71.png",
      "icon_background_color": "#7B9EB0",
      "icon_mask_base_uri": "https://maps.gstatic.com/mapfiles/place_api/icons/v2/generic_pinlet",
      "name": "Penske Truck Rental",
      "opening_hours": {
        "open_now": false
      },
      "photos": [
        {
          "height": 720,
          "html_attributions": [
            "<a href=\"https://maps.google.com/maps/contrib/100908462552953770536\">Penske Truck Rental</a>"
          ],
          "photo_reference": "AeJbb3dAmISUO04IDXAgM3YOsVw9ZbgfMZ_esePh-gxxsDSgA-WSBo_BURZcoHNjb9oNfuruS-WpS593nQGDzhaMYgo4JxIHhwXET8GBeol4V0R8aobQmcuU915ow6_exBybjf3OMw13x4owgi8fEEnRIH6zmLYrub3micBYl9f3BBgeI1Al",
          "width": 1280
        }
      ],
      "place_id": "ChIJ5_ZXAMJawokR9j9CnK3CGU8",
      "plus_code": {
        "compound_code": "M2WM+5H New York, NY, USA",
        "global_code": "87G8M2WM+5H"
      },
      "rating": 3.6,
      "reference": "ChIJ5_ZXAMJawokR9j9CnK3CGU8",
      "scope": "GOOGLE",
      "types": [
        "store",
        "point_of_interest",
        "establishment"
      ],
      "user_ratings_total": 36,
      "vicinity": "77 Hall Street, Brooklyn"
    },
    {
      "business_status": "OPERATIONAL",
      "geometry": {
        "location": {
          "lat": 40.6940611,
          "lng": -73.96195279999999
        },
        "viewport": {
          "northeast": {
            "lat": 40.6953335802915,
            "lng": -73.9606382197085
          },
          "southwest": {
            "lat": 40.6926356197085,
            "lng": -73.9633361802915
          }
        }
      },
      "icon": "https://maps.gstatic.com/mapfiles/place_api/icons/v1/png_71/cafe-71.png",
      "icon_background_color": "#FF9E67",
      "icon_mask_base_uri": "https://maps.gstatic.com/mapfiles/place_api/icons/v2/cafe_pinlet",
      "name": "BKG Coffee Roasters",
      "opening_hours": {
        "open_now": true
      },
      "photos": [
        {
          "height": 1602,
          "html_attributions": [
            "<a href=\"https://maps.google.com/maps/contrib/111594821105956972002\">BKG Coffee Roasters</a>"
          ],
          "photo_reference": "AeJbb3fDH_vRevVmVB-MaLc62ZKcCIbOgDrRggYvs9Pp8eEZOwR5XA22XwLAKOy0BZfzaWvqAne-9vIcdWKkjobgdJHeW0z-zTy6y-KlOTHmr-T1eQIpYvSsJPil2Dk9-gDYmFaRTNni_9ed1p9qw6tqdHknu9JKxKIpOEIil0sZP8Li1SGs",
          "width": 2400
        }
      ],
      "place_id": "ChIJBWhhqo5awokRSVjm8pyfBrg",
      "plus_code": {
        "compound_code": "M2VQ+J6 Brooklyn, NY, USA",
        "global_code": "87G8M2VQ+J6"
      },
      "price_level": 2,
      "rating": 4.8,
      "reference": "ChIJBWhhqo5awokRSVjm8pyfBrg",
      "scope": "GOOGLE",
      "types": [
        "cafe",
        "bakery",
        "store",
        "food",
        "point_of_interest",
        "establishment"
      ],
      "user_ratings_total": 208,
      "vicinity": "557 Myrtle Avenue, Brooklyn"
    },
    {
      "business_status": "OPERATIONAL",
      "geometry": {
        "location": {
          "lat": 40.6938743,
          "lng": -73.96362189999999
        },
        "viewport": {
          "northeast": {
            "lat": 40.69514883029149,
            "lng": -73.96225911970849
          },
          "southwest": {
            "lat": 40.6924508697085,
            "lng": -73.9649570802915
          }
        }
      },
      "icon": "https://maps.gstatic.com/mapfiles/place_api/icons/v1/png_71/generic_business-71.png",
      "icon_background_color": "#7B9EB0",
      "icon_mask_base_uri": "https://maps.gstatic.com/mapfiles/place_api/icons/v2/generic_pinlet",
      "name": "Ebony Cabinet",
      "place_id": "ChIJ8_LZlsBbwokRnG2IfxU9Xic",
      "plus_code": {
        "compound_code": "M2VP+GH New York, NY, USA",
        "global_code": "87G8M2VP+GH"
      },
      "reference": "ChIJ8_LZlsBbwokRnG2IfxU9Xic",
      "scope": "GOOGLE",
      "types": [
        "general_contractor",
        "point_of_interest",
        "establishment"
      ],
      "vicinity": "527 Myrtle Avenue, Brooklyn"
    },
    {
      "business_status": "OPERATIONAL",
      "geometry": {
        "location": {
          "lat": 40.6924651,
          "lng": -73.9582495
        },
        "viewport": {
          "northeast": {
            "lat": 40.69393503029149,
            "lng": -73.95692431970849
          },
          "southwest": {
            "lat": 40.6912370697085,
            "lng": -73.95962228029151
          }
        }
      },
      "icon": "https://maps.gstatic.com/mapfiles/place_api/icons/v1/png_71/school-71.png",
      "icon_background_color": "#7B9EB0",
      "icon_mask_base_uri": "https://maps.gstatic.com/mapfiles/place_api/icons/v2/school_pinlet",
      "name": "P369K - The Coy L. Cox School",
      "place_id": "ChIJu5pFsupbwokRw8M6uO9i-_0",
      "plus_code": {
        "compound_code": "M2RR+XP New York, NY, USA",
        "global_code": "87G8M2RR+XP"
      },
      "reference": "ChIJu5pFsupbwokRw8M6uO9i-_0",
      "scope": "GOOGLE",
      "types": [
        "school",
        "point_of_interest",
        "establishment"
      ],
      "vicinity": "300 Willoughby Avenue, Brooklyn"
    },
    {
      "business_status": "OPERATIONAL",
      "geometry": {
        "location": {
          "lat": 40.6943982,
          "lng": -73.9595886
        },
        "viewport": {
          "northeast": {
            "lat": 40.6957471802915,
            "lng": -73.9582396197085
          },
          "southwest": {
            "lat": 40.6930492197085,
            "lng": -73.96093758029151
          }
        }
      },
      "icon": "https://maps.gstatic.com/mapfiles/place_api/icons/v1/png_71/generic_business-71.png",
      "icon_background_color": "#7B9EB0",
      "icon_mask_base_uri": "https://maps.gstatic.com/mapfiles/place_api/icons/v2/generic_pinlet",
      "name": "CHRISTMAS REAL ESTATE TEAM",
      "opening_hours": {
        "open_now": true
      },
      "photos": [
        {
          "height": 538,
          "html_attributions": [
            "<a href=\"https://maps.google.com/maps/contrib/110877485553837928151\">CHRISTMAS REAL ESTATE TEAM</a>"
          ],
          "photo_reference": "AeJbb3db6uLcLzxFhkRt3MKQzjArx5HKQdhy047P6pm_lMbK88JQpqHWopS1ded3Wo4rbauiIg0F1wtbW9wmLQ3S0pmJa5tgeHcwUeFhMuoUWEypM3a-RBHxAbNcM5DxWd8PGxF3a8oqkUetYSHiovcfSBZQk6pz3yT-zpDWa9ZJuVJXyBBo",
          "width": 958
        }
      ],
      "place_id": "ChIJDx5sJ7pbwokRuSSRvnPx6A8",
      "plus_code": {
        "compound_code": "M2VR+Q5 New York, NY, USA",
        "global_code": "87G8M2VR+Q5"
      },
      "rating": 4,
      "reference": "ChIJDx5sJ7pbwokRuSSRvnPx6A8",
      "scope": "GOOGLE",
      "types": [
        "real_estate_agency",
        "lodging",
        "finance",
        "point_of_interest",
        "establishment"
      ],
      "user_ratings_total": 1,
      "vicinity": "609 Myrtle Avenue Suite 50034, Brooklyn"
    },
    {
      "business_status": "OPERATIONAL",
      "geometry": {
        "location": {
          "lat": 40.6941498,
          "lng": -73.96156739999999
        },
        "viewport": {
          "northeast": {
            "lat": 40.69540458029149,
            "lng": -73.96019986970849
          },
          "southwest": {
            "lat": 40.6927066197085,
            "lng": -73.9628978302915
          }
        }
      },
      "icon": "https://maps.gstatic.com/mapfiles/place_api/icons/v1/png_71/restaurant-71.png",
      "icon_background_color": "#FF9E67",
      "icon_mask_base_uri": "https://maps.gstatic.com/mapfiles/place_api/icons/v2/restaurant_pinlet",
      "name": "Carvel Express",
      "photos": [
        {
          "height": 1000,
          "html_attributions": [
            "<a href=\"https://maps.google.com/maps/contrib/106812607252164917765\">Carvel Express</a>"
          ],
          "photo_reference": "AeJbb3cKrGVWUM15cPTHSNupUYPRvy-dyezyUv4VB6KlMYG2yM47YsRM4l0QxlWMfT6iwDh5A68vYL5CUEB8lMr3s2P6x5tsmM5n_P-p2HvV6Wpcd9nYZNZDOQ_1i-PVR205v-6l80Z9QGjZEBLLI4TjTf6RClBr2exPe5YKW7f-6RoDep8k",
          "width": 1000
        }
      ],
      "place_id": "ChIJ_XPgacBbwokRDxdcySdSYgM",
      "plus_code": {
        "compound_code": "M2VQ+M9 New York, NY, USA",
        "global_code": "87G8M2VQ+M9"
      },
      "price_level": 1,
      "rating": 3,
      "reference": "ChIJ_XPgacBbwokRDxdcySdSYgM",
      "scope": "GOOGLE",
      "types": [
        "store",
        "point_of_interest",
        "food",
        "establishment"
      ],
      "user_ratings_total": 22,
      "vicinity": "569 Myrtle Avenue, Brooklyn"
    },
    {
      "business_status": "OPERATIONAL",
      "geometry": {
        "location": {
          "lat": 40.6945062,
          "lng": -73.9644033
        },
        "viewport": {
          "northeast": {
            "lat": 40.69586393029151,
            "lng": -73.9629767197085
          },
          "southwest": {
            "lat": 40.69316596970851,
            "lng": -73.96567468029151
          }
        }
      },
      "icon": "https://maps.gstatic.com/mapfiles/place_api/icons/v1/png_71/generic_business-71.png",
      "icon_background_color": "#7B9EB0",
      "icon_mask_base_uri": "https://maps.gstatic.com/mapfiles/place_api/icons/v2/generic_pinlet",
      "name": "A M & G Waterproofing",
      "place_id": "ChIJF5M4x8BbwokRFXQiqhXM7wc",
      "plus_code": {
        "compound_code": "M2VP+R6 Brooklyn, NY, USA",
        "global_code": "87G8M2VP+R6"
      },
      "rating": 3,
      "reference": "ChIJF5M4x8BbwokRFXQiqhXM7wc",
      "scope": "GOOGLE",
      "types": [
        "general_contractor",
        "point_of_interest",
        "establishment"
      ],
      "user_ratings_total": 2,
      "vicinity": "100 Grand Avenue, Brooklyn"
    },
    {
      "business_status": "CLOSED_TEMPORARILY",
      "geometry": {
        "location": {
          "lat": 40.69645929999999,
          "lng": -73.9608624
        },
        "viewport": {
          "northeast": {
            "lat": 40.69772023029149,
            "lng": -73.9595244197085
          },
          "southwest": {
            "lat": 40.6950222697085,
            "lng": -73.96222238029151
          }
        }
      },
      "icon": "https://maps.gstatic.com/mapfiles/place_api/icons/v1/png_71/shopping-71.png",
      "icon_background_color": "#4B96F3",
      "icon_mask_base_uri": "https://maps.gstatic.com/mapfiles/place_api/icons/v2/shopping_pinlet",
      "name": "Sweater Brand Inc",
      "permanently_closed": true,
      "photos": [
        {
          "height": 2048,
          "html_attributions": [
            "<a href=\"https://maps.google.com/maps/contrib/115246117979849181666\">Mizanur Rahman</a>"
          ],
          "photo_reference": "AeJbb3f4b-RDZOuSNwqzbU_giEr-cZV6E4JG9iCJ2Tnl3lpkEmuhAje0uGFOe7S9IRnj5si4UsYhoEBoBdbIEV9V9f-KAd8unG-L5XqBZGeBSxYi5XiI-i6Yp9pJ64ovXcGy6Lqd0o4GF03Jc12zQ-ur1DzwZYWty3Vy4HOXeYzjymNQvzqG",
          "width": 1400
        }
      ],
      "place_id": "ChIJM0vDksFbwokR5A5OW0lMlGE",
      "plus_code": {
        "compound_code": "M2WQ+HM New York, NY, USA",
        "global_code": "87G8M2WQ+HM"
      },
      "rating": 4,
      "reference": "ChIJM0vDksFbwokR5A5OW0lMlGE",
      "scope": "GOOGLE",
      "types": [
        "clothing_store",
        "store",
        "point_of_interest",
        "establishment"
      ],
      "user_ratings_total": 3,
      "vicinity": "401 Park Avenue, Brooklyn"
    },
    {
      "business_status": "OPERATIONAL",
      "geometry": {
        "location": {
          "lat": 40.6931541,
          "lng": -73.9612633
        },
        "viewport": {
          "northeast": {
            "lat": 40.6945255802915,
            "lng": -73.9597381197085
          },
          "southwest": {
            "lat": 40.69182761970851,
            "lng": -73.96243608029152
          }
        }
      },
      "icon": "https://maps.gstatic.com/mapfiles/place_api/icons/v1/png_71/shopping-71.png",
      "icon_background_color": "#4B96F3",
      "icon_mask_base_uri": "https://maps.gstatic.com/mapfiles/place_api/icons/v2/shopping_pinlet",
      "name": "Outside Space Garden Center",
      "opening_hours": {
        "open_now": true
      },
      "photos": [
        {
          "height": 3024,
          "html_attributions": [
            "<a href=\"https://maps.google.com/maps/contrib/111374958511242826086\">Outside Space Garden Center</a>"
          ],
          "photo_reference": "AeJbb3cTj6xEQvqHZegTCybFaM7Nhgs30U_C4WxVkNen9d8NyGj5Oyn2i-VbCDVCz3QZUmUOkN48GfvxQcM-PoWl5q2okMGcBdlsfiPsaoktja1zGEremRM7MD85nvcjmHKE0a1Pmvzoi3X1aGB27vZojsGMIqg6Z9axRpNeye4qyfxEprXq",
          "width": 4032
        }
      ],
      "place_id": "ChIJLZq6QpVbwokRlQYzwSipxKI",
      "plus_code": {
        "compound_code": "M2VQ+7F New York, NY, USA",
        "global_code": "87G8M2VQ+7F"
      },
      "rating": 4.7,
      "reference": "ChIJLZq6QpVbwokRlQYzwSipxKI",
      "scope": "GOOGLE",
      "types": [
        "general_contractor",
        "store",
        "point_of_interest",
        "establishment"
      ],
      "user_ratings_total": 26,
      "vicinity": "216 Classon Avenue, Brooklyn"
    },
    {
      "business_status": "OPERATIONAL",
      "geometry": {
        "location": {
          "lat": 40.6945365,
          "lng": -73.9613927
        },
        "viewport": {
          "northeast": {
            "lat": 40.6958998302915,
            "lng": -73.9599556197085
          },
          "southwest": {
            "lat": 40.6932018697085,
            "lng": -73.9626535802915
          }
        }
      },
      "icon": "https://maps.gstatic.com/mapfiles/place_api/icons/v1/png_71/generic_business-71.png",
      "icon_background_color": "#7B9EB0",
      "icon_mask_base_uri": "https://maps.gstatic.com/mapfiles/place_api/icons/v2/generic_pinlet",
      "name": "Manhattan Hosiery Co Inc",
      "opening_hours": {
        "open_now": false
      },
      "place_id": "ChIJS3rbSMBbwokR_C1dyiJbnZ8",
      "plus_code": {
        "compound_code": "M2VQ+RC Brooklyn, NY, USA",
        "global_code": "87G8M2VQ+RC"
      },
      "rating": 5,
      "reference": "ChIJS3rbSMBbwokR_C1dyiJbnZ8",
      "scope": "GOOGLE",
      "types": [
        "point_of_interest",
        "establishment"
      ],
      "user_ratings_total": 2,
      "vicinity": "172 Classon Avenue, Brooklyn"
    },
    {
      "business_status": "OPERATIONAL",
      "geometry": {
        "location": {
          "lat": 40.695063,
          "lng": -73.95915099999999
        },
        "viewport": {
          "northeast": {
            "lat": 40.6964106302915,
            "lng": -73.95797431970848
          },
          "southwest": {
            "lat": 40.6937126697085,
            "lng": -73.9606722802915
          }
        }
      },
      "icon": "https://maps.gstatic.com/mapfiles/place_api/icons/v1/png_71/shopping-71.png",
      "icon_background_color": "#4B96F3",
      "icon_mask_base_uri": "https://maps.gstatic.com/mapfiles/place_api/icons/v2/shopping_pinlet",
      "name": "CDF Floors Inc",
      "opening_hours": {
        "open_now": true
      },
      "place_id": "ChIJNQkLf-pbwokRK7-kOyqJiaw",
      "plus_code": {
        "compound_code": "M2WR+28 New York, NY, USA",
        "global_code": "87G8M2WR+28"
      },
      "reference": "ChIJNQkLf-pbwokRK7-kOyqJiaw",
      "scope": "GOOGLE",
      "types": [
        "home_goods_store",
        "store",
        "point_of_interest",
        "establishment"
      ],
      "vicinity": "851 Kent Avenue, Brooklyn"
    },
    {
      "business_status": "OPERATIONAL",
      "geometry": {
        "location": {
          "lat": 40.6940337,
          "lng": -73.9621191
        },
        "viewport": {
          "northeast": {
            "lat": 40.6953682802915,
            "lng": -73.9608288197085
          },
          "southwest": {
            "lat": 40.6926703197085,
            "lng": -73.96352678029152
          }
        }
      },
      "icon": "https://maps.gstatic.com/mapfiles/place_api/icons/v1/png_71/atm-71.png",
      "icon_background_color": "#909CE1",
      "icon_mask_base_uri": "https://maps.gstatic.com/mapfiles/place_api/icons/v2/atm_pinlet",
      "name": "Cardtronics ATM",
      "place_id": "ChIJ5Rq4YMBbwokReOJkJenLA1Y",
      "plus_code": {
        "compound_code": "M2VQ+J5 Brooklyn, NY, USA",
        "global_code": "87G8M2VQ+J5"
      },
      "rating": 2,
      "reference": "ChIJ5Rq4YMBbwokReOJkJenLA1Y",
      "scope": "GOOGLE",
      "types": [
        "atm",
        "finance",
        "point_of_interest",
        "establishment"
      ],
      "user_ratings_total": 2,
      "vicinity": "551 Myrtle Avenue, Brooklyn"
    },
    {
      "business_status": "OPERATIONAL",
      "geometry": {
        "location": {
          "lat": 40.695063,
          "lng": -73.95915099999999
        },
        "viewport": {
          "northeast": {
            "lat": 40.6964106302915,
            "lng": -73.95797431970848
          },
          "southwest": {
            "lat": 40.6937126697085,
            "lng": -73.9606722802915
          }
        }
      },
      "icon": "https://maps.gstatic.com/mapfiles/place_api/icons/v1/png_71/shopping-71.png",
      "icon_background_color": "#4B96F3",
      "icon_mask_base_uri": "https://maps.gstatic.com/mapfiles/place_api/icons/v2/shopping_pinlet",
      "name": "Baron Lighting",
      "opening_hours": {
        "open_now": false
      },
      "photos": [
        {
          "height": 347,
          "html_attributions": [
            "<a href=\"https://maps.google.com/maps/contrib/111597180382979391512\">Baron Lighting</a>"
          ],
          "photo_reference": "AeJbb3eyzJAX9Uzi491QKlDeXHc6GARhB1jZ2Cs31d8iSXDvjIwnTGXzJqhK5H79gcet7a2noCJFXmP3eoPOvq0dctA2g0G0RJc5eeEdPFn6IHPyaCJ-26CzOz7bGMoPSHtsBIC0lLwdB5DdmXqKUa0QmJgancoslDmp_ImFR64kO7RACOfb",
          "width": 387
        }
      ],
      "place_id": "ChIJNQkLf-pbwokR7dkCtm3EcMk",
      "plus_code": {
        "compound_code": "M2WR+28 New York, NY, USA",
        "global_code": "87G8M2WR+28"
      },
      "rating": 5,
      "reference": "ChIJNQkLf-pbwokR7dkCtm3EcMk",
      "scope": "GOOGLE",
      "types": [
        "home_goods_store",
        "store",
        "point_of_interest",
        "establishment"
      ],
      "user_ratings_total": 1,
      "vicinity": "851 Kent Avenue, Brooklyn"
    },
    {
      "business_status": "OPERATIONAL",
      "geometry": {
        "location": {
          "lat": 40.6962858,
          "lng": -73.9618924
        },
        "viewport": {
          "northeast": {
            "lat": 40.6975780302915,
            "lng": -73.96053241970849
          },
          "southwest": {
            "lat": 40.6948800697085,
            "lng": -73.96323038029149
          }
        }
      },
      "icon": "https://maps.gstatic.com/mapfiles/place_api/icons/v1/png_71/shopping-71.png",
      "icon_background_color": "#4B96F3",
      "icon_mask_base_uri": "https://maps.gstatic.com/mapfiles/place_api/icons/v2/shopping_pinlet",
      "name": "M & C Kitchens",
      "opening_hours": {
        "open_now": false
      },
      "photos": [
        {
          "height": 1365,
          "html_attributions": [
            "<a href=\"https://maps.google.com/maps/contrib/116201331383538954869\">M &amp; C Kitchens</a>"
          ],
          "photo_reference": "AeJbb3cedsdk5dcnO0iUJrfqofq5VMoDISSeF5QdQiJf2zA1Eq5i-Al-HWdwB0ctD4h0sYfAAJ05Fv3EkWZM-DTMesKqImYkTLYQqrRUrzMxa9P3KLO697EB2KsG30WrseQctlQMN6fmjLAaq7C_5SA7PYfRTR8zky4Y9yAIud0vH0zpP2RU",
          "width": 2048
        }
      ],
      "place_id": "ChIJ76Pjo8FbwokRTHbrhoc_2zs",
      "plus_code": {
        "compound_code": "M2WQ+G6 New York, NY, USA",
        "global_code": "87G8M2WQ+G6"
      },
      "rating": 3.8,
      "reference": "ChIJ76Pjo8FbwokRTHbrhoc_2zs",
      "scope": "GOOGLE",
      "types": [
        "general_contractor",
        "home_goods_store",
        "store",
        "point_of_interest",
        "establishment"
      ],
      "user_ratings_total": 13,
      "vicinity": "375 Park Avenue, Brooklyn"
    },
    {
      "business_status": "OPERATIONAL",
      "geometry": {
        "location": {
          "lat": 40.6936725,
          "lng": -73.9620624
        },
        "viewport": {
          "northeast": {
            "lat": 40.6950152302915,
            "lng": -73.96076766970849
          },
          "southwest": {
            "lat": 40.6923172697085,
            "lng": -73.96346563029151
          }
        }
      },
      "icon": "https://maps.gstatic.com/mapfiles/place_api/icons/v1/png_71/generic_business-71.png",
      "icon_background_color": "#7B9EB0",
      "icon_mask_base_uri": "https://maps.gstatic.com/mapfiles/place_api/icons/v2/generic_pinlet",
      "name": "Bishop Memorial Mission, Inc.",
      "place_id": "ChIJJRZxZMBbwokRpWz7MnQQ2K8",
      "plus_code": {
        "compound_code": "M2VQ+F5 Brooklyn, NY, USA",
        "global_code": "87G8M2VQ+F5"
      },
      "rating": 5,
      "reference": "ChIJJRZxZMBbwokRpWz7MnQQ2K8",
      "scope": "GOOGLE",
      "types": [
        "point_of_interest",
        "establishment"
      ],
      "user_ratings_total": 2,
      "vicinity": "127 Emerson Place, Brooklyn"
    },
    {
      "business_status": "OPERATIONAL",
      "geometry": {
        "location": {
          "lat": 40.69677149999999,
          "lng": -73.9588658
        },
        "viewport": {
          "northeast": {
            "lat": 40.69799858029149,
            "lng": -73.95742466970849
          },
          "southwest": {
            "lat": 40.6953006197085,
            "lng": -73.96012263029151
          }
        }
      },
      "icon": "https://maps.gstatic.com/mapfiles/place_api/icons/v1/png_71/generic_business-71.png",
      "icon_background_color": "#7B9EB0",
      "icon_mask_base_uri": "https://maps.gstatic.com/mapfiles/place_api/icons/v2/generic_pinlet",
      "name": "Artek Sewing Supplies",
      "place_id": "ChIJ59E4EOpbwokRNbPBiINrX1M",
      "plus_code": {
        "compound_code": "M2WR+PF Brooklyn, NY, USA",
        "global_code": "87G8M2WR+PF"
      },
      "rating": 4,
      "reference": "ChIJ59E4EOpbwokRNbPBiINrX1M",
      "scope": "GOOGLE",
      "types": [
        "point_of_interest",
        "establishment"
      ],
      "user_ratings_total": 4,
      "vicinity": "455 Park Avenue, Brooklyn"
    },
    {
      "business_status": "OPERATIONAL",
      "geometry": {
        "location": {
          "lat": 40.6950885,
          "lng": -73.9610781
        },
        "viewport": {
          "northeast": {
            "lat": 40.6964190302915,
            "lng": -73.95985251970849
          },
          "southwest": {
            "lat": 40.6937210697085,
            "lng": -73.9625504802915
          }
        }
      },
      "icon": "https://maps.gstatic.com/mapfiles/place_api/icons/v1/png_71/generic_business-71.png",
      "icon_background_color": "#7B9EB0",
      "icon_mask_base_uri": "https://maps.gstatic.com/mapfiles/place_api/icons/v2/generic_pinlet",
      "name": "BZS Transport Inc.",
      "opening_hours": {
        "open_now": false
      },
      "place_id": "ChIJXXAyJOZbwokRuZnhQeZj8Vw",
      "plus_code": {
        "compound_code": "M2WQ+2H New York, NY, USA",
        "global_code": "87G8M2WQ+2H"
      },
      "rating": 4.2,
      "reference": "ChIJXXAyJOZbwokRuZnhQeZj8Vw",
      "scope": "GOOGLE",
      "types": [
        "moving_company",
        "point_of_interest",
        "establishment"
      ],
      "user_ratings_total": 24,
      "vicinity": "175 Classon Avenue, Brooklyn"
    },
    {
      "business_status": "OPERATIONAL",
      "geometry": {
        "location": {
          "lat": 40.6944367,
          "lng": -73.9593792
        },
        "viewport": {
          "northeast": {
            "lat": 40.6957910302915,
            "lng": -73.95798546970849
          },
          "southwest": {
            "lat": 40.6930930697085,
            "lng": -73.9606834302915
          }
        }
      },
      "icon": "https://maps.gstatic.com/mapfiles/place_api/icons/v1/png_71/shopping-71.png",
      "icon_background_color": "#4B96F3",
      "icon_mask_base_uri": "https://maps.gstatic.com/mapfiles/place_api/icons/v2/shopping_pinlet",
      "name": "Five Star Corrugated & Display",
      "opening_hours": {
        "open_now": false
      },
      "place_id": "ChIJk01I8sFbwokRckriQKm1kbM",
      "plus_code": {
        "compound_code": "M2VR+Q6 Brooklyn, NY, USA",
        "global_code": "87G8M2VR+Q6"
      },
      "rating": 3.9,
      "reference": "ChIJk01I8sFbwokRckriQKm1kbM",
      "scope": "GOOGLE",
      "types": [
        "store",
        "point_of_interest",
        "establishment"
      ],
      "user_ratings_total": 7,
      "vicinity": "65 Taaffe Place #1, Brooklyn"
    },
    {
      "business_status": "OPERATIONAL",
      "geometry": {
        "location": {
          "lat": 40.6937906,
          "lng": -73.9619118
        },
        "viewport": {
          "northeast": {
            "lat": 40.6952019802915,
            "lng": -73.9605751197085
          },
          "southwest": {
            "lat": 40.6925040197085,
            "lng": -73.96327308029151
          }
        }
      },
      "icon": "https://maps.gstatic.com/mapfiles/place_api/icons/v1/png_71/generic_business-71.png",
      "icon_background_color": "#7B9EB0",
      "icon_mask_base_uri": "https://maps.gstatic.com/mapfiles/place_api/icons/v2/generic_pinlet",
      "name": "Shic by Soketah",
      "opening_hours": {
        "open_now": true
      },
      "photos": [
        {
          "height": 4032,
          "html_attributions": [
            "<a href=\"https://maps.google.com/maps/contrib/112654963093975651515\">Shic by Soketah</a>"
          ],
          "photo_reference": "AeJbb3eb6-5qY63jO9htejRSPssEZG04fcGimI6tEuSX2YmxFs-79lxaIqzgX_n4faKNQBzfryUdRmHmF75MYN3vbc1Dsl4-LkMHQI-qtnIqR9DZCuiToIAOPtfT1GrtsU6bf4sNm3nwXhNFTcXzUuF-gbDCqmamPipG0BvlZkKA1t63P6u7",
          "width": 3024
        }
      ],
      "place_id": "ChIJZXgzZMBbwokRaYKUCgtyp50",
      "plus_code": {
        "compound_code": "M2VQ+G6 Brooklyn, NY, USA",
        "global_code": "87G8M2VQ+G6"
      },
      "rating": 4.9,
      "reference": "ChIJZXgzZMBbwokRaYKUCgtyp50",
      "scope": "GOOGLE",
      "types": [
        "beauty_salon",
        "point_of_interest",
        "establishment"
      ],
      "user_ratings_total": 24,
      "vicinity": "564 Myrtle Avenue, Brooklyn"
    },
    {
      "business_status": "OPERATIONAL",
      "geometry": {
        "location": {
          "lat": 40.69378940000001,
          "lng": -73.9616892
        },
        "viewport": {
          "northeast": {
            "lat": 40.6952136802915,
            "lng": -73.9603364197085
          },
          "southwest": {
            "lat": 40.6925157197085,
            "lng": -73.9630343802915
          }
        }
      },
      "icon": "https://maps.gstatic.com/mapfiles/place_api/icons/v1/png_71/generic_business-71.png",
      "icon_background_color": "#7B9EB0",
      "icon_mask_base_uri": "https://maps.gstatic.com/mapfiles/place_api/icons/v2/generic_pinlet",
      "name": "New Fantastic Cleaners",
      "opening_hours": {
        "open_now": true
      },
      "place_id": "ChIJHcgkZsBbwokR3zrgO_nE2pQ",
      "plus_code": {
        "compound_code": "M2VQ+G8 Brooklyn, NY, USA",
        "global_code": "87G8M2VQ+G8"
      },
      "rating": 4,
      "reference": "ChIJHcgkZsBbwokR3zrgO_nE2pQ",
      "scope": "GOOGLE",
      "types": [
        "laundry",
        "point_of_interest",
        "establishment"
      ],
      "user_ratings_total": 21,
      "vicinity": "570 Myrtle Avenue, Brooklyn"
    },
    {
      "business_status": "CLOSED_TEMPORARILY",
      "geometry": {
        "location": {
          "lat": 40.6939245,
          "lng": -73.9627206
        },
        "viewport": {
          "northeast": {
            "lat": 40.6952242802915,
            "lng": -73.9613673197085
          },
          "southwest": {
            "lat": 40.6925263197085,
            "lng": -73.9640652802915
          }
        }
      },
      "icon": "https://maps.gstatic.com/mapfiles/place_api/icons/v1/png_71/worship_jewish-71.png",
      "icon_background_color": "#7B9EB0",
      "icon_mask_base_uri": "https://maps.gstatic.com/mapfiles/place_api/icons/v2/worship_jewish_pinlet",
      "name": "Rohr Chabad Jewish Center",
      "permanently_closed": true,
      "photos": [
        {
          "height": 5312,
          "html_attributions": [
            "<a href=\"https://maps.google.com/maps/contrib/111252752142190389883\">Chaim Webberman</a>"
          ],
          "photo_reference": "AeJbb3eFJNyIJ9OkAs5HSw1gt1zlLYkfF3aJ_qfk9HiCTQMKW0EtmIvlo6QSeuaozgbq-OhlAzTxuyMYFH_2iomqC0ltu8Yy8XMweNGTHpQHr24Qy9Jk3cRtutUS08hZ0IhibhBQE_PHV10hSxbShxDyYnS--3kw_ZoxjG7sn-qhHZT4olve",
          "width": 2988
        }
      ],
      "place_id": "ChIJ3VyLjMBbwokR2E9yNMx596I",
      "plus_code": {
        "compound_code": "M2VP+HW New York, NY, USA",
        "global_code": "87G8M2VP+HW"
      },
      "rating": 5,
      "reference": "ChIJ3VyLjMBbwokR2E9yNMx596I",
      "scope": "GOOGLE",
      "types": [
        "synagogue",
        "place_of_worship",
        "point_of_interest",
        "establishment"
      ],
      "user_ratings_total": 7,
      "vicinity": "541 Myrtle Avenue, Brooklyn"
    },
    {
      "business_status": "CLOSED_TEMPORARILY",
      "geometry": {
        "location": {
          "lat": 40.6940471,
          "lng": -73.96190469999999
        },
        "viewport": {
          "northeast": {
            "lat": 40.69533378029151,
            "lng": -73.96054001970849
          },
          "southwest": {
            "lat": 40.69263581970851,
            "lng": -73.9632379802915
          }
        }
      },
      "icon": "https://maps.gstatic.com/mapfiles/place_api/icons/v1/png_71/shopping-71.png",
      "icon_background_color": "#4B96F3",
      "icon_mask_base_uri": "https://maps.gstatic.com/mapfiles/place_api/icons/v2/shopping_pinlet",
      "name": "Leisure Life NYC",
      "permanently_closed": true,
      "photos": [
        {
          "height": 960,
          "html_attributions": [
            "<a href=\"https://maps.google.com/maps/contrib/115159457615537033172\">Mr. Reed</a>"
          ],
          "photo_reference": "AeJbb3dCRs3bvbktl0KAZa9wmHbaee1FZWWfa2AzvPd5zev98YWdJCL-qoRldyxddjwyTKuzp6ITWoxmxkkNcUdl77Uwd27OGs1D2JMXMB3mFaSqWCYDwfUqSPwMYnLtS6FYxK5OI7nhcmHz67W8RGUIcXRNtOhFaet88YvBAD2ZnlPj3WAc",
          "width": 1280
        }
      ],
      "place_id": "ChIJ1asJXcBbwokRxKZfpa2TMTY",
      "plus_code": {
        "compound_code": "M2VQ+J6 New York, NY, USA",
        "global_code": "87G8M2VQ+J6"
      },
      "rating": 5,
      "reference": "ChIJ1asJXcBbwokRxKZfpa2TMTY",
      "scope": "GOOGLE",
      "types": [
        "clothing_store",
        "store",
        "point_of_interest",
        "establishment"
      ],
      "user_ratings_total": 11,
      "vicinity": "559 Myrtle Avenue, Brooklyn"
    },
    {
      "business_status": "OPERATIONAL",
      "geometry": {
        "location": {
          "lat": 40.69390569999999,
          "lng": -73.96282479999999
        },
        "viewport": {
          "northeast": {
            "lat": 40.6952086302915,
            "lng": -73.9614295697085
          },
          "southwest": {
            "lat": 40.6925106697085,
            "lng": -73.9641275302915
          }
        }
      },
      "icon": "https://maps.gstatic.com/mapfiles/place_api/icons/v1/png_71/generic_business-71.png",
      "icon_background_color": "#7B9EB0",
      "icon_mask_base_uri": "https://maps.gstatic.com/mapfiles/place_api/icons/v2/generic_pinlet",
      "name": "Hadas Gallery",
      "place_id": "ChIJ3VyLjMBbwokRKQZ44e00YXE",
      "plus_code": {
        "compound_code": "M2VP+HV New York, NY, USA",
        "global_code": "87G8M2VP+HV"
      },
      "rating": 4.4,
      "reference": "ChIJ3VyLjMBbwokRKQZ44e00YXE",
      "scope": "GOOGLE",
      "types": [
        "art_gallery",
        "point_of_interest",
        "establishment"
      ],
      "user_ratings_total": 11,
      "vicinity": "541 Myrtle Avenue Suite D, Brooklyn"
    }
  ],
  "status": "OK"
}