{
  "html_attributions": [],
  "results": [
    {
      "geometry": {
        "location": {
          "lat": 40.7127753,
          "lng": -74.0059728
        },
        "viewport": {
          "northeast": {
            "lat": 40.91757705070789,
            "lng": -73.70027206817629
          },
          "southwest": {
            "lat": 40.47739906045452,
            "lng": -74.25908991427882
          }
        }
      },
      "icon": "https://maps.gstatic.com/mapfiles/place_api/icons/v1/png_71/geocode-71.png",
      "icon_background_color": "#7B9EB0",
      "icon_mask_base_uri": "https://maps.gstatic.com/mapfiles/place_api/icons/v2/generic_pinlet",
      "name": "\u7d10\u7d04",
      "photos": [
        {
          "height": 600,
          "html_attributions": [
            "<a href=\"https://maps.google.com/maps/contrib/102389334567210814614\">Bukurie</a>"
          ],
          "photo_reference": "AeJbb3fcQBgfiCeH5hxrFf8YIlXCVmhQMzZIq-e4O0mqlreGYXjk0KYxV6q7watc_AvQeDDT-ONRBCaTnRttD9R2SMvWxlRHaavjd-kxvHJ6j8xj_saqEm5WUfvF4qs3GJbWNGH7T5pDidOmJ1wxExlhGkd-m8BfrwGD-yZAY3RxMWIIZb23",
          "width": 480
        }
      ],
      "place_id": "ChIJOwg_06VPwokRYv534QaPC8g",
      "reference": "ChIJOwg_06VPwokRYv534QaPC8g",
      "scope": "GOOGLE",
      "types": [
        "locality",
        "political"
      ],
      "vicinity": "\u7d10\u7d04"
    },
    {
      "business_status": "OPERATIONAL",
      "geometry": {
        "location": {
          "lat": 40.8090711,
          "lng": -73.9515102
        },
        "viewport": {
          "northeast": {
            "lat": 40.81047908029151,
            "lng": -73.95034996970848
          },
          "southwest": {
            "lat": 40.80778111970851,
            "lng": -73.9530479302915
          }
        }
      },
      "icon": "https://maps.gstatic.com/mapfiles/place_api/icons/v1/png_71/lodging-71.png",
      "icon_background_color": "#909CE1",
      "icon_mask_base_uri": "https://maps.gstatic.com/mapfiles/place_api/icons/v2/hotel_pinlet",
      "name": "\u54c8\u6797\u5340\u96c5\u6a02\u8ed2\u9152\u5e97",
      "photos": [
        {
          "height": 1407,
          "html_attributions": [
            "<a href=\"https://maps.google.com/maps/contrib/103317874732702197287\">Aloft Harlem</a>"
          ],
          "photo_reference": "AeJbb3fSfPQ5eje9_iA7rn514uKDmri0spmkh12aJ2ilAhRv51fPQxtTZjTC22RDeKPbL8qUDLSiLSMmSszYJBhrR-7NAJle4a1OIzclnyEvS6GqzFwTxDU1ozbTvi0KENmuntITvwP9vgSmU1ytKSprTGgIGra3Ie5yvFd-mWI2PPsGY_G_",
          "width": 1500
        }
      ],
      "place_id": "ChIJ67XxORP2wokR_aG7N_4gWRw",
      "plus_code": {
        "compound_code": "R25X+J9 \u7f8e\u570b\u7d10\u7d04",
        "global_code": "87G8R25X+J9"
      },
      "rating": 4.2,
      "reference": "ChIJ67XxORP2wokR_aG7N_4gWRw",
      "scope": "GOOGLE",
      "types": [
        "lodging",
        "point_of_interest",
        "establishment"
      ],
      "user_ratings_total": 958,
      "vicinity": "2296 Frederick Douglass Boulevard, New York"
    },
    {
      "business_status": "OPERATIONAL",
      "geometry": {
        "location": {
          "lat": 40.80973509999999,
          "lng": -73.9518015
        },
        "viewport": {
          "northeast": {
            "lat": 40.81101118029149,
            "lng": -73.9503834697085
          },
          "southwest": {
            "lat": 40.8083132197085,
            "lng": -73.9530814302915
          }
        }
      },
      "icon": "https://maps.gstatic.com/mapfiles/place_api/icons/v1/png_71/movies-71.png",
      "icon_background_color": "#13B5C7",
      "icon_mask_base_uri": "https://maps.gstatic.com/mapfiles/place_api/icons/v2/movie_pinlet",
      "name": "AMC Magic Johnson Harlem 9",
      "photos": [
        {
          "height": 2642,
          "html_attributions": [
            "<a href=\"https://maps.google.com/maps/contrib/108293363885318832487\">Adele H Rahte</a>"
          ],
          "photo_reference": "AeJbb3fMJROTwtSAIXDBrp_os2_2iyiSfzDbwo7V2mwlzB2ibnc14RHb33LYpxqVYssTsBUMv6dBMRjNuHYPFILY9-77MMI2RjtZCqqHCUwoiO92XCxD_kG86i6m8grOFVRJzpmgW58lOZCEYtfs-epZUn9Gyb08d59NqGGPbsEsLm5WT9o3",
          "width": 3778
        }
      ],
      "place_id": "ChIJpXl1NBP2wokRjpw_FRD5PGA",
      "plus_code": {
        "compound_code": "R25X+V7 \u7f8e\u570b\u7d10\u7d04",
        "global_code": "87G8R25X+V7"
      },
      "rating": 3.9,
      "reference": "ChIJpXl1NBP2wokRjpw_FRD5PGA",
      "scope": "GOOGLE",
      "types": [
        "movie_theater",
        "point_of_interest",
        "establishment"
      ],
      "user_ratings_total": 5581,
      "vicinity": "2309 Frederick Douglass Boulevard, New York"
    },
    {
      "business_status": "OPERATIONAL",
      "geometry": {
        "location": {
          "lat": 40.81001799999999,
          "lng": -73.95005600000002
        },
        "viewport": {
          "northeast": {
            "lat": 40.8112430802915,
            "lng": -73.9488097197085
          },
          "southwest": {
            "lat": 40.8085451197085,
            "lng": -73.95150768029153
          }
        }
      },
      "icon": "https://maps.gstatic.com/mapfiles/place_api/icons/v1/png_71/generic_business-71.png",
      "icon_background_color": "#13B5C7",
      "icon_mask_base_uri": "https://maps.gstatic.com/mapfiles/place_api/icons/v2/generic_pinlet",
      "name": "Apollo Theater",
      "photos": [
        {
          "height": 4032,
          "html_attributions": [
            "<a href=\"https://maps.google.com/maps/contrib/107166215648277581585\">Gr\u00e9gory Dupuis</a>"
          ],
          "photo_reference": "AeJbb3dz5zFBDqy5yfF4po6F68GXatjELqmdRYJOkUiNn9jFyYteOnADingkGPQpufA9KQ5e0CUe5aS2_6RI5fHj3N6Z-a6a3dwiI9qswQ910Ml5NFy_-l1EdhH9sJOalKiJnv-XZ4dPhhI9Afg2L40hv30839iBPiilYPsmFVpDK1nX-_dG",
          "width": 3024
        }
      ],
      "place_id": "ChIJRaWCMm32wokRLdyc4zmYzRw",
      "plus_code": {
        "compound_code": "R26X+2X \u7f8e\u570b\u7d10\u7d04",
        "global_code": "87G8R26X+2X"
      },
      "rating": 4.6,
      "reference": "ChIJRaWCMm32wokRLdyc4zmYzRw",
      "scope": "GOOGLE",
      "types": [
        "tourist_attraction",
        "point_of_interest",
        "establishment"
      ],
      "user_ratings_total": 6059,
      "vicinity": "253 West 125th Street, New York"
    },
    {
      "business_status": "OPERATIONAL",
      "geometry": {
        "location": {
          "lat": 40.8097025,
          "lng": -73.94891369999999
        },
        "viewport": {
          "northeast": {
            "lat": 40.81086843029149,
            "lng": -73.9477007197085
          },
          "southwest": {
            "lat": 40.8081704697085,
            "lng": -73.9503986802915
          }
        }
      },
      "icon": "https://maps.gstatic.com/mapfiles/place_api/icons/v1/png_71/civic_building-71.png",
      "icon_background_color": "#7B9EB0",
      "icon_mask_base_uri": "https://maps.gstatic.com/mapfiles/place_api/icons/v2/civic-bldg_pinlet",
      "name": "New York State Department of Labor",
      "opening_hours": {
        "open_now": false
      },
      "place_id": "ChIJF26qyhL2wokRkP3SOxQ1rnA",
      "plus_code": {
        "compound_code": "R352+VC \u7f8e\u570b\u7d10\u7d04",
        "global_code": "87G8R352+VC"
      },
      "rating": 2.8,
      "reference": "ChIJF26qyhL2wokRkP3SOxQ1rnA",
      "scope": "GOOGLE",
      "types": [
        "point_of_interest",
        "establishment"
      ],
      "user_ratings_total": 68,
      "vicinity": "215 West 125th Street #6, New York"
    },
    {
      "business_status": "OPERATIONAL",
      "geometry": {
        "location": {
          "lat": 40.8097419,
          "lng": -73.9506301
        },
        "viewport": {
          "northeast": {
            "lat": 40.8111638302915,
            "lng": -73.9492015197085
          },
          "southwest": {
            "lat": 40.8084658697085,
            "lng": -73.9518994802915
          }
        }
      },
      "icon": "https://maps.gstatic.com/mapfiles/place_api/icons/v1/png_71/shopping-71.png",
      "icon_background_color": "#4B96F3",
      "icon_mask_base_uri": "https://maps.gstatic.com/mapfiles/place_api/icons/v2/shopping_pinlet",
      "name": "Gap Factory",
      "opening_hours": {
        "open_now": true
      },
      "photos": [
        {
          "height": 1080,
          "html_attributions": [
            "<a href=\"https://maps.google.com/maps/contrib/111873055173116764252\">Fred Lee Jr</a>"
          ],
          "photo_reference": "AeJbb3c4xgppteyKmWhixt00dmBiT44Ya6seFulWLe_M3ywhKmBlh8mfs6zQDu0BJ0-O1oXKqciyphSeuz3It8nGMTc_L9ZzQluOQuVDBYijxUDPe88bsBxenNu8AZyKIbS5ld5n-jJsUjue3FerhCWktwfdLze3aUVdr9HzjNLhjBMpuMs",
          "width": 1920
        }
      ],
      "place_id": "ChIJDxXaKm32wokRWXD3SuqOUQI",
      "plus_code": {
        "compound_code": "R25X+VP \u7f8e\u570b\u7d10\u7d04",
        "global_code": "87G8R25X+VP"
      },
      "price_level": 2,
      "rating": 4.2,
      "reference": "ChIJDxXaKm32wokRWXD3SuqOUQI",
      "scope": "GOOGLE",
      "types": [
        "clothing_store",
        "store",
        "point_of_interest",
        "establishment"
      ],
      "user_ratings_total": 610,
      "vicinity": "264 West 125th Street, New York"
    },
    {
      "business_status": "OPERATIONAL",
      "geometry": {
        "location": {
          "lat": 40.8112029,
          "lng": -73.9530193
        },
        "viewport": {
          "northeast": {
            "lat": 40.8124540802915,
            "lng": -73.9517433197085
          },
          "southwest": {
            "lat": 40.8097561197085,
            "lng": -73.9544412802915
          }
        }
      },
      "icon": "https://maps.gstatic.com/mapfiles/place_api/icons/v1/png_71/generic_business-71.png",
      "icon_background_color": "#7B9EB0",
      "icon_mask_base_uri": "https://maps.gstatic.com/mapfiles/place_api/icons/v2/generic_pinlet",
      "name": "NYC Business Solutions Upper Manhattan",
      "opening_hours": {
        "open_now": false
      },
      "place_id": "ChIJF26qyhL2wokR8jzZmDCFG5o",
      "plus_code": {
        "compound_code": "R26W+FQ \u7f8e\u570b\u7d10\u7d04",
        "global_code": "87G8R26W+FQ"
      },
      "rating": 4.2,
      "reference": "ChIJF26qyhL2wokR8jzZmDCFG5o",
      "scope": "GOOGLE",
      "types": [
        "point_of_interest",
        "establishment"
      ],
      "user_ratings_total": 12,
      "vicinity": "361 West 125th Street, New York"
    },
    {
      "business_status": "OPERATIONAL",
      "geometry": {
        "location": {
          "lat": 40.8101454,
          "lng": -73.9515141
        },
        "viewport": {
          "northeast": {
            "lat": 40.81154568029149,
            "lng": -73.9500555697085
          },
          "southwest": {
            "lat": 40.8088477197085,
            "lng": -73.9527535302915
          }
        }
      },
      "icon": "https://maps.gstatic.com/mapfiles/place_api/icons/v1/png_71/bank-71.png",
      "icon_background_color": "#909CE1",
      "icon_mask_base_uri": "https://maps.gstatic.com/mapfiles/place_api/icons/v2/bank-intl_pinlet",
      "name": "TD Bank",
      "opening_hours": {
        "open_now": false
      },
      "photos": [
        {
          "height": 3024,
          "html_attributions": [
            "<a href=\"https://maps.google.com/maps/contrib/115249705305889734883\">Pavel Push</a>"
          ],
          "photo_reference": "AeJbb3dJD54uS4j4UdePp77S9I0QaBXqKF8ryIjAWBjm8HXMijQ1h6dN_iLpwQxpen9twd2mcbwZc_ij953HEzqRHqYGl8RTnQO3ZrflCAyyJsURHG7uDt5--36Gg_NmqfrSHadVPFzcFu8k_NUXkkfO03ycuE-75hPKA366EdTKJvCrCBjF",
          "width": 4032
        }
      ],
      "place_id": "ChIJydt50Wz2wokRuvoup34uIto",
      "plus_code": {
        "compound_code": "R26X+39 \u7f8e\u570b\u7d10\u7d04",
        "global_code": "87G8R26X+39"
      },
      "rating": 2.2,
      "reference": "ChIJydt50Wz2wokRuvoup34uIto",
      "scope": "GOOGLE",
      "types": [
        "bank",
        "atm",
        "finance",
        "point_of_interest",
        "establishment"
      ],
      "user_ratings_total": 81,
      "vicinity": "300 West 125th Street, New York"
    },
    {
      "business_status": "OPERATIONAL",
      "geometry": {
        "location": {
          "lat": 40.8089357,
          "lng": -73.9501107
        },
        "viewport": {
          "northeast": {
            "lat": 40.8102376302915,
            "lng": -73.94874496970849
          },
          "southwest": {
            "lat": 40.8075396697085,
            "lng": -73.9514429302915
          }
        }
      },
      "icon": "https://maps.gstatic.com/mapfiles/place_api/icons/v1/png_71/school-71.png",
      "icon_background_color": "#7B9EB0",
      "icon_mask_base_uri": "https://maps.gstatic.com/mapfiles/place_api/icons/v2/school_pinlet",
      "name": "Touro College of Pharmacy",
      "opening_hours": {
        "open_now": false
      },
      "photos": [
        {
          "height": 1960,
          "html_attributions": [
            "<a href=\"https://maps.google.com/maps/contrib/103790216179599992570\">MYCHAL SLEDGE</a>"
          ],
          "photo_reference": "AeJbb3ebMdZygaRKoW3A1YFytPnU1h1XxN0Ybce-cWcrVGdo4VGxKm1wOfIKW7ic7piSRE-uB8XODSoD5_J302EztjVvXoevk6MaW9NFv_pure9orVimPTvKh2-VNq7f8AthASUYgpEhQM0z-COnL4wHLh-v1mcWR5_UPb0fxANe_iWu3ZQ-",
          "width": 4032
        }
      ],
      "place_id": "ChIJt-9kyhL2wokR7SSOusycidE",
      "plus_code": {
        "compound_code": "R25X+HX \u7f8e\u570b\u7d10\u7d04",
        "global_code": "87G8R25X+HX"
      },
      "rating": 4.7,
      "reference": "ChIJt-9kyhL2wokR7SSOusycidE",
      "scope": "GOOGLE",
      "types": [
        "university",
        "point_of_interest",
        "establishment"
      ],
      "user_ratings_total": 6,
      "vicinity": "231 West 124th Street 4th floor, New York"
    },
    {
      "business_status": "OPERATIONAL",
      "geometry": {
        "location": {
          "lat": 40.81012279999999,
          "lng": -73.95280319999999
        },
        "viewport": {
          "northeast": {
            "lat": 40.81150873029149,
            "lng": -73.95156186970848
          },
          "southwest": {
            "lat": 40.80881076970849,
            "lng": -73.95425983029149
          }
        }
      },
      "icon": "https://maps.gstatic.com/mapfiles/place_api/icons/v1/png_71/generic_business-71.png",
      "icon_background_color": "#7B9EB0",
      "icon_mask_base_uri": "https://maps.gstatic.com/mapfiles/place_api/icons/v2/generic_pinlet",
      "name": "Municipal Credit Union",
      "opening_hours": {
        "open_now": false
      },
      "photos": [
        {
          "height": 3264,
          "html_attributions": [
            "<a href=\"https://maps.google.com/maps/contrib/101885446461847530164\">Jonathan Thomas</a>"
          ],
          "photo_reference": "AeJbb3daoHuRJSMtKmyJ6-mVYPPTfa6DXqeYfZr0vruE96xL2uSqOinabvdrXd_kXFiOJnxmhgZfEmI5Wv9ApROf_vaHNHeFegtdpgOA51KR64NyNpZgdT1iVALHkrY8gh4x0GpeiM5MOtLQXsd2M1V6ucYxqA3af8fwLC__nPVCKAkIYHqS",
          "width": 1836
        }
      ],
      "place_id": "ChIJTUyAymz2wokRwhR1_H93f_s",
      "plus_code": {
        "compound_code": "R26W+2V \u7f8e\u570b\u7d10\u7d04",
        "global_code": "87G8R26W+2V"
      },
      "rating": 2.2,
      "reference": "ChIJTUyAymz2wokRwhR1_H93f_s",
      "scope": "GOOGLE",
      "types": [
        "atm",
        "finance",
        "point_of_interest",
        "establishment"
      ],
      "user_ratings_total": 64,
      "vicinity": "280 Saint Nicholas Avenue, New York"
    },
    {
      "business_status": "OPERATIONAL",
      "geometry": {
        "location": {
          "lat": 40.8106437,
          "lng": -73.95602869999999
        },
        "viewport": {
          "northeast": {
            "lat": 40.8120088302915,
            "lng": -73.95480326970849
          },
          "southwest": {
            "lat": 40.8093108697085,
            "lng": -73.95750123029151
          }
        }
      },
      "icon": "https://maps.gstatic.com/mapfiles/place_api/icons/v1/png_71/school-71.png",
      "icon_background_color": "#7B9EB0",
      "icon_mask_base_uri": "https://maps.gstatic.com/mapfiles/place_api/icons/v2/school_pinlet",
      "name": "M362 Columbia Secondary School for Math, Science, and Engineering",
      "opening_hours": {
        "open_now": false
      },
      "place_id": "ChIJpVjHK2v2wokRz8AIacksIRg",
      "plus_code": {
        "compound_code": "R26V+7H \u7f8e\u570b\u7d10\u7d04",
        "global_code": "87G8R26V+7H"
      },
      "rating": 3.9,
      "reference": "ChIJpVjHK2v2wokRz8AIacksIRg",
      "scope": "GOOGLE",
      "types": [
        "school",
        "point_of_interest",
        "establishment"
      ],
      "user_ratings_total": 21,
      "vicinity": "425 West 123rd Street, New York"
    },
    {
      "business_status": "OPERATIONAL",
      "geometry": {
        "location": {
          "lat": 40.8105556,
          "lng": -73.9513889
        },
        "viewport": {
          "northeast": {
            "lat": 40.8117780302915,
            "lng": -73.9500620197085
          },
          "southwest": {
            "lat": 40.80908006970851,
            "lng": -73.9527599802915
          }
        }
      },
      "icon": "https://maps.gstatic.com/mapfiles/place_api/icons/v1/png_71/shopping-71.png",
      "icon_background_color": "#4B96F3",
      "icon_mask_base_uri": "https://maps.gstatic.com/mapfiles/place_api/icons/v2/shopping_pinlet",
      "name": "Party City",
      "opening_hours": {
        "open_now": true
      },
      "photos": [
        {
          "height": 1536,
          "html_attributions": [
            "<a href=\"https://maps.google.com/maps/contrib/112548130103071478945\">J S</a>"
          ],
          "photo_reference": "AeJbb3dSLIoA-VkzWepXD5EObxHTKy7CGL_EfQgGImcBV0uSAVr00k_9vLUxscEroeHc74y5jqrpNNAwXw8grEJ3U9KSX8U3iuwSrOOR14HEOjvw72TkFDg9dEcTTJCDPgM7GJoC-u60v9AI0q-AlzWOS3TXd0RcfN5aVgcbYAXkgtH0AXWK",
          "width": 2048
        }
      ],
      "place_id": "ChIJD6n5z2z2wokRPWzntbhP4Oc",
      "plus_code": {
        "compound_code": "R26X+6C \u7f8e\u570b\u7d10\u7d04",
        "global_code": "87G8R26X+6C"
      },
      "price_level": 2,
      "rating": 3.9,
      "reference": "ChIJD6n5z2z2wokRPWzntbhP4Oc",
      "scope": "GOOGLE",
      "types": [
        "clothing_store",
        "home_goods_store",
        "store",
        "point_of_interest",
        "food",
        "establishment"
      ],
      "user_ratings_total": 1182,
      "vicinity": "301 West 125th Street, New York"
    },
    {
      "business_status": "OPERATIONAL",
      "geometry": {
        "location": {
          "lat": 40.80945210000001,
          "lng": -73.9489183
        },
        "viewport": {
          "northeast": {
            "lat": 40.81071748029151,
            "lng": -73.9476425197085
          },
          "southwest": {
            "lat": 40.80801951970851,
            "lng": -73.9503404802915
          }
        }
      },
      "icon": "https://maps.gstatic.com/mapfiles/place_api/icons/v1/png_71/atm-71.png",
      "icon_background_color": "#909CE1",
      "icon_mask_base_uri": "https://maps.gstatic.com/mapfiles/place_api/icons/v2/atm_pinlet",
      "name": "Bank of America ATM",
      "place_id": "ChIJa3H-vhL2wokRZjCsc-2PSPM",
      "plus_code": {
        "compound_code": "R352+QC \u7f8e\u570b\u7d10\u7d04",
        "global_code": "87G8R352+QC"
      },
      "rating": 3.3,
      "reference": "ChIJa3H-vhL2wokRZjCsc-2PSPM",
      "scope": "GOOGLE",
      "types": [
        "atm",
        "finance",
        "point_of_interest",
        "establishment"
      ],
      "user_ratings_total": 4,
      "vicinity": "215 West 125th Street, New York"
    },
    {
      "business_status": "OPERATIONAL",
      "geometry": {
        "location": {
          "lat": 40.8122086,
          "lng": -73.9516596
        },
        "viewport": {
          "northeast": {
            "lat": 40.8134921802915,
            "lng": -73.95024691970849
          },
          "southwest": {
            "lat": 40.8107942197085,
            "lng": -73.9529448802915
          }
        }
      },
      "icon": "https://maps.gstatic.com/mapfiles/place_api/icons/v1/png_71/restaurant-71.png",
      "icon_background_color": "#FF9E67",
      "icon_mask_base_uri": "https://maps.gstatic.com/mapfiles/place_api/icons/v2/restaurant_pinlet",
      "name": "Maison Harlem",
      "opening_hours": {
        "open_now": true
      },
      "photos": [
        {
          "height": 4032,
          "html_attributions": [
            "<a href=\"https://maps.google.com/maps/contrib/100324626777382075711\">Sherman C</a>"
          ],
          "photo_reference": "AeJbb3fgAioLOFtgXh8H9sWbGlTN1E0g3vZyZrepbijsHTbadG9kyy4NarhKZDPp5vKrPRk9V3PLDQ1JSRJ7HW1o5XnvokYq56sSYJhw3Cf00nNsZT2JwnHNDXuDULNmib8FszL9a0eYL70FKqTD5qw0dhvTWoBH6VNA3lfKdR1N8cV69YY",
          "width": 3024
        }
      ],
      "place_id": "ChIJd3H89mz2wokRdk5JHB3Aino",
      "plus_code": {
        "compound_code": "R26X+V8 \u7f8e\u570b\u7d10\u7d04",
        "global_code": "87G8R26X+V8"
      },
      "price_level": 2,
      "rating": 4.3,
      "reference": "ChIJd3H89mz2wokRdk5JHB3Aino",
      "scope": "GOOGLE",
      "types": [
        "bar",
        "restaurant",
        "point_of_interest",
        "food",
        "establishment"
      ],
      "user_ratings_total": 1073,
      "vicinity": "341 Saint Nicholas Avenue, New York"
    },
    {
      "business_status": "OPERATIONAL",
      "geometry": {
        "location": {
          "lat": 40.8108064,
          "lng": -73.95322100000001
        },
        "viewport": {
          "northeast": {
            "lat": 40.8122405302915,
            "lng": -73.9518084197085
          },
          "southwest": {
            "lat": 40.8095425697085,
            "lng": -73.9545063802915
          }
        }
      },
      "icon": "https://maps.gstatic.com/mapfiles/place_api/icons/v1/png_71/generic_business-71.png",
      "icon_background_color": "#7B9EB0",
      "icon_mask_base_uri": "https://maps.gstatic.com/mapfiles/place_api/icons/v2/generic_pinlet",
      "name": "125th St Business Improvement",
      "opening_hours": {
        "open_now": false
      },
      "photos": [
        {
          "height": 937,
          "html_attributions": [
            "<a href=\"https://maps.google.com/maps/contrib/101825343175598109849\">125th St Business Improvement</a>"
          ],
          "photo_reference": "AeJbb3ddFCOsZXZv9ZKt_vwHQ4I7Uc5DcZhrWcMHuUNFagTtBNHSZIstyswPNA6fDuF15JVkCSM7n3_gpTcj71JgR8hHITh2vltlUcCEKKkGBRCBTL6Zt_LyJdkp5mW6YP7pWxr0YJ1qV6t6f3XhYBJC8R_COwuheSuuLHAKn6a3oPKHDkmv",
          "width": 864
        }
      ],
      "place_id": "ChIJC54RpGz2wokRrMvoWrtJ9fo",
      "plus_code": {
        "compound_code": "R26W+8P \u7f8e\u570b\u7d10\u7d04",
        "global_code": "87G8R26W+8P"
      },
      "rating": 3.8,
      "reference": "ChIJC54RpGz2wokRrMvoWrtJ9fo",
      "scope": "GOOGLE",
      "types": [
        "point_of_interest",
        "establishment"
      ],
      "user_ratings_total": 46,
      "vicinity": "360 West 125th Street Suite 11, New York"
    },
    {
      "business_status": "OPERATIONAL",
      "geometry": {
        "location": {
          "lat": 40.8092241,
          "lng": -73.9474324
        },
        "viewport": {
          "northeast": {
            "lat": 40.81032493029149,
            "lng": -73.94624331970849
          },
          "southwest": {
            "lat": 40.8076269697085,
            "lng": -73.94894128029149
          }
        }
      },
      "icon": "https://maps.gstatic.com/mapfiles/place_api/icons/v1/png_71/civic_building-71.png",
      "icon_background_color": "#7B9EB0",
      "icon_mask_base_uri": "https://maps.gstatic.com/mapfiles/place_api/icons/v2/civic-bldg_pinlet",
      "name": "Alcoholic Beverage Control",
      "opening_hours": {
        "open_now": false
      },
      "photos": [
        {
          "height": 4032,
          "html_attributions": [
            "<a href=\"https://maps.google.com/maps/contrib/113052271162278248916\">Jazmin Martinez</a>"
          ],
          "photo_reference": "AeJbb3cA98Oosl1LkzB5jpE2QArxQuQzychwK8IJa6ZzdRE2EtHovg2PH_kYdEZEFeqQo57yuX9DJ5w1K8gyEv0jT5ezu7YSekp2YmGkxNLJhmXwYAwqMzStwuyOEg3VrWjl61LcKVk7NCwBu6_XuR8ygXszHpasMuFVMELj47y6ZKApZ4AA",
          "width": 3024
        }
      ],
      "place_id": "ChIJh3bFKA32wokRyGs0ItEqzVc",
      "plus_code": {
        "compound_code": "R353+M2 \u7f8e\u570b\u7d10\u7d04",
        "global_code": "87G8R353+M2"
      },
      "rating": 4.3,
      "reference": "ChIJh3bFKA32wokRyGs0ItEqzVc",
      "scope": "GOOGLE",
      "types": [
        "local_government_office",
        "point_of_interest",
        "establishment"
      ],
      "user_ratings_total": 3,
      "vicinity": "163 West 125th Street, New York"
    },
    {
      "business_status": "OPERATIONAL",
      "geometry": {
        "location": {
          "lat": 40.8082859,
          "lng": -73.9476926
        },
        "viewport": {
          "northeast": {
            "lat": 40.8097944302915,
            "lng": -73.9462278197085
          },
          "southwest": {
            "lat": 40.8070964697085,
            "lng": -73.9489257802915
          }
        }
      },
      "icon": "https://maps.gstatic.com/mapfiles/place_api/icons/v1/png_71/museum-71.png",
      "icon_background_color": "#13B5C7",
      "icon_mask_base_uri": "https://maps.gstatic.com/mapfiles/place_api/icons/v2/museum_pinlet",
      "name": "The Studio Museum in Harlem",
      "opening_hours": {
        "open_now": true
      },
      "photos": [
        {
          "height": 3265,
          "html_attributions": [
            "<a href=\"https://maps.google.com/maps/contrib/103205021402123407356\">Otto Cheung</a>"
          ],
          "photo_reference": "AeJbb3f_gs8CWLZkJIki4PtXzmHyvDrGZNNL3tiMz6oLwT3WT080MHaVO0aVefrAaVVgeBwFjb3Ni3EaT8ZgdWUKLhLmvrXNgvuAmmZBPRQ4pOEj6ghewV5uwPo0pLQst0mpjl6bWfVPvvwXAdz3qZOS7JnkPByp7TxBxi7pOjvYa8bad7m5",
          "width": 4898
        }
      ],
      "place_id": "ChIJ_ShwXw32wokRQJpaKAIcCOo",
      "plus_code": {
        "compound_code": "R352+8W \u7f8e\u570b\u7d10\u7d04",
        "global_code": "87G8R352+8W"
      },
      "price_level": 2,
      "rating": 4.4,
      "reference": "ChIJ_ShwXw32wokRQJpaKAIcCOo",
      "scope": "GOOGLE",
      "types": [
        "tourist_attraction",
        "museum",
        "point_of_interest",
        "establishment"
      ],
      "user_ratings_total": 264,
      "vicinity": "144 West 125th Street, New York"
    },
    {
      "business_status": "OPERATIONAL",
      "geometry": {
        "location": {
          "lat": 40.8094149,
          "lng": -73.9498231
        },
        "viewport": {
          "northeast": {
            "lat": 40.8108374302915,
            "lng": -73.94841781970848
          },
          "southwest": {
            "lat": 40.8081394697085,
            "lng": -73.9511157802915
          }
        }
      },
      "icon": "https://maps.gstatic.com/mapfiles/place_api/icons/v1/png_71/school-71.png",
      "icon_background_color": "#7B9EB0",
      "icon_mask_base_uri": "https://maps.gstatic.com/mapfiles/place_api/icons/v2/school_pinlet",
      "name": "Harlem School of Technology",
      "place_id": "ChIJF26qyhL2wokRT5hXaWxa6_M",
      "plus_code": {
        "compound_code": "R352+Q3 \u7f8e\u570b\u7d10\u7d04",
        "global_code": "87G8R352+Q3"
      },
      "rating": 4,
      "reference": "ChIJF26qyhL2wokRT5hXaWxa6_M",
      "scope": "GOOGLE",
      "types": [
        "point_of_interest",
        "establishment"
      ],
      "user_ratings_total": 4,
      "vicinity": "215 West 125th Street #11, New York"
    },
    {
      "business_status": "OPERATIONAL",
      "geometry": {
        "location": {
          "lat": 40.8097024,
          "lng": -73.9489136
        },
        "viewport": {
          "northeast": {
            "lat": 40.8108683302915,
            "lng": -73.94770056970849
          },
          "southwest": {
            "lat": 40.8081703697085,
            "lng": -73.95039853029151
          }
        }
      },
      "icon": "https://maps.gstatic.com/mapfiles/place_api/icons/v1/png_71/generic_business-71.png",
      "icon_background_color": "#7B9EB0",
      "icon_mask_base_uri": "https://maps.gstatic.com/mapfiles/place_api/icons/v2/generic_pinlet",
      "name": "Manhattan Physicians Group",
      "place_id": "ChIJF26qyhL2wokRpdBstvCFzq8",
      "plus_code": {
        "compound_code": "R352+VC \u7f8e\u570b\u7d10\u7d04",
        "global_code": "87G8R352+VC"
      },
      "rating": 3.5,
      "reference": "ChIJF26qyhL2wokRpdBstvCFzq8",
      "scope": "GOOGLE",
      "types": [
        "health",
        "point_of_interest",
        "establishment"
      ],
      "user_ratings_total": 8,
      "vicinity": "215 West 125th Street #2, New York"
    },
    {
      "geometry": {
        "location": {
          "lat": 40.8240478,
          "lng": -73.9447643
        },
        "viewport": {
          "northeast": {
            "lat": 40.87822003591612,
            "lng": -73.91064591328563
          },
          "southwest": {
            "lat": 40.78278392408598,
            "lng": -73.97119006413347
          }
        }
      },
      "icon": "https://maps.gstatic.com/mapfiles/place_api/icons/v1/png_71/geocode-71.png",
      "icon_background_color": "#7B9EB0",
      "icon_mask_base_uri": "https://maps.gstatic.com/mapfiles/place_api/icons/v2/generic_pinlet",
      "name": "\u66fc\u54c8\u9813\u4e0a\u57ce",
      "photos": [
        {
          "height": 4000,
          "html_attributions": [
            "<a href=\"https://maps.google.com/maps/contrib/108665206705263687409\">Chris Lidstone</a>"
          ],
          "photo_reference": "AeJbb3fuRdyPe7IHcUUzX0_jcF9qctHE6CpomSVY3gjGf1P_iUU78uaAXj4pxPnnbkNTTtUAqUXJzyvsBZMsnrcoDmgYdbJD7puVHw1sUCRC8PjCTZrLtWdDFrPXW_ssuVoaofuc-gLSAcM9DPl3srOWdQyDGjm8pqvhrIG5r21JZ5Z_uXjd",
          "width": 3000
        }
      ],
      "place_id": "ChIJY50xHxP2wokR7WhhDNRmgRU",
      "reference": "ChIJY50xHxP2wokR7WhhDNRmgRU",
      "scope": "GOOGLE",
      "types": [
        "neighborhood",
        "political"
      ],
      "vicinity": "\u66fc\u54c8\u9813"
    },
    {
      "business_status": "OPERATIONAL",
      "geometry": {
        "location": {
          "lat": 40.8096896,
          "lng": -73.94888639999999
        },
        "viewport": {
          "northeast": {
            "lat": 40.81085598029149,
            "lng": -73.94767301970849
          },
          "southwest": {
            "lat": 40.8081580197085,
            "lng": -73.9503709802915
          }
        }
      },
      "icon": "https://maps.gstatic.com/mapfiles/place_api/icons/v1/png_71/generic_business-71.png",
      "icon_background_color": "#7B9EB0",
      "icon_mask_base_uri": "https://maps.gstatic.com/mapfiles/place_api/icons/v2/generic_pinlet",
      "name": "Workers' Compensation Board",
      "photos": [
        {
          "height": 1836,
          "html_attributions": [
            "<a href=\"https://maps.google.com/maps/contrib/101923292699298258096\">James French</a>"
          ],
          "photo_reference": "AeJbb3eoM-T6pT7f-f2DahJ58QlEEWXPJTdyDUMUrdtFVjGE86ULYsDFaC0RraC5K3Ay-R9gBldM14bPXQWpFgrQqGQ-TcuXfaGwNVCENU2lpw20nGmYOToniPGE1pHhmMl5vdesLMaPcZ5_4xUjsjnOKcBMUaLr-QOTLvbqIXhMS_Hi_BEd",
          "width": 3264
        }
      ],
      "place_id": "ChIJF26qyhL2wokR3FILLoc31oY",
      "plus_code": {
        "compound_code": "R352+VC New York, NY, USA",
        "global_code": "87G8R352+VC"
      },
      "rating": 3.5,
      "reference": "ChIJF26qyhL2wokR3FILLoc31oY",
      "scope": "GOOGLE",
      "types": [
        "point_of_interest",
        "establishment"
      ],
      "user_ratings_total": 128,
      "vicinity": "215 West 125th Street #5, New York"
    },
    {
      "business_status": "OPERATIONAL",
      "geometry": {
        "location": {
          "lat": 40.8096656,
          "lng": -73.94905779999999
        },
        "viewport": {
          "northeast": {
            "lat": 40.81086743029149,
            "lng": -73.9478172197085
          },
          "southwest": {
            "lat": 40.8081694697085,
            "lng": -73.9505151802915
          }
        }
      },
      "icon": "https://maps.gstatic.com/mapfiles/place_api/icons/v1/png_71/civic_building-71.png",
      "icon_background_color": "#7B9EB0",
      "icon_mask_base_uri": "https://maps.gstatic.com/mapfiles/place_api/icons/v2/civic-bldg_pinlet",
      "name": "New York City Community Board",
      "place_id": "ChIJF26qyhL2wokRxq9oEN1xgAM",
      "plus_code": {
        "compound_code": "R352+V9 New York, NY, USA",
        "global_code": "87G8R352+V9"
      },
      "rating": 5,
      "reference": "ChIJF26qyhL2wokRxq9oEN1xgAM",
      "scope": "GOOGLE",
      "types": [
        "local_government_office",
        "point_of_interest",
        "establishment"
      ],
      "user_ratings_total": 1,
      "vicinity": "215 West 125th Street #4, New York"
    },
    {
      "business_status": "OPERATIONAL",
      "geometry": {
        "location": {
          "lat": 40.8096841,
          "lng": -73.9489857
        },
        "viewport": {
          "northeast": {
            "lat": 40.8108686302915,
            "lng": -73.9477588697085
          },
          "southwest": {
            "lat": 40.8081706697085,
            "lng": -73.95045683029151
          }
        }
      },
      "icon": "https://maps.gstatic.com/mapfiles/place_api/icons/v1/png_71/generic_business-71.png",
      "icon_background_color": "#7B9EB0",
      "icon_mask_base_uri": "https://maps.gstatic.com/mapfiles/place_api/icons/v2/generic_pinlet",
      "name": "Bunyavanich Sommai MD",
      "place_id": "ChIJF26qyhL2wokR6gmRVb-l0pI",
      "plus_code": {
        "compound_code": "R352+VC New York, NY, USA",
        "global_code": "87G8R352+VC"
      },
      "rating": 1,
      "reference": "ChIJF26qyhL2wokR6gmRVb-l0pI",
      "scope": "GOOGLE",
      "types": [
        "doctor",
        "health",
        "point_of_interest",
        "establishment"
      ],
      "user_ratings_total": 1,
      "vicinity": "215 West 125th Street #2, New York"
    },
    {
      "business_status": "OPERATIONAL",
      "geometry": {
        "location": {
          "lat": 40.8096841,
          "lng": -73.9489857
        },
        "viewport": {
          "northeast": {
            "lat": 40.8108686302915,
            "lng": -73.9477588697085
          },
          "southwest": {
            "lat": 40.8081706697085,
            "lng": -73.95045683029151
          }
        }
      },
      "icon": "https://maps.gstatic.com/mapfiles/place_api/icons/v1/png_71/generic_business-71.png",
      "icon_background_color": "#7B9EB0",
      "icon_mask_base_uri": "https://maps.gstatic.com/mapfiles/place_api/icons/v2/generic_pinlet",
      "name": "Renaissance Health Care Network: Lewis Gayle MD",
      "place_id": "ChIJF26qyhL2wokRUgCeQ4JRKl4",
      "plus_code": {
        "compound_code": "R352+VC New York, NY, USA",
        "global_code": "87G8R352+VC"
      },
      "rating": 5,
      "reference": "ChIJF26qyhL2wokRUgCeQ4JRKl4",
      "scope": "GOOGLE",
      "types": [
        "doctor",
        "health",
        "point_of_interest",
        "establishment"
      ],
      "user_ratings_total": 1,
      "vicinity": "215 West 125th Street #2, New York"
    },
    {
      "business_status": "OPERATIONAL",
      "geometry": {
        "location": {
          "lat": 40.8096841,
          "lng": -73.9489857
        },
        "viewport": {
          "northeast": {
            "lat": 40.8108686302915,
            "lng": -73.9477588697085
          },
          "southwest": {
            "lat": 40.8081706697085,
            "lng": -73.95045683029151
          }
        }
      },
      "icon": "https://maps.gstatic.com/mapfiles/place_api/icons/v1/png_71/generic_business-71.png",
      "icon_background_color": "#7B9EB0",
      "icon_mask_base_uri": "https://maps.gstatic.com/mapfiles/place_api/icons/v2/generic_pinlet",
      "name": "Borras Rafael B MD",
      "place_id": "ChIJF26qyhL2wokRyQ8b6FldDmw",
      "plus_code": {
        "compound_code": "R352+VC New York, NY, USA",
        "global_code": "87G8R352+VC"
      },
      "reference": "ChIJF26qyhL2wokRyQ8b6FldDmw",
      "scope": "GOOGLE",
      "types": [
        "doctor",
        "health",
        "point_of_interest",
        "establishment"
      ],
      "vicinity": "215 West 125th Street #2, New York"
    },
    {
      "business_status": "OPERATIONAL",
      "geometry": {
        "location": {
          "lat": 40.81057270000001,
          "lng": -73.9468247
        },
        "viewport": {
          "northeast": {
            "lat": 40.8119547802915,
            "lng": -73.9455540697085
          },
          "southwest": {
            "lat": 40.8092568197085,
            "lng": -73.94825203029151
          }
        }
      },
      "icon": "https://maps.gstatic.com/mapfiles/place_api/icons/v1/png_71/generic_business-71.png",
      "icon_background_color": "#7B9EB0",
      "icon_mask_base_uri": "https://maps.gstatic.com/mapfiles/place_api/icons/v2/generic_pinlet",
      "name": "Representative Charles Rangel",
      "place_id": "ChIJyQP9Wg32wokR9qClOmpblHA",
      "plus_code": {
        "compound_code": "R363+67 New York, NY, USA",
        "global_code": "87G8R363+67"
      },
      "rating": 5,
      "reference": "ChIJyQP9Wg32wokR9qClOmpblHA",
      "scope": "GOOGLE",
      "types": [
        "point_of_interest",
        "establishment"
      ],
      "user_ratings_total": 2,
      "vicinity": "163 West 125th Street #1, New York"
    },
    {
      "business_status": "OPERATIONAL",
      "geometry": {
        "location": {
          "lat": 40.8096841,
          "lng": -73.9489857
        },
        "viewport": {
          "northeast": {
            "lat": 40.8108686302915,
            "lng": -73.9477588697085
          },
          "southwest": {
            "lat": 40.8081706697085,
            "lng": -73.95045683029151
          }
        }
      },
      "icon": "https://maps.gstatic.com/mapfiles/place_api/icons/v1/png_71/generic_business-71.png",
      "icon_background_color": "#7B9EB0",
      "icon_mask_base_uri": "https://maps.gstatic.com/mapfiles/place_api/icons/v2/generic_pinlet",
      "name": "Dr. Handel White, MD",
      "place_id": "ChIJF26qyhL2wokRjHfPviXvB4k",
      "plus_code": {
        "compound_code": "R352+VC New York, NY, USA",
        "global_code": "87G8R352+VC"
      },
      "reference": "ChIJF26qyhL2wokRjHfPviXvB4k",
      "scope": "GOOGLE",
      "types": [
        "doctor",
        "health",
        "point_of_interest",
        "establishment"
      ],
      "vicinity": "215 West 125th Street #2, New York"
    },
    {
      "business_status": "OPERATIONAL",
      "geometry": {
        "location": {
          "lat": 40.81000510000001,
          "lng": -73.9519042
        },
        "viewport": {
          "northeast": {
            "lat": 40.8112154802915,
            "lng": -73.95034886970849
          },
          "southwest": {
            "lat": 40.8085175197085,
            "lng": -73.9530468302915
          }
        }
      },
      "icon": "https://maps.gstatic.com/mapfiles/place_api/icons/v1/png_71/generic_business-71.png",
      "icon_background_color": "#7B9EB0",
      "icon_mask_base_uri": "https://maps.gstatic.com/mapfiles/place_api/icons/v2/generic_pinlet",
      "name": "New York Sports Clubs - 125th",
      "opening_hours": {
        "open_now": true
      },
      "photos": [
        {
          "height": 3024,
          "html_attributions": [
            "<a href=\"https://maps.google.com/maps/contrib/111227285226112164234\">Melody de Castro</a>"
          ],
          "photo_reference": "AeJbb3dsposPTdGcBzOUBvt6iXfRlSizuVbvuMY7-Jf6Uf37hp5rMQm6FKtTD7heqVZXVfKHDDJ-OwjT7gHiMY6wRwnks_qIMPudc39jWWpwJYdOUmZP76FUWYaupkpPe7L7V6isEJFPA5xCii1YLIJk-Vj-1IEbXfvd_m0vfshGh8SsCoZk",
          "width": 4032
        }
      ],
      "place_id": "ChIJb5p6MRP2wokR4nQvWgRky_4",
      "plus_code": {
        "compound_code": "R26X+26 New York, NY, USA",
        "global_code": "87G8R26X+26"
      },
      "rating": 3.4,
      "reference": "ChIJb5p6MRP2wokR4nQvWgRky_4",
      "scope": "GOOGLE",
      "types": [
        "gym",
        "spa",
        "health",
        "point_of_interest",
        "establishment"
      ],
      "user_ratings_total": 257,
      "vicinity": "2311 Frederick Douglass Boulevard, New York"
    },
    {
      "business_status": "OPERATIONAL",
      "geometry": {
        "location": {
          "lat": 40.8097025,
          "lng": -73.94891369999999
        },
        "viewport": {
          "northeast": {
            "lat": 40.81086843029149,
            "lng": -73.9477007197085
          },
          "southwest": {
            "lat": 40.8081704697085,
            "lng": -73.9503986802915
          }
        }
      },
      "icon": "https://maps.gstatic.com/mapfiles/place_api/icons/v1/png_71/generic_business-71.png",
      "icon_background_color": "#7B9EB0",
      "icon_mask_base_uri": "https://maps.gstatic.com/mapfiles/place_api/icons/v2/generic_pinlet",
      "name": "Renaissance Health Care: Bailey Lawrence DDS",
      "place_id": "ChIJF26qyhL2wokRSwXidGoOodI",
      "plus_code": {
        "compound_code": "R352+VC New York, NY, USA",
        "global_code": "87G8R352+VC"
      },
      "reference": "ChIJF26qyhL2wokRSwXidGoOodI",
      "scope": "GOOGLE",
      "types": [
        "dentist",
        "health",
        "point_of_interest",
        "establishment"
      ],
      "vicinity": "215 West 125th Street, New York"
    },
    {
      "business_status": "OPERATIONAL",
      "geometry": {
        "location": {
          "lat": 40.8097222,
          "lng": -73.9497222
        },
        "viewport": {
          "northeast": {
            "lat": 40.8110235802915,
            "lng": -73.94843031970849
          },
          "southwest": {
            "lat": 40.8083256197085,
            "lng": -73.95112828029151
          }
        }
      },
      "icon": "https://maps.gstatic.com/mapfiles/place_api/icons/v1/png_71/shopping-71.png",
      "icon_background_color": "#4B96F3",
      "icon_mask_base_uri": "https://maps.gstatic.com/mapfiles/place_api/icons/v2/shopping_pinlet",
      "name": "Jimmy Jazz",
      "opening_hours": {
        "open_now": true
      },
      "photos": [
        {
          "height": 813,
          "html_attributions": [
            "<a href=\"https://maps.google.com/maps/contrib/115309139533936350178\">Hans Straub</a>"
          ],
          "photo_reference": "AeJbb3dBlHzSoKyrr0W2-I2kLA_-Zw3Q6YOiGwkUZ96pd-yK80fRtT9hhwnwZbK-bcLD8Ub_ZDpOJs6HD477XlHwzJfQwXGyNJuR5If6_f45VuS17-6dcHbEVVTqBzOzCKz8jn0Nvfr1IRUKlEEzelOZf5P72hCZFgm_BsO_8rQpPAuNVeY",
          "width": 1477
        }
      ],
      "place_id": "ChIJsQzrM232wokRGcsHb1Q6c88",
      "plus_code": {
        "compound_code": "R352+V4 New York, NY, USA",
        "global_code": "87G8R352+V4"
      },
      "price_level": 2,
      "rating": 4.3,
      "reference": "ChIJsQzrM232wokRGcsHb1Q6c88",
      "scope": "GOOGLE",
      "types": [
        "clothing_store",
        "shoe_store",
        "store",
        "point_of_interest",
        "establishment"
      ],
      "user_ratings_total": 351,
      "vicinity": "239 West 125th Street, New York"
    },
    {
      "business_status": "OPERATIONAL",
      "geometry": {
        "location": {
          "lat": 40.8096841,
          "lng": -73.9489857
        },
        "viewport": {
          "northeast": {
            "lat": 40.8108686302915,
            "lng": -73.9477588697085
          },
          "southwest": {
            "lat": 40.8081706697085,
            "lng": -73.95045683029151
          }
        }
      },
      "icon": "https://maps.gstatic.com/mapfiles/place_api/icons/v1/png_71/generic_business-71.png",
      "icon_background_color": "#7B9EB0",
      "icon_mask_base_uri": "https://maps.gstatic.com/mapfiles/place_api/icons/v2/generic_pinlet",
      "name": "Powell-Boone Karen",
      "place_id": "ChIJF26qyhL2wokRWGdApSUYtwU",
      "plus_code": {
        "compound_code": "R352+VC New York, NY, USA",
        "global_code": "87G8R352+VC"
      },
      "reference": "ChIJF26qyhL2wokRWGdApSUYtwU",
      "scope": "GOOGLE",
      "types": [
        "health",
        "point_of_interest",
        "establishment"
      ],
      "vicinity": "215 West 125th Street #2, New York"
    },
    {
      "business_status": "OPERATIONAL",
      "geometry": {
        "location": {
          "lat": 40.8096841,
          "lng": -73.9489857
        },
        "viewport": {
          "northeast": {
            "lat": 40.8108686302915,
            "lng": -73.9477588697085
          },
          "southwest": {
            "lat": 40.8081706697085,
            "lng": -73.95045683029151
          }
        }
      },
      "icon": "https://maps.gstatic.com/mapfiles/place_api/icons/v1/png_71/generic_business-71.png",
      "icon_background_color": "#7B9EB0",
      "icon_mask_base_uri": "https://maps.gstatic.com/mapfiles/place_api/icons/v2/generic_pinlet",
      "name": "Levine Edwin B DDS",
      "place_id": "ChIJF26qyhL2wokRLQBnS7Jr5Tg",
      "plus_code": {
        "compound_code": "R352+VC New York, NY, USA",
        "global_code": "87G8R352+VC"
      },
      "reference": "ChIJF26qyhL2wokRLQBnS7Jr5Tg",
      "scope": "GOOGLE",
      "types": [
        "dentist",
        "health",
        "point_of_interest",
        "establishment"
      ],
      "vicinity": "215 West 125th Street #2, New York"
    },
    {
      "business_status": "OPERATIONAL",
      "geometry": {
        "location": {
          "lat": 40.8096841,
          "lng": -73.9489857
        },
        "viewport": {
          "northeast": {
            "lat": 40.8108686302915,
            "lng": -73.9477588697085
          },
          "southwest": {
            "lat": 40.8081706697085,
            "lng": -73.95045683029151
          }
        }
      },
      "icon": "https://maps.gstatic.com/mapfiles/place_api/icons/v1/png_71/generic_business-71.png",
      "icon_background_color": "#7B9EB0",
      "icon_mask_base_uri": "https://maps.gstatic.com/mapfiles/place_api/icons/v2/generic_pinlet",
      "name": "Nduka Chinwe V",
      "place_id": "ChIJF26qyhL2wokRDLdGZfM_VYI",
      "plus_code": {
        "compound_code": "R352+VC New York, NY, USA",
        "global_code": "87G8R352+VC"
      },
      "reference": "ChIJF26qyhL2wokRDLdGZfM_VYI",
      "scope": "GOOGLE",
      "types": [
        "health",
        "point_of_interest",
        "establishment"
      ],
      "vicinity": "215 West 125th Street #2, New York"
    },
    {
      "business_status": "OPERATIONAL",
      "geometry": {
        "location": {
          "lat": 40.8096841,
          "lng": -73.9489857
        },
        "viewport": {
          "northeast": {
            "lat": 40.8108686302915,
            "lng": -73.9477588697085
          },
          "southwest": {
            "lat": 40.8081706697085,
            "lng": -73.95045683029151
          }
        }
      },
      "icon": "https://maps.gstatic.com/mapfiles/place_api/icons/v1/png_71/generic_business-71.png",
      "icon_background_color": "#7B9EB0",
      "icon_mask_base_uri": "https://maps.gstatic.com/mapfiles/place_api/icons/v2/generic_pinlet",
      "name": "Pegues Mary L",
      "place_id": "ChIJF26qyhL2wokRuhSlHxL6MuY",
      "plus_code": {
        "compound_code": "R352+VC New York, NY, USA",
        "global_code": "87G8R352+VC"
      },
      "reference": "ChIJF26qyhL2wokRuhSlHxL6MuY",
      "scope": "GOOGLE",
      "types": [
        "health",
        "point_of_interest",
        "establishment"
      ],
      "vicinity": "215 West 125th Street #2, New York"
    },
    {
      "business_status": "OPERATIONAL",
      "geometry": {
        "location": {
          "lat": 40.8108613,
          "lng": -73.95227469999999
        },
        "viewport": {
          "northeast": {
            "lat": 40.81215413029151,
            "lng": -73.95103816970848
          },
          "southwest": {
            "lat": 40.80945616970851,
            "lng": -73.95373613029149
          }
        }
      },
      "icon": "https://maps.gstatic.com/mapfiles/place_api/icons/v1/png_71/restaurant-71.png",
      "icon_background_color": "#FF9E67",
      "icon_mask_base_uri": "https://maps.gstatic.com/mapfiles/place_api/icons/v2/restaurant_pinlet",
      "name": "Popeyes Louisiana Kitchen",
      "opening_hours": {
        "open_now": true
      },
      "photos": [
        {
          "height": 1192,
          "html_attributions": [
            "<a href=\"https://maps.google.com/maps/contrib/117357312791856785198\">Popeyes Louisiana Kitchen</a>"
          ],
          "photo_reference": "AeJbb3dxmssqUXwbV92RpU4hbKn6TZ5k31Xo7CinsjVHzxPBYobn1cWkRamk6mPY5BUTntbLzDVLFLAK-XPv8YlK2lB8wecWLs7b2FwkwjCT8C7NHZPuJOqZbo0MN7LQ55DVaI7YEAL0ViWZmbe2lhIeaAJZoJyIuFqwSaCUvjQc_hhk8t8D",
          "width": 2119
        }
      ],
      "place_id": "ChIJPXrruGz2wokRmhs5rbTr-pI",
      "plus_code": {
        "compound_code": "R26X+83 New York, NY, USA",
        "global_code": "87G8R26X+83"
      },
      "price_level": 1,
      "rating": 3.7,
      "reference": "ChIJPXrruGz2wokRmhs5rbTr-pI",
      "scope": "GOOGLE",
      "types": [
        "restaurant",
        "food",
        "point_of_interest",
        "establishment"
      ],
      "user_ratings_total": 1774,
      "vicinity": "321 West 125th Street, New York"
    },
    {
      "business_status": "OPERATIONAL",
      "geometry": {
        "location": {
          "lat": 40.808995,
          "lng": -73.9491307
        },
        "viewport": {
          "northeast": {
            "lat": 40.81043458029149,
            "lng": -73.94762096970848
          },
          "southwest": {
            "lat": 40.80773661970849,
            "lng": -73.9503189302915
          }
        }
      },
      "icon": "https://maps.gstatic.com/mapfiles/place_api/icons/v1/png_71/generic_business-71.png",
      "icon_background_color": "#7B9EB0",
      "icon_mask_base_uri": "https://maps.gstatic.com/mapfiles/place_api/icons/v2/generic_pinlet",
      "name": "Planet Fitness",
      "opening_hours": {
        "open_now": true
      },
      "photos": [
        {
          "height": 3840,
          "html_attributions": [
            "<a href=\"https://maps.google.com/maps/contrib/108785670474565294186\">Planet Fitness</a>"
          ],
          "photo_reference": "AeJbb3cWv2jQklds-kBWtHrwGzw5tUcKM6QvO_KS2Rw3CAVothRZNe080lu5MoNB8ZZv0OvCN3CAF3Iuhw08WCSPO7br5iKRH_roB4HrrNvnhaixfXBuPiFoVgRT3CGPAYbMehij8dU6E07ek56x5xs-n8CY0djezvf64qEYoQCGNZnqmsrg",
          "width": 5760
        }
      ],
      "place_id": "ChIJh3bFKA32wokRXnT1evv1nRk",
      "plus_code": {
        "compound_code": "R352+H8 New York, NY, USA",
        "global_code": "87G8R352+H8"
      },
      "rating": 3.9,
      "reference": "ChIJh3bFKA32wokRXnT1evv1nRk",
      "scope": "GOOGLE",
      "types": [
        "gym",
        "health",
        "point_of_interest",
        "establishment"
      ],
      "user_ratings_total": 787,
      "vicinity": "208 West 125th Street, New York"
    },
    {
      "business_status": "OPERATIONAL",
      "geometry": {
        "location": {
          "lat": 40.8099461,
          "lng": -73.9517238
        },
        "viewport": {
          "northeast": {
            "lat": 40.8112045302915,
            "lng": -73.95024521970849
          },
          "southwest": {
            "lat": 40.8085065697085,
            "lng": -73.9529431802915
          }
        }
      },
      "icon": "https://maps.gstatic.com/mapfiles/place_api/icons/v1/png_71/shopping-71.png",
      "icon_background_color": "#4B96F3",
      "icon_mask_base_uri": "https://maps.gstatic.com/mapfiles/place_api/icons/v2/shopping_pinlet",
      "name": "K&G Fashion Superstore",
      "opening_hours": {
        "open_now": true
      },
      "photos": [
        {
          "height": 4032,
          "html_attributions": [
            "<a href=\"https://maps.google.com/maps/contrib/101100254172727945398\">Laneta Gillman</a>"
          ],
          "photo_reference": "AeJbb3fEUzDb08vG1tg2ID5DuJkItsNWEP40MjhU9BJCwzJ-U7ppsoSs4eNu9SbCi3FvOUTmLo-tM-2lom3_A7Met-K3WArAeEw3hVCKnR8-oY85K-wF5iKx02IhNTx4uOEvcEfCo30C1JUITxk_7_DoCB0be3fJsFIGrEhh0CKyLyyT5pQi",
          "width": 3024
        }
      ],
      "place_id": "ChIJd1YVzgNZwokRQ3-UUOhrthU",
      "plus_code": {
        "compound_code": "R25X+X8 New York, NY, USA",
        "global_code": "87G8R25X+X8"
      },
      "price_level": 1,
      "rating": 4.2,
      "reference": "ChIJd1YVzgNZwokRQ3-UUOhrthU",
      "scope": "GOOGLE",
      "types": [
        "clothing_store",
        "shoe_store",
        "store",
        "point_of_interest",
        "establishment"
      ],
      "user_ratings_total": 559,
      "vicinity": "2321 Frederick Douglass Boulevard, New York"
    },
    {
      "business_status": "OPERATIONAL",
      "geometry": {
        "location": {
          "lat": 40.8091098,
          "lng": -73.9493526
        },
        "viewport": {
          "northeast": {
            "lat": 40.81057533029151,
            "lng": -73.9479278197085
          },
          "southwest": {
            "lat": 40.80787736970851,
            "lng": -73.9506257802915
          }
        }
      },
      "icon": "https://maps.gstatic.com/mapfiles/place_api/icons/v1/png_71/shopping-71.png",
      "icon_background_color": "#4B96F3",
      "icon_mask_base_uri": "https://maps.gstatic.com/mapfiles/place_api/icons/v2/shopping_pinlet",
      "name": "Lane Bryant Outlet",
      "opening_hours": {
        "open_now": true
      },
      "photos": [
        {
          "height": 2448,
          "html_attributions": [
            "<a href=\"https://maps.google.com/maps/contrib/115537469985862052290\">Anthony Muljadi</a>"
          ],
          "photo_reference": "AeJbb3eKL5j-GxqXb3VLyHmXXn4Opq6tV5vaVX5x716csTnoZNHxnFj6AA6YUKnMoz4Mxdgl6OJUYtaFjSOTJXG1gt77ryMp_Wc26q_kpV6-NKLQTPNDYko6hPnR_9UNlNNFMBQSQYgfXuRpHK4QMpTmkDfvhm62NQGAu-FDXmmtwvgYcOWW",
          "width": 3264
        }
      ],
      "place_id": "ChIJl3wByhL2wokRzKOHEZq9TKs",
      "plus_code": {
        "compound_code": "R352+J7 New York, NY, USA",
        "global_code": "87G8R352+J7"
      },
      "price_level": 2,
      "rating": 4.2,
      "reference": "ChIJl3wByhL2wokRzKOHEZq9TKs",
      "scope": "GOOGLE",
      "types": [
        "clothing_store",
        "store",
        "point_of_interest",
        "establishment"
      ],
      "user_ratings_total": 280,
      "vicinity": "224 West 125th Street, New York"
    },
    {
      "business_status": "OPERATIONAL",
      "geometry": {
        "location": {
          "lat": 40.8088317,
          "lng": -73.9488051
        },
        "viewport": {
          "northeast": {
            "lat": 40.8101245802915,
            "lng": -73.94736526970848
          },
          "southwest": {
            "lat": 40.8074266197085,
            "lng": -73.95006323029149
          }
        }
      },
      "icon": "https://maps.gstatic.com/mapfiles/place_api/icons/v1/png_71/restaurant-71.png",
      "icon_background_color": "#FF9E67",
      "icon_mask_base_uri": "https://maps.gstatic.com/mapfiles/place_api/icons/v2/restaurant_pinlet",
      "name": "White Castle",
      "opening_hours": {
        "open_now": true
      },
      "photos": [
        {
          "height": 3120,
          "html_attributions": [
            "<a href=\"https://maps.google.com/maps/contrib/102308226180206751013\">T</a>"
          ],
          "photo_reference": "AeJbb3dIFmuuWM3QpfNcuXLISmM5EE2UjAk_xdZeYozrKQVG7FWEXyL8mKEhx9RZsjFVeSdtCCOQ6NSh4RJ6HwHCybreSWo-ocATPMgBSelwgShNPcNv3LATP0d0I7p0hEiJcbQD_BL8aJ3xgytiE-DuECXD9UWK5l0rjyNaVHvnUzwd5SiK",
          "width": 4160
        }
      ],
      "place_id": "ChIJt-XwuhL2wokRbq9t3YhZZeU",
      "plus_code": {
        "compound_code": "R352+GF New York, NY, USA",
        "global_code": "87G8R352+GF"
      },
      "price_level": 1,
      "rating": 3.5,
      "reference": "ChIJt-XwuhL2wokRbq9t3YhZZeU",
      "scope": "GOOGLE",
      "types": [
        "restaurant",
        "food",
        "point_of_interest",
        "establishment"
      ],
      "user_ratings_total": 1516,
      "vicinity": "2094 Adam Clayton Powell Junior Boulevard, New York"
    },
    {
      "business_status": "OPERATIONAL",
      "geometry": {
        "location": {
          "lat": 40.810539,
          "lng": -73.9514604
        },
        "viewport": {
          "northeast": {
            "lat": 40.8118057802915,
            "lng": -73.95018421970849
          },
          "southwest": {
            "lat": 40.8091078197085,
            "lng": -73.9528821802915
          }
        }
      },
      "icon": "https://maps.gstatic.com/mapfiles/place_api/icons/v1/png_71/generic_business-71.png",
      "icon_background_color": "#7B9EB0",
      "icon_mask_base_uri": "https://maps.gstatic.com/mapfiles/place_api/icons/v2/generic_pinlet",
      "name": "Blink Fitness",
      "opening_hours": {
        "open_now": true
      },
      "photos": [
        {
          "height": 1192,
          "html_attributions": [
            "<a href=\"https://maps.google.com/maps/contrib/110278455415939634304\">Blink Fitness</a>"
          ],
          "photo_reference": "AeJbb3cym8VqylE9AtSlrjcKOhO3Dj3rk9mF5YW_Gib7utc-hdL7_VeJEBsjsG__P4XSV0PaO3ubf2gLVahpCCAvrBN5_ws4zt92n7S2KwWawueL2GYa7Qv9gUZ1MkqeeRzpji8ryrgBsUEUPXcReK8abI6qQboK8tzglbXVfyIIc7kN1WZx",
          "width": 2120
        }
      ],
      "place_id": "ChIJ8WZXxWz2wokRKT-MlaYMObQ",
      "plus_code": {
        "compound_code": "R26X+6C New York, NY, USA",
        "global_code": "87G8R26X+6C"
      },
      "rating": 4.1,
      "reference": "ChIJ8WZXxWz2wokRKT-MlaYMObQ",
      "scope": "GOOGLE",
      "types": [
        "gym",
        "health",
        "point_of_interest",
        "establishment"
      ],
      "user_ratings_total": 424,
      "vicinity": "301 West 125th Street, New York"
    },
    {
      "business_status": "OPERATIONAL",
      "geometry": {
        "location": {
          "lat": 40.810149,
          "lng": -73.9515183
        },
        "viewport": {
          "northeast": {
            "lat": 40.81161858029151,
            "lng": -73.95027926970849
          },
          "southwest": {
            "lat": 40.80892061970851,
            "lng": -73.95297723029151
          }
        }
      },
      "icon": "https://maps.gstatic.com/mapfiles/place_api/icons/v1/png_71/shopping-71.png",
      "icon_background_color": "#4B96F3",
      "icon_mask_base_uri": "https://maps.gstatic.com/mapfiles/place_api/icons/v2/shopping_pinlet",
      "name": "Old Navy",
      "opening_hours": {
        "open_now": true
      },
      "photos": [
        {
          "height": 1536,
          "html_attributions": [
            "<a href=\"https://maps.google.com/maps/contrib/112548130103071478945\">J S</a>"
          ],
          "photo_reference": "AeJbb3eCA2_YhqQCJd3vvS1KRcaZFTFcj95nmT-TVKkiigCXmP-fZ87NyTnd1yomTeA3Ic8F3lf_Baq9nKGsbZAsUc86cvvflkUYIxaoqa2ul4DrBFz9USzGtDZZH3dN8_1036pVz9Om2g_lnTjkCZrboJIEOCebwCjqfHKcRyXXMNhR71Ui",
          "width": 2048
        }
      ],
      "place_id": "ChIJydt50Wz2wokRBCRo2ftp8G8",
      "plus_code": {
        "compound_code": "R26X+39 New York, NY, USA",
        "global_code": "87G8R26X+39"
      },
      "price_level": 1,
      "rating": 4.1,
      "reference": "ChIJydt50Wz2wokRBCRo2ftp8G8",
      "scope": "GOOGLE",
      "types": [
        "clothing_store",
        "store",
        "point_of_interest",
        "establishment"
      ],
      "user_ratings_total": 1640,
      "vicinity": "300 West 125th Street, New York"
    },
    {
      "business_status": "OPERATIONAL",
      "geometry": {
        "location": {
          "lat": 40.8091227,
          "lng": -73.9472378
        },
        "viewport": {
          "northeast": {
            "lat": 40.81027423029149,
            "lng": -73.94614601970848
          },
          "southwest": {
            "lat": 40.80757626970849,
            "lng": -73.94884398029149
          }
        }
      },
      "icon": "https://maps.gstatic.com/mapfiles/place_api/icons/v1/png_71/generic_business-71.png",
      "icon_background_color": "#7B9EB0",
      "icon_mask_base_uri": "https://maps.gstatic.com/mapfiles/place_api/icons/v2/generic_pinlet",
      "name": "Veterans 125th St Clinic",
      "photos": [
        {
          "height": 864,
          "html_attributions": [
            "<a href=\"https://maps.google.com/maps/contrib/111413535296788792333\">Harold Washington</a>"
          ],
          "photo_reference": "AeJbb3dCKxVDLFh2w2cK91phUcGIgdfGsRwED8YtnsU25EuxsDNMsDgdIQXwKqyTeG_vgIiHGW3kI_UGgjvPVc0z-Rm6A4Ll653OFonyK5mYUUyljtMKBjzpqDmv2Sn82OiQDHyDebJqJKsWbn3UXfLrbHjfZvVcA7Kw8F9z_qROYKVFZZ9q",
          "width": 1152
        }
      ],
      "place_id": "ChIJyQP9Wg32wokRXipRZzzcFl8",
      "plus_code": {
        "compound_code": "R353+J4 New York, NY, USA",
        "global_code": "87G8R353+J4"
      },
      "rating": 2,
      "reference": "ChIJyQP9Wg32wokRXipRZzzcFl8",
      "scope": "GOOGLE",
      "types": [
        "health",
        "point_of_interest",
        "establishment"
      ],
      "user_ratings_total": 1,
      "vicinity": "Adam Clayton Powell Jr. State Office Building, 163 West 125th Street, New York"
    },
    {
      "business_status": "OPERATIONAL",
      "geometry": {
        "location": {
          "lat": 40.80885019999999,
          "lng": -73.9525697
        },
        "viewport": {
          "northeast": {
            "lat": 40.8100960302915,
            "lng": -73.9510795697085
          },
          "southwest": {
            "lat": 40.8073980697085,
            "lng": -73.9537775302915
          }
        }
      },
      "icon": "https://maps.gstatic.com/mapfiles/place_api/icons/v1/png_71/civic_building-71.png",
      "icon_background_color": "#7B9EB0",
      "icon_mask_base_uri": "https://maps.gstatic.com/mapfiles/place_api/icons/v2/civic-bldg_pinlet",
      "name": "NYPD 28th Precinct",
      "opening_hours": {
        "open_now": true
      },
      "photos": [
        {
          "height": 2676,
          "html_attributions": [
            "<a href=\"https://maps.google.com/maps/contrib/110411244562467265663\">M Villarica</a>"
          ],
          "photo_reference": "AeJbb3exXxZ7wDZSOE5C31jDW-l1mTNEh_eCeFU7zrMoLz-NyNEaUj3F1X1aN2lRodoSD6j4PvZCno5Hdd9d_hSDJaIfQoV8Xj4T6tb3Gk4TX30hgnG13rhHbytRlNMwgrpLTSzgewWVZgbb5mGvT8iXd0R3W87W64ehzWLMx8knhxHBSoGO",
          "width": 3572
        }
      ],
      "place_id": "ChIJv0vyahP2wokRVSn5MgNwCUw",
      "plus_code": {
        "compound_code": "R25W+GX New York, NY, USA",
        "global_code": "87G8R25W+GX"
      },
      "rating": 2.3,
      "reference": "ChIJv0vyahP2wokRVSn5MgNwCUw",
      "scope": "GOOGLE",
      "types": [
        "police",
        "point_of_interest",
        "establishment"
      ],
      "user_ratings_total": 30,
      "vicinity": "2271-89 Frederick Douglass Boulevard, New York"
    },
    {
      "business_status": "OPERATIONAL",
      "geometry": {
        "location": {
          "lat": 40.8091262,
          "lng": -73.9552235
        },
        "viewport": {
          "northeast": {
            "lat": 40.81056613029151,
            "lng": -73.9538068697085
          },
          "southwest": {
            "lat": 40.80786816970851,
            "lng": -73.95650483029151
          }
        }
      },
      "icon": "https://maps.gstatic.com/mapfiles/place_api/icons/v1/png_71/worship_general-71.png",
      "icon_background_color": "#7B9EB0",
      "icon_mask_base_uri": "https://maps.gstatic.com/mapfiles/place_api/icons/v2/worship_christian_pinlet",
      "name": "Morningside Avenue Presbyterian Church",
      "place_id": "ChIJu7x_6hT2wokRSt2REBZI4iY",
      "plus_code": {
        "compound_code": "R25V+MW New York, NY, USA",
        "global_code": "87G8R25V+MW"
      },
      "reference": "ChIJu7x_6hT2wokRSt2REBZI4iY",
      "scope": "GOOGLE",
      "types": [
        "church",
        "place_of_worship",
        "point_of_interest",
        "establishment"
      ],
      "vicinity": "New York"
    },
    {
      "business_status": "OPERATIONAL",
      "geometry": {
        "location": {
          "lat": 40.8091589,
          "lng": -73.9473251
        },
        "viewport": {
          "northeast": {
            "lat": 40.8102748802915,
            "lng": -73.94614851970849
          },
          "southwest": {
            "lat": 40.8075769197085,
            "lng": -73.94884648029151
          }
        }
      },
      "icon": "https://maps.gstatic.com/mapfiles/place_api/icons/v1/png_71/school-71.png",
      "icon_background_color": "#7B9EB0",
      "icon_mask_base_uri": "https://maps.gstatic.com/mapfiles/place_api/icons/v2/school_pinlet",
      "name": "Manhattan Educational Opportunity Center (MEOC)",
      "opening_hours": {
        "open_now": false
      },
      "photos": [
        {
          "height": 383,
          "html_attributions": [
            "<a href=\"https://maps.google.com/maps/contrib/114838377211468047568\">Manhattan Educational Opportunity Center (MEOC)</a>"
          ],
          "photo_reference": "AeJbb3dSAFmbGHEUx0oX0LhvlyeAcR0TRLZXP2FItG2piw5mPHQsyZmxr6D-h1FebEnkDzkHZvCIcqo9PCuT6TAztZqB2lUBp_AaTFYpvMLdjGrYQn2NLzaFqX_NVqrCAxD9AXW4QQlxLvAMjvDLIL9umY_ttHT9B1R_kP8X3q9qZkg-55bf",
          "width": 628
        }
      ],
      "place_id": "ChIJyQP9Wg32wokR5NfRWCDqEZI",
      "plus_code": {
        "compound_code": "R353+M3 New York, NY, USA",
        "global_code": "87G8R353+M3"
      },
      "rating": 3.9,
      "reference": "ChIJyQP9Wg32wokR5NfRWCDqEZI",
      "scope": "GOOGLE",
      "types": [
        "point_of_interest",
        "establishment"
      ],
      "user_ratings_total": 73,
      "vicinity": "163 West 125th Street 15th floor, New York"
    },
    {
      "business_status": "OPERATIONAL",
      "geometry": {
        "location": {
          "lat": 40.8092343,
          "lng": -73.9474317
        },
        "viewport": {
          "northeast": {
            "lat": 40.81052063029149,
            "lng": -73.94638506970848
          },
          "southwest": {
            "lat": 40.8078226697085,
            "lng": -73.94908303029149
          }
        }
      },
      "icon": "https://maps.gstatic.com/mapfiles/place_api/icons/v1/png_71/civic_building-71.png",
      "icon_background_color": "#7B9EB0",
      "icon_mask_base_uri": "https://maps.gstatic.com/mapfiles/place_api/icons/v2/civic-bldg_pinlet",
      "name": "New York State Office of Children and Family Services",
      "opening_hours": {
        "open_now": false
      },
      "place_id": "ChIJyQP9Wg32wokR_dPAvfm-2Oo",
      "plus_code": {
        "compound_code": "R353+M2 New York, NY, USA",
        "global_code": "87G8R353+M2"
      },
      "rating": 3.5,
      "reference": "ChIJyQP9Wg32wokR_dPAvfm-2Oo",
      "scope": "GOOGLE",
      "types": [
        "local_government_office",
        "point_of_interest",
        "establishment"
      ],
      "user_ratings_total": 6,
      "vicinity": "163 West 125th Street, New York"
    },
    {
      "business_status": "OPERATIONAL",
      "geometry": {
        "location": {
          "lat": 40.8116845,
          "lng": -73.950395
        },
        "viewport": {
          "northeast": {
            "lat": 40.8129617802915,
            "lng": -73.94900591970851
          },
          "southwest": {
            "lat": 40.8102638197085,
            "lng": -73.95170388029152
          }
        }
      },
      "icon": "https://maps.gstatic.com/mapfiles/place_api/icons/v1/png_71/restaurant-71.png",
      "icon_background_color": "#FF9E67",
      "icon_mask_base_uri": "https://maps.gstatic.com/mapfiles/place_api/icons/v2/restaurant_pinlet",
      "name": "Harlem Bar-B-Q",
      "opening_hours": {
        "open_now": true
      },
      "photos": [
        {
          "height": 3024,
          "html_attributions": [
            "<a href=\"https://maps.google.com/maps/contrib/105666489312271967002\">Kharis Catchings</a>"
          ],
          "photo_reference": "AeJbb3ffbqE2hh9X6VWwMwYdQRlfVT87N0b1sCTiD4jxlf1SfSm6aexkLKyZBHK4v7lMPP0E_fLe9FjVIIFZx7hvNuJGIQsIOSn8-vH0Bfp9PBPpI9iTnt6vwTaewcsepJm_HvSQ5l4O1wmZexLED4msS6hacugfm2xnegeT6LzgFRx0LlRe",
          "width": 4032
        }
      ],
      "place_id": "ChIJvR6EA232wokR6E4MpK7dcyo",
      "plus_code": {
        "compound_code": "R26X+MR New York, NY, USA",
        "global_code": "87G8R26X+MR"
      },
      "price_level": 2,
      "rating": 4.1,
      "reference": "ChIJvR6EA232wokR6E4MpK7dcyo",
      "scope": "GOOGLE",
      "types": [
        "restaurant",
        "food",
        "point_of_interest",
        "establishment"
      ],
      "user_ratings_total": 910,
      "vicinity": "2367 Frederick Douglass Boulevard, New York"
    },
    {
      "business_status": "OPERATIONAL",
      "geometry": {
        "location": {
          "lat": 40.8092343,
          "lng": -73.9474317
        },
        "viewport": {
          "northeast": {
            "lat": 40.81052063029149,
            "lng": -73.94638506970848
          },
          "southwest": {
            "lat": 40.8078226697085,
            "lng": -73.94908303029149
          }
        }
      },
      "icon": "https://maps.gstatic.com/mapfiles/place_api/icons/v1/png_71/generic_business-71.png",
      "icon_background_color": "#7B9EB0",
      "icon_mask_base_uri": "https://maps.gstatic.com/mapfiles/place_api/icons/v2/generic_pinlet",
      "name": "Central Harlem Meals On Wheels",
      "place_id": "ChIJyQP9Wg32wokR4lCcQdnAY7M",
      "plus_code": {
        "compound_code": "R353+M2 New York, NY, USA",
        "global_code": "87G8R353+M2"
      },
      "reference": "ChIJyQP9Wg32wokR4lCcQdnAY7M",
      "scope": "GOOGLE",
      "types": [
        "point_of_interest",
        "establishment"
      ],
      "vicinity": "163 West 125th Street #13, New York"
    },
    {
      "business_status": "OPERATIONAL",
      "geometry": {
        "location": {
          "lat": 40.81334669999999,
          "lng": -73.9541943
        },
        "viewport": {
          "northeast": {
            "lat": 40.8146191802915,
            "lng": -73.9529024197085
          },
          "southwest": {
            "lat": 40.8119212197085,
            "lng": -73.9556003802915
          }
        }
      },
      "icon": "https://maps.gstatic.com/mapfiles/place_api/icons/v1/png_71/generic_business-71.png",
      "icon_background_color": "#7B9EB0",
      "icon_mask_base_uri": "https://maps.gstatic.com/mapfiles/place_api/icons/v2/generic_pinlet",
      "name": "GLUCK+",
      "place_id": "ChIJ-fnCj2v2wokR5SsKUSKj4nU",
      "plus_code": {
        "compound_code": "R27W+88 New York, NY, USA",
        "global_code": "87G8R27W+88"
      },
      "rating": 4.3,
      "reference": "ChIJ-fnCj2v2wokR5SsKUSKj4nU",
      "scope": "GOOGLE",
      "types": [
        "point_of_interest",
        "establishment"
      ],
      "user_ratings_total": 6,
      "vicinity": "423 West 127th Street #6, New York"
    },
    {
      "business_status": "OPERATIONAL",
      "geometry": {
        "location": {
          "lat": 40.8093603,
          "lng": -73.94866549999999
        },
        "viewport": {
          "northeast": {
            "lat": 40.8106154302915,
            "lng": -73.94738421970848
          },
          "southwest": {
            "lat": 40.8079174697085,
            "lng": -73.9500821802915
          }
        }
      },
      "icon": "https://maps.gstatic.com/mapfiles/place_api/icons/v1/png_71/generic_business-71.png",
      "icon_background_color": "#7B9EB0",
      "icon_mask_base_uri": "https://maps.gstatic.com/mapfiles/place_api/icons/v2/generic_pinlet",
      "name": "FedEx Office Print & Ship Center",
      "opening_hours": {
        "open_now": true
      },
      "photos": [
        {
          "height": 3024,
          "html_attributions": [
            "<a href=\"https://maps.google.com/maps/contrib/111590468895998626205\">Sandy S</a>"
          ],
          "photo_reference": "AeJbb3fpdM0nISHmYvxllsn_lAvSgADulu-LejgOkJ8rQbiQn3wINbh6KxVSIsRnXUh9PjRWQ2t7yFqhDkLeRR4Lo3QFyDnW7Yyn5FtJTACTybRADJO5zcJaqXikHal28B5cGwWuCcLj9HgJMLoi14ezoaRJF48Y2YXzB699gQFSiU7a3Nd4",
          "width": 3024
        }
      ],
      "place_id": "ChIJ0fMEsxL2wokRhiiv24OzL7g",
      "plus_code": {
        "compound_code": "R352+PG New York, NY, USA",
        "global_code": "87G8R352+PG"
      },
      "price_level": 2,
      "rating": 3.1,
      "reference": "ChIJ0fMEsxL2wokRhiiv24OzL7g",
      "scope": "GOOGLE",
      "types": [
        "store",
        "point_of_interest",
        "establishment"
      ],
      "user_ratings_total": 169,
      "vicinity": "207 West 125th Street, New York"
    },
    {
      "business_status": "OPERATIONAL",
      "geometry": {
        "location": {
          "lat": 40.8098553,
          "lng": -73.9500312
        },
        "viewport": {
          "northeast": {
            "lat": 40.8111458802915,
            "lng": -73.9486606697085
          },
          "southwest": {
            "lat": 40.8084479197085,
            "lng": -73.95135863029151
          }
        }
      },
      "icon": "https://maps.gstatic.com/mapfiles/place_api/icons/v1/png_71/shopping-71.png",
      "icon_background_color": "#4B96F3",
      "icon_mask_base_uri": "https://maps.gstatic.com/mapfiles/place_api/icons/v2/shopping_pinlet",
      "name": "GameStop",
      "opening_hours": {
        "open_now": true
      },
      "photos": [
        {
          "height": 1080,
          "html_attributions": [
            "<a href=\"https://maps.google.com/maps/contrib/111873055173116764252\">Fred Lee Jr</a>"
          ],
          "photo_reference": "AeJbb3d76A4hdIEccoKy57nmxRFfzzrGG1wlcKux7F55_0D9QjnJN_OUD2ppOmrC1s8kwRqYzLWn5IUuyC2Af3kWFhfYjyRxOjST5mn5sgBpbNTiRDRimrE71YndeLMCkjntRnDVbPvlyRhKczRlGfb2TGBY77FujVcN8-4Cr_e0HvZcZJA",
          "width": 1920
        }
      ],
      "place_id": "ChIJ-z6TLW32wokRHnFZVrdVqn4",
      "plus_code": {
        "compound_code": "R25X+WX New York, NY, USA",
        "global_code": "87G8R25X+WX"
      },
      "price_level": 2,
      "rating": 3.9,
      "reference": "ChIJ-z6TLW32wokRHnFZVrdVqn4",
      "scope": "GOOGLE",
      "types": [
        "electronics_store",
        "store",
        "point_of_interest",
        "establishment"
      ],
      "user_ratings_total": 626,
      "vicinity": "251 West 125th Street #5, New York"
    },
    {
      "business_status": "OPERATIONAL",
      "geometry": {
        "location": {
          "lat": 40.8092343,
          "lng": -73.9474317
        },
        "viewport": {
          "northeast": {
            "lat": 40.81052063029149,
            "lng": -73.94638506970848
          },
          "southwest": {
            "lat": 40.8078226697085,
            "lng": -73.94908303029149
          }
        }
      },
      "icon": "https://maps.gstatic.com/mapfiles/place_api/icons/v1/png_71/civic_building-71.png",
      "icon_background_color": "#7B9EB0",
      "icon_mask_base_uri": "https://maps.gstatic.com/mapfiles/place_api/icons/v2/civic-bldg_pinlet",
      "name": "Harlem Community Development Corporation",
      "opening_hours": {
        "open_now": false
      },
      "photos": [
        {
          "height": 3024,
          "html_attributions": [
            "<a href=\"https://maps.google.com/maps/contrib/115376661052323761900\">N G</a>"
          ],
          "photo_reference": "AeJbb3cE-fkCeSDy83xRT2IA63wXOQljNq34XurNSEBQEJEF0pwF45OHbTl-qRz7eNZVoF5h208NOUYUpYJlVCl_4M07BPjW_0On3ZANiWxfgNF605w4h4c48BSNVJAaA_VjhdbBTeCqp5DNsVJvvsNYYQLFY9UK-bHSkX6zhNEYBd4DHAZN",
          "width": 4032
        }
      ],
      "place_id": "ChIJyQP9Wg32wokR3hBTX3EpO3I",
      "plus_code": {
        "compound_code": "R353+M2 New York, NY, USA",
        "global_code": "87G8R353+M2"
      },
      "reference": "ChIJyQP9Wg32wokR3hBTX3EpO3I",
      "scope": "GOOGLE",
      "types": [
        "local_government_office",
        "point_of_interest",
        "establishment"
      ],
      "vicinity": "163 West 125th Street #17, New York"
    },
    {
      "business_status": "OPERATIONAL",
      "geometry": {
        "location": {
          "lat": 40.8091227,
          "lng": -73.9472378
        },
        "viewport": {
          "northeast": {
            "lat": 40.8102383802915,
            "lng": -73.9460614697085
          },
          "southwest": {
            "lat": 40.8075404197085,
            "lng": -73.9487594302915
          }
        }
      },
      "icon": "https://maps.gstatic.com/mapfiles/place_api/icons/v1/png_71/civic_building-71.png",
      "icon_background_color": "#7B9EB0",
      "icon_mask_base_uri": "https://maps.gstatic.com/mapfiles/place_api/icons/v2/civic-bldg_pinlet",
      "name": "Housing & Community Renewal",
      "opening_hours": {
        "open_now": false
      },
      "place_id": "ChIJyQP9Wg32wokRj-HubcThmQo",
      "plus_code": {
        "compound_code": "R353+J4 New York, NY, USA",
        "global_code": "87G8R353+J4"
      },
      "rating": 5,
      "reference": "ChIJyQP9Wg32wokRj-HubcThmQo",
      "scope": "GOOGLE",
      "types": [
        "local_government_office",
        "point_of_interest",
        "establishment"
      ],
      "user_ratings_total": 4,
      "vicinity": "163 West 125th Street # 5, New York"
    },
    {
      "business_status": "OPERATIONAL",
      "geometry": {
        "location": {
          "lat": 40.81091799999999,
          "lng": -73.953745
        },
        "viewport": {
          "northeast": {
            "lat": 40.81239478029151,
            "lng": -73.9523006197085
          },
          "southwest": {
            "lat": 40.80969681970851,
            "lng": -73.95499858029152
          }
        }
      },
      "icon": "https://maps.gstatic.com/mapfiles/place_api/icons/v1/png_71/generic_business-71.png",
      "icon_background_color": "#7B9EB0",
      "icon_mask_base_uri": "https://maps.gstatic.com/mapfiles/place_api/icons/v2/generic_pinlet",
      "name": "Antoine Abed, MD",
      "opening_hours": {
        "open_now": false
      },
      "photos": [
        {
          "height": 727,
          "html_attributions": [
            "<a href=\"https://maps.google.com/maps/contrib/101796895709548704252\">Antoine Abed, MD</a>"
          ],
          "photo_reference": "AeJbb3fgcUakaCobs9eZ5nor8QpNpn_6b9SmZN7rvFkfrv8S4tKUPDg7-j8NeH9lA6m6jKrbs6GclnuMnGp4JPas7UdexM_mApjy_nv25m5-l00k85VFeWqBnF686ns5ygvw2d4Un1TigrXm9QQiUiejocowuBOroY_xv10bah09TW4JsRQV",
          "width": 727
        }
      ],
      "place_id": "ChIJw6ajyj32wokR1MCMK_-hPtQ",
      "plus_code": {
        "compound_code": "R26W+9G New York, NY, USA",
        "global_code": "87G8R26W+9G"
      },
      "rating": 5,
      "reference": "ChIJw6ajyj32wokR1MCMK_-hPtQ",
      "scope": "GOOGLE",
      "types": [
        "doctor",
        "health",
        "point_of_interest",
        "establishment"
      ],
      "user_ratings_total": 5,
      "vicinity": "374 West 125th Street, New York"
    },
    {
      "business_status": "OPERATIONAL",
      "geometry": {
        "location": {
          "lat": 40.81174439999999,
          "lng": -73.9544178
        },
        "viewport": {
          "northeast": {
            "lat": 40.8130232802915,
            "lng": -73.9531390697085
          },
          "southwest": {
            "lat": 40.8103253197085,
            "lng": -73.9558370302915
          }
        }
      },
      "icon": "https://maps.gstatic.com/mapfiles/place_api/icons/v1/png_71/generic_business-71.png",
      "icon_background_color": "#7B9EB0",
      "icon_mask_base_uri": "https://maps.gstatic.com/mapfiles/place_api/icons/v2/generic_pinlet",
      "name": "Domino's Pizza",
      "opening_hours": {
        "open_now": true
      },
      "photos": [
        {
          "height": 3024,
          "html_attributions": [
            "<a href=\"https://maps.google.com/maps/contrib/111816982771926922122\">Andras Szeplaki</a>"
          ],
          "photo_reference": "AeJbb3cGMrS-MA-NfyHEe_1PD6XyM0mohtK6Oudx9ZhyRA3t4_d3-fVTEh4qokFa6bHsx89Q1jNJISJA5slhsE2SmGfj5GPkEB5RQQfIzG4h-fEIsx3F-_IBeQiByibC-b-UcK_YxtlgBubi0F_KkoMhBtngmM3T_Cp9PgM_kuCfYQiDgpfX",
          "width": 4032
        }
      ],
      "place_id": "ChIJ06XraGv2wokRx0VQxJ76yYM",
      "plus_code": {
        "compound_code": "R26W+M6 New York, NY, USA",
        "global_code": "87G8R26W+M6"
      },
      "price_level": 1,
      "rating": 3.7,
      "reference": "ChIJ06XraGv2wokRx0VQxJ76yYM",
      "scope": "GOOGLE",
      "types": [
        "meal_delivery",
        "meal_takeaway",
        "restaurant",
        "food",
        "point_of_interest",
        "establishment"
      ],
      "user_ratings_total": 533,
      "vicinity": "409 West 125th Street, New York"
    },
    {
      "business_status": "OPERATIONAL",
      "geometry": {
        "location": {
          "lat": 40.8092263,
          "lng": -73.9474304
        },
        "viewport": {
          "northeast": {
            "lat": 40.81052063029149,
            "lng": -73.9463844197085
          },
          "southwest": {
            "lat": 40.8078226697085,
            "lng": -73.94908238029151
          }
        }
      },
      "icon": "https://maps.gstatic.com/mapfiles/place_api/icons/v1/png_71/civic_building-71.png",
      "icon_background_color": "#7B9EB0",
      "icon_mask_base_uri": "https://maps.gstatic.com/mapfiles/place_api/icons/v2/civic-bldg_pinlet",
      "name": "Rent Administration Office",
      "opening_hours": {
        "open_now": false
      },
      "place_id": "ChIJyQP9Wg32wokRvSvlmvOGjys",
      "plus_code": {
        "compound_code": "R353+M2 New York, NY, USA",
        "global_code": "87G8R353+M2"
      },
      "reference": "ChIJyQP9Wg32wokRvSvlmvOGjys",
      "scope": "GOOGLE",
      "types": [
        "local_government_office",
        "point_of_interest",
        "establishment"
      ],
      "vicinity": "163 West 125th Street # 5, New York"
    },
    {
      "business_status": "OPERATIONAL",
      "geometry": {
        "location": {
          "lat": 40.8107815,
          "lng": -73.9530431
        },
        "viewport": {
          "northeast": {
            "lat": 40.8122020802915,
            "lng": -73.9516586697085
          },
          "southwest": {
            "lat": 40.8095041197085,
            "lng": -73.9543566302915
          }
        }
      },
      "icon": "https://maps.gstatic.com/mapfiles/place_api/icons/v1/png_71/restaurant-71.png",
      "icon_background_color": "#FF9E67",
      "icon_mask_base_uri": "https://maps.gstatic.com/mapfiles/place_api/icons/v2/restaurant_pinlet",
      "name": "McDonald's",
      "opening_hours": {
        "open_now": true
      },
      "photos": [
        {
          "height": 3024,
          "html_attributions": [
            "<a href=\"https://maps.google.com/maps/contrib/114525323843315818983\">Pascal Gienger</a>"
          ],
          "photo_reference": "AeJbb3euFWBRlYYmtwGp9cwqdKkt54AGTz1kyTbTGZ5SGnS_-l3W0qh2kSa9Zo2Fe7em-tVVJoxDrp7W0jGPbbJ5f5SU6qh2wfJaI63yV88XHG_N0SDV4jg4I6b143DZbs_G_WW2qPyQOi079bgXPScF3eYZR6wO7U_RVUnIwrzZhEXw6-e1",
          "width": 4032
        }
      ],
      "place_id": "ChIJF26qyhL2wokRW6PK5adGA_k",
      "plus_code": {
        "compound_code": "R26W+8Q New York, NY, USA",
        "global_code": "87G8R26W+8Q"
      },
      "price_level": 1,
      "rating": 3.4,
      "reference": "ChIJF26qyhL2wokRW6PK5adGA_k",
      "scope": "GOOGLE",
      "types": [
        "cafe",
        "store",
        "restaurant",
        "food",
        "point_of_interest",
        "establishment"
      ],
      "user_ratings_total": 1072,
      "vicinity": "354 West 125th Street, New York"
    },
    {
      "business_status": "OPERATIONAL",
      "geometry": {
        "location": {
          "lat": 40.8088426,
          "lng": -73.954371
        },
        "viewport": {
          "northeast": {
            "lat": 40.8101399302915,
            "lng": -73.95289961970849
          },
          "southwest": {
            "lat": 40.8074419697085,
            "lng": -73.9555975802915
          }
        }
      },
      "icon": "https://maps.gstatic.com/mapfiles/place_api/icons/v1/png_71/generic_business-71.png",
      "icon_background_color": "#7B9EB0",
      "icon_mask_base_uri": "https://maps.gstatic.com/mapfiles/place_api/icons/v2/generic_pinlet",
      "name": "Morningside Dental Care",
      "opening_hours": {
        "open_now": false
      },
      "photos": [
        {
          "height": 1192,
          "html_attributions": [
            "<a href=\"https://maps.google.com/maps/contrib/111262629247407447111\">Morningside Dental Care</a>"
          ],
          "photo_reference": "AeJbb3dWwHG4OXuSBAOeVsCN6O-3wndetIISKzDeUxmFOJRE5YeXledvWWNurLCkaMmIkJTuL2fjaOSehvxVPLwsaPIfVIygfVspqFdzy2OsYOmsgnawdd6ZoijnAH6LxyFMRuUSZ1lUgxMHtK3sEkii9YW_e5dmjC7ZpWUTjIxs37wpsfHG",
          "width": 2119
        }
      ],
      "place_id": "ChIJ7doapGz2wokRFIeey8OLpno",
      "plus_code": {
        "compound_code": "R25W+G7 New York, NY, USA",
        "global_code": "87G8R25W+G7"
      },
      "rating": 4.8,
      "reference": "ChIJ7doapGz2wokRFIeey8OLpno",
      "scope": "GOOGLE",
      "types": [
        "dentist",
        "health",
        "point_of_interest",
        "establishment"
      ],
      "user_ratings_total": 238,
      "vicinity": "527 Manhattan Avenue, New York"
    },
    {
      "business_status": "CLOSED_TEMPORARILY",
      "geometry": {
        "location": {
          "lat": 40.8100146,
          "lng": -73.9472712
        },
        "viewport": {
          "northeast": {
            "lat": 40.8113937802915,
            "lng": -73.9459746197085
          },
          "southwest": {
            "lat": 40.8086958197085,
            "lng": -73.94867258029151
          }
        }
      },
      "icon": "https://maps.gstatic.com/mapfiles/place_api/icons/v1/png_71/generic_business-71.png",
      "icon_background_color": "#7B9EB0",
      "icon_mask_base_uri": "https://maps.gstatic.com/mapfiles/place_api/icons/v2/generic_pinlet",
      "name": "Dafina",
      "permanently_closed": true,
      "place_id": "ChIJo9WGpnL2wokRl4v3whGmSDI",
      "plus_code": {
        "compound_code": "R363+23 New York, NY, USA",
        "global_code": "87G8R363+23"
      },
      "rating": 3.5,
      "reference": "ChIJo9WGpnL2wokRl4v3whGmSDI",
      "scope": "GOOGLE",
      "types": [
        "point_of_interest",
        "establishment"
      ],
      "user_ratings_total": 4,
      "vicinity": "2137 Adam Clayton Powell Junior Boulevard, New York"
    },
    {
      "business_status": "OPERATIONAL",
      "geometry": {
        "location": {
          "lat": 40.809729,
          "lng": -73.9512788
        },
        "viewport": {
          "northeast": {
            "lat": 40.8111117802915,
            "lng": -73.9499978197085
          },
          "southwest": {
            "lat": 40.8084138197085,
            "lng": -73.9526957802915
          }
        }
      },
      "icon": "https://maps.gstatic.com/mapfiles/place_api/icons/v1/png_71/worship_general-71.png",
      "icon_background_color": "#7B9EB0",
      "icon_mask_base_uri": "https://maps.gstatic.com/mapfiles/place_api/icons/v2/worship_christian_pinlet",
      "name": "The United House of Prayer for All People",
      "photos": [
        {
          "height": 2268,
          "html_attributions": [
            "<a href=\"https://maps.google.com/maps/contrib/114400127866232377300\">MEIR Y</a>"
          ],
          "photo_reference": "AeJbb3dewoIea1nMaQfY68VM4NELGUs3LJ-qOapeeZ59ADznY1wMmLVYs2f-15bJqZ80LtAW7yn03wkwqvOOd-KIz2lZNvVOC7k9FV10u2KU0mhbL5gBYwWcFD9taSLFgnYJf-KCZGWrnpG7nF0RRcpYy4esdNIl1g8267J6N4X0gjPvCSC1",
          "width": 4032
        }
      ],
      "place_id": "ChIJsT4RLRP2wokRunygHc1NQeo",
      "plus_code": {
        "compound_code": "R25X+VF New York, NY, USA",
        "global_code": "87G8R25X+VF"
      },
      "rating": 4.9,
      "reference": "ChIJsT4RLRP2wokRunygHc1NQeo",
      "scope": "GOOGLE",
      "types": [
        "church",
        "tourist_attraction",
        "place_of_worship",
        "point_of_interest",
        "establishment"
      ],
      "user_ratings_total": 68,
      "vicinity": "2320 Frederick Douglass Boulevard, New York"
    }
  ],
  "status": "OK"
}