{
  "html_attributions": [],
  "results": [
    {
      "geometry": {
        "location": {
          "lat": 40.7127753,
          "lng": -74.0059728
        },
        "viewport": {
          "northeast": {
            "lat": 40.91757705070789,
            "lng": -73.70027206817629
          },
          "southwest": {
            "lat": 40.47739906045452,
            "lng": -74.25908991427882
          }
        }
      },
      "icon": "https://maps.gstatic.com/mapfiles/place_api/icons/v1/png_71/geocode-71.png",
      "icon_background_color": "#7B9EB0",
      "icon_mask_base_uri": "https://maps.gstatic.com/mapfiles/place_api/icons/v2/generic_pinlet",
      "name": "\u7d10\u7d04",
      "photos": [
        {
          "height": 600,
          "html_attributions": [
            "<a href=\"https://maps.google.com/maps/contrib/102389334567210814614\">Bukurie</a>"
          ],
          "photo_reference": "AeJbb3dyVKfExdwPh3sEomVsX9QrcjwOJWstttFuJQ22LcGYvU-CUVzb3KyaFG2Ayee8HRubbXtDaEIZWlONv3xTnwd4SyfK4vaKzsTlF3uUO0GNLiL7DTr55tWmkZHqB1fOcNWAifRu9gWJej-8v5fCRRHkZ_0H1z88VFkisgJu09U_7mdu",
          "width": 480
        }
      ],
      "place_id": "ChIJOwg_06VPwokRYv534QaPC8g",
      "reference": "ChIJOwg_06VPwokRYv534QaPC8g",
      "scope": "GOOGLE",
      "types": [
        "locality",
        "political"
      ],
      "vicinity": "\u7d10\u7d04"
    },
    {
      "business_status": "OPERATIONAL",
      "geometry": {
        "location": {
          "lat": 40.766813,
          "lng": -73.9380539
        },
        "viewport": {
          "northeast": {
            "lat": 40.7683710302915,
            "lng": -73.9364219197085
          },
          "southwest": {
            "lat": 40.7656730697085,
            "lng": -73.9391198802915
          }
        }
      },
      "icon": "https://maps.gstatic.com/mapfiles/place_api/icons/v1/png_71/museum-71.png",
      "icon_background_color": "#13B5C7",
      "icon_mask_base_uri": "https://maps.gstatic.com/mapfiles/place_api/icons/v2/museum_pinlet",
      "name": "\u91ce\u53e3\u52c7\u535a\u7269\u9928",
      "opening_hours": {
        "open_now": true
      },
      "photos": [
        {
          "height": 3024,
          "html_attributions": [
            "<a href=\"https://maps.google.com/maps/contrib/118181529508260888698\">Ticha Ungboriboonpisal</a>"
          ],
          "photo_reference": "AeJbb3cZ6vC1ZTpwBLLRpm3e5X3ZDyV457UywmtNslsJ0x2QM6UKdAXqPWfjNIO3F2smmH1YRkrcCZgxv_5jLG4u64AvmTNtrculkY5hrMdF_sX1GMWU1LIBhCpULheGuA_zRT3RHMCDd89OAAbGaRaiaEP3R_MEiuJ4DcQzJ0g0GfbSrCmy",
          "width": 4032
        }
      ],
      "place_id": "ChIJUZ0c7MpYwokRh8SiMzCXL98",
      "plus_code": {
        "compound_code": "Q386+PQ \u7f8e\u570b\u7d10\u7d04",
        "global_code": "87G8Q386+PQ"
      },
      "price_level": 3,
      "rating": 4.7,
      "reference": "ChIJUZ0c7MpYwokRh8SiMzCXL98",
      "scope": "GOOGLE",
      "types": [
        "museum",
        "point_of_interest",
        "establishment"
      ],
      "user_ratings_total": 1023,
      "vicinity": "9-01 33rd Road"
    },
    {
      "business_status": "OPERATIONAL",
      "geometry": {
        "location": {
          "lat": 40.7642049,
          "lng": -73.9383028
        },
        "viewport": {
          "northeast": {
            "lat": 40.7655195802915,
            "lng": -73.93685766970849
          },
          "southwest": {
            "lat": 40.7628216197085,
            "lng": -73.93955563029151
          }
        }
      },
      "icon": "https://maps.gstatic.com/mapfiles/place_api/icons/v1/png_71/generic_business-71.png",
      "icon_background_color": "#7B9EB0",
      "icon_mask_base_uri": "https://maps.gstatic.com/mapfiles/place_api/icons/v2/generic_pinlet",
      "name": "E.J. York, Inc.",
      "photos": [
        {
          "height": 376,
          "html_attributions": [
            "<a href=\"https://maps.google.com/maps/contrib/104247265279285682348\">E J York Inc</a>"
          ],
          "photo_reference": "AeJbb3cHVosHnTugoaD2mw6BPb8pROqUWRaUVsyTqqbbUtDveVEPFd6Ne2J1PPCRcCi0w_nBbDmCmSusP8bfO0_KNIM6_oS9aYgev5qwyKdWqLi5EuaG5bwfJ1nBCdt5dftxhAqxhNI1xe9Uk3mOBCsvZ91bIRHYEhmeO2hzgRCaneT0xhoB",
          "width": 300
        }
      ],
      "place_id": "ChIJKfWnBK1ZwokRPpoJS7qO3cY",
      "plus_code": {
        "compound_code": "Q376+MM \u7f8e\u570b\u7d10\u7d04",
        "global_code": "87G8Q376+MM"
      },
      "rating": 5,
      "reference": "ChIJKfWnBK1ZwokRPpoJS7qO3cY",
      "scope": "GOOGLE",
      "types": [
        "general_contractor",
        "point_of_interest",
        "establishment"
      ],
      "user_ratings_total": 1,
      "vicinity": "34-16 11th Street, Queens"
    },
    {
      "business_status": "OPERATIONAL",
      "geometry": {
        "location": {
          "lat": 40.7615414,
          "lng": -73.9405816
        },
        "viewport": {
          "northeast": {
            "lat": 40.7628448302915,
            "lng": -73.9393171697085
          },
          "southwest": {
            "lat": 40.7601468697085,
            "lng": -73.94201513029151
          }
        }
      },
      "icon": "https://maps.gstatic.com/mapfiles/place_api/icons/v1/png_71/generic_business-71.png",
      "icon_background_color": "#7B9EB0",
      "icon_mask_base_uri": "https://maps.gstatic.com/mapfiles/place_api/icons/v2/generic_pinlet",
      "name": "Neels Pasta and Pizza",
      "opening_hours": {
        "open_now": true
      },
      "photos": [
        {
          "height": 960,
          "html_attributions": [
            "<a href=\"https://maps.google.com/maps/contrib/114070558488907734239\">Neels Pasta and Pizza</a>"
          ],
          "photo_reference": "AeJbb3erUhz7vrtTeP94rPAtBT6B3gQNwUhs1AMHwST4Ex5x38FiAy1Zv25A9lUrR4_gnMnrVKThlHXpzW-v8qDT1NdmbBT7LWvCvAY-87Yz2jdv5c8azAZ0ty2QBbIW4qvc5TrIqM9FDpBkHWzpumKNHgT-KAEhwPZyoTNF3X2UpXvt0ZDv",
          "width": 732
        }
      ],
      "place_id": "ChIJ_0znNMxYwokRXAfK9-JwJzg",
      "plus_code": {
        "compound_code": "Q365+JQ \u7f8e\u570b\u7d10\u7d04",
        "global_code": "87G8Q365+JQ"
      },
      "price_level": 2,
      "rating": 4,
      "reference": "ChIJ_0znNMxYwokRXAfK9-JwJzg",
      "scope": "GOOGLE",
      "types": [
        "meal_delivery",
        "restaurant",
        "point_of_interest",
        "food",
        "establishment"
      ],
      "user_ratings_total": 145,
      "vicinity": "10-01 36th Avenue, Queens"
    },
    {
      "business_status": "OPERATIONAL",
      "geometry": {
        "location": {
          "lat": 40.7591685,
          "lng": -73.94181549999999
        },
        "viewport": {
          "northeast": {
            "lat": 40.76056013029149,
            "lng": -73.94061926970849
          },
          "southwest": {
            "lat": 40.7578621697085,
            "lng": -73.9433172302915
          }
        }
      },
      "icon": "https://maps.gstatic.com/mapfiles/place_api/icons/v1/png_71/shopping-71.png",
      "icon_background_color": "#4B96F3",
      "icon_mask_base_uri": "https://maps.gstatic.com/mapfiles/place_api/icons/v2/shopping_pinlet",
      "name": "House of Heydenryk",
      "opening_hours": {
        "open_now": false
      },
      "photos": [
        {
          "height": 328,
          "html_attributions": [
            "<a href=\"https://maps.google.com/maps/contrib/106537071220149614267\">Casey James</a>"
          ],
          "photo_reference": "AeJbb3c5JKXHTRXuSNUh85AJPKynHm9R343AC_NK_4CRX-Z9x5MeziriWCiO7wIPrOGT1xwq__7_QbsLDbiuDAdqDnbdDbdLosMD0rZKc8u1RSXEyWbLrPskq1sLJxFkhzpAT0YvM-GUxgVddJ3bpFS8x5kAi9PACf1o89q7yvlSHhq_u0wp",
          "width": 630
        }
      ],
      "place_id": "ChIJa5U71MlZwokRbNhFHdohxgE",
      "plus_code": {
        "compound_code": "Q355+M7 \u7f8e\u570b\u7d10\u7d04\u9577\u5cf6\u5e02",
        "global_code": "87G8Q355+M7"
      },
      "rating": 5,
      "reference": "ChIJa5U71MlZwokRbNhFHdohxgE",
      "scope": "GOOGLE",
      "types": [
        "store",
        "point_of_interest",
        "establishment"
      ],
      "user_ratings_total": 1,
      "vicinity": "37-27 10th Street, Long Island City"
    },
    {
      "business_status": "OPERATIONAL",
      "geometry": {
        "location": {
          "lat": 40.7604304,
          "lng": -73.9368057
        },
        "viewport": {
          "northeast": {
            "lat": 40.76168573029149,
            "lng": -73.93528651970848
          },
          "southwest": {
            "lat": 40.75898776970849,
            "lng": -73.93798448029149
          }
        }
      },
      "icon": "https://maps.gstatic.com/mapfiles/place_api/icons/v1/png_71/generic_business-71.png",
      "icon_background_color": "#7B9EB0",
      "icon_mask_base_uri": "https://maps.gstatic.com/mapfiles/place_api/icons/v2/generic_pinlet",
      "name": "Ravenswood",
      "opening_hours": {
        "open_now": true
      },
      "photos": [
        {
          "height": 4032,
          "html_attributions": [
            "<a href=\"https://maps.google.com/maps/contrib/101750277446063472847\">Todd Medeiros</a>"
          ],
          "photo_reference": "AeJbb3cX5Y9r399Sw4sMM83KZHN9oYnwOyGdid0VyJawaZ9U97ZDWz29EGPm7Y6yrXZxf6JLLPDARQ-qE74Xs7JKZgbb0pA_HjIgc8Au5IBoN6QgzyW8xLng5mFuEZXRrpP3BtsodVJBfMzz2AHKZvIZBm46ThxAPB9KrGTJ5IUa8zhNnaZ5",
          "width": 3024
        }
      ],
      "place_id": "ChIJPw4mJTNfwokRjn43hZW2syo",
      "plus_code": {
        "compound_code": "Q367+57 \u7f8e\u570b\u7d10\u7d04\u9577\u5cf6\u5e02",
        "global_code": "87G8Q367+57"
      },
      "rating": 3.4,
      "reference": "ChIJPw4mJTNfwokRjn43hZW2syo",
      "scope": "GOOGLE",
      "types": [
        "point_of_interest",
        "establishment"
      ],
      "user_ratings_total": 492,
      "vicinity": "35-40 21st Street, Long Island City"
    },
    {
      "business_status": "OPERATIONAL",
      "geometry": {
        "location": {
          "lat": 40.763155,
          "lng": -73.940482
        },
        "viewport": {
          "northeast": {
            "lat": 40.76460848029149,
            "lng": -73.93906746970849
          },
          "southwest": {
            "lat": 40.7619105197085,
            "lng": -73.94176543029151
          }
        }
      },
      "icon": "https://maps.gstatic.com/mapfiles/place_api/icons/v1/png_71/generic_business-71.png",
      "icon_background_color": "#7B9EB0",
      "icon_mask_base_uri": "https://maps.gstatic.com/mapfiles/place_api/icons/v2/generic_pinlet",
      "name": "Click And Improve",
      "opening_hours": {
        "open_now": true
      },
      "place_id": "ChIJI2rScsxYwokRtfkDOrmC9R8",
      "plus_code": {
        "compound_code": "Q375+7R \u7f8e\u570b\u7d10\u7d04\u7687\u540e\u5340",
        "global_code": "87G8Q375+7R"
      },
      "reference": "ChIJI2rScsxYwokRtfkDOrmC9R8",
      "scope": "GOOGLE",
      "types": [
        "roofing_contractor",
        "electrician",
        "home_goods_store",
        "general_contractor",
        "store",
        "point_of_interest",
        "establishment"
      ],
      "vicinity": "9-20 35th Avenue, Queens"
    },
    {
      "business_status": "OPERATIONAL",
      "geometry": {
        "location": {
          "lat": 40.7603966,
          "lng": -73.9397129
        },
        "viewport": {
          "northeast": {
            "lat": 40.7617554302915,
            "lng": -73.9382100197085
          },
          "southwest": {
            "lat": 40.7590574697085,
            "lng": -73.94090798029151
          }
        }
      },
      "icon": "https://maps.gstatic.com/mapfiles/place_api/icons/v1/png_71/school-71.png",
      "icon_background_color": "#7B9EB0",
      "icon_mask_base_uri": "https://maps.gstatic.com/mapfiles/place_api/icons/v2/school_pinlet",
      "name": "VOICE Charter School of New York",
      "opening_hours": {
        "open_now": false
      },
      "place_id": "ChIJk2-OeNJYwokR6rN70JSCtts",
      "plus_code": {
        "compound_code": "Q366+54 \u7f8e\u570b\u7d10\u7d04",
        "global_code": "87G8Q366+54"
      },
      "rating": 3.8,
      "reference": "ChIJk2-OeNJYwokR6rN70JSCtts",
      "scope": "GOOGLE",
      "types": [
        "primary_school",
        "school",
        "point_of_interest",
        "establishment"
      ],
      "user_ratings_total": 19,
      "vicinity": "36-24 12th Street, Queens"
    },
    {
      "business_status": "OPERATIONAL",
      "geometry": {
        "location": {
          "lat": 40.7593731,
          "lng": -73.93676889999999
        },
        "viewport": {
          "northeast": {
            "lat": 40.7608007802915,
            "lng": -73.9356067697085
          },
          "southwest": {
            "lat": 40.7581028197085,
            "lng": -73.9383047302915
          }
        }
      },
      "icon": "https://maps.gstatic.com/mapfiles/place_api/icons/v1/png_71/generic_business-71.png",
      "icon_background_color": "#7B9EB0",
      "icon_mask_base_uri": "https://maps.gstatic.com/mapfiles/place_api/icons/v2/generic_pinlet",
      "name": "Prina P. Amin, M.D.",
      "photos": [
        {
          "height": 301,
          "html_attributions": [
            "<a href=\"https://maps.google.com/maps/contrib/110392029193615365758\">Prina P. Amin, M.D.</a>"
          ],
          "photo_reference": "AeJbb3eEUdTAhAjVQ9HCaFSJtGKCuqX4hk821TFsswfuNrrW24HLNNowYOGSNSZqwp0jxU5wn6nI3P0dTpG7W3g1AEFbYSdcZhlfmbLmXFljO6y4BJaCz3lAVz7hycR1m8kbUVtM5xwStYhN1ZoJsr2n6SzXaVAv4HcvVGCmz2Of_oIkgCHC",
          "width": 301
        }
      ],
      "place_id": "ChIJ1-NkqqBYwokR_XuSZt9lNzU",
      "plus_code": {
        "compound_code": "Q357+P7 \u7f8e\u570b\u7d10\u7d04",
        "global_code": "87G8Q357+P7"
      },
      "reference": "ChIJ1-NkqqBYwokR_XuSZt9lNzU",
      "scope": "GOOGLE",
      "types": [
        "doctor",
        "health",
        "point_of_interest",
        "establishment"
      ],
      "vicinity": "36-11 21st Street, Queens"
    },
    {
      "business_status": "OPERATIONAL",
      "geometry": {
        "location": {
          "lat": 40.76154319999999,
          "lng": -73.9425888
        },
        "viewport": {
          "northeast": {
            "lat": 40.7628980302915,
            "lng": -73.9413216697085
          },
          "southwest": {
            "lat": 40.7602000697085,
            "lng": -73.9440196302915
          }
        }
      },
      "icon": "https://maps.gstatic.com/mapfiles/place_api/icons/v1/png_71/generic_business-71.png",
      "icon_background_color": "#7B9EB0",
      "icon_mask_base_uri": "https://maps.gstatic.com/mapfiles/place_api/icons/v2/generic_pinlet",
      "name": "East Coast Automotive inc.",
      "opening_hours": {
        "open_now": true
      },
      "photos": [
        {
          "height": 607,
          "html_attributions": [
            "<a href=\"https://maps.google.com/maps/contrib/101545683723697061016\">East Coast Automotive inc.</a>"
          ],
          "photo_reference": "AeJbb3eHwsjdu4W98FS7D0jssVRSZKsTBhuq2wypQHPhFszQ-MU9l4qYuAiVNE8BZy-zoDvxd3A5YbrpVzZVSkE_krGrl9uUHOPgyNEG_NPGE714ZP3uxMy-M-1UR_0IMzE7NH_t_TYgrcRPNROWEQT2DMH5grpaRLEQ3DW3n0XXAINXF4Z-",
          "width": 1080
        }
      ],
      "place_id": "ChIJKb0P6NNewokRm7wArlEllXA",
      "plus_code": {
        "compound_code": "Q364+JX \u7f8e\u570b\u7d10\u7d04\u963f\u65af\u6258\u5229\u4e9e",
        "global_code": "87G8Q364+JX"
      },
      "rating": 4.5,
      "reference": "ChIJKb0P6NNewokRm7wArlEllXA",
      "scope": "GOOGLE",
      "types": [
        "car_repair",
        "point_of_interest",
        "establishment"
      ],
      "user_ratings_total": 67,
      "vicinity": "36-15 A Vernon Boulevard, Astoria"
    },
    {
      "business_status": "OPERATIONAL",
      "geometry": {
        "location": {
          "lat": 40.7590124,
          "lng": -73.9379986
        },
        "viewport": {
          "northeast": {
            "lat": 40.7604171302915,
            "lng": -73.93659811970849
          },
          "southwest": {
            "lat": 40.7577191697085,
            "lng": -73.9392960802915
          }
        }
      },
      "icon": "https://maps.gstatic.com/mapfiles/place_api/icons/v1/png_71/gas_station-71.png",
      "icon_background_color": "#909CE1",
      "icon_mask_base_uri": "https://maps.gstatic.com/mapfiles/place_api/icons/v2/gas_pinlet",
      "name": "bp",
      "opening_hours": {
        "open_now": true
      },
      "photos": [
        {
          "height": 3024,
          "html_attributions": [
            "<a href=\"https://maps.google.com/maps/contrib/114592143269096100906\">Jesse Spector</a>"
          ],
          "photo_reference": "AeJbb3cX9ZqhTE2t7zeVVmj8ZYCnojUw0zGvUoJFBv0R8emoWNjIiZ97aQrtrZmBjp22lixw8tgz8euLqn01KA85PEPzZAyso9l_NO8BuoMKsISj9yWPx6VbQT8r9CcvY1dxm7czRaHRmHkrS78bQ60YRXmYqo820q5_AKaL3n1j4Yq6_Rnv",
          "width": 4032
        }
      ],
      "place_id": "ChIJ60q4Zc1YwokRlQwmO3T--BQ",
      "plus_code": {
        "compound_code": "Q356+JR \u7f8e\u570b\u7d10\u7d04",
        "global_code": "87G8Q356+JR"
      },
      "rating": 1.6,
      "reference": "ChIJ60q4Zc1YwokRlQwmO3T--BQ",
      "scope": "GOOGLE",
      "types": [
        "gas_station",
        "convenience_store",
        "store",
        "point_of_interest",
        "food",
        "establishment"
      ],
      "user_ratings_total": 15,
      "vicinity": "36-42 21st Street, Queens"
    },
    {
      "business_status": "OPERATIONAL",
      "geometry": {
        "location": {
          "lat": 40.762042,
          "lng": -73.93979300000001
        },
        "viewport": {
          "northeast": {
            "lat": 40.76332238029151,
            "lng": -73.93830036970849
          },
          "southwest": {
            "lat": 40.76062441970851,
            "lng": -73.9409983302915
          }
        }
      },
      "icon": "https://maps.gstatic.com/mapfiles/place_api/icons/v1/png_71/shopping-71.png",
      "icon_background_color": "#4B96F3",
      "icon_mask_base_uri": "https://maps.gstatic.com/mapfiles/place_api/icons/v2/shopping_pinlet",
      "name": "NAPA Auto Parts - National Auto Parts",
      "opening_hours": {
        "open_now": true
      },
      "photos": [
        {
          "height": 875,
          "html_attributions": [
            "<a href=\"https://maps.google.com/maps/contrib/106395232912354949955\">NAPA Auto Parts - National Auto Parts</a>"
          ],
          "photo_reference": "AeJbb3cBhrsrMrRJtnygKFfkQltiNtQTjSVTXeSdW7rFS_N7uOamiLDuV7XXDg-aHgh-yMqYFqc_YUZDKqSawt-wmqtCRAK8TJt4YFS_BYAHbMnFfxeCJR1SqDaHp9gKsUq0HmYQKhnJ7Wc-pkR5Mj6v8prJB4G_KthAY7v2z9F5qZtK2KFl",
          "width": 1556
        }
      ],
      "place_id": "ChIJxQbdWsxYwokRpGmaMgYZ60s",
      "plus_code": {
        "compound_code": "Q366+R3 \u7f8e\u570b\u7d10\u7d04",
        "global_code": "87G8Q366+R3"
      },
      "rating": 3.8,
      "reference": "ChIJxQbdWsxYwokRpGmaMgYZ60s",
      "scope": "GOOGLE",
      "types": [
        "car_repair",
        "store",
        "point_of_interest",
        "establishment"
      ],
      "user_ratings_total": 71,
      "vicinity": "3534 11th Street, Queens"
    },
    {
      "business_status": "OPERATIONAL",
      "geometry": {
        "location": {
          "lat": 40.7599998,
          "lng": -73.9379569
        },
        "viewport": {
          "northeast": {
            "lat": 40.7615070802915,
            "lng": -73.93650691970849
          },
          "southwest": {
            "lat": 40.7588091197085,
            "lng": -73.93920488029151
          }
        }
      },
      "icon": "https://maps.gstatic.com/mapfiles/place_api/icons/v1/png_71/worship_general-71.png",
      "icon_background_color": "#7B9EB0",
      "icon_mask_base_uri": "https://maps.gstatic.com/mapfiles/place_api/icons/v2/worship_christian_pinlet",
      "name": "Adath Israel Center",
      "photos": [
        {
          "height": 1932,
          "html_attributions": [
            "<a href=\"https://maps.google.com/maps/contrib/104228925539201519331\">Hil Cruz</a>"
          ],
          "photo_reference": "AeJbb3csIU9q9KhZJB4Rdnxb3HLcJs81P9iQ-bhEmzX79JkqcW97NDiPgLzGYjekxF_RD1G8s-FFDz3Sm58633lTGB5tSpRVDtCh0wrr8EoptdwiiOQM33eF2MiIWyMCF07aymW6-QCfAD70DkDvYQ2W0mV1qIyd4c1yJrN5DOtsykAZrb2-",
          "width": 2576
        }
      ],
      "place_id": "ChIJ30BaEs1YwokR1fwtqUbOMqg",
      "plus_code": {
        "compound_code": "Q356+XR \u7f8e\u570b\u7d10\u7d04\u7687\u540e\u5340",
        "global_code": "87G8Q356+XR"
      },
      "reference": "ChIJ30BaEs1YwokR1fwtqUbOMqg",
      "scope": "GOOGLE",
      "types": [
        "church",
        "place_of_worship",
        "point_of_interest",
        "establishment"
      ],
      "vicinity": "\u7687\u540e\u5340"
    },
    {
      "business_status": "OPERATIONAL",
      "geometry": {
        "location": {
          "lat": 40.76153429999999,
          "lng": -73.9348383
        },
        "viewport": {
          "northeast": {
            "lat": 40.7629493802915,
            "lng": -73.93361991970849
          },
          "southwest": {
            "lat": 40.7602514197085,
            "lng": -73.93631788029151
          }
        }
      },
      "icon": "https://maps.gstatic.com/mapfiles/place_api/icons/v1/png_71/civic_building-71.png",
      "icon_background_color": "#7B9EB0",
      "icon_mask_base_uri": "https://maps.gstatic.com/mapfiles/place_api/icons/v2/civic-bldg_pinlet",
      "name": "Police Service Area 9 Satellite",
      "photos": [
        {
          "height": 768,
          "html_attributions": [
            "<a href=\"https://maps.google.com/maps/contrib/114494644855288931970\">Elias Ramos</a>"
          ],
          "photo_reference": "AeJbb3dlxU7CyCMdJoXa5Fnij-VJ8UgFg-ba2UL5r2OqssSAtTnAjaH9JO1zgV3fjwgWzEJOiS0bd14YlTa1920i0naw-ieIhyC5faYrhQmjl69EX9gU464sfvVN3mqyxx1-wVNcjvh0OISVJc4qV-AMYKHEZ0c92NxveuGx_KxZVSiWR3Q",
          "width": 1024
        }
      ],
      "place_id": "ChIJs8l3aDNfwokRyl_2AXgI5h4",
      "plus_code": {
        "compound_code": "Q368+J3 \u7f8e\u570b\u7d10\u7d04",
        "global_code": "87G8Q368+J3"
      },
      "rating": 3,
      "reference": "ChIJs8l3aDNfwokRyl_2AXgI5h4",
      "scope": "GOOGLE",
      "types": [
        "police",
        "point_of_interest",
        "establishment"
      ],
      "user_ratings_total": 8,
      "vicinity": "3441 21st Street, Queens"
    },
    {
      "business_status": "OPERATIONAL",
      "geometry": {
        "location": {
          "lat": 40.761163,
          "lng": -73.9428116
        },
        "viewport": {
          "northeast": {
            "lat": 40.7625239802915,
            "lng": -73.94154986970851
          },
          "southwest": {
            "lat": 40.75982601970851,
            "lng": -73.94424783029152
          }
        }
      },
      "icon": "https://maps.gstatic.com/mapfiles/place_api/icons/v1/png_71/shopping-71.png",
      "icon_background_color": "#4B96F3",
      "icon_mask_base_uri": "https://maps.gstatic.com/mapfiles/place_api/icons/v2/shopping_pinlet",
      "name": "Mutual Hardware",
      "opening_hours": {
        "open_now": false
      },
      "photos": [
        {
          "height": 4000,
          "html_attributions": [
            "<a href=\"https://maps.google.com/maps/contrib/110794544223973421505\">Greg Dumas</a>"
          ],
          "photo_reference": "AeJbb3fyBhscRPIT2Ri2WbUse3TY2UOd0WhAqBOCtv73QvZXKB1Tym0h4FUAmeo0iDFzibPZeKg6IuaASJQfGh8gRl6hR-eH3jmJDiyhrgCXMVHGOEBLLb64TW9DBRE1gsFRziIvghstPbyyVu-4csRtjCOBCEAjo7zfL9_9v9c-L5rrMj8d",
          "width": 6000
        }
      ],
      "place_id": "ChIJzyySZc5YwokRRYaudRl0MVY",
      "plus_code": {
        "compound_code": "Q364+FV \u7f8e\u570b\u7d10\u7d04\u7687\u540e\u5340",
        "global_code": "87G8Q364+FV"
      },
      "rating": 4.3,
      "reference": "ChIJzyySZc5YwokRRYaudRl0MVY",
      "scope": "GOOGLE",
      "types": [
        "hardware_store",
        "store",
        "point_of_interest",
        "establishment"
      ],
      "user_ratings_total": 30,
      "vicinity": "3627 Vernon Boulevard, Queens"
    },
    {
      "business_status": "OPERATIONAL",
      "geometry": {
        "location": {
          "lat": 40.7662282,
          "lng": -73.939666
        },
        "viewport": {
          "northeast": {
            "lat": 40.7676830802915,
            "lng": -73.93829021970849
          },
          "southwest": {
            "lat": 40.76498511970851,
            "lng": -73.9409881802915
          }
        }
      },
      "icon": "https://maps.gstatic.com/mapfiles/place_api/icons/v1/png_71/generic_business-71.png",
      "icon_background_color": "#7B9EB0",
      "icon_mask_base_uri": "https://maps.gstatic.com/mapfiles/place_api/icons/v2/generic_pinlet",
      "name": "Kraus Enterprises Inc",
      "opening_hours": {
        "open_now": false
      },
      "photos": [
        {
          "height": 3024,
          "html_attributions": [
            "<a href=\"https://maps.google.com/maps/contrib/104135268484471286496\">Bryan Ray Lobo</a>"
          ],
          "photo_reference": "AeJbb3fMXwvy6goaQhmqKnw_y31upEWm2takYXpoZodLDBF6kSx3HIdnlS61pw4f2FNnvySO4rz7zkwCn5Olu09J6-EwZBhVsOkf0zAU9-IFeQ3R78FYbgacb3OJNMWOT3yB8DaXU4OGY91wbTYIo6sTk-b6JbpG8HTXlt5xlX8qKveH0xc_",
          "width": 4032
        }
      ],
      "place_id": "ChIJuRv6VMpYwokRYYXmzsuoBjE",
      "plus_code": {
        "compound_code": "Q386+F4 \u7f8e\u570b\u7d10\u7d04",
        "global_code": "87G8Q386+F4"
      },
      "rating": 3,
      "reference": "ChIJuRv6VMpYwokRYYXmzsuoBjE",
      "scope": "GOOGLE",
      "types": [
        "point_of_interest",
        "establishment"
      ],
      "user_ratings_total": 45,
      "vicinity": "33-01 Vernon Boulevard, Queens"
    },
    {
      "business_status": "OPERATIONAL",
      "geometry": {
        "location": {
          "lat": 40.7658959,
          "lng": -73.9374576
        },
        "viewport": {
          "northeast": {
            "lat": 40.7671698302915,
            "lng": -73.9359263697085
          },
          "southwest": {
            "lat": 40.7644718697085,
            "lng": -73.9386243302915
          }
        }
      },
      "icon": "https://maps.gstatic.com/mapfiles/place_api/icons/v1/png_71/generic_business-71.png",
      "icon_background_color": "#7B9EB0",
      "icon_mask_base_uri": "https://maps.gstatic.com/mapfiles/place_api/icons/v2/generic_pinlet",
      "name": "Superior Selected Stone",
      "opening_hours": {
        "open_now": true
      },
      "place_id": "ChIJFT544MpYwokR7a7ZGM87hpU",
      "plus_code": {
        "compound_code": "Q387+92 \u7f8e\u570b\u7d10\u7d04\u7687\u540e\u5340",
        "global_code": "87G8Q387+92"
      },
      "rating": 5,
      "reference": "ChIJFT544MpYwokR7a7ZGM87hpU",
      "scope": "GOOGLE",
      "types": [
        "point_of_interest",
        "establishment"
      ],
      "user_ratings_total": 1,
      "vicinity": "33-53 10th Street, Queens"
    },
    {
      "business_status": "OPERATIONAL",
      "geometry": {
        "location": {
          "lat": 40.760129,
          "lng": -73.941283
        },
        "viewport": {
          "northeast": {
            "lat": 40.76156483029149,
            "lng": -73.9399184697085
          },
          "southwest": {
            "lat": 40.7588668697085,
            "lng": -73.94261643029151
          }
        }
      },
      "icon": "https://maps.gstatic.com/mapfiles/place_api/icons/v1/png_71/shopping-71.png",
      "icon_background_color": "#4B96F3",
      "icon_mask_base_uri": "https://maps.gstatic.com/mapfiles/place_api/icons/v2/shopping_pinlet",
      "name": "Las Supply",
      "opening_hours": {
        "open_now": true
      },
      "place_id": "ChIJswyp5s1YwokRyWKy5qQ6lAk",
      "plus_code": {
        "compound_code": "Q365+3F \u7f8e\u570b\u7d10\u7d04\u9577\u5cf6\u5e02",
        "global_code": "87G8Q365+3F"
      },
      "rating": 4,
      "reference": "ChIJswyp5s1YwokRyWKy5qQ6lAk",
      "scope": "GOOGLE",
      "types": [
        "hardware_store",
        "store",
        "point_of_interest",
        "establishment"
      ],
      "user_ratings_total": 1,
      "vicinity": "1001 37th Avenue, Long Island City"
    },
    {
      "business_status": "OPERATIONAL",
      "geometry": {
        "location": {
          "lat": 40.7588713,
          "lng": -73.94073519999999
        },
        "viewport": {
          "northeast": {
            "lat": 40.76016778029149,
            "lng": -73.9392425197085
          },
          "southwest": {
            "lat": 40.7574698197085,
            "lng": -73.9419404802915
          }
        }
      },
      "icon": "https://maps.gstatic.com/mapfiles/place_api/icons/v1/png_71/generic_business-71.png",
      "icon_background_color": "#7B9EB0",
      "icon_mask_base_uri": "https://maps.gstatic.com/mapfiles/place_api/icons/v2/generic_pinlet",
      "name": "York Scaffold Equipment Corp.",
      "opening_hours": {
        "open_now": false
      },
      "photos": [
        {
          "height": 1536,
          "html_attributions": [
            "<a href=\"https://maps.google.com/maps/contrib/117969872278442324852\">Daniel Buettner</a>"
          ],
          "photo_reference": "AeJbb3eC9yif5F1HshnBpjvpuLX2iu-RVZO0Tm5pb6hPef1g9pcSq47ilLG__UPYvpclA85Oy5sQPIy6qxO1HEkop5sc3tRMLU8STd0KzEizUU3Ni7adwwUhKIR8MsVFRqDbJkfDmx__JQz54FAyiUHZqztO4tY294FZDOgr3o698fxxEzI9",
          "width": 2048
        }
      ],
      "place_id": "ChIJiQPOC9JYwokRqA7H-8-idMM",
      "plus_code": {
        "compound_code": "Q355+GP \u7f8e\u570b\u7d10\u7d04\u9577\u5cf6\u5e02",
        "global_code": "87G8Q355+GP"
      },
      "rating": 4.5,
      "reference": "ChIJiQPOC9JYwokRqA7H-8-idMM",
      "scope": "GOOGLE",
      "types": [
        "general_contractor",
        "point_of_interest",
        "establishment"
      ],
      "user_ratings_total": 24,
      "vicinity": "37-20 12th Street, Long Island City"
    },
    {
      "geometry": {
        "location": {
          "lat": 40.7643574,
          "lng": -73.92346189999999
        },
        "viewport": {
          "northeast": {
            "lat": 40.7826018068365,
            "lng": -73.90221823033325
          },
          "southwest": {
            "lat": 40.75294753494164,
            "lng": -73.94473418403395
          }
        }
      },
      "icon": "https://maps.gstatic.com/mapfiles/place_api/icons/v1/png_71/geocode-71.png",
      "icon_background_color": "#7B9EB0",
      "icon_mask_base_uri": "https://maps.gstatic.com/mapfiles/place_api/icons/v2/generic_pinlet",
      "name": "\u963f\u65af\u6258\u5229\u4e9e",
      "photos": [
        {
          "height": 2040,
          "html_attributions": [
            "<a href=\"https://maps.google.com/maps/contrib/100919248807932008582\">ariovaldo oliveira</a>"
          ],
          "photo_reference": "AeJbb3eMnnD6FBTwn9r981AKMLE_iYSsA2wyUAxG0aPCHViHmnp4VVtQeXSSdRbU38OE6thK9pp7a84pYFaPk7lY9SY7XC3hoWULT4FX-lJ0qL7zYSQt3P4vhUjLFvYInxigr1Df4MtlmJBN-pqhYP6vOcqs3yr2TGHnYHJfJaqSUEwOtgf9",
          "width": 1536
        }
      ],
      "place_id": "ChIJU6W15zZfwokRDhGErMSvCpw",
      "reference": "ChIJU6W15zZfwokRDhGErMSvCpw",
      "scope": "GOOGLE",
      "types": [
        "neighborhood",
        "political"
      ],
      "vicinity": "\u7687\u540e\u5340"
    },
    {
      "business_status": "OPERATIONAL",
      "geometry": {
        "location": {
          "lat": 40.76267410000001,
          "lng": -73.94169959999999
        },
        "viewport": {
          "northeast": {
            "lat": 40.7640767802915,
            "lng": -73.94050151970849
          },
          "southwest": {
            "lat": 40.7613788197085,
            "lng": -73.9431994802915
          }
        }
      },
      "icon": "https://maps.gstatic.com/mapfiles/place_api/icons/v1/png_71/generic_business-71.png",
      "icon_background_color": "#7B9EB0",
      "icon_mask_base_uri": "https://maps.gstatic.com/mapfiles/place_api/icons/v2/generic_pinlet",
      "name": "Hydros Auto Spa",
      "opening_hours": {
        "open_now": true
      },
      "photos": [
        {
          "height": 2282,
          "html_attributions": [
            "<a href=\"https://maps.google.com/maps/contrib/114839894283099027164\">Karim Muminov</a>"
          ],
          "photo_reference": "AeJbb3cZQ-TkfSTcxK4XcJOPeq3S3MUYFeLle4grQynZgVjYYeVwG9XU2LdIE3arUvQQbcl-oA7mbV8YLQKt_lltNRzbHHwzFT6Y5oBchdV8AYZ_v0f62FK2HGQvIotY34TzB2XUM1_4NbJalkYwwOD3H9NWJBJk8Y1eYt_8D_mS4k098OvU",
          "width": 1284
        }
      ],
      "place_id": "ChIJeYdmzTpfwokRj8ycaG-3L9Y",
      "plus_code": {
        "compound_code": "Q375+38 New York, NY, USA",
        "global_code": "87G8Q375+38"
      },
      "rating": 4.3,
      "reference": "ChIJeYdmzTpfwokRj8ycaG-3L9Y",
      "scope": "GOOGLE",
      "types": [
        "point_of_interest",
        "establishment"
      ],
      "user_ratings_total": 89,
      "vicinity": "35-33 Vernon Boulevard, Queens"
    },
    {
      "business_status": "OPERATIONAL",
      "geometry": {
        "location": {
          "lat": 40.759377,
          "lng": -73.9367508
        },
        "viewport": {
          "northeast": {
            "lat": 40.76080273029149,
            "lng": -73.9355977197085
          },
          "southwest": {
            "lat": 40.7581047697085,
            "lng": -73.9382956802915
          }
        }
      },
      "icon": "https://maps.gstatic.com/mapfiles/place_api/icons/v1/png_71/generic_business-71.png",
      "icon_background_color": "#7B9EB0",
      "icon_mask_base_uri": "https://maps.gstatic.com/mapfiles/place_api/icons/v2/generic_pinlet",
      "name": "Andrea Card, M.D.",
      "photos": [
        {
          "height": 633,
          "html_attributions": [
            "<a href=\"https://maps.google.com/maps/contrib/112333301425988132531\">Andrea Card, M.D.</a>"
          ],
          "photo_reference": "AeJbb3dkl14r9HDjCUrwJq8T-BhVhXl5suS0VdBRMoJIVyyaxP1mbWOYpMYE9XPd9VVj23KX2OwxvU_fi9X2EFkGD4pyfaHmr57j14seZ-a5fjwYb6JHcmKJ544henllARl6AKUlWLgVwiWKg8duINVBKnFmgMq9xGliN7NXtbNNXgSt-g-z",
          "width": 420
        }
      ],
      "place_id": "ChIJ6T_ttzT0wokRI2tntH2eqB0",
      "plus_code": {
        "compound_code": "Q357+Q7 New York, NY, USA",
        "global_code": "87G8Q357+Q7"
      },
      "reference": "ChIJ6T_ttzT0wokRI2tntH2eqB0",
      "scope": "GOOGLE",
      "types": [
        "doctor",
        "health",
        "point_of_interest",
        "establishment"
      ],
      "vicinity": "36-11 21st Street, Queens"
    },
    {
      "business_status": "OPERATIONAL",
      "geometry": {
        "location": {
          "lat": 40.7624164,
          "lng": -73.9399461
        },
        "viewport": {
          "northeast": {
            "lat": 40.7637977802915,
            "lng": -73.9386877697085
          },
          "southwest": {
            "lat": 40.7610998197085,
            "lng": -73.9413857302915
          }
        }
      },
      "icon": "https://maps.gstatic.com/mapfiles/place_api/icons/v1/png_71/generic_business-71.png",
      "icon_background_color": "#7B9EB0",
      "icon_mask_base_uri": "https://maps.gstatic.com/mapfiles/place_api/icons/v2/generic_pinlet",
      "name": "uk design studios",
      "opening_hours": {
        "open_now": false
      },
      "photos": [
        {
          "height": 576,
          "html_attributions": [
            "<a href=\"https://maps.google.com/maps/contrib/107802583230072940302\">uk design studios</a>"
          ],
          "photo_reference": "AeJbb3dF-dWN0esD2MdfhDlKkUsFnjH4mhnFXtOnbRodPpwqVXxU4CSbVLWiMQykm5MCX1HpSB6xfS3fuv6UYXfQDK5jPRjHnvRpEByYBhuAs30K696khl7VWqtuTRx2QlgVOKAAi7inomdby4WKt8yGhZpUYqOnMdJdi3LsWdDy4_LXfHGI",
          "width": 864
        }
      ],
      "place_id": "ChIJA0CtQ8xYwokRYWp_3bFb8Tg",
      "plus_code": {
        "compound_code": "Q366+X2 Queens, NY, USA",
        "global_code": "87G8Q366+X2"
      },
      "rating": 5,
      "reference": "ChIJA0CtQ8xYwokRYWp_3bFb8Tg",
      "scope": "GOOGLE",
      "types": [
        "point_of_interest",
        "establishment"
      ],
      "user_ratings_total": 1,
      "vicinity": "3521 10th Street, Queens"
    },
    {
      "business_status": "OPERATIONAL",
      "geometry": {
        "location": {
          "lat": 40.76051289999999,
          "lng": -73.9347599
        },
        "viewport": {
          "northeast": {
            "lat": 40.7620593302915,
            "lng": -73.93324726970849
          },
          "southwest": {
            "lat": 40.7593613697085,
            "lng": -73.9359452302915
          }
        }
      },
      "icon": "https://maps.gstatic.com/mapfiles/place_api/icons/v1/png_71/school-71.png",
      "icon_background_color": "#7B9EB0",
      "icon_mask_base_uri": "https://maps.gstatic.com/mapfiles/place_api/icons/v2/school_pinlet",
      "name": "New York City Housing Authority's Ravenswood Day Care Center",
      "place_id": "ChIJPw4mJTNfwokRtxYmXtdD6IA",
      "plus_code": {
        "compound_code": "Q368+63 Astoria, Queens, NY, USA",
        "global_code": "87G8Q368+63"
      },
      "reference": "ChIJPw4mJTNfwokRtxYmXtdD6IA",
      "scope": "GOOGLE",
      "types": [
        "point_of_interest",
        "establishment"
      ],
      "vicinity": "21-20 35th Avenue, Astoria"
    },
    {
      "business_status": "OPERATIONAL",
      "geometry": {
        "location": {
          "lat": 40.7618917,
          "lng": -73.9412174
        },
        "viewport": {
          "northeast": {
            "lat": 40.7632793302915,
            "lng": -73.9399770197085
          },
          "southwest": {
            "lat": 40.7605813697085,
            "lng": -73.9426749802915
          }
        }
      },
      "icon": "https://maps.gstatic.com/mapfiles/place_api/icons/v1/png_71/generic_business-71.png",
      "icon_background_color": "#7B9EB0",
      "icon_mask_base_uri": "https://maps.gstatic.com/mapfiles/place_api/icons/v2/generic_pinlet",
      "name": "Switches Unlimited",
      "opening_hours": {
        "open_now": false
      },
      "photos": [
        {
          "height": 432,
          "html_attributions": [
            "<a href=\"https://maps.google.com/maps/contrib/108149084886064006967\">Switches Unlimited</a>"
          ],
          "photo_reference": "AeJbb3fUgpbK41x7GPUnUf1f8_n56U9ZANF3vauhQtYGaBmKw_tq7vZMH2qPoHlS1dKS9Xg3kblHImo7vdO4VhXOmrKzaLKREcRM_Vvl3Xil3lBU2_XvzspkwxolyTJuBz_UYJPQVhboSkarWojNnUn4u_FHNyCdLYC7ijvufxGdisMXVDnL",
          "width": 647
        }
      ],
      "place_id": "ChIJAcrNORpfwokRu38qFdnaC_Y",
      "plus_code": {
        "compound_code": "Q365+QG Queens, NY, USA",
        "global_code": "87G8Q365+QG"
      },
      "rating": 4.3,
      "reference": "ChIJAcrNORpfwokRu38qFdnaC_Y",
      "scope": "GOOGLE",
      "types": [
        "store",
        "point_of_interest",
        "establishment"
      ],
      "user_ratings_total": 7,
      "vicinity": "35-57 9th Street, Queens"
    },
    {
      "business_status": "OPERATIONAL",
      "geometry": {
        "location": {
          "lat": 40.7612403,
          "lng": -73.9400605
        },
        "viewport": {
          "northeast": {
            "lat": 40.7625865802915,
            "lng": -73.93864956970849
          },
          "southwest": {
            "lat": 40.75988861970851,
            "lng": -73.94134753029151
          }
        }
      },
      "icon": "https://maps.gstatic.com/mapfiles/place_api/icons/v1/png_71/restaurant-71.png",
      "icon_background_color": "#FF9E67",
      "icon_mask_base_uri": "https://maps.gstatic.com/mapfiles/place_api/icons/v2/restaurant_pinlet",
      "name": "Niforos Corner",
      "opening_hours": {
        "open_now": true
      },
      "photos": [
        {
          "height": 1080,
          "html_attributions": [
            "<a href=\"https://maps.google.com/maps/contrib/114609891172457482894\">Andrew D. Filicicchia</a>"
          ],
          "photo_reference": "AeJbb3eu64zccQLnPQZ362OnyfpAE8P1-XjtNf-Eo7evroY27_tLtWD7NjtL7EFG5jqm4nVH-ybRcRQtj3ikK_8VuJ3gEsFxJASVwIsnlqwKP3t-FHkjP5iCw5Cu2rNBoJ75FP9LBY0UjZtPjNxHWd066huKRSixPDil4hzmrsNJT_99CtSY",
          "width": 1920
        }
      ],
      "place_id": "ChIJ_19Ts81YwokRBtY6k1FQYbs",
      "plus_code": {
        "compound_code": "Q365+FX New York, NY, USA",
        "global_code": "87G8Q365+FX"
      },
      "price_level": 1,
      "rating": 4.3,
      "reference": "ChIJ_19Ts81YwokRBtY6k1FQYbs",
      "scope": "GOOGLE",
      "types": [
        "cafe",
        "meal_delivery",
        "store",
        "restaurant",
        "point_of_interest",
        "food",
        "establishment"
      ],
      "user_ratings_total": 186,
      "vicinity": "35-60 11th Street, Queens"
    },
    {
      "business_status": "OPERATIONAL",
      "geometry": {
        "location": {
          "lat": 40.76073090000001,
          "lng": -73.93979689999999
        },
        "viewport": {
          "northeast": {
            "lat": 40.7621428802915,
            "lng": -73.93862851970849
          },
          "southwest": {
            "lat": 40.7594449197085,
            "lng": -73.9413264802915
          }
        }
      },
      "icon": "https://maps.gstatic.com/mapfiles/place_api/icons/v1/png_71/generic_business-71.png",
      "icon_background_color": "#7B9EB0",
      "icon_mask_base_uri": "https://maps.gstatic.com/mapfiles/place_api/icons/v2/generic_pinlet",
      "name": "Eurocraft furniture",
      "place_id": "ChIJBwiiZMtYwokR_IB0EFkb7pM",
      "plus_code": {
        "compound_code": "Q366+73 New York, NY, USA",
        "global_code": "87G8Q366+73"
      },
      "rating": 5,
      "reference": "ChIJBwiiZMtYwokR_IB0EFkb7pM",
      "scope": "GOOGLE",
      "types": [
        "furniture_store",
        "home_goods_store",
        "store",
        "point_of_interest",
        "establishment"
      ],
      "user_ratings_total": 1,
      "vicinity": "34 - 25 11th Street, Queens"
    },
    {
      "business_status": "OPERATIONAL",
      "geometry": {
        "location": {
          "lat": 40.76172219999999,
          "lng": -73.9412066
        },
        "viewport": {
          "northeast": {
            "lat": 40.7629985302915,
            "lng": -73.9399046697085
          },
          "southwest": {
            "lat": 40.7603005697085,
            "lng": -73.9426026302915
          }
        }
      },
      "icon": "https://maps.gstatic.com/mapfiles/place_api/icons/v1/png_71/generic_business-71.png",
      "icon_background_color": "#7B9EB0",
      "icon_mask_base_uri": "https://maps.gstatic.com/mapfiles/place_api/icons/v2/generic_pinlet",
      "name": "Comfort Tech Mechanical",
      "opening_hours": {
        "open_now": false
      },
      "photos": [
        {
          "height": 3000,
          "html_attributions": [
            "<a href=\"https://maps.google.com/maps/contrib/109972142615479448671\">Comfort Tech Mechanical</a>"
          ],
          "photo_reference": "AeJbb3e1Ny_7HEaHRo2lqNSLYbLp_sNGVtuDhQuaGvhkRtMqJO5vioML0wIC9LI4sptWyYYQ2IJJZWulVX8oBU5d-lQ7FJH4jZz6Ziq6lSIjJUqThKfab6d4yFGGq2eVUjCWLOV4IVw3jVW62pUELqVXP7F4T_wg3FxAEGGOWlirCrroXO5b",
          "width": 4000
        }
      ],
      "place_id": "ChIJq-cTCE1fwokRPRpC_NrZthY",
      "plus_code": {
        "compound_code": "Q365+MG Queens, NY, USA",
        "global_code": "87G8Q365+MG"
      },
      "rating": 4.9,
      "reference": "ChIJq-cTCE1fwokRPRpC_NrZthY",
      "scope": "GOOGLE",
      "types": [
        "general_contractor",
        "point_of_interest",
        "establishment"
      ],
      "user_ratings_total": 86,
      "vicinity": "9-9 36th Avenue, Queens"
    },
    {
      "business_status": "OPERATIONAL",
      "geometry": {
        "location": {
          "lat": 40.7612926,
          "lng": -73.94146769999999
        },
        "viewport": {
          "northeast": {
            "lat": 40.7622938802915,
            "lng": -73.9400346197085
          },
          "southwest": {
            "lat": 40.7595959197085,
            "lng": -73.9427325802915
          }
        }
      },
      "icon": "https://maps.gstatic.com/mapfiles/place_api/icons/v1/png_71/generic_business-71.png",
      "icon_background_color": "#7B9EB0",
      "icon_mask_base_uri": "https://maps.gstatic.com/mapfiles/place_api/icons/v2/generic_pinlet",
      "name": "Spirit Playground",
      "opening_hours": {
        "open_now": true
      },
      "photos": [
        {
          "height": 951,
          "html_attributions": [
            "<a href=\"https://maps.google.com/maps/contrib/110372047153324350567\">Spirit Playground</a>"
          ],
          "photo_reference": "AeJbb3fX6w0zJbNfm9RTzdPFIXCoVAYKO_J_-l2EkpxH_7btZYPxuFzOwpSPTrBZLZuZOL_UZZ4mqKm2wZnsUUUTnurAb3uj3w54PyFWWSRjq4HXEycnt0D0tmtYYwz39j3cMfbeDrVSXJqEbR6rO1SHDtDcwSDmPBHnth4vJPXKflHUans7",
          "width": 1268
        }
      ],
      "place_id": "ChIJFTHP081YwokRHJ9aLXWagbU",
      "plus_code": {
        "compound_code": "Q365+GC Astoria, Queens, NY, USA",
        "global_code": "87G8Q365+GC"
      },
      "rating": 4.2,
      "reference": "ChIJFTHP081YwokRHJ9aLXWagbU",
      "scope": "GOOGLE",
      "types": [
        "park",
        "point_of_interest",
        "establishment"
      ],
      "user_ratings_total": 59,
      "vicinity": "36th Avenue, 9th St., 10th St, Astoria"
    },
    {
      "business_status": "OPERATIONAL",
      "geometry": {
        "location": {
          "lat": 40.7611132,
          "lng": -73.939679
        },
        "viewport": {
          "northeast": {
            "lat": 40.76241563029149,
            "lng": -73.93835291970849
          },
          "southwest": {
            "lat": 40.75971766970849,
            "lng": -73.9410508802915
          }
        }
      },
      "icon": "https://maps.gstatic.com/mapfiles/place_api/icons/v1/png_71/generic_business-71.png",
      "icon_background_color": "#7B9EB0",
      "icon_mask_base_uri": "https://maps.gstatic.com/mapfiles/place_api/icons/v2/generic_pinlet",
      "name": "Dr. Rebeca V. Romoshan, DDS",
      "place_id": "ChIJ79lCrc1YwokR2zIQKGRiLEI",
      "plus_code": {
        "compound_code": "Q366+C4 Queens, NY, USA",
        "global_code": "87G8Q366+C4"
      },
      "reference": "ChIJ79lCrc1YwokR2zIQKGRiLEI",
      "scope": "GOOGLE",
      "types": [
        "dentist",
        "health",
        "point_of_interest",
        "establishment"
      ],
      "vicinity": "32-50 36th Avenue, Queens"
    },
    {
      "business_status": "OPERATIONAL",
      "geometry": {
        "location": {
          "lat": 40.7632962,
          "lng": -73.9405271
        },
        "viewport": {
          "northeast": {
            "lat": 40.76464893029149,
            "lng": -73.9390267197085
          },
          "southwest": {
            "lat": 40.76195096970849,
            "lng": -73.9417246802915
          }
        }
      },
      "icon": "https://maps.gstatic.com/mapfiles/place_api/icons/v1/png_71/shopping-71.png",
      "icon_background_color": "#4B96F3",
      "icon_mask_base_uri": "https://maps.gstatic.com/mapfiles/place_api/icons/v2/shopping_pinlet",
      "name": "Nac Industries",
      "opening_hours": {
        "open_now": false
      },
      "place_id": "ChIJj0rjDMxYwokRsYpHdIoYMzE",
      "plus_code": {
        "compound_code": "Q375+8Q Astoria, Queens, NY, USA",
        "global_code": "87G8Q375+8Q"
      },
      "reference": "ChIJj0rjDMxYwokRsYpHdIoYMzE",
      "scope": "GOOGLE",
      "types": [
        "store",
        "point_of_interest",
        "establishment"
      ],
      "vicinity": "3510 9th Street, Astoria"
    },
    {
      "business_status": "OPERATIONAL",
      "geometry": {
        "location": {
          "lat": 40.763203,
          "lng": -73.941361
        },
        "viewport": {
          "northeast": {
            "lat": 40.76460723029149,
            "lng": -73.9401673197085
          },
          "southwest": {
            "lat": 40.76190926970849,
            "lng": -73.94286528029151
          }
        }
      },
      "icon": "https://maps.gstatic.com/mapfiles/place_api/icons/v1/png_71/generic_business-71.png",
      "icon_background_color": "#7B9EB0",
      "icon_mask_base_uri": "https://maps.gstatic.com/mapfiles/place_api/icons/v2/generic_pinlet",
      "name": "Chef Ania's Catering",
      "opening_hours": {
        "open_now": true
      },
      "photos": [
        {
          "height": 4160,
          "html_attributions": [
            "<a href=\"https://maps.google.com/maps/contrib/116087768940502797946\">Denis Williams</a>"
          ],
          "photo_reference": "AeJbb3cDs-ovtFSjsmZ-K77JRUW1FvHBRUHHpnqLkNABSoUzUTUKOsEKa29tmQMjCUiSxP3j7VAWyCnocZN3enOHEu5j-gKtFpeTq9W0KQ5D8Yp2stckVLXvN8CD3FMbsXxNUEKWyOigXhHXNkdjCeXgNjw-u3EzmUytOZPg9dqIVjCJM96D",
          "width": 3120
        }
      ],
      "place_id": "ChIJAaJxG6RewokREE1KskhOogM",
      "plus_code": {
        "compound_code": "Q375+7F Long Island City, Queens, NY, USA",
        "global_code": "87G8Q375+7F"
      },
      "price_level": 2,
      "rating": 4.7,
      "reference": "ChIJAaJxG6RewokREE1KskhOogM",
      "scope": "GOOGLE",
      "types": [
        "point_of_interest",
        "food",
        "establishment"
      ],
      "user_ratings_total": 7,
      "vicinity": "35-13 Vernon Boulevard, Long Island City"
    },
    {
      "business_status": "CLOSED_TEMPORARILY",
      "geometry": {
        "location": {
          "lat": 40.7631484,
          "lng": -73.9403868
        },
        "viewport": {
          "northeast": {
            "lat": 40.76457118029149,
            "lng": -73.9389254197085
          },
          "southwest": {
            "lat": 40.76187321970849,
            "lng": -73.9416233802915
          }
        }
      },
      "icon": "https://maps.gstatic.com/mapfiles/place_api/icons/v1/png_71/generic_business-71.png",
      "icon_background_color": "#7B9EB0",
      "icon_mask_base_uri": "https://maps.gstatic.com/mapfiles/place_api/icons/v2/generic_pinlet",
      "name": "Xtreme Concrete Pumping Inc",
      "permanently_closed": true,
      "place_id": "ChIJ23xlbcxYwokRxO9ZF-5BAbQ",
      "plus_code": {
        "compound_code": "Q375+7R New York, NY, USA",
        "global_code": "87G8Q375+7R"
      },
      "reference": "ChIJ23xlbcxYwokRxO9ZF-5BAbQ",
      "scope": "GOOGLE",
      "types": [
        "general_contractor",
        "point_of_interest",
        "establishment"
      ],
      "vicinity": "9-20 35th Avenue, Queens"
    },
    {
      "business_status": "OPERATIONAL",
      "geometry": {
        "location": {
          "lat": 40.7648995,
          "lng": -73.93917379999999
        },
        "viewport": {
          "northeast": {
            "lat": 40.7663459802915,
            "lng": -73.9377712197085
          },
          "southwest": {
            "lat": 40.7636480197085,
            "lng": -73.9404691802915
          }
        }
      },
      "icon": "https://maps.gstatic.com/mapfiles/place_api/icons/v1/png_71/generic_business-71.png",
      "icon_background_color": "#7B9EB0",
      "icon_mask_base_uri": "https://maps.gstatic.com/mapfiles/place_api/icons/v2/generic_pinlet",
      "name": "Main Contracting Corporation",
      "opening_hours": {
        "open_now": false
      },
      "place_id": "ChIJWWFpn8tYwokRl81AKO3L5qs",
      "plus_code": {
        "compound_code": "Q376+X8 New York, NY, USA",
        "global_code": "87G8Q376+X8"
      },
      "reference": "ChIJWWFpn8tYwokRl81AKO3L5qs",
      "scope": "GOOGLE",
      "types": [
        "general_contractor",
        "point_of_interest",
        "establishment"
      ],
      "vicinity": "910 34th Avenue, Queens"
    },
    {
      "business_status": "OPERATIONAL",
      "geometry": {
        "location": {
          "lat": 40.7633369,
          "lng": -73.93974539999999
        },
        "viewport": {
          "northeast": {
            "lat": 40.7646628302915,
            "lng": -73.93833521970849
          },
          "southwest": {
            "lat": 40.7619648697085,
            "lng": -73.9410331802915
          }
        }
      },
      "icon": "https://maps.gstatic.com/mapfiles/place_api/icons/v1/png_71/generic_business-71.png",
      "icon_background_color": "#7B9EB0",
      "icon_mask_base_uri": "https://maps.gstatic.com/mapfiles/place_api/icons/v2/generic_pinlet",
      "name": "Solid Foundation Ltd",
      "opening_hours": {
        "open_now": false
      },
      "place_id": "ChIJnXccccxYwokRX02xXFSHzWU",
      "plus_code": {
        "compound_code": "Q376+84 New York, NY, USA",
        "global_code": "87G8Q376+84"
      },
      "rating": 2.6,
      "reference": "ChIJnXccccxYwokRX02xXFSHzWU",
      "scope": "GOOGLE",
      "types": [
        "general_contractor",
        "point_of_interest",
        "establishment"
      ],
      "user_ratings_total": 10,
      "vicinity": "3462 10th Street, Queens"
    },
    {
      "business_status": "CLOSED_TEMPORARILY",
      "geometry": {
        "location": {
          "lat": 40.7633603,
          "lng": -73.939786
        },
        "viewport": {
          "northeast": {
            "lat": 40.76467908029149,
            "lng": -73.9383527197085
          },
          "southwest": {
            "lat": 40.76198111970849,
            "lng": -73.94105068029151
          }
        }
      },
      "icon": "https://maps.gstatic.com/mapfiles/place_api/icons/v1/png_71/restaurant-71.png",
      "icon_background_color": "#FF9E67",
      "icon_mask_base_uri": "https://maps.gstatic.com/mapfiles/place_api/icons/v2/restaurant_pinlet",
      "name": "House of Food",
      "permanently_closed": true,
      "place_id": "ChIJnXccccxYwokRgMJ5cdsT6Pk",
      "plus_code": {
        "compound_code": "Q376+83 Astoria, Queens, NY, USA",
        "global_code": "87G8Q376+83"
      },
      "rating": 5,
      "reference": "ChIJnXccccxYwokRgMJ5cdsT6Pk",
      "scope": "GOOGLE",
      "types": [
        "restaurant",
        "point_of_interest",
        "food",
        "establishment"
      ],
      "user_ratings_total": 1,
      "vicinity": "34-62 10th Street, Astoria"
    },
    {
      "business_status": "OPERATIONAL",
      "geometry": {
        "location": {
          "lat": 40.7624574,
          "lng": -73.9384161
        },
        "viewport": {
          "northeast": {
            "lat": 40.76389168029149,
            "lng": -73.9370138197085
          },
          "southwest": {
            "lat": 40.76119371970849,
            "lng": -73.9397117802915
          }
        }
      },
      "icon": "https://maps.gstatic.com/mapfiles/place_api/icons/v1/png_71/generic_business-71.png",
      "icon_background_color": "#7B9EB0",
      "icon_mask_base_uri": "https://maps.gstatic.com/mapfiles/place_api/icons/v2/generic_pinlet",
      "name": "U 2 Rigging & Hoisting Inc",
      "place_id": "ChIJKc999MxYwokRTXVDgXXBFsQ",
      "plus_code": {
        "compound_code": "Q366+XJ Astoria, Queens, NY, USA",
        "global_code": "87G8Q366+XJ"
      },
      "reference": "ChIJKc999MxYwokRTXVDgXXBFsQ",
      "scope": "GOOGLE",
      "types": [
        "general_contractor",
        "point_of_interest",
        "establishment"
      ],
      "vicinity": "1114 35th Avenue, Astoria"
    },
    {
      "business_status": "CLOSED_TEMPORARILY",
      "geometry": {
        "location": {
          "lat": 40.760495,
          "lng": -73.9366005
        },
        "viewport": {
          "northeast": {
            "lat": 40.7617761302915,
            "lng": -73.9351282197085
          },
          "southwest": {
            "lat": 40.7590781697085,
            "lng": -73.93782618029151
          }
        }
      },
      "icon": "https://maps.gstatic.com/mapfiles/place_api/icons/v1/png_71/generic_business-71.png",
      "icon_background_color": "#7B9EB0",
      "icon_mask_base_uri": "https://maps.gstatic.com/mapfiles/place_api/icons/v2/generic_pinlet",
      "name": "Jacob Riis Neighbor Settlement",
      "permanently_closed": true,
      "place_id": "ChIJp0SfJc1YwokRhEFvKvX6YkA",
      "plus_code": {
        "compound_code": "Q367+59 Long Island City, Queens, NY, USA",
        "global_code": "87G8Q367+59"
      },
      "rating": 4.8,
      "reference": "ChIJp0SfJc1YwokRhEFvKvX6YkA",
      "scope": "GOOGLE",
      "types": [
        "point_of_interest",
        "establishment"
      ],
      "user_ratings_total": 4,
      "vicinity": "3540 21st Street, Long Island City"
    },
    {
      "business_status": "OPERATIONAL",
      "geometry": {
        "location": {
          "lat": 40.7605476,
          "lng": -73.9373511
        },
        "viewport": {
          "northeast": {
            "lat": 40.76174303029149,
            "lng": -73.93609771970848
          },
          "southwest": {
            "lat": 40.7590450697085,
            "lng": -73.9387956802915
          }
        }
      },
      "icon": "https://maps.gstatic.com/mapfiles/place_api/icons/v1/png_71/generic_business-71.png",
      "icon_background_color": "#7B9EB0",
      "icon_mask_base_uri": "https://maps.gstatic.com/mapfiles/place_api/icons/v2/generic_pinlet",
      "name": "I Have a Dream Foundation Ny Ravenswood Ii Program",
      "place_id": "ChIJCZcGNcxYwokRvJjeBiuCdMs",
      "plus_code": {
        "compound_code": "Q367+63 Queens, NY, USA",
        "global_code": "87G8Q367+63"
      },
      "rating": 5,
      "reference": "ChIJCZcGNcxYwokRvJjeBiuCdMs",
      "scope": "GOOGLE",
      "types": [
        "point_of_interest",
        "establishment"
      ],
      "user_ratings_total": 1,
      "vicinity": "1401 36th Avenue STE 1A, Queens"
    },
    {
      "business_status": "OPERATIONAL",
      "geometry": {
        "location": {
          "lat": 40.7656182,
          "lng": -73.93987229999999
        },
        "viewport": {
          "northeast": {
            "lat": 40.7668444302915,
            "lng": -73.93849016970849
          },
          "southwest": {
            "lat": 40.76414646970851,
            "lng": -73.9411881302915
          }
        }
      },
      "icon": "https://maps.gstatic.com/mapfiles/place_api/icons/v1/png_71/generic_business-71.png",
      "icon_background_color": "#7B9EB0",
      "icon_mask_base_uri": "https://maps.gstatic.com/mapfiles/place_api/icons/v2/generic_pinlet",
      "name": "Sparta Food Distributors Inc",
      "opening_hours": {
        "open_now": false
      },
      "photos": [
        {
          "height": 3120,
          "html_attributions": [
            "<a href=\"https://maps.google.com/maps/contrib/112449278897004523088\">Moreland Steve</a>"
          ],
          "photo_reference": "AeJbb3fNyMMPGDdHruCzolhZ4jlT8pyX7_ZZ_hRaUKbbI5N5tGOt4n7hF-vx9Otp76qVRNPFB5-DNhT-F_vWib-mPnJ4TRgtcNLMV1RM1EgLnDgp8cxlwRCRErcrSIdwEbYYtbhJz7udenPiGE7r1jIGtzAjlHjWN68EBqrtxME4DrykM2E0",
          "width": 4160
        }
      ],
      "place_id": "ChIJlfV7ustYwokR9VsEug7MJUo",
      "plus_code": {
        "compound_code": "Q386+63 Long Island City, Queens, NY, USA",
        "global_code": "87G8Q386+63"
      },
      "rating": 4.6,
      "reference": "ChIJlfV7ustYwokR9VsEug7MJUo",
      "scope": "GOOGLE",
      "types": [
        "point_of_interest",
        "establishment"
      ],
      "user_ratings_total": 15,
      "vicinity": "3359 Vernon Boulevard, Long Island City"
    },
    {
      "business_status": "OPERATIONAL",
      "geometry": {
        "location": {
          "lat": 40.764466,
          "lng": -73.938583
        },
        "viewport": {
          "northeast": {
            "lat": 40.7658597302915,
            "lng": -73.9373589197085
          },
          "southwest": {
            "lat": 40.7631617697085,
            "lng": -73.94005688029151
          }
        }
      },
      "icon": "https://maps.gstatic.com/mapfiles/place_api/icons/v1/png_71/generic_business-71.png",
      "icon_background_color": "#7B9EB0",
      "icon_mask_base_uri": "https://maps.gstatic.com/mapfiles/place_api/icons/v2/generic_pinlet",
      "name": "JMJ Electric Corporation",
      "opening_hours": {
        "open_now": false
      },
      "place_id": "ChIJ3Q9jdstYwokReV3qQ-pH3OE",
      "plus_code": {
        "compound_code": "Q376+QH Astoria, Queens, NY, USA",
        "global_code": "87G8Q376+QH"
      },
      "rating": 4,
      "reference": "ChIJ3Q9jdstYwokReV3qQ-pH3OE",
      "scope": "GOOGLE",
      "types": [
        "electrician",
        "point_of_interest",
        "establishment"
      ],
      "user_ratings_total": 1,
      "vicinity": "3411 10th Street, Astoria"
    },
    {
      "business_status": "OPERATIONAL",
      "geometry": {
        "location": {
          "lat": 40.760002,
          "lng": -73.938942
        },
        "viewport": {
          "northeast": {
            "lat": 40.7613118302915,
            "lng": -73.93748376970848
          },
          "southwest": {
            "lat": 40.7586138697085,
            "lng": -73.9401817302915
          }
        }
      },
      "icon": "https://maps.gstatic.com/mapfiles/place_api/icons/v1/png_71/generic_business-71.png",
      "icon_background_color": "#7B9EB0",
      "icon_mask_base_uri": "https://maps.gstatic.com/mapfiles/place_api/icons/v2/generic_pinlet",
      "name": "Castlestone Construction",
      "place_id": "ChIJc07ZCs1YwokR9-q7J69cQxg",
      "plus_code": {
        "compound_code": "Q366+2C Astoria, Queens, NY, USA",
        "global_code": "87G8Q366+2C"
      },
      "reference": "ChIJc07ZCs1YwokR9-q7J69cQxg",
      "scope": "GOOGLE",
      "types": [
        "general_contractor",
        "point_of_interest",
        "establishment"
      ],
      "vicinity": "3620 13th Street, Astoria"
    },
    {
      "business_status": "OPERATIONAL",
      "geometry": {
        "location": {
          "lat": 40.7635839,
          "lng": -73.9413024
        },
        "viewport": {
          "northeast": {
            "lat": 40.76494698029149,
            "lng": -73.9400425697085
          },
          "southwest": {
            "lat": 40.76224901970849,
            "lng": -73.9427405302915
          }
        }
      },
      "icon": "https://maps.gstatic.com/mapfiles/place_api/icons/v1/png_71/shopping-71.png",
      "icon_background_color": "#4B96F3",
      "icon_mask_base_uri": "https://maps.gstatic.com/mapfiles/place_api/icons/v2/shopping_pinlet",
      "name": "E & Y Distributors",
      "opening_hours": {
        "open_now": false
      },
      "place_id": "ChIJWwQQBMxYwokRf4zs7AZjtQg",
      "plus_code": {
        "compound_code": "Q375+CF Queens, NY, USA",
        "global_code": "87G8Q375+CF"
      },
      "rating": 4.2,
      "reference": "ChIJWwQQBMxYwokRf4zs7AZjtQg",
      "scope": "GOOGLE",
      "types": [
        "car_repair",
        "point_of_interest",
        "store",
        "establishment"
      ],
      "user_ratings_total": 14,
      "vicinity": "3501 Vernon Boulevard, Queens"
    },
    {
      "business_status": "OPERATIONAL",
      "geometry": {
        "location": {
          "lat": 40.76173,
          "lng": -73.9399339
        },
        "viewport": {
          "northeast": {
            "lat": 40.7630322302915,
            "lng": -73.93845501970848
          },
          "southwest": {
            "lat": 40.7603342697085,
            "lng": -73.9411529802915
          }
        }
      },
      "icon": "https://maps.gstatic.com/mapfiles/place_api/icons/v1/png_71/generic_business-71.png",
      "icon_background_color": "#7B9EB0",
      "icon_mask_base_uri": "https://maps.gstatic.com/mapfiles/place_api/icons/v2/generic_pinlet",
      "name": "Crosslands Transportation",
      "photos": [
        {
          "height": 3264,
          "html_attributions": [
            "<a href=\"https://maps.google.com/maps/contrib/114804114564723357187\">Jaese Soto</a>"
          ],
          "photo_reference": "AeJbb3f4MLgiU3xhbZeJJnPSF8Eo_yQtshX9ai_ppj4yhVMFA2OzkoYvKqad9ov7HqKb_vcCRJehystZ9rH5kM6TJAE3XYAF6q6-TIFZcy7AvfLoQ68ntmfdH2Hp8MbJM5KH7tJCd5Q46m0Rzg4E6fxgVBaXvrbHGTVp6RMyeSE3fGe_wi5V",
          "width": 1836
        }
      ],
      "place_id": "ChIJ-8F6TsxYwokR3GfWSCRLisY",
      "plus_code": {
        "compound_code": "Q366+M2 Astoria, Queens, NY, USA",
        "global_code": "87G8Q366+M2"
      },
      "rating": 2,
      "reference": "ChIJ-8F6TsxYwokR3GfWSCRLisY",
      "scope": "GOOGLE",
      "types": [
        "point_of_interest",
        "establishment"
      ],
      "user_ratings_total": 4,
      "vicinity": "3544 11th Street, Astoria"
    },
    {
      "business_status": "OPERATIONAL",
      "geometry": {
        "location": {
          "lat": 40.7631924,
          "lng": -73.9392427
        },
        "viewport": {
          "northeast": {
            "lat": 40.7645647302915,
            "lng": -73.9381000197085
          },
          "southwest": {
            "lat": 40.7618667697085,
            "lng": -73.9407979802915
          }
        }
      },
      "icon": "https://maps.gstatic.com/mapfiles/place_api/icons/v1/png_71/generic_business-71.png",
      "icon_background_color": "#7B9EB0",
      "icon_mask_base_uri": "https://maps.gstatic.com/mapfiles/place_api/icons/v2/generic_pinlet",
      "name": "ATCO Contracting Group, Inc.",
      "opening_hours": {
        "open_now": false
      },
      "photos": [
        {
          "height": 3672,
          "html_attributions": [
            "<a href=\"https://maps.google.com/maps/contrib/117979751334919367476\">Alexander Mejia</a>"
          ],
          "photo_reference": "AeJbb3dGBsnHS-_86B8fNJIBawfqScCiSpUXjRY3gO__QbRW9EPGoFmth15LSgbh-UiBYoHWk9fHNsp4ISYDp9jWwGWfKz9uZ3StrrfIB5Qqo_Rfi7TDQBokzWqSVf3M-AlPhe_LVB5rS8G8QkYTaSNHcT-X_XUkfMnvp6TIo8a8a1aubswA",
          "width": 4896
        }
      ],
      "place_id": "ChIJw5uSfcxYwokRpelBz1xwK6I",
      "plus_code": {
        "compound_code": "Q376+78 Queens, NY, USA",
        "global_code": "87G8Q376+78"
      },
      "rating": 4.5,
      "reference": "ChIJw5uSfcxYwokRpelBz1xwK6I",
      "scope": "GOOGLE",
      "types": [
        "general_contractor",
        "point_of_interest",
        "establishment"
      ],
      "user_ratings_total": 8,
      "vicinity": "34-52 11th Street, Queens"
    },
    {
      "business_status": "OPERATIONAL",
      "geometry": {
        "location": {
          "lat": 40.763363,
          "lng": -73.938907
        },
        "viewport": {
          "northeast": {
            "lat": 40.76466583029149,
            "lng": -73.9374293697085
          },
          "southwest": {
            "lat": 40.76196786970849,
            "lng": -73.9401273302915
          }
        }
      },
      "icon": "https://maps.gstatic.com/mapfiles/place_api/icons/v1/png_71/shopping-71.png",
      "icon_background_color": "#4B96F3",
      "icon_mask_base_uri": "https://maps.gstatic.com/mapfiles/place_api/icons/v2/shopping_pinlet",
      "name": "Goso Direct",
      "opening_hours": {
        "open_now": false
      },
      "place_id": "ChIJEULWgMxYwokR_9mwIVReUeg",
      "plus_code": {
        "compound_code": "Q376+8C Astoria, Queens, NY, USA",
        "global_code": "87G8Q376+8C"
      },
      "rating": 3.3,
      "reference": "ChIJEULWgMxYwokR_9mwIVReUeg",
      "scope": "GOOGLE",
      "types": [
        "point_of_interest",
        "store",
        "establishment"
      ],
      "user_ratings_total": 3,
      "vicinity": "3450 11th Street, Astoria"
    },
    {
      "business_status": "OPERATIONAL",
      "geometry": {
        "location": {
          "lat": 40.7634,
          "lng": -73.939245
        },
        "viewport": {
          "northeast": {
            "lat": 40.76479433029149,
            "lng": -73.93802256970848
          },
          "southwest": {
            "lat": 40.7620963697085,
            "lng": -73.9407205302915
          }
        }
      },
      "icon": "https://maps.gstatic.com/mapfiles/place_api/icons/v1/png_71/generic_business-71.png",
      "icon_background_color": "#7B9EB0",
      "icon_mask_base_uri": "https://maps.gstatic.com/mapfiles/place_api/icons/v2/generic_pinlet",
      "name": "gold duster cleaning",
      "opening_hours": {
        "open_now": true
      },
      "place_id": "ChIJe5iofsxYwokRaWAzmzpjJss",
      "plus_code": {
        "compound_code": "Q376+98 New York, NY, USA",
        "global_code": "87G8Q376+98"
      },
      "rating": 5,
      "reference": "ChIJe5iofsxYwokRaWAzmzpjJss",
      "scope": "GOOGLE",
      "types": [
        "point_of_interest",
        "establishment"
      ],
      "user_ratings_total": 2,
      "vicinity": "34-53 10th Street, Queens"
    },
    {
      "business_status": "OPERATIONAL",
      "geometry": {
        "location": {
          "lat": 40.76312869999999,
          "lng": -73.9402578
        },
        "viewport": {
          "northeast": {
            "lat": 40.76455998029149,
            "lng": -73.9388572197085
          },
          "southwest": {
            "lat": 40.76186201970849,
            "lng": -73.9415551802915
          }
        }
      },
      "icon": "https://maps.gstatic.com/mapfiles/place_api/icons/v1/png_71/generic_business-71.png",
      "icon_background_color": "#7B9EB0",
      "icon_mask_base_uri": "https://maps.gstatic.com/mapfiles/place_api/icons/v2/generic_pinlet",
      "name": "MD studios",
      "opening_hours": {
        "open_now": false
      },
      "place_id": "ChIJRxQSbcxYwokRU7by_S8dPWA",
      "plus_code": {
        "compound_code": "Q375+7V Long Island City, Queens, NY, USA",
        "global_code": "87G8Q375+7V"
      },
      "reference": "ChIJRxQSbcxYwokRU7by_S8dPWA",
      "scope": "GOOGLE",
      "types": [
        "point_of_interest",
        "establishment"
      ],
      "vicinity": "9-20 35th Avenue #1j, Long Island City"
    },
    {
      "business_status": "OPERATIONAL",
      "geometry": {
        "location": {
          "lat": 40.763642,
          "lng": -73.938732
        },
        "viewport": {
          "northeast": {
            "lat": 40.7649448802915,
            "lng": -73.9372545697085
          },
          "southwest": {
            "lat": 40.7622469197085,
            "lng": -73.9399525302915
          }
        }
      },
      "icon": "https://maps.gstatic.com/mapfiles/place_api/icons/v1/png_71/generic_business-71.png",
      "icon_background_color": "#7B9EB0",
      "icon_mask_base_uri": "https://maps.gstatic.com/mapfiles/place_api/icons/v2/generic_pinlet",
      "name": "On Time Printing",
      "opening_hours": {
        "open_now": false
      },
      "photos": [
        {
          "height": 753,
          "html_attributions": [
            "<a href=\"https://maps.google.com/maps/contrib/116768383941542508627\">On Time Printing</a>"
          ],
          "photo_reference": "AeJbb3ehqt0rNJd5h8PhFiRg0HNsitnDq1fXUbZe28eIoFX8sTdlarpwvVkOhIm-aDwHBv4ioNYCOMp9zNT9hS8l_CMgMNH9EeD5PNhiKFlGpittOaq-KAzHWNAwiRiRPcoxZW8ivyMMdjcbQpKfoCFqiyWtjPo2ru5LLqHNqYaDbZ3OX8lA",
          "width": 995
        }
      ],
      "place_id": "ChIJEaIsfstYwokRhjDRX9iFijU",
      "plus_code": {
        "compound_code": "Q376+FG Queens, NY, USA",
        "global_code": "87G8Q376+FG"
      },
      "rating": 4.4,
      "reference": "ChIJEaIsfstYwokRhjDRX9iFijU",
      "scope": "GOOGLE",
      "types": [
        "clothing_store",
        "point_of_interest",
        "store",
        "establishment"
      ],
      "user_ratings_total": 5,
      "vicinity": "34-40 11th Street, Queens"
    },
    {
      "business_status": "OPERATIONAL",
      "geometry": {
        "location": {
          "lat": 40.7631419,
          "lng": -73.9402916
        },
        "viewport": {
          "northeast": {
            "lat": 40.76457278029149,
            "lng": -73.93889126970849
          },
          "southwest": {
            "lat": 40.7618748197085,
            "lng": -73.9415892302915
          }
        }
      },
      "icon": "https://maps.gstatic.com/mapfiles/place_api/icons/v1/png_71/shopping-71.png",
      "icon_background_color": "#4B96F3",
      "icon_mask_base_uri": "https://maps.gstatic.com/mapfiles/place_api/icons/v2/shopping_pinlet",
      "name": "Noir hanna",
      "opening_hours": {
        "open_now": true
      },
      "photos": [
        {
          "height": 2048,
          "html_attributions": [
            "<a href=\"https://maps.google.com/maps/contrib/106581061773118680636\">Noir hanna</a>"
          ],
          "photo_reference": "AeJbb3dXsh2e10_cr2jyfhDFj3PuIhwF97DnRIY-MJ1wfFUs6azqMPdm_eg7if_IzDupMkUIwgpUBUD9LwhU-tFn13lSQh5dURf7RFPxTqBMcj-FmQz0fNQI2VH1saQBjAZW4bGwFuAFKeF7WF_ffEWjbHNZTwJoM6pOZPJLpgFhEh8FS7MY",
          "width": 2048
        }
      ],
      "place_id": "ChIJ7eOqk6VZwokRzfqPBoFc55s",
      "plus_code": {
        "compound_code": "Q375+7V New York, NY, USA",
        "global_code": "87G8Q375+7V"
      },
      "reference": "ChIJ7eOqk6VZwokRzfqPBoFc55s",
      "scope": "GOOGLE",
      "types": [
        "florist",
        "point_of_interest",
        "store",
        "establishment"
      ],
      "vicinity": "9-20 35th Avenue #2A, Queens"
    },
    {
      "business_status": "OPERATIONAL",
      "geometry": {
        "location": {
          "lat": 40.7631419,
          "lng": -73.9402916
        },
        "viewport": {
          "northeast": {
            "lat": 40.76457278029149,
            "lng": -73.93889126970849
          },
          "southwest": {
            "lat": 40.7618748197085,
            "lng": -73.9415892302915
          }
        }
      },
      "icon": "https://maps.gstatic.com/mapfiles/place_api/icons/v1/png_71/generic_business-71.png",
      "icon_background_color": "#7B9EB0",
      "icon_mask_base_uri": "https://maps.gstatic.com/mapfiles/place_api/icons/v2/generic_pinlet",
      "name": "DiSalvo & Sons",
      "place_id": "ChIJMb9s3zJfwokRYV9sEGBw-OA",
      "plus_code": {
        "compound_code": "Q375+7V New York, NY, USA",
        "global_code": "87G8Q375+7V"
      },
      "reference": "ChIJMb9s3zJfwokRYV9sEGBw-OA",
      "scope": "GOOGLE",
      "types": [
        "food",
        "point_of_interest",
        "establishment"
      ],
      "vicinity": "9-20 35th Avenue #9, Queens"
    },
    {
      "business_status": "OPERATIONAL",
      "geometry": {
        "location": {
          "lat": 40.7631419,
          "lng": -73.9402916
        },
        "viewport": {
          "northeast": {
            "lat": 40.76457278029149,
            "lng": -73.93889126970849
          },
          "southwest": {
            "lat": 40.7618748197085,
            "lng": -73.9415892302915
          }
        }
      },
      "icon": "https://maps.gstatic.com/mapfiles/place_api/icons/v1/png_71/generic_business-71.png",
      "icon_background_color": "#7B9EB0",
      "icon_mask_base_uri": "https://maps.gstatic.com/mapfiles/place_api/icons/v2/generic_pinlet",
      "name": "Ronald Stewart Photography Studio",
      "opening_hours": {
        "open_now": true
      },
      "photos": [
        {
          "height": 1414,
          "html_attributions": [
            "<a href=\"https://maps.google.com/maps/contrib/109412715596123368799\">Ronald Stewart Photography Studio</a>"
          ],
          "photo_reference": "AeJbb3e3be31rZ2cjl_nd-TMHRF5i2ps-8WMXvdidmDIshh-f6_k6RLymyjyHYZQo8uLGpCfu7EzEiso_K2OL1NpBUT2Z56c63Mte-Xl9EENuE79yFY-lU9QRcsYKNyeyublYstwsgp9zJE89SExG-ewzyE1ELidnikZebk27rb3H1eNmmXq",
          "width": 1111
        }
      ],
      "place_id": "ChIJm37b4BD2wokRGbs-WVtyNDg",
      "plus_code": {
        "compound_code": "Q375+7V Long Island City, Queens, NY, USA",
        "global_code": "87G8Q375+7V"
      },
      "rating": 5,
      "reference": "ChIJm37b4BD2wokRGbs-WVtyNDg",
      "scope": "GOOGLE",
      "types": [
        "point_of_interest",
        "establishment"
      ],
      "user_ratings_total": 3,
      "vicinity": "9-20 35th Avenue #2i, Long Island City"
    },
    {
      "business_status": "OPERATIONAL",
      "geometry": {
        "location": {
          "lat": 40.7631285,
          "lng": -73.9403027
        },
        "viewport": {
          "northeast": {
            "lat": 40.7645663802915,
            "lng": -73.9388976697085
          },
          "southwest": {
            "lat": 40.7618684197085,
            "lng": -73.9415956302915
          }
        }
      },
      "icon": "https://maps.gstatic.com/mapfiles/place_api/icons/v1/png_71/generic_business-71.png",
      "icon_background_color": "#7B9EB0",
      "icon_mask_base_uri": "https://maps.gstatic.com/mapfiles/place_api/icons/v2/generic_pinlet",
      "name": "Alliance Moving Services Inc",
      "opening_hours": {
        "open_now": true
      },
      "place_id": "ChIJc-89bcxYwokRHVh2EcsMHgU",
      "plus_code": {
        "compound_code": "Q375+7V Astoria, Queens, NY, USA",
        "global_code": "87G8Q375+7V"
      },
      "rating": 2.4,
      "reference": "ChIJc-89bcxYwokRHVh2EcsMHgU",
      "scope": "GOOGLE",
      "types": [
        "storage",
        "moving_company",
        "point_of_interest",
        "establishment"
      ],
      "user_ratings_total": 72,
      "vicinity": "9-20 35th Avenue #1m, Astoria"
    },
    {
      "business_status": "OPERATIONAL",
      "geometry": {
        "location": {
          "lat": 40.7631484,
          "lng": -73.9403868
        },
        "viewport": {
          "northeast": {
            "lat": 40.76457118029149,
            "lng": -73.9389254197085
          },
          "southwest": {
            "lat": 40.76187321970849,
            "lng": -73.9416233802915
          }
        }
      },
      "icon": "https://maps.gstatic.com/mapfiles/place_api/icons/v1/png_71/shopping-71.png",
      "icon_background_color": "#4B96F3",
      "icon_mask_base_uri": "https://maps.gstatic.com/mapfiles/place_api/icons/v2/shopping_pinlet",
      "name": "AicPrint",
      "place_id": "ChIJ7REVbcxYwokRfR80zQ373zY",
      "plus_code": {
        "compound_code": "Q375+7R New York, NY, USA",
        "global_code": "87G8Q375+7R"
      },
      "reference": "ChIJ7REVbcxYwokRfR80zQ373zY",
      "scope": "GOOGLE",
      "types": [
        "point_of_interest",
        "store",
        "establishment"
      ],
      "vicinity": "9-20 35th Avenue, Queens"
    },
    {
      "business_status": "OPERATIONAL",
      "geometry": {
        "location": {
          "lat": 40.7630101,
          "lng": -73.94059659999999
        },
        "viewport": {
          "northeast": {
            "lat": 40.7645394802915,
            "lng": -73.93906146970849
          },
          "southwest": {
            "lat": 40.7618415197085,
            "lng": -73.94175943029151
          }
        }
      },
      "icon": "https://maps.gstatic.com/mapfiles/place_api/icons/v1/png_71/generic_business-71.png",
      "icon_background_color": "#7B9EB0",
      "icon_mask_base_uri": "https://maps.gstatic.com/mapfiles/place_api/icons/v2/generic_pinlet",
      "name": "Social Media Spot Inc",
      "opening_hours": {
        "open_now": true
      },
      "photos": [
        {
          "height": 1440,
          "html_attributions": [
            "<a href=\"https://maps.google.com/maps/contrib/118026914425486711591\">Social Media Spot Inc</a>"
          ],
          "photo_reference": "AeJbb3e5lwczWC0q4qG-BnbO1rdrUiaMV85w6K3TowiaeWk8mkbWXr465xGIAQQFDyzQFPR5QUyekQ8PAtHi4kvjuyq3bepCEVPmnZUXLtqDyXMN9X8824DhVDBuXIF6Vzif7aiPOLx6ndghrmdL8yhqhkfzHRGjGYqTvaaeQWTWvbyRFHLy",
          "width": 1920
        }
      ],
      "place_id": "ChIJifZRe7KKwokR0IblsHu0WHk",
      "plus_code": {
        "compound_code": "Q375+6Q Astoria, Queens, NY, USA",
        "global_code": "87G8Q375+6Q"
      },
      "rating": 4.9,
      "reference": "ChIJifZRe7KKwokR0IblsHu0WHk",
      "scope": "GOOGLE",
      "types": [
        "point_of_interest",
        "establishment"
      ],
      "user_ratings_total": 30,
      "vicinity": "35-11 9th Street, Astoria"
    },
    {
      "business_status": "OPERATIONAL",
      "geometry": {
        "location": {
          "lat": 40.7630101,
          "lng": -73.94059659999999
        },
        "viewport": {
          "northeast": {
            "lat": 40.7645394802915,
            "lng": -73.93906146970849
          },
          "southwest": {
            "lat": 40.7618415197085,
            "lng": -73.94175943029151
          }
        }
      },
      "icon": "https://maps.gstatic.com/mapfiles/place_api/icons/v1/png_71/generic_business-71.png",
      "icon_background_color": "#7B9EB0",
      "icon_mask_base_uri": "https://maps.gstatic.com/mapfiles/place_api/icons/v2/generic_pinlet",
      "name": "Modern International Corporation",
      "place_id": "ChIJw0VXa8xYwokRg6Q-EKqqVCU",
      "plus_code": {
        "compound_code": "Q375+6Q Astoria, Queens, NY, USA",
        "global_code": "87G8Q375+6Q"
      },
      "reference": "ChIJw0VXa8xYwokRg6Q-EKqqVCU",
      "scope": "GOOGLE",
      "types": [
        "point_of_interest",
        "establishment"
      ],
      "vicinity": "3511 9th Street, Astoria"
    },
    {
      "business_status": "OPERATIONAL",
      "geometry": {
        "location": {
          "lat": 40.763303,
          "lng": -73.9405227
        },
        "viewport": {
          "northeast": {
            "lat": 40.7647020802915,
            "lng": -73.9391423197085
          },
          "southwest": {
            "lat": 40.7620041197085,
            "lng": -73.9418402802915
          }
        }
      },
      "icon": "https://maps.gstatic.com/mapfiles/place_api/icons/v1/png_71/generic_business-71.png",
      "icon_background_color": "#7B9EB0",
      "icon_mask_base_uri": "https://maps.gstatic.com/mapfiles/place_api/icons/v2/generic_pinlet",
      "name": "Maple Crew Inc",
      "opening_hours": {
        "open_now": true
      },
      "place_id": "ChIJYZbeDMxYwokRhMQ9ixXcDrg",
      "plus_code": {
        "compound_code": "Q375+8Q Queens, NY, USA",
        "global_code": "87G8Q375+8Q"
      },
      "reference": "ChIJYZbeDMxYwokRhMQ9ixXcDrg",
      "scope": "GOOGLE",
      "types": [
        "general_contractor",
        "point_of_interest",
        "establishment"
      ],
      "vicinity": "9-03 35th Avenue Suite 8, Queens"
    },
    {
      "business_status": "OPERATIONAL",
      "geometry": {
        "location": {
          "lat": 40.76394,
          "lng": -73.93923819999999
        },
        "viewport": {
          "northeast": {
            "lat": 40.76529633029151,
            "lng": -73.9379098197085
          },
          "southwest": {
            "lat": 40.76259836970851,
            "lng": -73.9406077802915
          }
        }
      },
      "icon": "https://maps.gstatic.com/mapfiles/place_api/icons/v1/png_71/generic_business-71.png",
      "icon_background_color": "#7B9EB0",
      "icon_mask_base_uri": "https://maps.gstatic.com/mapfiles/place_api/icons/v2/generic_pinlet",
      "name": "Arag\u00e3o Rio Tour",
      "opening_hours": {
        "open_now": true
      },
      "place_id": "ChIJMxRGgctYwokRxU16nBhjFCs",
      "plus_code": {
        "compound_code": "Q376+H8 Astoria, Queens, NY, USA",
        "global_code": "87G8Q376+H8"
      },
      "rating": 5,
      "reference": "ChIJMxRGgctYwokRxU16nBhjFCs",
      "scope": "GOOGLE",
      "types": [
        "point_of_interest",
        "establishment"
      ],
      "user_ratings_total": 1,
      "vicinity": "3434 10th Street #3r, Astoria"
    },
    {
      "business_status": "OPERATIONAL",
      "geometry": {
        "location": {
          "lat": 40.7633308,
          "lng": -73.93770959999999
        },
        "viewport": {
          "northeast": {
            "lat": 40.76466173029149,
            "lng": -73.93630876970849
          },
          "southwest": {
            "lat": 40.7619637697085,
            "lng": -73.93900673029151
          }
        }
      },
      "icon": "https://maps.gstatic.com/mapfiles/place_api/icons/v1/png_71/generic_business-71.png",
      "icon_background_color": "#7B9EB0",
      "icon_mask_base_uri": "https://maps.gstatic.com/mapfiles/place_api/icons/v2/generic_pinlet",
      "name": "Wisdom Vision TV",
      "place_id": "ChIJt8vPncxYwokRYyi0TXCyVrg",
      "plus_code": {
        "compound_code": "Q376+8W New York, NY, USA",
        "global_code": "87G8Q376+8W"
      },
      "reference": "ChIJt8vPncxYwokRYyi0TXCyVrg",
      "scope": "GOOGLE",
      "types": [
        "point_of_interest",
        "establishment"
      ],
      "vicinity": "34-36 12th Street, Queens"
    },
    {
      "business_status": "OPERATIONAL",
      "geometry": {
        "location": {
          "lat": 40.7640755,
          "lng": -73.9390367
        },
        "viewport": {
          "northeast": {
            "lat": 40.7654385302915,
            "lng": -73.9377269197085
          },
          "southwest": {
            "lat": 40.76274056970851,
            "lng": -73.94042488029152
          }
        }
      },
      "icon": "https://maps.gstatic.com/mapfiles/place_api/icons/v1/png_71/generic_business-71.png",
      "icon_background_color": "#7B9EB0",
      "icon_mask_base_uri": "https://maps.gstatic.com/mapfiles/place_api/icons/v2/generic_pinlet",
      "name": "BMJ Studios",
      "opening_hours": {
        "open_now": true
      },
      "photos": [
        {
          "height": 2048,
          "html_attributions": [
            "<a href=\"https://maps.google.com/maps/contrib/102436693702295599164\">BMJ Studios</a>"
          ],
          "photo_reference": "AeJbb3crhJECT4QRzKv5kZmIufgtkRBL7Qomk72uxnFV2XQ4C4nEGzDH_kjHFWlkXfqRmqatHkuBYrAOrqVvGYtKsUSwXZrDXQ7fTLKle6uXcJek8fVzBSfSJ8DeoWYpbQ73qL9LoInLJ6DHk9A6qrm_dLfbYyL3M8O9C_KD9jZpw63nJlKX",
          "width": 2048
        }
      ],
      "place_id": "ChIJ_17Yg8tYwokRVDOKP4BdryI",
      "plus_code": {
        "compound_code": "Q376+J9 Queens, NY, USA",
        "global_code": "87G8Q376+J9"
      },
      "rating": 4.5,
      "reference": "ChIJ_17Yg8tYwokRVDOKP4BdryI",
      "scope": "GOOGLE",
      "types": [
        "electronics_store",
        "point_of_interest",
        "home_goods_store",
        "store",
        "establishment"
      ],
      "user_ratings_total": 21,
      "vicinity": "34-31 10th Street, Queens"
    }
  ],
  "status": "OK"
}