{
  "html_attributions": [],
  "results": [
    {
      "geometry": {
        "location": {
          "lat": 40.7127753,
          "lng": -74.0059728
        },
        "viewport": {
          "northeast": {
            "lat": 40.91757705070789,
            "lng": -73.70027206817629
          },
          "southwest": {
            "lat": 40.47739906045452,
            "lng": -74.25908991427882
          }
        }
      },
      "icon": "https://maps.gstatic.com/mapfiles/place_api/icons/v1/png_71/geocode-71.png",
      "icon_background_color": "#7B9EB0",
      "icon_mask_base_uri": "https://maps.gstatic.com/mapfiles/place_api/icons/v2/generic_pinlet",
      "name": "\u7d10\u7d04",
      "photos": [
        {
          "height": 600,
          "html_attributions": [
            "<a href=\"https://maps.google.com/maps/contrib/102389334567210814614\">Bukurie</a>"
          ],
          "photo_reference": "AeJbb3eEOJEgy3l5UQgUbTDBiCafpNHFuf8tr3MGmlrDhhOTD42XLh5Idr3gJgL1u9tHgO3apV1TekQdWybEgWMD8KvCzDqt0oi1hzQiQhfTQsE3WJKQOaEMbo6d__R6sQSRCN6YN-PYiv3svybB9Xrw4nFAiCOkconF3VbgzaheO3u3fRij",
          "width": 480
        }
      ],
      "place_id": "ChIJOwg_06VPwokRYv534QaPC8g",
      "reference": "ChIJOwg_06VPwokRYv534QaPC8g",
      "scope": "GOOGLE",
      "types": [
        "locality",
        "political"
      ],
      "vicinity": "\u7d10\u7d04"
    },
    {
      "business_status": "OPERATIONAL",
      "geometry": {
        "location": {
          "lat": 40.7665748,
          "lng": -73.93365469999999
        },
        "viewport": {
          "northeast": {
            "lat": 40.7678491802915,
            "lng": -73.9324096197085
          },
          "southwest": {
            "lat": 40.7651512197085,
            "lng": -73.9351075802915
          }
        }
      },
      "icon": "https://maps.gstatic.com/mapfiles/place_api/icons/v1/png_71/lodging-71.png",
      "icon_background_color": "#909CE1",
      "icon_mask_base_uri": "https://maps.gstatic.com/mapfiles/place_api/icons/v2/hotel_pinlet",
      "name": "Super 8 by Wyndham Long Island City LGA Hotel",
      "opening_hours": {
        "open_now": true
      },
      "photos": [
        {
          "height": 400,
          "html_attributions": [
            "<a href=\"https://maps.google.com/maps/contrib/114667908319643972269\">Super 8 by Wyndham Long Island City LGA Hotel</a>"
          ],
          "photo_reference": "AeJbb3c5xVh8BNbbY3J8adq_oVE1unHiUWOyJ4dSKq0RBK5MsV4PFPQX2ojEUEJcZFPyrhl9NKPcr80zkjIsi3HA_V6QzbGbV-brvTeDjwnZD4_rkPGT36CrCEp4Xohdr3Y6GAzF2Fk1rnjBYIX9hS9OlJDrNWXGWZLa-fMrcvfcqG3rhIo",
          "width": 600
        }
      ],
      "place_id": "ChIJk97mgjVfwokRDPgsZDRthjs",
      "plus_code": {
        "compound_code": "Q388+JG \u7f8e\u570b\u7d10\u7d04",
        "global_code": "87G8Q388+JG"
      },
      "rating": 3.4,
      "reference": "ChIJk97mgjVfwokRDPgsZDRthjs",
      "scope": "GOOGLE",
      "types": [
        "lodging",
        "point_of_interest",
        "establishment"
      ],
      "user_ratings_total": 359,
      "vicinity": "31-62 14th Street, Queens"
    },
    {
      "business_status": "OPERATIONAL",
      "geometry": {
        "location": {
          "lat": 40.766813,
          "lng": -73.9380539
        },
        "viewport": {
          "northeast": {
            "lat": 40.7683710302915,
            "lng": -73.9364219197085
          },
          "southwest": {
            "lat": 40.7656730697085,
            "lng": -73.9391198802915
          }
        }
      },
      "icon": "https://maps.gstatic.com/mapfiles/place_api/icons/v1/png_71/museum-71.png",
      "icon_background_color": "#13B5C7",
      "icon_mask_base_uri": "https://maps.gstatic.com/mapfiles/place_api/icons/v2/museum_pinlet",
      "name": "\u91ce\u53e3\u52c7\u535a\u7269\u9928",
      "opening_hours": {
        "open_now": true
      },
      "photos": [
        {
          "height": 3024,
          "html_attributions": [
            "<a href=\"https://maps.google.com/maps/contrib/118181529508260888698\">Ticha Ungboriboonpisal</a>"
          ],
          "photo_reference": "AeJbb3exhKryaNT4YooyAbFj6-ai6AmHjv5VfT6VhDXrjj1LTDAjj_3YZIiQhkZ5iggU7JKCz1R1fByo-nE-Uo1gO0V3XURji34M4ylH0CyrIobqD-eRm-VxZ6k389jtIL8T0hZvqg7Z43JlNMwcLC-ml6pKOVkQwrAvJIhiP5M38Gq5zqgj",
          "width": 4032
        }
      ],
      "place_id": "ChIJUZ0c7MpYwokRh8SiMzCXL98",
      "plus_code": {
        "compound_code": "Q386+PQ \u7f8e\u570b\u7d10\u7d04",
        "global_code": "87G8Q386+PQ"
      },
      "price_level": 3,
      "rating": 4.7,
      "reference": "ChIJUZ0c7MpYwokRh8SiMzCXL98",
      "scope": "GOOGLE",
      "types": [
        "museum",
        "point_of_interest",
        "establishment"
      ],
      "user_ratings_total": 1023,
      "vicinity": "9-01 33rd Road"
    },
    {
      "business_status": "OPERATIONAL",
      "geometry": {
        "location": {
          "lat": 40.7642049,
          "lng": -73.9383028
        },
        "viewport": {
          "northeast": {
            "lat": 40.7655195802915,
            "lng": -73.93685766970849
          },
          "southwest": {
            "lat": 40.7628216197085,
            "lng": -73.93955563029151
          }
        }
      },
      "icon": "https://maps.gstatic.com/mapfiles/place_api/icons/v1/png_71/generic_business-71.png",
      "icon_background_color": "#7B9EB0",
      "icon_mask_base_uri": "https://maps.gstatic.com/mapfiles/place_api/icons/v2/generic_pinlet",
      "name": "E.J. York, Inc.",
      "photos": [
        {
          "height": 376,
          "html_attributions": [
            "<a href=\"https://maps.google.com/maps/contrib/104247265279285682348\">E J York Inc</a>"
          ],
          "photo_reference": "AeJbb3dg_Nc6lNG-AaKDv9z93ApeVMz_w64Adirf_KPHw0qAS8RdnprwdI3hvFlJI3X7JuV2mT6yRLaUIDq6CkC9SVQtGCl-kZWtUkOX1n0G3nb55fzNDfiRVZBCEX3B-Dh9jJO5GH0KfLfJ5mfAicJKA3BkxTVN2lc_sKhpso4gVVNQnA6Q",
          "width": 300
        }
      ],
      "place_id": "ChIJKfWnBK1ZwokRPpoJS7qO3cY",
      "plus_code": {
        "compound_code": "Q376+MM \u7f8e\u570b\u7d10\u7d04",
        "global_code": "87G8Q376+MM"
      },
      "rating": 5,
      "reference": "ChIJKfWnBK1ZwokRPpoJS7qO3cY",
      "scope": "GOOGLE",
      "types": [
        "general_contractor",
        "point_of_interest",
        "establishment"
      ],
      "user_ratings_total": 1,
      "vicinity": "34-16 11th Street, Queens"
    },
    {
      "business_status": "OPERATIONAL",
      "geometry": {
        "location": {
          "lat": 40.7615414,
          "lng": -73.9405816
        },
        "viewport": {
          "northeast": {
            "lat": 40.7628448302915,
            "lng": -73.9393171697085
          },
          "southwest": {
            "lat": 40.7601468697085,
            "lng": -73.94201513029151
          }
        }
      },
      "icon": "https://maps.gstatic.com/mapfiles/place_api/icons/v1/png_71/generic_business-71.png",
      "icon_background_color": "#7B9EB0",
      "icon_mask_base_uri": "https://maps.gstatic.com/mapfiles/place_api/icons/v2/generic_pinlet",
      "name": "Neels Pasta and Pizza",
      "opening_hours": {
        "open_now": true
      },
      "photos": [
        {
          "height": 960,
          "html_attributions": [
            "<a href=\"https://maps.google.com/maps/contrib/114070558488907734239\">Neels Pasta and Pizza</a>"
          ],
          "photo_reference": "AeJbb3cHUyxSmimOWPevsohv4_7MI-574XN2eShTfPTzFj56rmHZGpWK1yDiEc8ACUSwyixJO6z8vm8yzwRV4HdZjlLxyVijABX0k18oEGkCt86eSoErfILI61ZFOUDuzojk4fvW0_9d4QNDJr8CopYViezWel6H7Yxu52_8skV77GFzKgdk",
          "width": 732
        }
      ],
      "place_id": "ChIJ_0znNMxYwokRXAfK9-JwJzg",
      "plus_code": {
        "compound_code": "Q365+JQ \u7f8e\u570b\u7d10\u7d04",
        "global_code": "87G8Q365+JQ"
      },
      "price_level": 2,
      "rating": 4,
      "reference": "ChIJ_0znNMxYwokRXAfK9-JwJzg",
      "scope": "GOOGLE",
      "types": [
        "meal_delivery",
        "restaurant",
        "food",
        "point_of_interest",
        "establishment"
      ],
      "user_ratings_total": 145,
      "vicinity": "10-01 36th Avenue, Queens"
    },
    {
      "business_status": "OPERATIONAL",
      "geometry": {
        "location": {
          "lat": 40.7604304,
          "lng": -73.9368057
        },
        "viewport": {
          "northeast": {
            "lat": 40.76168573029149,
            "lng": -73.93528651970848
          },
          "southwest": {
            "lat": 40.75898776970849,
            "lng": -73.93798448029149
          }
        }
      },
      "icon": "https://maps.gstatic.com/mapfiles/place_api/icons/v1/png_71/generic_business-71.png",
      "icon_background_color": "#7B9EB0",
      "icon_mask_base_uri": "https://maps.gstatic.com/mapfiles/place_api/icons/v2/generic_pinlet",
      "name": "Ravenswood",
      "opening_hours": {
        "open_now": true
      },
      "photos": [
        {
          "height": 4032,
          "html_attributions": [
            "<a href=\"https://maps.google.com/maps/contrib/101750277446063472847\">Todd Medeiros</a>"
          ],
          "photo_reference": "AeJbb3cwECCGGwqOvjmWUdJXDbOyv0sbBdn7hLVNNpTDUXIqz6aSAPlHjxpHsHqxw4ZlIKV5eujlehHXz7fSSDUeVM73E1MCvL4IRevy4Ah46VTl7AL9MnwFQGONIpvEIH1unG-AFvow5lcGtEc1zGHgWfJQRW93zDp31v3ZLPDIDw8OC3vz",
          "width": 3024
        }
      ],
      "place_id": "ChIJPw4mJTNfwokRjn43hZW2syo",
      "plus_code": {
        "compound_code": "Q367+57 \u7f8e\u570b\u7d10\u7d04\u9577\u5cf6\u5e02",
        "global_code": "87G8Q367+57"
      },
      "rating": 3.4,
      "reference": "ChIJPw4mJTNfwokRjn43hZW2syo",
      "scope": "GOOGLE",
      "types": [
        "point_of_interest",
        "establishment"
      ],
      "user_ratings_total": 492,
      "vicinity": "35-40 21st Street, Long Island City"
    },
    {
      "business_status": "OPERATIONAL",
      "geometry": {
        "location": {
          "lat": 40.763155,
          "lng": -73.940482
        },
        "viewport": {
          "northeast": {
            "lat": 40.76460848029149,
            "lng": -73.93906746970849
          },
          "southwest": {
            "lat": 40.7619105197085,
            "lng": -73.94176543029151
          }
        }
      },
      "icon": "https://maps.gstatic.com/mapfiles/place_api/icons/v1/png_71/generic_business-71.png",
      "icon_background_color": "#7B9EB0",
      "icon_mask_base_uri": "https://maps.gstatic.com/mapfiles/place_api/icons/v2/generic_pinlet",
      "name": "Click And Improve",
      "opening_hours": {
        "open_now": true
      },
      "place_id": "ChIJI2rScsxYwokRtfkDOrmC9R8",
      "plus_code": {
        "compound_code": "Q375+7R \u7f8e\u570b\u7d10\u7d04\u7687\u540e\u5340",
        "global_code": "87G8Q375+7R"
      },
      "reference": "ChIJI2rScsxYwokRtfkDOrmC9R8",
      "scope": "GOOGLE",
      "types": [
        "electrician",
        "general_contractor",
        "home_goods_store",
        "roofing_contractor",
        "point_of_interest",
        "store",
        "establishment"
      ],
      "vicinity": "9-20 35th Avenue, Queens"
    },
    {
      "business_status": "OPERATIONAL",
      "geometry": {
        "location": {
          "lat": 40.7644022,
          "lng": -73.9330588
        },
        "viewport": {
          "northeast": {
            "lat": 40.7657251802915,
            "lng": -73.9316316197085
          },
          "southwest": {
            "lat": 40.7630272197085,
            "lng": -73.93432958029152
          }
        }
      },
      "icon": "https://maps.gstatic.com/mapfiles/place_api/icons/v1/png_71/restaurant-71.png",
      "icon_background_color": "#FF9E67",
      "icon_mask_base_uri": "https://maps.gstatic.com/mapfiles/place_api/icons/v2/restaurant_pinlet",
      "name": "Baskin-Robbins",
      "opening_hours": {
        "open_now": true
      },
      "place_id": "ChIJBdU-DC5fwokRAvYTCR9jooc",
      "plus_code": {
        "compound_code": "Q378+QQ \u7f8e\u570b\u7d10\u7d04",
        "global_code": "87G8Q378+QQ"
      },
      "price_level": 1,
      "rating": 4.2,
      "reference": "ChIJBdU-DC5fwokRAvYTCR9jooc",
      "scope": "GOOGLE",
      "types": [
        "bakery",
        "food",
        "point_of_interest",
        "store",
        "establishment"
      ],
      "user_ratings_total": 6,
      "vicinity": "3326 21st Street, Queens"
    },
    {
      "business_status": "OPERATIONAL",
      "geometry": {
        "location": {
          "lat": 40.76153429999999,
          "lng": -73.9348383
        },
        "viewport": {
          "northeast": {
            "lat": 40.7629493802915,
            "lng": -73.93361991970849
          },
          "southwest": {
            "lat": 40.7602514197085,
            "lng": -73.93631788029151
          }
        }
      },
      "icon": "https://maps.gstatic.com/mapfiles/place_api/icons/v1/png_71/civic_building-71.png",
      "icon_background_color": "#7B9EB0",
      "icon_mask_base_uri": "https://maps.gstatic.com/mapfiles/place_api/icons/v2/civic-bldg_pinlet",
      "name": "Police Service Area 9 Satellite",
      "photos": [
        {
          "height": 768,
          "html_attributions": [
            "<a href=\"https://maps.google.com/maps/contrib/114494644855288931970\">Elias Ramos</a>"
          ],
          "photo_reference": "AeJbb3dd0dnWHOd-bRwU-t-PXsQgbwx3PT_Cag19RDgBM0ZBsJmyqbOYGWv4104o_P0YxI3k4wuBlZrTvRwJzO_0DSM3_fxIvZ5A9L-EODfpv9TEBHyOHW9ncAG0viIG6fMVHav2mjfgX9txUxIM-ptYL22fZdiGF4bF1LdKxPN1rEqaFYo",
          "width": 1024
        }
      ],
      "place_id": "ChIJs8l3aDNfwokRyl_2AXgI5h4",
      "plus_code": {
        "compound_code": "Q368+J3 \u7f8e\u570b\u7d10\u7d04",
        "global_code": "87G8Q368+J3"
      },
      "rating": 3,
      "reference": "ChIJs8l3aDNfwokRyl_2AXgI5h4",
      "scope": "GOOGLE",
      "types": [
        "police",
        "point_of_interest",
        "establishment"
      ],
      "user_ratings_total": 8,
      "vicinity": "3441 21st Street, Queens"
    },
    {
      "business_status": "OPERATIONAL",
      "geometry": {
        "location": {
          "lat": 40.762042,
          "lng": -73.93979300000001
        },
        "viewport": {
          "northeast": {
            "lat": 40.76332238029151,
            "lng": -73.93830036970849
          },
          "southwest": {
            "lat": 40.76062441970851,
            "lng": -73.9409983302915
          }
        }
      },
      "icon": "https://maps.gstatic.com/mapfiles/place_api/icons/v1/png_71/shopping-71.png",
      "icon_background_color": "#4B96F3",
      "icon_mask_base_uri": "https://maps.gstatic.com/mapfiles/place_api/icons/v2/shopping_pinlet",
      "name": "NAPA Auto Parts - National Auto Parts",
      "opening_hours": {
        "open_now": true
      },
      "photos": [
        {
          "height": 875,
          "html_attributions": [
            "<a href=\"https://maps.google.com/maps/contrib/106395232912354949955\">NAPA Auto Parts - National Auto Parts</a>"
          ],
          "photo_reference": "AeJbb3edORO5c_O4oaYgltNTpKO8vegbMxgsOKfWytMMSbGGHLZFeOCVYrA8XjffUwtJXWhxuDRQgsHc62f75-ScHlYq3AL92o_5pum8CbgVkM656qUPul1bFvslOobbHekO1FGUTNo8-rSX8sfCH8OdeJQ-yxqNwLaUUSDggMGqZe8a4Zn_",
          "width": 1556
        }
      ],
      "place_id": "ChIJxQbdWsxYwokRpGmaMgYZ60s",
      "plus_code": {
        "compound_code": "Q366+R3 \u7f8e\u570b\u7d10\u7d04",
        "global_code": "87G8Q366+R3"
      },
      "rating": 3.8,
      "reference": "ChIJxQbdWsxYwokRpGmaMgYZ60s",
      "scope": "GOOGLE",
      "types": [
        "car_repair",
        "point_of_interest",
        "store",
        "establishment"
      ],
      "user_ratings_total": 71,
      "vicinity": "3534 11th Street, Queens"
    },
    {
      "business_status": "OPERATIONAL",
      "geometry": {
        "location": {
          "lat": 40.7662282,
          "lng": -73.939666
        },
        "viewport": {
          "northeast": {
            "lat": 40.7676830802915,
            "lng": -73.93829021970849
          },
          "southwest": {
            "lat": 40.76498511970851,
            "lng": -73.9409881802915
          }
        }
      },
      "icon": "https://maps.gstatic.com/mapfiles/place_api/icons/v1/png_71/generic_business-71.png",
      "icon_background_color": "#7B9EB0",
      "icon_mask_base_uri": "https://maps.gstatic.com/mapfiles/place_api/icons/v2/generic_pinlet",
      "name": "Kraus Enterprises Inc",
      "opening_hours": {
        "open_now": false
      },
      "photos": [
        {
          "height": 3024,
          "html_attributions": [
            "<a href=\"https://maps.google.com/maps/contrib/104135268484471286496\">Bryan Ray Lobo</a>"
          ],
          "photo_reference": "AeJbb3cUG3fxO4_QZPhHZWV2iCsiW4ivhBkvXJPvs7T3TSSk2VN7rptwKFCU0gr-8tp2b20zS4F6wWI0Nibd-sDF0O6_4Is22NqnVmLCdlzWjfMoC-sTP69nHUn-HnescOeOK9Krnfxlv7MnluSqXuuYhGbSh4KEuUpejfLUsiRwHtodYAES",
          "width": 4032
        }
      ],
      "place_id": "ChIJuRv6VMpYwokRYYXmzsuoBjE",
      "plus_code": {
        "compound_code": "Q386+F4 \u7f8e\u570b\u7d10\u7d04",
        "global_code": "87G8Q386+F4"
      },
      "rating": 3,
      "reference": "ChIJuRv6VMpYwokRYYXmzsuoBjE",
      "scope": "GOOGLE",
      "types": [
        "point_of_interest",
        "establishment"
      ],
      "user_ratings_total": 45,
      "vicinity": "33-01 Vernon Boulevard, Queens"
    },
    {
      "business_status": "OPERATIONAL",
      "geometry": {
        "location": {
          "lat": 40.7603966,
          "lng": -73.9397129
        },
        "viewport": {
          "northeast": {
            "lat": 40.7617554302915,
            "lng": -73.9382100197085
          },
          "southwest": {
            "lat": 40.7590574697085,
            "lng": -73.94090798029151
          }
        }
      },
      "icon": "https://maps.gstatic.com/mapfiles/place_api/icons/v1/png_71/school-71.png",
      "icon_background_color": "#7B9EB0",
      "icon_mask_base_uri": "https://maps.gstatic.com/mapfiles/place_api/icons/v2/school_pinlet",
      "name": "VOICE Charter School of New York",
      "opening_hours": {
        "open_now": false
      },
      "place_id": "ChIJk2-OeNJYwokR6rN70JSCtts",
      "plus_code": {
        "compound_code": "Q366+54 \u7f8e\u570b\u7d10\u7d04",
        "global_code": "87G8Q366+54"
      },
      "rating": 3.8,
      "reference": "ChIJk2-OeNJYwokR6rN70JSCtts",
      "scope": "GOOGLE",
      "types": [
        "primary_school",
        "school",
        "point_of_interest",
        "establishment"
      ],
      "user_ratings_total": 19,
      "vicinity": "36-24 12th Street, Queens"
    },
    {
      "business_status": "OPERATIONAL",
      "geometry": {
        "location": {
          "lat": 40.7658959,
          "lng": -73.9374576
        },
        "viewport": {
          "northeast": {
            "lat": 40.7671698302915,
            "lng": -73.9359263697085
          },
          "southwest": {
            "lat": 40.7644718697085,
            "lng": -73.9386243302915
          }
        }
      },
      "icon": "https://maps.gstatic.com/mapfiles/place_api/icons/v1/png_71/generic_business-71.png",
      "icon_background_color": "#7B9EB0",
      "icon_mask_base_uri": "https://maps.gstatic.com/mapfiles/place_api/icons/v2/generic_pinlet",
      "name": "Superior Selected Stone",
      "opening_hours": {
        "open_now": true
      },
      "place_id": "ChIJFT544MpYwokR7a7ZGM87hpU",
      "plus_code": {
        "compound_code": "Q387+92 \u7f8e\u570b\u7d10\u7d04\u7687\u540e\u5340",
        "global_code": "87G8Q387+92"
      },
      "rating": 5,
      "reference": "ChIJFT544MpYwokR7a7ZGM87hpU",
      "scope": "GOOGLE",
      "types": [
        "point_of_interest",
        "establishment"
      ],
      "user_ratings_total": 1,
      "vicinity": "33-53 10th Street, Queens"
    },
    {
      "business_status": "OPERATIONAL",
      "geometry": {
        "location": {
          "lat": 40.7652923,
          "lng": -73.93128010000001
        },
        "viewport": {
          "northeast": {
            "lat": 40.7665812802915,
            "lng": -73.9300867197085
          },
          "southwest": {
            "lat": 40.7638833197085,
            "lng": -73.9327846802915
          }
        }
      },
      "icon": "https://maps.gstatic.com/mapfiles/place_api/icons/v1/png_71/restaurant-71.png",
      "icon_background_color": "#FF9E67",
      "icon_mask_base_uri": "https://maps.gstatic.com/mapfiles/place_api/icons/v2/restaurant_pinlet",
      "name": "Bel Aire Diner",
      "opening_hours": {
        "open_now": true
      },
      "photos": [
        {
          "height": 453,
          "html_attributions": [
            "<a href=\"https://maps.google.com/maps/contrib/117761530227438504375\">Bel Aire Diner</a>"
          ],
          "photo_reference": "AeJbb3ep12mNmc2APnDFTnrdo9wmxlhuPYAq_CkXqf2n2ZlwItNNeN8PWPhKmuAJJd4H1FXwwcNiQwZSMP5GiOTYH-l_kOlm_mL1x_rdjMYbnuJmJmtu-XzmvCxnHuu95hakxGoLKmzfOxuiqjghmu-JXWPh5wlRQwyUg0oBrMDrpH1eJsTQ",
          "width": 604
        }
      ],
      "place_id": "ChIJYQWTyTVfwokRzZtviJxFeb8",
      "plus_code": {
        "compound_code": "Q389+4F \u7f8e\u570b\u7d10\u7d04",
        "global_code": "87G8Q389+4F"
      },
      "price_level": 2,
      "rating": 4.2,
      "reference": "ChIJYQWTyTVfwokRzZtviJxFeb8",
      "scope": "GOOGLE",
      "types": [
        "movie_theater",
        "restaurant",
        "food",
        "point_of_interest",
        "establishment"
      ],
      "user_ratings_total": 2793,
      "vicinity": "31-91 21st Street, Queens"
    },
    {
      "business_status": "OPERATIONAL",
      "geometry": {
        "location": {
          "lat": 40.7599998,
          "lng": -73.9379569
        },
        "viewport": {
          "northeast": {
            "lat": 40.7615070802915,
            "lng": -73.93650691970849
          },
          "southwest": {
            "lat": 40.7588091197085,
            "lng": -73.93920488029151
          }
        }
      },
      "icon": "https://maps.gstatic.com/mapfiles/place_api/icons/v1/png_71/worship_general-71.png",
      "icon_background_color": "#7B9EB0",
      "icon_mask_base_uri": "https://maps.gstatic.com/mapfiles/place_api/icons/v2/worship_christian_pinlet",
      "name": "Adath Israel Center",
      "photos": [
        {
          "height": 1932,
          "html_attributions": [
            "<a href=\"https://maps.google.com/maps/contrib/104228925539201519331\">Hil Cruz</a>"
          ],
          "photo_reference": "AeJbb3fTzvMgvC0lVDOZIo9S0K-CUc6pOi-KBfl3XR0wNQ6W7EMAIaLt6AMmqXnLURrC5AcRaRVL68FtI4K9ROQfBRiyV4STC4pYXd97UqOK61I59OlSKshOY0za-aGTZrrGbHy1VY-8JTh4DkMHrHM0XT7nWD5YOhSM_6I6KbAgu8NLmBCE",
          "width": 2576
        }
      ],
      "place_id": "ChIJ30BaEs1YwokR1fwtqUbOMqg",
      "plus_code": {
        "compound_code": "Q356+XR \u7f8e\u570b\u7d10\u7d04\u7687\u540e\u5340",
        "global_code": "87G8Q356+XR"
      },
      "reference": "ChIJ30BaEs1YwokR1fwtqUbOMqg",
      "scope": "GOOGLE",
      "types": [
        "church",
        "place_of_worship",
        "point_of_interest",
        "establishment"
      ],
      "vicinity": "\u7687\u540e\u5340"
    },
    {
      "business_status": "OPERATIONAL",
      "geometry": {
        "location": {
          "lat": 40.7593731,
          "lng": -73.93676889999999
        },
        "viewport": {
          "northeast": {
            "lat": 40.7608007802915,
            "lng": -73.9356067697085
          },
          "southwest": {
            "lat": 40.7581028197085,
            "lng": -73.9383047302915
          }
        }
      },
      "icon": "https://maps.gstatic.com/mapfiles/place_api/icons/v1/png_71/generic_business-71.png",
      "icon_background_color": "#7B9EB0",
      "icon_mask_base_uri": "https://maps.gstatic.com/mapfiles/place_api/icons/v2/generic_pinlet",
      "name": "Prina P. Amin, M.D.",
      "photos": [
        {
          "height": 301,
          "html_attributions": [
            "<a href=\"https://maps.google.com/maps/contrib/110392029193615365758\">Prina P. Amin, M.D.</a>"
          ],
          "photo_reference": "AeJbb3f0L8R0Qt7_Iygtnz8-avvxhp6-EOo7US3z2RxpR88BbcV3DZibbe-6VN7Ev1nyCsvpjqtOdKc6N1ii_sYm1H5b4FTkiqDZTnPvW4xh2JoXcyvrPEiLzdIEJK4l-GICIGheC4bhEm1IEj9oDpuEObq7DyBxE_1otaMqmJwDYeER-1iK",
          "width": 301
        }
      ],
      "place_id": "ChIJ1-NkqqBYwokR_XuSZt9lNzU",
      "plus_code": {
        "compound_code": "Q357+P7 \u7f8e\u570b\u7d10\u7d04",
        "global_code": "87G8Q357+P7"
      },
      "reference": "ChIJ1-NkqqBYwokR_XuSZt9lNzU",
      "scope": "GOOGLE",
      "types": [
        "doctor",
        "health",
        "point_of_interest",
        "establishment"
      ],
      "vicinity": "36-11 21st Street, Queens"
    },
    {
      "business_status": "OPERATIONAL",
      "geometry": {
        "location": {
          "lat": 40.76051289999999,
          "lng": -73.9347599
        },
        "viewport": {
          "northeast": {
            "lat": 40.7620593302915,
            "lng": -73.93324726970849
          },
          "southwest": {
            "lat": 40.7593613697085,
            "lng": -73.9359452302915
          }
        }
      },
      "icon": "https://maps.gstatic.com/mapfiles/place_api/icons/v1/png_71/school-71.png",
      "icon_background_color": "#7B9EB0",
      "icon_mask_base_uri": "https://maps.gstatic.com/mapfiles/place_api/icons/v2/school_pinlet",
      "name": "New York City Housing Authority's Ravenswood Day Care Center",
      "place_id": "ChIJPw4mJTNfwokRtxYmXtdD6IA",
      "plus_code": {
        "compound_code": "Q368+63 \u7f8e\u570b\u7d10\u7d04\u963f\u65af\u6258\u5229\u4e9e",
        "global_code": "87G8Q368+63"
      },
      "reference": "ChIJPw4mJTNfwokRtxYmXtdD6IA",
      "scope": "GOOGLE",
      "types": [
        "point_of_interest",
        "establishment"
      ],
      "vicinity": "21-20 35th Avenue, Astoria"
    },
    {
      "business_status": "OPERATIONAL",
      "geometry": {
        "location": {
          "lat": 40.7624164,
          "lng": -73.9399461
        },
        "viewport": {
          "northeast": {
            "lat": 40.7637977802915,
            "lng": -73.9386877697085
          },
          "southwest": {
            "lat": 40.7610998197085,
            "lng": -73.9413857302915
          }
        }
      },
      "icon": "https://maps.gstatic.com/mapfiles/place_api/icons/v1/png_71/generic_business-71.png",
      "icon_background_color": "#7B9EB0",
      "icon_mask_base_uri": "https://maps.gstatic.com/mapfiles/place_api/icons/v2/generic_pinlet",
      "name": "uk design studios",
      "opening_hours": {
        "open_now": false
      },
      "photos": [
        {
          "height": 576,
          "html_attributions": [
            "<a href=\"https://maps.google.com/maps/contrib/107802583230072940302\">uk design studios</a>"
          ],
          "photo_reference": "AeJbb3d6YfNvMWG0qUPCFNiIgoXpEHA0KAMOwuF31hJkOQNEJbDaZmolqW5KAWiu1ZbEeSHND2Gfl1KkpDAfLVM52nhKKFmY3V5hKntCkPsyGB4BHHuTQ8WF60WmbftKnhyEPBpAEfAFK5-7GEOASo6IcJNzmWWWfb_bi3826QqehP1XmHdT",
          "width": 864
        }
      ],
      "place_id": "ChIJA0CtQ8xYwokRYWp_3bFb8Tg",
      "plus_code": {
        "compound_code": "Q366+X2 \u7f8e\u570b\u7d10\u7d04\u7687\u540e\u5340",
        "global_code": "87G8Q366+X2"
      },
      "rating": 5,
      "reference": "ChIJA0CtQ8xYwokRYWp_3bFb8Tg",
      "scope": "GOOGLE",
      "types": [
        "point_of_interest",
        "establishment"
      ],
      "user_ratings_total": 1,
      "vicinity": "3521 10th Street, Queens"
    },
    {
      "business_status": "OPERATIONAL",
      "geometry": {
        "location": {
          "lat": 40.76260449999999,
          "lng": -73.9317688
        },
        "viewport": {
          "northeast": {
            "lat": 40.76403683029149,
            "lng": -73.92993571970848
          },
          "southwest": {
            "lat": 40.7613388697085,
            "lng": -73.9326336802915
          }
        }
      },
      "icon": "https://maps.gstatic.com/mapfiles/place_api/icons/v1/png_71/generic_business-71.png",
      "icon_background_color": "#7B9EB0",
      "icon_mask_base_uri": "https://maps.gstatic.com/mapfiles/place_api/icons/v2/generic_pinlet",
      "name": "Self-Help Community Services",
      "place_id": "ChIJVeTChTRfwokRPBRmEBazML8",
      "plus_code": {
        "compound_code": "Q379+27 \u7f8e\u570b\u7d10\u7d04\u9577\u5cf6\u5e02",
        "global_code": "87G8Q379+27"
      },
      "rating": 5,
      "reference": "ChIJVeTChTRfwokRPBRmEBazML8",
      "scope": "GOOGLE",
      "types": [
        "physiotherapist",
        "health",
        "point_of_interest",
        "establishment"
      ],
      "user_ratings_total": 2,
      "vicinity": "3334 Crescent Street, Long Island City"
    },
    {
      "geometry": {
        "location": {
          "lat": 40.7643574,
          "lng": -73.92346189999999
        },
        "viewport": {
          "northeast": {
            "lat": 40.7826018068365,
            "lng": -73.90221823033325
          },
          "southwest": {
            "lat": 40.75294753494164,
            "lng": -73.94473418403395
          }
        }
      },
      "icon": "https://maps.gstatic.com/mapfiles/place_api/icons/v1/png_71/geocode-71.png",
      "icon_background_color": "#7B9EB0",
      "icon_mask_base_uri": "https://maps.gstatic.com/mapfiles/place_api/icons/v2/generic_pinlet",
      "name": "\u963f\u65af\u6258\u5229\u4e9e",
      "photos": [
        {
          "height": 2040,
          "html_attributions": [
            "<a href=\"https://maps.google.com/maps/contrib/100919248807932008582\">ariovaldo oliveira</a>"
          ],
          "photo_reference": "AeJbb3dSwlfAW1ZW7tGLBvSX--nyfoSkEXGUjhyL0roh1mj9VfRwrw9sh4EKW1oK7M4JVrrKbMr1vbE2lkIal9f7y2w5diGlMI_8ZbPbYEeEqLF-R3yx5jo7e-9kW1NMv-JzCsy1_V2Ehj_vmGr_J3x_-A0Om-vCwyxS2Bd1uPPjXoi7Vs3T",
          "width": 1536
        }
      ],
      "place_id": "ChIJU6W15zZfwokRDhGErMSvCpw",
      "reference": "ChIJU6W15zZfwokRDhGErMSvCpw",
      "scope": "GOOGLE",
      "types": [
        "neighborhood",
        "political"
      ],
      "vicinity": "\u7687\u540e\u5340"
    },
    {
      "business_status": "OPERATIONAL",
      "geometry": {
        "location": {
          "lat": 40.7648995,
          "lng": -73.93917379999999
        },
        "viewport": {
          "northeast": {
            "lat": 40.7663459802915,
            "lng": -73.9377712197085
          },
          "southwest": {
            "lat": 40.7636480197085,
            "lng": -73.9404691802915
          }
        }
      },
      "icon": "https://maps.gstatic.com/mapfiles/place_api/icons/v1/png_71/generic_business-71.png",
      "icon_background_color": "#7B9EB0",
      "icon_mask_base_uri": "https://maps.gstatic.com/mapfiles/place_api/icons/v2/generic_pinlet",
      "name": "Main Contracting Corporation",
      "opening_hours": {
        "open_now": false
      },
      "place_id": "ChIJWWFpn8tYwokRl81AKO3L5qs",
      "plus_code": {
        "compound_code": "Q376+X8 New York, NY, USA",
        "global_code": "87G8Q376+X8"
      },
      "reference": "ChIJWWFpn8tYwokRl81AKO3L5qs",
      "scope": "GOOGLE",
      "types": [
        "general_contractor",
        "point_of_interest",
        "establishment"
      ],
      "vicinity": "910 34th Avenue, Queens"
    },
    {
      "business_status": "OPERATIONAL",
      "geometry": {
        "location": {
          "lat": 40.7624574,
          "lng": -73.9384161
        },
        "viewport": {
          "northeast": {
            "lat": 40.76389168029149,
            "lng": -73.9370138197085
          },
          "southwest": {
            "lat": 40.76119371970849,
            "lng": -73.9397117802915
          }
        }
      },
      "icon": "https://maps.gstatic.com/mapfiles/place_api/icons/v1/png_71/generic_business-71.png",
      "icon_background_color": "#7B9EB0",
      "icon_mask_base_uri": "https://maps.gstatic.com/mapfiles/place_api/icons/v2/generic_pinlet",
      "name": "U 2 Rigging & Hoisting Inc",
      "place_id": "ChIJKc999MxYwokRTXVDgXXBFsQ",
      "plus_code": {
        "compound_code": "Q366+XJ Astoria, Queens, NY, USA",
        "global_code": "87G8Q366+XJ"
      },
      "reference": "ChIJKc999MxYwokRTXVDgXXBFsQ",
      "scope": "GOOGLE",
      "types": [
        "general_contractor",
        "point_of_interest",
        "establishment"
      ],
      "vicinity": "1114 35th Avenue, Astoria"
    },
    {
      "business_status": "OPERATIONAL",
      "geometry": {
        "location": {
          "lat": 40.764466,
          "lng": -73.938583
        },
        "viewport": {
          "northeast": {
            "lat": 40.7658597302915,
            "lng": -73.9373589197085
          },
          "southwest": {
            "lat": 40.7631617697085,
            "lng": -73.94005688029151
          }
        }
      },
      "icon": "https://maps.gstatic.com/mapfiles/place_api/icons/v1/png_71/generic_business-71.png",
      "icon_background_color": "#7B9EB0",
      "icon_mask_base_uri": "https://maps.gstatic.com/mapfiles/place_api/icons/v2/generic_pinlet",
      "name": "JMJ Electric Corporation",
      "opening_hours": {
        "open_now": false
      },
      "place_id": "ChIJ3Q9jdstYwokReV3qQ-pH3OE",
      "plus_code": {
        "compound_code": "Q376+QH Astoria, Queens, NY, USA",
        "global_code": "87G8Q376+QH"
      },
      "rating": 4,
      "reference": "ChIJ3Q9jdstYwokReV3qQ-pH3OE",
      "scope": "GOOGLE",
      "types": [
        "electrician",
        "point_of_interest",
        "establishment"
      ],
      "user_ratings_total": 1,
      "vicinity": "3411 10th Street, Astoria"
    },
    {
      "business_status": "OPERATIONAL",
      "geometry": {
        "location": {
          "lat": 40.7646185,
          "lng": -73.93704679999999
        },
        "viewport": {
          "northeast": {
            "lat": 40.76584218029149,
            "lng": -73.93580166970848
          },
          "southwest": {
            "lat": 40.7631442197085,
            "lng": -73.93849963029149
          }
        }
      },
      "icon": "https://maps.gstatic.com/mapfiles/place_api/icons/v1/png_71/generic_business-71.png",
      "icon_background_color": "#7B9EB0",
      "icon_mask_base_uri": "https://maps.gstatic.com/mapfiles/place_api/icons/v2/generic_pinlet",
      "name": "Curb Mobility LLC",
      "opening_hours": {
        "open_now": false
      },
      "photos": [
        {
          "height": 2988,
          "html_attributions": [
            "<a href=\"https://maps.google.com/maps/contrib/112405513996364298368\">Fedon Wilson</a>"
          ],
          "photo_reference": "AeJbb3caE8DZ6vtz2ghShNfMjhQyZXEjQoNNo6QEhFdL_o0QkAXYvS9-d-yo1dF7gA3arc9eHM5aLE7vW7x1-N4hw1aG9M9Qb-SNmiX3U-IFqhk2YBg9fCMoKb87Kgg-kBay7MVz-o7tj_FSV6U8uWGpdoi9zmStpJuonq8kYfPGNHfGWGUN",
          "width": 3984
        }
      ],
      "place_id": "ChIJlV0hQctYwokRTHcCeUFTwCI",
      "plus_code": {
        "compound_code": "Q377+R5 New York, NY, USA",
        "global_code": "87G8Q377+R5"
      },
      "rating": 3.2,
      "reference": "ChIJlV0hQctYwokRTHcCeUFTwCI",
      "scope": "GOOGLE",
      "types": [
        "point_of_interest",
        "establishment"
      ],
      "user_ratings_total": 233,
      "vicinity": "11-11 34th Avenue, Queens"
    },
    {
      "business_status": "OPERATIONAL",
      "geometry": {
        "location": {
          "lat": 40.7633308,
          "lng": -73.93770959999999
        },
        "viewport": {
          "northeast": {
            "lat": 40.76466173029149,
            "lng": -73.93630876970849
          },
          "southwest": {
            "lat": 40.7619637697085,
            "lng": -73.93900673029151
          }
        }
      },
      "icon": "https://maps.gstatic.com/mapfiles/place_api/icons/v1/png_71/generic_business-71.png",
      "icon_background_color": "#7B9EB0",
      "icon_mask_base_uri": "https://maps.gstatic.com/mapfiles/place_api/icons/v2/generic_pinlet",
      "name": "Wisdom Vision TV",
      "place_id": "ChIJt8vPncxYwokRYyi0TXCyVrg",
      "plus_code": {
        "compound_code": "Q376+8W New York, NY, USA",
        "global_code": "87G8Q376+8W"
      },
      "reference": "ChIJt8vPncxYwokRYyi0TXCyVrg",
      "scope": "GOOGLE",
      "types": [
        "point_of_interest",
        "establishment"
      ],
      "vicinity": "34-36 12th Street, Queens"
    },
    {
      "business_status": "OPERATIONAL",
      "geometry": {
        "location": {
          "lat": 40.765061,
          "lng": -73.93718
        },
        "viewport": {
          "northeast": {
            "lat": 40.76645338029149,
            "lng": -73.93597681970849
          },
          "southwest": {
            "lat": 40.7637554197085,
            "lng": -73.9386747802915
          }
        }
      },
      "icon": "https://maps.gstatic.com/mapfiles/place_api/icons/v1/png_71/generic_business-71.png",
      "icon_background_color": "#7B9EB0",
      "icon_mask_base_uri": "https://maps.gstatic.com/mapfiles/place_api/icons/v2/generic_pinlet",
      "name": "The Custom Shop Inc",
      "opening_hours": {
        "open_now": false
      },
      "photos": [
        {
          "height": 3024,
          "html_attributions": [
            "<a href=\"https://maps.google.com/maps/contrib/112733545315779908416\">Decarlus Saunders</a>"
          ],
          "photo_reference": "AeJbb3c3EyyOKbbUijUG-l5TYmQsKH0e63MXqumnxVBhs1BfDWcXQL4UvQxyEPsjiXHdQQ0oO4_WEvAGL7MztJQeqcXsGBU57kljLFfxj0shiZPrqH9soFyhCC99t47aKGE6H4JMpq-RNlVdPzXAwDd_P7GsRlAj39QN5aWd-9e6L3ZzNpc",
          "width": 4032
        }
      ],
      "place_id": "ChIJ5U5dPMtYwokRvou-HfLv5qQ",
      "plus_code": {
        "compound_code": "Q387+24 New York, NY, USA",
        "global_code": "87G8Q387+24"
      },
      "rating": 4.9,
      "reference": "ChIJ5U5dPMtYwokRvou-HfLv5qQ",
      "scope": "GOOGLE",
      "types": [
        "car_repair",
        "store",
        "point_of_interest",
        "establishment"
      ],
      "user_ratings_total": 115,
      "vicinity": "33-67 11th Street, Queens"
    },
    {
      "business_status": "OPERATIONAL",
      "geometry": {
        "location": {
          "lat": 40.7645401,
          "lng": -73.9380402
        },
        "viewport": {
          "northeast": {
            "lat": 40.7658719802915,
            "lng": -73.9366130697085
          },
          "southwest": {
            "lat": 40.7631740197085,
            "lng": -73.9393110302915
          }
        }
      },
      "icon": "https://maps.gstatic.com/mapfiles/place_api/icons/v1/png_71/shopping-71.png",
      "icon_background_color": "#4B96F3",
      "icon_mask_base_uri": "https://maps.gstatic.com/mapfiles/place_api/icons/v2/shopping_pinlet",
      "name": "Avant Kitchen & Bath",
      "opening_hours": {
        "open_now": true
      },
      "photos": [
        {
          "height": 3672,
          "html_attributions": [
            "<a href=\"https://maps.google.com/maps/contrib/117979751334919367476\">Alexander Mejia</a>"
          ],
          "photo_reference": "AeJbb3dcxPNysSZxSqDUWVDBqHpvzKsK-4wCdqay1vhputG-vLBdNSQNQc8WNQ2uVkHb5zl0J4moqmsplUK8cvRTieUeDl9OoNN55dJkTS_dmTzwZmsa0aawC2G8x8YOIH3MjBmd0S86ALU6Dz79MeqCkQ0g7u2_1zkc2vVKr86Zv1rChlzk",
          "width": 4896
        }
      ],
      "place_id": "ChIJ_cDrbctYwokRjGLSefhptHY",
      "plus_code": {
        "compound_code": "Q376+RQ New York, NY, USA",
        "global_code": "87G8Q376+RQ"
      },
      "rating": 3.5,
      "reference": "ChIJ_cDrbctYwokRjGLSefhptHY",
      "scope": "GOOGLE",
      "types": [
        "home_goods_store",
        "store",
        "general_contractor",
        "point_of_interest",
        "establishment"
      ],
      "user_ratings_total": 4,
      "vicinity": "10-16 34th Avenue, Queens"
    },
    {
      "business_status": "CLOSED_TEMPORARILY",
      "geometry": {
        "location": {
          "lat": 40.7649116,
          "lng": -73.9377804
        },
        "viewport": {
          "northeast": {
            "lat": 40.7662374302915,
            "lng": -73.93636636970851
          },
          "southwest": {
            "lat": 40.7635394697085,
            "lng": -73.93906433029152
          }
        }
      },
      "icon": "https://maps.gstatic.com/mapfiles/place_api/icons/v1/png_71/generic_business-71.png",
      "icon_background_color": "#7B9EB0",
      "icon_mask_base_uri": "https://maps.gstatic.com/mapfiles/place_api/icons/v2/generic_pinlet",
      "name": "Jocelyn Bourguignon",
      "permanently_closed": true,
      "place_id": "ChIJAx5XFMtYwokR-c39LG8LSmM",
      "plus_code": {
        "compound_code": "Q376+XV Queens, NY, USA",
        "global_code": "87G8Q376+XV"
      },
      "reference": "ChIJAx5XFMtYwokR-c39LG8LSmM",
      "scope": "GOOGLE",
      "types": [
        "point_of_interest",
        "establishment"
      ],
      "vicinity": "3378 11th Street #3A, Queens"
    },
    {
      "business_status": "OPERATIONAL",
      "geometry": {
        "location": {
          "lat": 40.7633369,
          "lng": -73.93974539999999
        },
        "viewport": {
          "northeast": {
            "lat": 40.7646628302915,
            "lng": -73.93833521970849
          },
          "southwest": {
            "lat": 40.7619648697085,
            "lng": -73.9410331802915
          }
        }
      },
      "icon": "https://maps.gstatic.com/mapfiles/place_api/icons/v1/png_71/generic_business-71.png",
      "icon_background_color": "#7B9EB0",
      "icon_mask_base_uri": "https://maps.gstatic.com/mapfiles/place_api/icons/v2/generic_pinlet",
      "name": "Solid Foundation Ltd",
      "opening_hours": {
        "open_now": false
      },
      "place_id": "ChIJnXccccxYwokRX02xXFSHzWU",
      "plus_code": {
        "compound_code": "Q376+84 New York, NY, USA",
        "global_code": "87G8Q376+84"
      },
      "rating": 2.6,
      "reference": "ChIJnXccccxYwokRX02xXFSHzWU",
      "scope": "GOOGLE",
      "types": [
        "general_contractor",
        "point_of_interest",
        "establishment"
      ],
      "user_ratings_total": 10,
      "vicinity": "3462 10th Street, Queens"
    },
    {
      "business_status": "OPERATIONAL",
      "geometry": {
        "location": {
          "lat": 40.764936,
          "lng": -73.937849
        },
        "viewport": {
          "northeast": {
            "lat": 40.7662490302915,
            "lng": -73.9364010197085
          },
          "southwest": {
            "lat": 40.7635510697085,
            "lng": -73.9390989802915
          }
        }
      },
      "icon": "https://maps.gstatic.com/mapfiles/place_api/icons/v1/png_71/generic_business-71.png",
      "icon_background_color": "#7B9EB0",
      "icon_mask_base_uri": "https://maps.gstatic.com/mapfiles/place_api/icons/v2/generic_pinlet",
      "name": "Bohemia Window Cleaning",
      "opening_hours": {
        "open_now": true
      },
      "photos": [
        {
          "height": 4032,
          "html_attributions": [
            "<a href=\"https://maps.google.com/maps/contrib/103520076829647729672\">Bohemia Window Cleaning</a>"
          ],
          "photo_reference": "AeJbb3dLG742RFIPHF7HgRUiRG-UGz2cEyP6C8S3__bZtbNoLS2tJbMW3OFf97fr-pAICM14U2frPYtgYAGtg6GA22cSms0K8FeuXMvy1EWE2iQUrcxbgEppsTo1Cr0L6xuUPe5pI190MV61je5kTqp_xbgHND2COZowHHXZgWgIUUzSB7JK",
          "width": 3024
        }
      ],
      "place_id": "ChIJl4O2lzZfwokR4Pe_UQdIe9Y",
      "plus_code": {
        "compound_code": "Q376+XV Jersey City, NJ, USA",
        "global_code": "87G8Q376+XV"
      },
      "rating": 5,
      "reference": "ChIJl4O2lzZfwokR4Pe_UQdIe9Y",
      "scope": "GOOGLE",
      "types": [
        "point_of_interest",
        "establishment"
      ],
      "user_ratings_total": 37,
      "vicinity": "121 Garabrant Street Unit 515, Jersey City"
    },
    {
      "business_status": "OPERATIONAL",
      "geometry": {
        "location": {
          "lat": 40.763642,
          "lng": -73.938732
        },
        "viewport": {
          "northeast": {
            "lat": 40.7649448802915,
            "lng": -73.9372545697085
          },
          "southwest": {
            "lat": 40.7622469197085,
            "lng": -73.9399525302915
          }
        }
      },
      "icon": "https://maps.gstatic.com/mapfiles/place_api/icons/v1/png_71/generic_business-71.png",
      "icon_background_color": "#7B9EB0",
      "icon_mask_base_uri": "https://maps.gstatic.com/mapfiles/place_api/icons/v2/generic_pinlet",
      "name": "On Time Printing",
      "opening_hours": {
        "open_now": false
      },
      "photos": [
        {
          "height": 753,
          "html_attributions": [
            "<a href=\"https://maps.google.com/maps/contrib/116768383941542508627\">On Time Printing</a>"
          ],
          "photo_reference": "AeJbb3cxwdOuqgBLCtflI4Q4XZHKJiTbScwHbqDhyxApTMtfMJHyJ76-4z0Pqh66MN5-WK0_ATxKaSD-L7xdoxACSEdrdnYgFdeifsfkeRAggVGv0TPkj5x5SEe_4VQKNVV8F8xLL_yMS0hmJo08KG1lK8-Tp1vovu0OQOC-hUdXLjLRhTvc",
          "width": 995
        }
      ],
      "place_id": "ChIJEaIsfstYwokRhjDRX9iFijU",
      "plus_code": {
        "compound_code": "Q376+FG Queens, NY, USA",
        "global_code": "87G8Q376+FG"
      },
      "rating": 4.4,
      "reference": "ChIJEaIsfstYwokRhjDRX9iFijU",
      "scope": "GOOGLE",
      "types": [
        "clothing_store",
        "store",
        "point_of_interest",
        "establishment"
      ],
      "user_ratings_total": 5,
      "vicinity": "34-40 11th Street, Queens"
    },
    {
      "business_status": "CLOSED_TEMPORARILY",
      "geometry": {
        "location": {
          "lat": 40.7633603,
          "lng": -73.939786
        },
        "viewport": {
          "northeast": {
            "lat": 40.76467908029149,
            "lng": -73.9383527197085
          },
          "southwest": {
            "lat": 40.76198111970849,
            "lng": -73.94105068029151
          }
        }
      },
      "icon": "https://maps.gstatic.com/mapfiles/place_api/icons/v1/png_71/restaurant-71.png",
      "icon_background_color": "#FF9E67",
      "icon_mask_base_uri": "https://maps.gstatic.com/mapfiles/place_api/icons/v2/restaurant_pinlet",
      "name": "House of Food",
      "permanently_closed": true,
      "place_id": "ChIJnXccccxYwokRgMJ5cdsT6Pk",
      "plus_code": {
        "compound_code": "Q376+83 Astoria, Queens, NY, USA",
        "global_code": "87G8Q376+83"
      },
      "rating": 5,
      "reference": "ChIJnXccccxYwokRgMJ5cdsT6Pk",
      "scope": "GOOGLE",
      "types": [
        "restaurant",
        "food",
        "point_of_interest",
        "establishment"
      ],
      "user_ratings_total": 1,
      "vicinity": "34-62 10th Street, Astoria"
    },
    {
      "business_status": "OPERATIONAL",
      "geometry": {
        "location": {
          "lat": 40.7656801,
          "lng": -73.93691
        },
        "viewport": {
          "northeast": {
            "lat": 40.76706198029151,
            "lng": -73.93565251970848
          },
          "southwest": {
            "lat": 40.76436401970851,
            "lng": -73.9383504802915
          }
        }
      },
      "icon": "https://maps.gstatic.com/mapfiles/place_api/icons/v1/png_71/generic_business-71.png",
      "icon_background_color": "#7B9EB0",
      "icon_mask_base_uri": "https://maps.gstatic.com/mapfiles/place_api/icons/v2/generic_pinlet",
      "name": "CCS&Cargo",
      "opening_hours": {
        "open_now": false
      },
      "photos": [
        {
          "height": 3024,
          "html_attributions": [
            "<a href=\"https://maps.google.com/maps/contrib/104232292289284907303\">CCS&amp;Cargo</a>"
          ],
          "photo_reference": "AeJbb3eayndsMuISSjYt2cu8WgnhYHHtJ4Pc1GfkHplmLACa19g489lK6Y_dOoAW5wpBu6JfhldlBoXp9MkcIlqGpszb70gmvOAHfBmoZr12cbGj542pakEOQPmGMzSqTp6le-k-kDcSI89ZKqY23fAXDL1dnKyWd0sruj-ZLk-dHbfR-91W",
          "width": 4032
        }
      ],
      "place_id": "ChIJxTv_kqNfwokRgmiZHOicLJI",
      "plus_code": {
        "compound_code": "Q387+76 New York, NY, USA",
        "global_code": "87G8Q387+76"
      },
      "rating": 5,
      "reference": "ChIJxTv_kqNfwokRgmiZHOicLJI",
      "scope": "GOOGLE",
      "types": [
        "point_of_interest",
        "establishment"
      ],
      "user_ratings_total": 2,
      "vicinity": "3351 11th Street, Queens"
    },
    {
      "business_status": "OPERATIONAL",
      "geometry": {
        "location": {
          "lat": 40.763363,
          "lng": -73.938907
        },
        "viewport": {
          "northeast": {
            "lat": 40.76466583029149,
            "lng": -73.9374293697085
          },
          "southwest": {
            "lat": 40.76196786970849,
            "lng": -73.9401273302915
          }
        }
      },
      "icon": "https://maps.gstatic.com/mapfiles/place_api/icons/v1/png_71/shopping-71.png",
      "icon_background_color": "#4B96F3",
      "icon_mask_base_uri": "https://maps.gstatic.com/mapfiles/place_api/icons/v2/shopping_pinlet",
      "name": "Goso Direct",
      "opening_hours": {
        "open_now": false
      },
      "place_id": "ChIJEULWgMxYwokR_9mwIVReUeg",
      "plus_code": {
        "compound_code": "Q376+8C Astoria, Queens, NY, USA",
        "global_code": "87G8Q376+8C"
      },
      "rating": 3.3,
      "reference": "ChIJEULWgMxYwokR_9mwIVReUeg",
      "scope": "GOOGLE",
      "types": [
        "store",
        "point_of_interest",
        "establishment"
      ],
      "user_ratings_total": 3,
      "vicinity": "3450 11th Street, Astoria"
    },
    {
      "business_status": "OPERATIONAL",
      "geometry": {
        "location": {
          "lat": 40.7640755,
          "lng": -73.9390367
        },
        "viewport": {
          "northeast": {
            "lat": 40.7654385302915,
            "lng": -73.9377269197085
          },
          "southwest": {
            "lat": 40.76274056970851,
            "lng": -73.94042488029152
          }
        }
      },
      "icon": "https://maps.gstatic.com/mapfiles/place_api/icons/v1/png_71/generic_business-71.png",
      "icon_background_color": "#7B9EB0",
      "icon_mask_base_uri": "https://maps.gstatic.com/mapfiles/place_api/icons/v2/generic_pinlet",
      "name": "BMJ Studios",
      "opening_hours": {
        "open_now": true
      },
      "photos": [
        {
          "height": 2048,
          "html_attributions": [
            "<a href=\"https://maps.google.com/maps/contrib/102436693702295599164\">BMJ Studios</a>"
          ],
          "photo_reference": "AeJbb3fhWW2WyRzIFAGKFiSvwTDnVnca4vedNfwRHVtWgVNtTbppzN8ckKONJKLh6N-nPUdsctsHivjew6Bd0ArpJdrwzmLs0E1cfQOOjBeRb8f7h97MA4GMKFOwB1q0nBiplsx1XoLIvSef5GReeVrbhEDsWNFiMV7uqESkz2BpqOypnFb_",
          "width": 2048
        }
      ],
      "place_id": "ChIJ_17Yg8tYwokRVDOKP4BdryI",
      "plus_code": {
        "compound_code": "Q376+J9 Queens, NY, USA",
        "global_code": "87G8Q376+J9"
      },
      "rating": 4.5,
      "reference": "ChIJ_17Yg8tYwokRVDOKP4BdryI",
      "scope": "GOOGLE",
      "types": [
        "electronics_store",
        "home_goods_store",
        "store",
        "point_of_interest",
        "establishment"
      ],
      "user_ratings_total": 21,
      "vicinity": "34-31 10th Street, Queens"
    },
    {
      "business_status": "OPERATIONAL",
      "geometry": {
        "location": {
          "lat": 40.76394,
          "lng": -73.93923819999999
        },
        "viewport": {
          "northeast": {
            "lat": 40.76529633029151,
            "lng": -73.9379098197085
          },
          "southwest": {
            "lat": 40.76259836970851,
            "lng": -73.9406077802915
          }
        }
      },
      "icon": "https://maps.gstatic.com/mapfiles/place_api/icons/v1/png_71/generic_business-71.png",
      "icon_background_color": "#7B9EB0",
      "icon_mask_base_uri": "https://maps.gstatic.com/mapfiles/place_api/icons/v2/generic_pinlet",
      "name": "Arag\u00e3o Rio Tour",
      "opening_hours": {
        "open_now": true
      },
      "place_id": "ChIJMxRGgctYwokRxU16nBhjFCs",
      "plus_code": {
        "compound_code": "Q376+H8 Astoria, Queens, NY, USA",
        "global_code": "87G8Q376+H8"
      },
      "rating": 5,
      "reference": "ChIJMxRGgctYwokRxU16nBhjFCs",
      "scope": "GOOGLE",
      "types": [
        "point_of_interest",
        "establishment"
      ],
      "user_ratings_total": 1,
      "vicinity": "3434 10th Street #3r, Astoria"
    },
    {
      "business_status": "OPERATIONAL",
      "geometry": {
        "location": {
          "lat": 40.7634,
          "lng": -73.939245
        },
        "viewport": {
          "northeast": {
            "lat": 40.76479433029149,
            "lng": -73.93802256970848
          },
          "southwest": {
            "lat": 40.7620963697085,
            "lng": -73.9407205302915
          }
        }
      },
      "icon": "https://maps.gstatic.com/mapfiles/place_api/icons/v1/png_71/generic_business-71.png",
      "icon_background_color": "#7B9EB0",
      "icon_mask_base_uri": "https://maps.gstatic.com/mapfiles/place_api/icons/v2/generic_pinlet",
      "name": "gold duster cleaning",
      "opening_hours": {
        "open_now": true
      },
      "place_id": "ChIJe5iofsxYwokRaWAzmzpjJss",
      "plus_code": {
        "compound_code": "Q376+98 New York, NY, USA",
        "global_code": "87G8Q376+98"
      },
      "rating": 5,
      "reference": "ChIJe5iofsxYwokRaWAzmzpjJss",
      "scope": "GOOGLE",
      "types": [
        "point_of_interest",
        "establishment"
      ],
      "user_ratings_total": 2,
      "vicinity": "34-53 10th Street, Queens"
    },
    {
      "business_status": "OPERATIONAL",
      "geometry": {
        "location": {
          "lat": 40.7631924,
          "lng": -73.9392427
        },
        "viewport": {
          "northeast": {
            "lat": 40.7645647302915,
            "lng": -73.9381000197085
          },
          "southwest": {
            "lat": 40.7618667697085,
            "lng": -73.9407979802915
          }
        }
      },
      "icon": "https://maps.gstatic.com/mapfiles/place_api/icons/v1/png_71/generic_business-71.png",
      "icon_background_color": "#7B9EB0",
      "icon_mask_base_uri": "https://maps.gstatic.com/mapfiles/place_api/icons/v2/generic_pinlet",
      "name": "ATCO Contracting Group, Inc.",
      "opening_hours": {
        "open_now": false
      },
      "photos": [
        {
          "height": 3672,
          "html_attributions": [
            "<a href=\"https://maps.google.com/maps/contrib/117979751334919367476\">Alexander Mejia</a>"
          ],
          "photo_reference": "AeJbb3fgL8XQGi1AFPGvSkeME2MgkrJYFHyW0Otcawzj9KRrpGYlFsa7Phls3qT5GXu_zn5VuyNHvK4eRv35eG7KpNHG42uHNZNllH9JGnyXTPVWmMgQhzwyfUAS0JGXlvjW_dJgEBKMrTGK4AGKjzuuVWxQs--zgHM4YtC_hWrcTRxJiUxi",
          "width": 4896
        }
      ],
      "place_id": "ChIJw5uSfcxYwokRpelBz1xwK6I",
      "plus_code": {
        "compound_code": "Q376+78 Queens, NY, USA",
        "global_code": "87G8Q376+78"
      },
      "rating": 4.5,
      "reference": "ChIJw5uSfcxYwokRpelBz1xwK6I",
      "scope": "GOOGLE",
      "types": [
        "general_contractor",
        "point_of_interest",
        "establishment"
      ],
      "user_ratings_total": 8,
      "vicinity": "34-52 11th Street, Queens"
    },
    {
      "business_status": "OPERATIONAL",
      "geometry": {
        "location": {
          "lat": 40.7655226,
          "lng": -73.9383993
        },
        "viewport": {
          "northeast": {
            "lat": 40.76686318029149,
            "lng": -73.9369766197085
          },
          "southwest": {
            "lat": 40.7641652197085,
            "lng": -73.93967458029152
          }
        }
      },
      "icon": "https://maps.gstatic.com/mapfiles/place_api/icons/v1/png_71/shopping-71.png",
      "icon_background_color": "#4B96F3",
      "icon_mask_base_uri": "https://maps.gstatic.com/mapfiles/place_api/icons/v2/shopping_pinlet",
      "name": "Globe Electric Supply",
      "opening_hours": {
        "open_now": false
      },
      "photos": [
        {
          "height": 1854,
          "html_attributions": [
            "<a href=\"https://maps.google.com/maps/contrib/105163907151716519394\">Globe Electric Supply</a>"
          ],
          "photo_reference": "AeJbb3cCP1OYkcLn8G-PMlD8K5CH3brYn2nGIvVpUR9RI7vYb7sYvNy67eCFPkvdbUxU9LIziMMPUQR5xYwmPweVYCcR0mJzWZkDKuQWl6hsEs0A36A-W5Y_tr-CzLeWg7n_WESAXlrhLXym4SBQb_p9wdXnTLft21eldOxERcjdR0o7qVw",
          "width": 2048
        }
      ],
      "place_id": "ChIJa3WkBctYwokRk-zNMJvq8wk",
      "plus_code": {
        "compound_code": "Q386+6J Queens, NY, USA",
        "global_code": "87G8Q386+6J"
      },
      "rating": 4.2,
      "reference": "ChIJa3WkBctYwokRk-zNMJvq8wk",
      "scope": "GOOGLE",
      "types": [
        "store",
        "point_of_interest",
        "establishment"
      ],
      "user_ratings_total": 6,
      "vicinity": "33-70 10th Street, Queens"
    },
    {
      "business_status": "OPERATIONAL",
      "geometry": {
        "location": {
          "lat": 40.7656182,
          "lng": -73.93987229999999
        },
        "viewport": {
          "northeast": {
            "lat": 40.7668444302915,
            "lng": -73.93849016970849
          },
          "southwest": {
            "lat": 40.76414646970851,
            "lng": -73.9411881302915
          }
        }
      },
      "icon": "https://maps.gstatic.com/mapfiles/place_api/icons/v1/png_71/generic_business-71.png",
      "icon_background_color": "#7B9EB0",
      "icon_mask_base_uri": "https://maps.gstatic.com/mapfiles/place_api/icons/v2/generic_pinlet",
      "name": "Sparta Food Distributors Inc",
      "opening_hours": {
        "open_now": false
      },
      "photos": [
        {
          "height": 3120,
          "html_attributions": [
            "<a href=\"https://maps.google.com/maps/contrib/112449278897004523088\">Moreland Steve</a>"
          ],
          "photo_reference": "AeJbb3dT35h926iT1N9oGB1gLlzR3SncHCCn_KlhiZSR2ofcdeibQGb5RKD8c98q-jfYs1RAPJsGfchbxwyylH4Sp919GqA-XPpMZRzEXipNpESaLHxAc5Er2hRyI-MtMrqqy9ftZ8BVk5sCMrxGb6FQleE4CIkdHvMY2R9m9wCtPmGCJVAr",
          "width": 4160
        }
      ],
      "place_id": "ChIJlfV7ustYwokR9VsEug7MJUo",
      "plus_code": {
        "compound_code": "Q386+63 Long Island City, Queens, NY, USA",
        "global_code": "87G8Q386+63"
      },
      "rating": 4.6,
      "reference": "ChIJlfV7ustYwokR9VsEug7MJUo",
      "scope": "GOOGLE",
      "types": [
        "point_of_interest",
        "establishment"
      ],
      "user_ratings_total": 15,
      "vicinity": "3359 Vernon Boulevard, Long Island City"
    },
    {
      "business_status": "OPERATIONAL",
      "geometry": {
        "location": {
          "lat": 40.765696,
          "lng": -73.9392455
        },
        "viewport": {
          "northeast": {
            "lat": 40.7670282802915,
            "lng": -73.9378443697085
          },
          "southwest": {
            "lat": 40.7643303197085,
            "lng": -73.9405423302915
          }
        }
      },
      "icon": "https://maps.gstatic.com/mapfiles/place_api/icons/v1/png_71/atm-71.png",
      "icon_background_color": "#909CE1",
      "icon_mask_base_uri": "https://maps.gstatic.com/mapfiles/place_api/icons/v2/atm_pinlet",
      "name": "ATM World",
      "opening_hours": {
        "open_now": true
      },
      "photos": [
        {
          "height": 4896,
          "html_attributions": [
            "<a href=\"https://maps.google.com/maps/contrib/117979751334919367476\">Alexander Mejia</a>"
          ],
          "photo_reference": "AeJbb3ee70NBBpvmRJoGxCCCI8lQVvD_4Z4gkkMHP8347l0X0uxdtWe8m0Gg-YGTlWygC_oDdAk-60SIxWTncsgU9KZFDq40GHltZ5MFWj34lLKb6YckFWnCDk4wvw75oQTxr7mmVPGmPKMlSL9qjdilSbeeHYlSg5KOIYFAPlngixxJnfm6",
          "width": 3672
        }
      ],
      "place_id": "ChIJITZBrstYwokR8O3770tyP-g",
      "plus_code": {
        "compound_code": "Q386+78 New York, NY, USA",
        "global_code": "87G8Q386+78"
      },
      "rating": 3.7,
      "reference": "ChIJITZBrstYwokR8O3770tyP-g",
      "scope": "GOOGLE",
      "types": [
        "atm",
        "finance",
        "point_of_interest",
        "establishment"
      ],
      "user_ratings_total": 3,
      "vicinity": "3342 9th Street, Queens"
    },
    {
      "business_status": "OPERATIONAL",
      "geometry": {
        "location": {
          "lat": 40.76152989999999,
          "lng": -73.9348426
        },
        "viewport": {
          "northeast": {
            "lat": 40.76294833029149,
            "lng": -73.9336209697085
          },
          "southwest": {
            "lat": 40.76025036970849,
            "lng": -73.9363189302915
          }
        }
      },
      "icon": "https://maps.gstatic.com/mapfiles/place_api/icons/v1/png_71/generic_business-71.png",
      "icon_background_color": "#7B9EB0",
      "icon_mask_base_uri": "https://maps.gstatic.com/mapfiles/place_api/icons/v2/generic_pinlet",
      "name": "Ravenswood",
      "opening_hours": {
        "open_now": false
      },
      "photos": [
        {
          "height": 768,
          "html_attributions": [
            "<a href=\"https://maps.google.com/maps/contrib/114494644855288931970\">Elias Ramos</a>"
          ],
          "photo_reference": "AeJbb3cK6i0vZZ7cv92Txn51k-Yz359kxK3DDlqugYKsS4KsYm5mktiEcx4KAuMTFRcUveIOVicCGBWdgJb2w5IrppaYrag71ggIg80MU7z5WHdZgFwPUHJaOd-n9_pyJYEpvItiZAmQlli2P2sdTDW3UobGLXr7ytvek4Q360sPgFeA0ss",
          "width": 1024
        }
      ],
      "place_id": "ChIJPw4mJTNfwokRxnjJS7d0TnA",
      "plus_code": {
        "compound_code": "Q368+J3 Queens, NY, USA",
        "global_code": "87G8Q368+J3"
      },
      "rating": 3.3,
      "reference": "ChIJPw4mJTNfwokRxnjJS7d0TnA",
      "scope": "GOOGLE",
      "types": [
        "point_of_interest",
        "establishment"
      ],
      "user_ratings_total": 27,
      "vicinity": "21-10 35th Avenue, Queens"
    },
    {
      "business_status": "OPERATIONAL",
      "geometry": {
        "location": {
          "lat": 40.7644063,
          "lng": -73.9330292
        },
        "viewport": {
          "northeast": {
            "lat": 40.7657139802915,
            "lng": -73.9316296697085
          },
          "southwest": {
            "lat": 40.7630160197085,
            "lng": -73.9343276302915
          }
        }
      },
      "icon": "https://maps.gstatic.com/mapfiles/place_api/icons/v1/png_71/cafe-71.png",
      "icon_background_color": "#FF9E67",
      "icon_mask_base_uri": "https://maps.gstatic.com/mapfiles/place_api/icons/v2/cafe_pinlet",
      "name": "Dunkin'",
      "opening_hours": {
        "open_now": true
      },
      "photos": [
        {
          "height": 4032,
          "html_attributions": [
            "<a href=\"https://maps.google.com/maps/contrib/116422177978426404979\">Dino Peralta</a>"
          ],
          "photo_reference": "AeJbb3etfciBYznSKVkjI3QGUVT6dXgVrSJ49T0SYouW7DCegn7zNVJTZWwiIY6n0Z_JG74pec0OK0CEn3JvqYACvUEPWVeQE-St6nSoY-k59AT7aafQgRbCJNmQzDfPU93FnO9jwqx9HW_0g3V_mfTAHkpUMJFW1O_8VXsdH4zdzi7Pcjh5",
          "width": 3024
        }
      ],
      "place_id": "ChIJ1UBSXzRfwokRGZvemB9MReY",
      "plus_code": {
        "compound_code": "Q378+QQ New York, NY, USA",
        "global_code": "87G8Q378+QQ"
      },
      "price_level": 1,
      "rating": 3.9,
      "reference": "ChIJ1UBSXzRfwokRGZvemB9MReY",
      "scope": "GOOGLE",
      "types": [
        "bakery",
        "cafe",
        "meal_takeaway",
        "restaurant",
        "point_of_interest",
        "store",
        "food",
        "establishment"
      ],
      "user_ratings_total": 261,
      "vicinity": "3326 21st Street, Queens"
    },
    {
      "business_status": "OPERATIONAL",
      "geometry": {
        "location": {
          "lat": 40.765532,
          "lng": -73.933142
        },
        "viewport": {
          "northeast": {
            "lat": 40.76704248029149,
            "lng": -73.9316353197085
          },
          "southwest": {
            "lat": 40.76434451970849,
            "lng": -73.93433328029151
          }
        }
      },
      "icon": "https://maps.gstatic.com/mapfiles/place_api/icons/v1/png_71/generic_business-71.png",
      "icon_background_color": "#7B9EB0",
      "icon_mask_base_uri": "https://maps.gstatic.com/mapfiles/place_api/icons/v2/generic_pinlet",
      "name": "Broadway locksmith Long Island city",
      "opening_hours": {
        "open_now": true
      },
      "photos": [
        {
          "height": 1702,
          "html_attributions": [
            "<a href=\"https://maps.google.com/maps/contrib/103268711643063941279\">Broadway locksmith Long Island city</a>"
          ],
          "photo_reference": "AeJbb3fYFjsS60GelSV_KDPe-XJkdaCJuYpzDn55Zu23G0DjfL3_FIrqqlnfRqTEclHid20P5-fM8l9yd2tdK_ztuqodjKuP0j56REzGh-8w-PQ-kjPPQUWfi1RNDWBberCZCHCvUap4Xj3oFhlW52IPWt_G0J2vbaMOHLloaT1sfdyo_tXv",
          "width": 3024
        }
      ],
      "place_id": "ChIJfdplFRhawokRZtf-8IQrYeM",
      "plus_code": {
        "compound_code": "Q388+6P New York, NY, USA",
        "global_code": "87G8Q388+6P"
      },
      "rating": 5,
      "reference": "ChIJfdplFRhawokRZtf-8IQrYeM",
      "scope": "GOOGLE",
      "types": [
        "locksmith",
        "point_of_interest",
        "establishment"
      ],
      "user_ratings_total": 55,
      "vicinity": "14-30 Broadway, Queens"
    },
    {
      "business_status": "OPERATIONAL",
      "geometry": {
        "location": {
          "lat": 40.76451429999999,
          "lng": -73.932938
        },
        "viewport": {
          "northeast": {
            "lat": 40.7658295302915,
            "lng": -73.93152426970849
          },
          "southwest": {
            "lat": 40.7631315697085,
            "lng": -73.93422223029151
          }
        }
      },
      "icon": "https://maps.gstatic.com/mapfiles/place_api/icons/v1/png_71/restaurant-71.png",
      "icon_background_color": "#FF9E67",
      "icon_mask_base_uri": "https://maps.gstatic.com/mapfiles/place_api/icons/v2/restaurant_pinlet",
      "name": "Popeyes Louisiana Kitchen",
      "opening_hours": {
        "open_now": true
      },
      "photos": [
        {
          "height": 1192,
          "html_attributions": [
            "<a href=\"https://maps.google.com/maps/contrib/109531608518609038887\">Popeyes Louisiana Kitchen</a>"
          ],
          "photo_reference": "AeJbb3fJcgQhUN-azyOztXtexZiVKpsUm2WAIU7sMIfvu5sxHgJjibORXR-_eaVvPHe2hhL5YvCWxEG7bbA_Kc-V5BLx8YRIIDLiOosc1ZVhbXzsf_L34iJPqe6do8EmxTyA5wewTev65WljbpfzyX14_Kt4eQ-lgN-_d-xSvRzbLSjmxan0",
          "width": 2119
        }
      ],
      "place_id": "ChIJcVPlWDRfwokR6BvLcM1Ipb4",
      "plus_code": {
        "compound_code": "Q378+RR New York, NY, USA",
        "global_code": "87G8Q378+RR"
      },
      "price_level": 1,
      "rating": 3.9,
      "reference": "ChIJcVPlWDRfwokR6BvLcM1Ipb4",
      "scope": "GOOGLE",
      "types": [
        "restaurant",
        "point_of_interest",
        "food",
        "establishment"
      ],
      "user_ratings_total": 675,
      "vicinity": "33-18 21st Street, Queens"
    },
    {
      "business_status": "CLOSED_TEMPORARILY",
      "geometry": {
        "location": {
          "lat": 40.7631484,
          "lng": -73.9403868
        },
        "viewport": {
          "northeast": {
            "lat": 40.76457118029149,
            "lng": -73.9389254197085
          },
          "southwest": {
            "lat": 40.76187321970849,
            "lng": -73.9416233802915
          }
        }
      },
      "icon": "https://maps.gstatic.com/mapfiles/place_api/icons/v1/png_71/generic_business-71.png",
      "icon_background_color": "#7B9EB0",
      "icon_mask_base_uri": "https://maps.gstatic.com/mapfiles/place_api/icons/v2/generic_pinlet",
      "name": "Xtreme Concrete Pumping Inc",
      "permanently_closed": true,
      "place_id": "ChIJ23xlbcxYwokRxO9ZF-5BAbQ",
      "plus_code": {
        "compound_code": "Q375+7R New York, NY, USA",
        "global_code": "87G8Q375+7R"
      },
      "reference": "ChIJ23xlbcxYwokRxO9ZF-5BAbQ",
      "scope": "GOOGLE",
      "types": [
        "general_contractor",
        "point_of_interest",
        "establishment"
      ],
      "vicinity": "9-20 35th Avenue, Queens"
    },
    {
      "business_status": "OPERATIONAL",
      "geometry": {
        "location": {
          "lat": 40.7632962,
          "lng": -73.9405271
        },
        "viewport": {
          "northeast": {
            "lat": 40.76464893029149,
            "lng": -73.9390267197085
          },
          "southwest": {
            "lat": 40.76195096970849,
            "lng": -73.9417246802915
          }
        }
      },
      "icon": "https://maps.gstatic.com/mapfiles/place_api/icons/v1/png_71/shopping-71.png",
      "icon_background_color": "#4B96F3",
      "icon_mask_base_uri": "https://maps.gstatic.com/mapfiles/place_api/icons/v2/shopping_pinlet",
      "name": "Nac Industries",
      "opening_hours": {
        "open_now": false
      },
      "place_id": "ChIJj0rjDMxYwokRsYpHdIoYMzE",
      "plus_code": {
        "compound_code": "Q375+8Q Astoria, Queens, NY, USA",
        "global_code": "87G8Q375+8Q"
      },
      "reference": "ChIJj0rjDMxYwokRsYpHdIoYMzE",
      "scope": "GOOGLE",
      "types": [
        "point_of_interest",
        "store",
        "establishment"
      ],
      "vicinity": "3510 9th Street, Astoria"
    },
    {
      "business_status": "OPERATIONAL",
      "geometry": {
        "location": {
          "lat": 40.76461839999999,
          "lng": -73.9328203
        },
        "viewport": {
          "northeast": {
            "lat": 40.7659376302915,
            "lng": -73.93141091970848
          },
          "southwest": {
            "lat": 40.7632396697085,
            "lng": -73.9341088802915
          }
        }
      },
      "icon": "https://maps.gstatic.com/mapfiles/place_api/icons/v1/png_71/restaurant-71.png",
      "icon_background_color": "#FF9E67",
      "icon_mask_base_uri": "https://maps.gstatic.com/mapfiles/place_api/icons/v2/restaurant_pinlet",
      "name": "Burger King",
      "opening_hours": {
        "open_now": true
      },
      "photos": [
        {
          "height": 3096,
          "html_attributions": [
            "<a href=\"https://maps.google.com/maps/contrib/104284104003594734392\">Jesus Duran</a>"
          ],
          "photo_reference": "AeJbb3ctweyYhNr3wsx9_UzTNSgAgWLgWhQzZWZ-VV-aCcNNaH_wXZSyaD9ou_WnpyfZqOyOHBOhFhV4ARMq5tVbjNO6kynQ1qjTjhmapixekI4dhpefemOrFwpV5Effnf4DTyDBTICFfBY42vJimtV0-OthiU-yWTvvfT_ojeEZMxGAWhQp",
          "width": 4128
        }
      ],
      "place_id": "ChIJJVRw3ddYwokRe4_1dykD5Qk",
      "plus_code": {
        "compound_code": "Q378+RV New York, NY, USA",
        "global_code": "87G8Q378+RV"
      },
      "price_level": 1,
      "rating": 3.4,
      "reference": "ChIJJVRw3ddYwokRe4_1dykD5Qk",
      "scope": "GOOGLE",
      "types": [
        "restaurant",
        "point_of_interest",
        "food",
        "establishment"
      ],
      "user_ratings_total": 465,
      "vicinity": "3310 21st Street, Queens"
    },
    {
      "business_status": "OPERATIONAL",
      "geometry": {
        "location": {
          "lat": 40.7647169,
          "lng": -73.9327211
        },
        "viewport": {
          "northeast": {
            "lat": 40.7660286302915,
            "lng": -73.93132071970851
          },
          "southwest": {
            "lat": 40.7633306697085,
            "lng": -73.93401868029152
          }
        }
      },
      "icon": "https://maps.gstatic.com/mapfiles/place_api/icons/v1/png_71/shopping-71.png",
      "icon_background_color": "#4B96F3",
      "icon_mask_base_uri": "https://maps.gstatic.com/mapfiles/place_api/icons/v2/shopping_pinlet",
      "name": "T-Mobile",
      "opening_hours": {
        "open_now": true
      },
      "photos": [
        {
          "height": 2160,
          "html_attributions": [
            "<a href=\"https://maps.google.com/maps/contrib/110830709759669841846\">James Jakubowski</a>"
          ],
          "photo_reference": "AeJbb3eIqztujWYypLz7PwcBKT_WRLKMHFby9uBnzSSHsblXUztRWRuIqxpwoNrO4oiurHr9A6naHXqh-8-Mdy6B1GOGiusRzTTtOtWCdC5g2BnZULhuYbkZXyGtrMF7o32EY8cQqWwHyPkid8DJ9HA5PmQghjrba8Wtgvwb88BZgjW1aVbq",
          "width": 3840
        }
      ],
      "place_id": "ChIJ82_BY81YwokR1jXBBxcLCWI",
      "plus_code": {
        "compound_code": "Q378+VW New York, NY, USA",
        "global_code": "87G8Q378+VW"
      },
      "price_level": 2,
      "rating": 4.1,
      "reference": "ChIJ82_BY81YwokR1jXBBxcLCWI",
      "scope": "GOOGLE",
      "types": [
        "point_of_interest",
        "store",
        "establishment"
      ],
      "user_ratings_total": 65,
      "vicinity": "33-02 21st Street, Queens"
    },
    {
      "business_status": "OPERATIONAL",
      "geometry": {
        "location": {
          "lat": 40.76312869999999,
          "lng": -73.9402578
        },
        "viewport": {
          "northeast": {
            "lat": 40.76455998029149,
            "lng": -73.9388572197085
          },
          "southwest": {
            "lat": 40.76186201970849,
            "lng": -73.9415551802915
          }
        }
      },
      "icon": "https://maps.gstatic.com/mapfiles/place_api/icons/v1/png_71/generic_business-71.png",
      "icon_background_color": "#7B9EB0",
      "icon_mask_base_uri": "https://maps.gstatic.com/mapfiles/place_api/icons/v2/generic_pinlet",
      "name": "MD studios",
      "opening_hours": {
        "open_now": false
      },
      "place_id": "ChIJRxQSbcxYwokRU7by_S8dPWA",
      "plus_code": {
        "compound_code": "Q375+7V Long Island City, Queens, NY, USA",
        "global_code": "87G8Q375+7V"
      },
      "reference": "ChIJRxQSbcxYwokRU7by_S8dPWA",
      "scope": "GOOGLE",
      "types": [
        "point_of_interest",
        "establishment"
      ],
      "vicinity": "9-20 35th Avenue #1j, Long Island City"
    },
    {
      "business_status": "OPERATIONAL",
      "geometry": {
        "location": {
          "lat": 40.7631419,
          "lng": -73.9402916
        },
        "viewport": {
          "northeast": {
            "lat": 40.76457278029149,
            "lng": -73.93889126970849
          },
          "southwest": {
            "lat": 40.7618748197085,
            "lng": -73.9415892302915
          }
        }
      },
      "icon": "https://maps.gstatic.com/mapfiles/place_api/icons/v1/png_71/shopping-71.png",
      "icon_background_color": "#4B96F3",
      "icon_mask_base_uri": "https://maps.gstatic.com/mapfiles/place_api/icons/v2/shopping_pinlet",
      "name": "Noir hanna",
      "opening_hours": {
        "open_now": true
      },
      "photos": [
        {
          "height": 2048,
          "html_attributions": [
            "<a href=\"https://maps.google.com/maps/contrib/106581061773118680636\">Noir hanna</a>"
          ],
          "photo_reference": "AeJbb3f7ecz0zrEQDl8uyPb41v62xEZ3Mj69r1zk2RFxT6I3PH9bf6szT8eTWn893YrkSHCyU02OlrebRRhoJUXW3a2jeD6zDVIy5dEXjK9JIRI6Re5zvJ2K2sOlKU76_AZz5VQOnKm0frWYgvHW6ebh5V2IilYMcrcg_OXkeCbG3Z6WPOSJ",
          "width": 2048
        }
      ],
      "place_id": "ChIJ7eOqk6VZwokRzfqPBoFc55s",
      "plus_code": {
        "compound_code": "Q375+7V New York, NY, USA",
        "global_code": "87G8Q375+7V"
      },
      "reference": "ChIJ7eOqk6VZwokRzfqPBoFc55s",
      "scope": "GOOGLE",
      "types": [
        "florist",
        "point_of_interest",
        "store",
        "establishment"
      ],
      "vicinity": "9-20 35th Avenue #2A, Queens"
    },
    {
      "business_status": "OPERATIONAL",
      "geometry": {
        "location": {
          "lat": 40.7631419,
          "lng": -73.9402916
        },
        "viewport": {
          "northeast": {
            "lat": 40.76457278029149,
            "lng": -73.93889126970849
          },
          "southwest": {
            "lat": 40.7618748197085,
            "lng": -73.9415892302915
          }
        }
      },
      "icon": "https://maps.gstatic.com/mapfiles/place_api/icons/v1/png_71/generic_business-71.png",
      "icon_background_color": "#7B9EB0",
      "icon_mask_base_uri": "https://maps.gstatic.com/mapfiles/place_api/icons/v2/generic_pinlet",
      "name": "DiSalvo & Sons",
      "place_id": "ChIJMb9s3zJfwokRYV9sEGBw-OA",
      "plus_code": {
        "compound_code": "Q375+7V New York, NY, USA",
        "global_code": "87G8Q375+7V"
      },
      "reference": "ChIJMb9s3zJfwokRYV9sEGBw-OA",
      "scope": "GOOGLE",
      "types": [
        "point_of_interest",
        "food",
        "establishment"
      ],
      "vicinity": "9-20 35th Avenue #9, Queens"
    },
    {
      "business_status": "OPERATIONAL",
      "geometry": {
        "location": {
          "lat": 40.7631419,
          "lng": -73.9402916
        },
        "viewport": {
          "northeast": {
            "lat": 40.76457278029149,
            "lng": -73.93889126970849
          },
          "southwest": {
            "lat": 40.7618748197085,
            "lng": -73.9415892302915
          }
        }
      },
      "icon": "https://maps.gstatic.com/mapfiles/place_api/icons/v1/png_71/generic_business-71.png",
      "icon_background_color": "#7B9EB0",
      "icon_mask_base_uri": "https://maps.gstatic.com/mapfiles/place_api/icons/v2/generic_pinlet",
      "name": "Ronald Stewart Photography Studio",
      "opening_hours": {
        "open_now": true
      },
      "photos": [
        {
          "height": 1414,
          "html_attributions": [
            "<a href=\"https://maps.google.com/maps/contrib/109412715596123368799\">Ronald Stewart Photography Studio</a>"
          ],
          "photo_reference": "AeJbb3c8F2crlmnSUFY-soU1-bQsyiNk1EMXvybqg2rZ9qOt8lvyZxQ3hGGV74dIhDkRp6Kkv8LL3zwt0-KSFpYAH4WCzLP64ntVqUTffA4_ry6Gng-JS7vJpppA7qJZGp3iwKh96bEQj87MA4G7U1wJ7GXfT5J1qPU_JiFYF79dLGcqkPQY",
          "width": 1111
        }
      ],
      "place_id": "ChIJm37b4BD2wokRGbs-WVtyNDg",
      "plus_code": {
        "compound_code": "Q375+7V Long Island City, Queens, NY, USA",
        "global_code": "87G8Q375+7V"
      },
      "rating": 5,
      "reference": "ChIJm37b4BD2wokRGbs-WVtyNDg",
      "scope": "GOOGLE",
      "types": [
        "point_of_interest",
        "establishment"
      ],
      "user_ratings_total": 3,
      "vicinity": "9-20 35th Avenue #2i, Long Island City"
    },
    {
      "business_status": "OPERATIONAL",
      "geometry": {
        "location": {
          "lat": 40.7631285,
          "lng": -73.9403027
        },
        "viewport": {
          "northeast": {
            "lat": 40.7645663802915,
            "lng": -73.9388976697085
          },
          "southwest": {
            "lat": 40.7618684197085,
            "lng": -73.9415956302915
          }
        }
      },
      "icon": "https://maps.gstatic.com/mapfiles/place_api/icons/v1/png_71/generic_business-71.png",
      "icon_background_color": "#7B9EB0",
      "icon_mask_base_uri": "https://maps.gstatic.com/mapfiles/place_api/icons/v2/generic_pinlet",
      "name": "Alliance Moving Services Inc",
      "opening_hours": {
        "open_now": true
      },
      "place_id": "ChIJc-89bcxYwokRHVh2EcsMHgU",
      "plus_code": {
        "compound_code": "Q375+7V Astoria, Queens, NY, USA",
        "global_code": "87G8Q375+7V"
      },
      "rating": 2.4,
      "reference": "ChIJc-89bcxYwokRHVh2EcsMHgU",
      "scope": "GOOGLE",
      "types": [
        "moving_company",
        "storage",
        "point_of_interest",
        "establishment"
      ],
      "user_ratings_total": 72,
      "vicinity": "9-20 35th Avenue #1m, Astoria"
    },
    {
      "business_status": "CLOSED_TEMPORARILY",
      "geometry": {
        "location": {
          "lat": 40.760495,
          "lng": -73.9366005
        },
        "viewport": {
          "northeast": {
            "lat": 40.7617761302915,
            "lng": -73.9351282197085
          },
          "southwest": {
            "lat": 40.7590781697085,
            "lng": -73.93782618029151
          }
        }
      },
      "icon": "https://maps.gstatic.com/mapfiles/place_api/icons/v1/png_71/generic_business-71.png",
      "icon_background_color": "#7B9EB0",
      "icon_mask_base_uri": "https://maps.gstatic.com/mapfiles/place_api/icons/v2/generic_pinlet",
      "name": "Jacob Riis Neighbor Settlement",
      "permanently_closed": true,
      "place_id": "ChIJp0SfJc1YwokRhEFvKvX6YkA",
      "plus_code": {
        "compound_code": "Q367+59 Long Island City, Queens, NY, USA",
        "global_code": "87G8Q367+59"
      },
      "rating": 4.8,
      "reference": "ChIJp0SfJc1YwokRhEFvKvX6YkA",
      "scope": "GOOGLE",
      "types": [
        "point_of_interest",
        "establishment"
      ],
      "user_ratings_total": 4,
      "vicinity": "3540 21st Street, Long Island City"
    },
    {
      "business_status": "OPERATIONAL",
      "geometry": {
        "location": {
          "lat": 40.7631484,
          "lng": -73.9403868
        },
        "viewport": {
          "northeast": {
            "lat": 40.76457118029149,
            "lng": -73.9389254197085
          },
          "southwest": {
            "lat": 40.76187321970849,
            "lng": -73.9416233802915
          }
        }
      },
      "icon": "https://maps.gstatic.com/mapfiles/place_api/icons/v1/png_71/shopping-71.png",
      "icon_background_color": "#4B96F3",
      "icon_mask_base_uri": "https://maps.gstatic.com/mapfiles/place_api/icons/v2/shopping_pinlet",
      "name": "AicPrint",
      "place_id": "ChIJ7REVbcxYwokRfR80zQ373zY",
      "plus_code": {
        "compound_code": "Q375+7R New York, NY, USA",
        "global_code": "87G8Q375+7R"
      },
      "reference": "ChIJ7REVbcxYwokRfR80zQ373zY",
      "scope": "GOOGLE",
      "types": [
        "point_of_interest",
        "store",
        "establishment"
      ],
      "vicinity": "9-20 35th Avenue, Queens"
    },
    {
      "business_status": "OPERATIONAL",
      "geometry": {
        "location": {
          "lat": 40.765017,
          "lng": -73.9402379
        },
        "viewport": {
          "northeast": {
            "lat": 40.7664209302915,
            "lng": -73.93904321970848
          },
          "southwest": {
            "lat": 40.7637229697085,
            "lng": -73.94174118029149
          }
        }
      },
      "icon": "https://maps.gstatic.com/mapfiles/place_api/icons/v1/png_71/generic_business-71.png",
      "icon_background_color": "#7B9EB0",
      "icon_mask_base_uri": "https://maps.gstatic.com/mapfiles/place_api/icons/v2/generic_pinlet",
      "name": "Phillips Amy",
      "place_id": "ChIJW-rC6stYwokRzSIYWBxU06w",
      "plus_code": {
        "compound_code": "Q385+2W Long Island City, Queens, NY, USA",
        "global_code": "87G8Q385+2W"
      },
      "reference": "ChIJW-rC6stYwokRzSIYWBxU06w",
      "scope": "GOOGLE",
      "types": [
        "doctor",
        "health",
        "point_of_interest",
        "establishment"
      ],
      "vicinity": "3411 Vernon Boulevard, Long Island City"
    },
    {
      "business_status": "OPERATIONAL",
      "geometry": {
        "location": {
          "lat": 40.7657359,
          "lng": -73.939784
        },
        "viewport": {
          "northeast": {
            "lat": 40.76714108029149,
            "lng": -73.93859171970848
          },
          "southwest": {
            "lat": 40.7644431197085,
            "lng": -73.9412896802915
          }
        }
      },
      "icon": "https://maps.gstatic.com/mapfiles/place_api/icons/v1/png_71/generic_business-71.png",
      "icon_background_color": "#7B9EB0",
      "icon_mask_base_uri": "https://maps.gstatic.com/mapfiles/place_api/icons/v2/generic_pinlet",
      "name": "Genesis Environmental Inc",
      "opening_hours": {
        "open_now": true
      },
      "photos": [
        {
          "height": 950,
          "html_attributions": [
            "<a href=\"https://maps.google.com/maps/contrib/109267843725357142620\">Genesis Environmental Inc</a>"
          ],
          "photo_reference": "AeJbb3frS4p59y16o2FPgdVI4lswXdAr6q3FnzQM6SXl_gfkKNWUDfXw_AED_LM4VnfRX3rZ9nvF4zOjUdAipdkDJ94sLWCF9qBkliEiSSTlK5H64BQbygYt0nXoBSBi7fEPHHCL_X1BJ7j7C5G2bL2pNZ72npkGa8vgqDJWlp6AXE8SZ_jZ",
          "width": 4434
        }
      ],
      "place_id": "ChIJZ4STdzVfwokR5Dl2EaNdM8I",
      "plus_code": {
        "compound_code": "Q386+73 Long Island City, Queens, NY, USA",
        "global_code": "87G8Q386+73"
      },
      "rating": 4.2,
      "reference": "ChIJZ4STdzVfwokR5Dl2EaNdM8I",
      "scope": "GOOGLE",
      "types": [
        "point_of_interest",
        "establishment"
      ],
      "user_ratings_total": 5,
      "vicinity": "33-53 Vernon Boulevard, Long Island City"
    },
    {
      "business_status": "OPERATIONAL",
      "geometry": {
        "location": {
          "lat": 40.763303,
          "lng": -73.9405227
        },
        "viewport": {
          "northeast": {
            "lat": 40.7647020802915,
            "lng": -73.9391423197085
          },
          "southwest": {
            "lat": 40.7620041197085,
            "lng": -73.9418402802915
          }
        }
      },
      "icon": "https://maps.gstatic.com/mapfiles/place_api/icons/v1/png_71/generic_business-71.png",
      "icon_background_color": "#7B9EB0",
      "icon_mask_base_uri": "https://maps.gstatic.com/mapfiles/place_api/icons/v2/generic_pinlet",
      "name": "Maple Crew Inc",
      "opening_hours": {
        "open_now": true
      },
      "place_id": "ChIJYZbeDMxYwokRhMQ9ixXcDrg",
      "plus_code": {
        "compound_code": "Q375+8Q Queens, NY, USA",
        "global_code": "87G8Q375+8Q"
      },
      "reference": "ChIJYZbeDMxYwokRhMQ9ixXcDrg",
      "scope": "GOOGLE",
      "types": [
        "general_contractor",
        "point_of_interest",
        "establishment"
      ],
      "vicinity": "9-03 35th Avenue Suite 8, Queens"
    },
    {
      "business_status": "CLOSED_TEMPORARILY",
      "geometry": {
        "location": {
          "lat": 40.76249719999999,
          "lng": -73.9327163
        },
        "viewport": {
          "northeast": {
            "lat": 40.7637539802915,
            "lng": -73.9314430697085
          },
          "southwest": {
            "lat": 40.7610560197085,
            "lng": -73.93414103029151
          }
        }
      },
      "icon": "https://maps.gstatic.com/mapfiles/place_api/icons/v1/png_71/generic_business-71.png",
      "icon_background_color": "#7B9EB0",
      "icon_mask_base_uri": "https://maps.gstatic.com/mapfiles/place_api/icons/v2/generic_pinlet",
      "name": "Anna Sobol Levy Foundation",
      "permanently_closed": true,
      "place_id": "ChIJB1hitB5gwokR6NeY7I5Zim0",
      "plus_code": {
        "compound_code": "Q368+XW New York, NY, USA",
        "global_code": "87G8Q368+XW"
      },
      "reference": "ChIJB1hitB5gwokR6NeY7I5Zim0",
      "scope": "GOOGLE",
      "types": [
        "point_of_interest",
        "establishment"
      ],
      "vicinity": "21-25 34th Avenue #4d, Queens"
    }
  ],
  "status": "OK"
}