{
  "html_attributions": [],
  "results": [
    {
      "geometry": {
        "location": {
          "lat": 40.7127753,
          "lng": -74.0059728
        },
        "viewport": {
          "northeast": {
            "lat": 40.91757705070789,
            "lng": -73.70027206817629
          },
          "southwest": {
            "lat": 40.47739906045452,
            "lng": -74.25908991427882
          }
        }
      },
      "icon": "https://maps.gstatic.com/mapfiles/place_api/icons/v1/png_71/geocode-71.png",
      "icon_background_color": "#7B9EB0",
      "icon_mask_base_uri": "https://maps.gstatic.com/mapfiles/place_api/icons/v2/generic_pinlet",
      "name": "\u7d10\u7d04",
      "photos": [
        {
          "height": 600,
          "html_attributions": [
            "<a href=\"https://maps.google.com/maps/contrib/102389334567210814614\">Bukurie</a>"
          ],
          "photo_reference": "AeJbb3fmtcQ0DOhmxJYLhWUzy2WDp8ec0iVvRRsGBB9GujsrkE7_Zw1765ikO3WBvACXJThrKDx1TZe9_8xpFK_RQfh7mknQ2brQvsYvRG_dchvRNRw7wM6rkjKDYY6VTe-p-pbnoBV5J6q3h5TTghCUAFUrstsHYfSnzbQpj5bE3spHBO_c",
          "width": 480
        }
      ],
      "place_id": "ChIJOwg_06VPwokRYv534QaPC8g",
      "reference": "ChIJOwg_06VPwokRYv534QaPC8g",
      "scope": "GOOGLE",
      "types": [
        "locality",
        "political"
      ],
      "vicinity": "\u7d10\u7d04"
    },
    {
      "business_status": "OPERATIONAL",
      "geometry": {
        "location": {
          "lat": 40.7681034,
          "lng": -73.9248037
        },
        "viewport": {
          "northeast": {
            "lat": 40.7696453302915,
            "lng": -73.9234400197085
          },
          "southwest": {
            "lat": 40.7669473697085,
            "lng": -73.9261379802915
          }
        }
      },
      "icon": "https://maps.gstatic.com/mapfiles/place_api/icons/v1/png_71/hospital-71.png",
      "icon_background_color": "#F88181",
      "icon_mask_base_uri": "https://maps.gstatic.com/mapfiles/place_api/icons/v2/hospital-H_pinlet",
      "name": "Mount Sinai Queens",
      "opening_hours": {
        "open_now": true
      },
      "photos": [
        {
          "height": 3024,
          "html_attributions": [
            "<a href=\"https://maps.google.com/maps/contrib/117979751334919367476\">Alexander Mejia</a>"
          ],
          "photo_reference": "AeJbb3fohkZTJVbO-oUuIoo9bxug5qkRplWCxTKseBa_TNru16caOnjvcQT-k1Hk3dPNKYvuSZYfFBqfm897AMTlCW6_sT5u5SASy_JtRqpiMcP_0_CA-P4dG0X01cLWDOqFNqWh5yfUFm7V13n7qaalE442DcRn1grx0CDmtujHgpccr-VT",
          "width": 4032
        }
      ],
      "place_id": "ChIJQ49XcEhfwokRW8WHP5Y4lpA",
      "plus_code": {
        "compound_code": "Q39G+63 \u7f8e\u570b\u7d10\u7d04",
        "global_code": "87G8Q39G+63"
      },
      "rating": 2.4,
      "reference": "ChIJQ49XcEhfwokRW8WHP5Y4lpA",
      "scope": "GOOGLE",
      "types": [
        "hospital",
        "health",
        "point_of_interest",
        "establishment"
      ],
      "user_ratings_total": 462,
      "vicinity": "25-10 30th Avenue, Queens"
    },
    {
      "business_status": "OPERATIONAL",
      "geometry": {
        "location": {
          "lat": 40.76240990000001,
          "lng": -73.92598579999999
        },
        "viewport": {
          "northeast": {
            "lat": 40.7637034802915,
            "lng": -73.92464006970849
          },
          "southwest": {
            "lat": 40.7610055197085,
            "lng": -73.92733803029151
          }
        }
      },
      "icon": "https://maps.gstatic.com/mapfiles/place_api/icons/v1/png_71/restaurant-71.png",
      "icon_background_color": "#FF9E67",
      "icon_mask_base_uri": "https://maps.gstatic.com/mapfiles/place_api/icons/v2/restaurant_pinlet",
      "name": "Dino's Pizzeria",
      "opening_hours": {
        "open_now": true
      },
      "photos": [
        {
          "height": 2269,
          "html_attributions": [
            "<a href=\"https://maps.google.com/maps/contrib/108317732209692138854\">Dino&#39;s Pizzeria</a>"
          ],
          "photo_reference": "AeJbb3e5nt-s0cQMs5V2vmq7kWwCjuplAW8qvjflZCdWzHgjSa8cgSRELQdrMfcXqsWBwUTmtuEEmc_jVKhHjJrBmXNXhKy_gxnzFDK9MqGz0Cf-5Ep0MHH1LCHhLRy3gyPcI_h__CcrjufahYXDzdh24hWPYOyWIMHPENQ0bcTXeDDuxzqt",
          "width": 4032
        }
      ],
      "place_id": "ChIJeWtbNzdfwokRQdWeC8tUJtI",
      "plus_code": {
        "compound_code": "Q36F+XJ \u7f8e\u570b\u7d10\u7d04",
        "global_code": "87G8Q36F+XJ"
      },
      "price_level": 1,
      "rating": 4.2,
      "reference": "ChIJeWtbNzdfwokRQdWeC8tUJtI",
      "scope": "GOOGLE",
      "types": [
        "meal_delivery",
        "restaurant",
        "food",
        "point_of_interest",
        "establishment"
      ],
      "user_ratings_total": 246,
      "vicinity": "30-01 Broadway, Queens"
    },
    {
      "business_status": "OPERATIONAL",
      "geometry": {
        "location": {
          "lat": 40.7682357,
          "lng": -73.9247625
        },
        "viewport": {
          "northeast": {
            "lat": 40.7696736302915,
            "lng": -73.92336451970849
          },
          "southwest": {
            "lat": 40.7669756697085,
            "lng": -73.9260624802915
          }
        }
      },
      "icon": "https://maps.gstatic.com/mapfiles/place_api/icons/v1/png_71/generic_business-71.png",
      "icon_background_color": "#7B9EB0",
      "icon_mask_base_uri": "https://maps.gstatic.com/mapfiles/place_api/icons/v2/generic_pinlet",
      "name": "Voravut Sarabanchong, MD",
      "opening_hours": {
        "open_now": false
      },
      "place_id": "ChIJf0SSxqBYwokRFLzct9aVSNk",
      "plus_code": {
        "compound_code": "Q39G+73 \u7f8e\u570b\u7d10\u7d04",
        "global_code": "87G8Q39G+73"
      },
      "rating": 5,
      "reference": "ChIJf0SSxqBYwokRFLzct9aVSNk",
      "scope": "GOOGLE",
      "types": [
        "doctor",
        "health",
        "point_of_interest",
        "establishment"
      ],
      "user_ratings_total": 5,
      "vicinity": "25-20 30th Avenue 4th Floor, Queens"
    },
    {
      "business_status": "OPERATIONAL",
      "geometry": {
        "location": {
          "lat": 40.7652332,
          "lng": -73.9230999
        },
        "viewport": {
          "northeast": {
            "lat": 40.7666446302915,
            "lng": -73.92170086970849
          },
          "southwest": {
            "lat": 40.7639466697085,
            "lng": -73.92439883029151
          }
        }
      },
      "icon": "https://maps.gstatic.com/mapfiles/place_api/icons/v1/png_71/generic_business-71.png",
      "icon_background_color": "#7B9EB0",
      "icon_mask_base_uri": "https://maps.gstatic.com/mapfiles/place_api/icons/v2/generic_pinlet",
      "name": "Dr. George D. Dangas, MD",
      "place_id": "ChIJn1TSFThfwokRLtTNS2J0Mq8",
      "plus_code": {
        "compound_code": "Q38G+3Q \u7f8e\u570b\u7d10\u7d04",
        "global_code": "87G8Q38G+3Q"
      },
      "reference": "ChIJn1TSFThfwokRLtTNS2J0Mq8",
      "scope": "GOOGLE",
      "types": [
        "doctor",
        "health",
        "point_of_interest",
        "establishment"
      ],
      "vicinity": "30-16 30th Drive, Queens"
    },
    {
      "business_status": "OPERATIONAL",
      "geometry": {
        "location": {
          "lat": 40.7622946,
          "lng": -73.92554369999999
        },
        "viewport": {
          "northeast": {
            "lat": 40.7635627302915,
            "lng": -73.92428381970849
          },
          "southwest": {
            "lat": 40.7608647697085,
            "lng": -73.9269817802915
          }
        }
      },
      "icon": "https://maps.gstatic.com/mapfiles/place_api/icons/v1/png_71/restaurant-71.png",
      "icon_background_color": "#FF9E67",
      "icon_mask_base_uri": "https://maps.gstatic.com/mapfiles/place_api/icons/v2/restaurant_pinlet",
      "name": "Sanfords",
      "opening_hours": {
        "open_now": true
      },
      "photos": [
        {
          "height": 1365,
          "html_attributions": [
            "<a href=\"https://maps.google.com/maps/contrib/102420211353029901857\">Sanfords</a>"
          ],
          "photo_reference": "AeJbb3cllFIkhpBH4znrChLkDqOiixUMQd9S2WXrHc4AKYfnrKwboAjMtkyjmGGit5Y5y90heNIbo16d-r3V1khMjsrkZk6Z9dKld177Do1RaB079bUPGEbzeStXJJOXUSoLV2eZsieFq1XphvZ1twEHSUbVlQAyHhCKXFvgNtCdkW1sUYS2",
          "width": 2048
        }
      ],
      "place_id": "ChIJK6yDNjdfwokR_I3wR_rkS8s",
      "plus_code": {
        "compound_code": "Q36F+WQ \u7f8e\u570b\u7d10\u7d04\u963f\u65af\u6258\u5229\u4e9e",
        "global_code": "87G8Q36F+WQ"
      },
      "price_level": 2,
      "rating": 4.4,
      "reference": "ChIJK6yDNjdfwokR_I3wR_rkS8s",
      "scope": "GOOGLE",
      "types": [
        "bar",
        "restaurant",
        "food",
        "point_of_interest",
        "establishment"
      ],
      "user_ratings_total": 1974,
      "vicinity": "30-13 Broadway, Astoria"
    },
    {
      "business_status": "OPERATIONAL",
      "geometry": {
        "location": {
          "lat": 40.7652778,
          "lng": -73.9230556
        },
        "viewport": {
          "northeast": {
            "lat": 40.76666548029149,
            "lng": -73.92167556970848
          },
          "southwest": {
            "lat": 40.76396751970849,
            "lng": -73.9243735302915
          }
        }
      },
      "icon": "https://maps.gstatic.com/mapfiles/place_api/icons/v1/png_71/generic_business-71.png",
      "icon_background_color": "#7B9EB0",
      "icon_mask_base_uri": "https://maps.gstatic.com/mapfiles/place_api/icons/v2/generic_pinlet",
      "name": "Naida Dzanic-Cemalovic MD,FACOG Asna Wellness Medical Ob/Gyn. P.C.",
      "opening_hours": {
        "open_now": false
      },
      "photos": [
        {
          "height": 555,
          "html_attributions": [
            "<a href=\"https://maps.google.com/maps/contrib/100283905641674043255\">Naida Dzanic-Cemalovic MD,FACOG Asna Wellness Medical Ob/Gyn. P.C.</a>"
          ],
          "photo_reference": "AeJbb3ftP1BYtc818D49sLtLnDSk37rW4JoJCFQURAlX_SqNSDvPkLgNuRrG_g3kvVlfmg8RDtEOgd3Co0EWwaxcSsJYw9qN8hiEjFwU4vQnJaaeLkizqB6rltYNFQQkKRW8EjoMFb05JL-eCt3UB7Rem7fgwNjsPinfLJeNADM458EWQddf",
          "width": 500
        }
      ],
      "place_id": "ChIJn1TSFThfwokRdh2yr2sFGVQ",
      "plus_code": {
        "compound_code": "Q38G+4Q \u7f8e\u570b\u7d10\u7d04\u963f\u65af\u6258\u5229\u4e9e",
        "global_code": "87G8Q38G+4Q"
      },
      "rating": 4.4,
      "reference": "ChIJn1TSFThfwokRdh2yr2sFGVQ",
      "scope": "GOOGLE",
      "types": [
        "doctor",
        "health",
        "point_of_interest",
        "establishment"
      ],
      "user_ratings_total": 73,
      "vicinity": "3016 30th Drive, Astoria"
    },
    {
      "business_status": "OPERATIONAL",
      "geometry": {
        "location": {
          "lat": 40.7652457,
          "lng": -73.9230882
        },
        "viewport": {
          "northeast": {
            "lat": 40.7666505302915,
            "lng": -73.9216942197085
          },
          "southwest": {
            "lat": 40.7639525697085,
            "lng": -73.9243921802915
          }
        }
      },
      "icon": "https://maps.gstatic.com/mapfiles/place_api/icons/v1/png_71/generic_business-71.png",
      "icon_background_color": "#7B9EB0",
      "icon_mask_base_uri": "https://maps.gstatic.com/mapfiles/place_api/icons/v2/generic_pinlet",
      "name": "Mount Sinai Advance Cardiovascular Group",
      "place_id": "ChIJn1TSFThfwokR2evkXWJWczI",
      "plus_code": {
        "compound_code": "Q38G+3Q \u7f8e\u570b\u7d10\u7d04\u963f\u65af\u6258\u5229\u4e9e",
        "global_code": "87G8Q38G+3Q"
      },
      "reference": "ChIJn1TSFThfwokR2evkXWJWczI",
      "scope": "GOOGLE",
      "types": [
        "health",
        "point_of_interest",
        "establishment"
      ],
      "vicinity": "3016 30th Drive, Astoria"
    },
    {
      "business_status": "OPERATIONAL",
      "geometry": {
        "location": {
          "lat": 40.7652556,
          "lng": -73.9231229
        },
        "viewport": {
          "northeast": {
            "lat": 40.7666626802915,
            "lng": -73.92172731970848
          },
          "southwest": {
            "lat": 40.7639647197085,
            "lng": -73.92442528029149
          }
        }
      },
      "icon": "https://maps.gstatic.com/mapfiles/place_api/icons/v1/png_71/generic_business-71.png",
      "icon_background_color": "#7B9EB0",
      "icon_mask_base_uri": "https://maps.gstatic.com/mapfiles/place_api/icons/v2/generic_pinlet",
      "name": "Rose Dermatology",
      "opening_hours": {
        "open_now": true
      },
      "photos": [
        {
          "height": 1524,
          "html_attributions": [
            "<a href=\"https://maps.google.com/maps/contrib/115448351293014503244\">Rose Dermatology</a>"
          ],
          "photo_reference": "AeJbb3f6JEprKIiP_pujFeKBlA62hNHt-VfF6LePruT37-b2vhS82ql7qLGNGs3nLhG1ont3imdkEZZPwjxxAD4IHaiZ90ZEaNXk6fpIFHILEfLuvmSqeDBuddGhpPlmBTusVvmNEo9qcGhxx-cHdp5-J8AyjXphPk0qJX3aue6Rzpl1-yEW",
          "width": 1170
        }
      ],
      "place_id": "ChIJn1TSFThfwokRaBvqt3-CQ5M",
      "plus_code": {
        "compound_code": "Q38G+4Q \u7f8e\u570b\u7d10\u7d04\u963f\u65af\u6258\u5229\u4e9e",
        "global_code": "87G8Q38G+4Q"
      },
      "rating": 3.8,
      "reference": "ChIJn1TSFThfwokRaBvqt3-CQ5M",
      "scope": "GOOGLE",
      "types": [
        "doctor",
        "spa",
        "health",
        "point_of_interest",
        "establishment"
      ],
      "user_ratings_total": 52,
      "vicinity": "30-16 30th Drive, Astoria"
    },
    {
      "business_status": "OPERATIONAL",
      "geometry": {
        "location": {
          "lat": 40.7652736,
          "lng": -73.9231454
        },
        "viewport": {
          "northeast": {
            "lat": 40.7666644802915,
            "lng": -73.92172281970849
          },
          "southwest": {
            "lat": 40.7639665197085,
            "lng": -73.9244207802915
          }
        }
      },
      "icon": "https://maps.gstatic.com/mapfiles/place_api/icons/v1/png_71/generic_business-71.png",
      "icon_background_color": "#7B9EB0",
      "icon_mask_base_uri": "https://maps.gstatic.com/mapfiles/place_api/icons/v2/generic_pinlet",
      "name": "May Healthy Kids Pediatric PC",
      "place_id": "ChIJn1TSFThfwokRcC3Wkoiuz-M",
      "plus_code": {
        "compound_code": "Q38G+4P \u7f8e\u570b\u7d10\u7d04\u963f\u65af\u6258\u5229\u4e9e",
        "global_code": "87G8Q38G+4P"
      },
      "rating": 5,
      "reference": "ChIJn1TSFThfwokRcC3Wkoiuz-M",
      "scope": "GOOGLE",
      "types": [
        "doctor",
        "health",
        "point_of_interest",
        "establishment"
      ],
      "user_ratings_total": 1,
      "vicinity": "3016 30th Drive, Astoria"
    },
    {
      "business_status": "OPERATIONAL",
      "geometry": {
        "location": {
          "lat": 40.7652332,
          "lng": -73.9230999
        },
        "viewport": {
          "northeast": {
            "lat": 40.7666446302915,
            "lng": -73.92170086970849
          },
          "southwest": {
            "lat": 40.7639466697085,
            "lng": -73.92439883029151
          }
        }
      },
      "icon": "https://maps.gstatic.com/mapfiles/place_api/icons/v1/png_71/generic_business-71.png",
      "icon_background_color": "#7B9EB0",
      "icon_mask_base_uri": "https://maps.gstatic.com/mapfiles/place_api/icons/v2/generic_pinlet",
      "name": "Northeast Hand Specialists LLC",
      "opening_hours": {
        "open_now": false
      },
      "place_id": "ChIJn1TSFThfwokRLKK0qKFhWzw",
      "plus_code": {
        "compound_code": "Q38G+3Q \u7f8e\u570b\u7d10\u7d04",
        "global_code": "87G8Q38G+3Q"
      },
      "rating": 4,
      "reference": "ChIJn1TSFThfwokRLKK0qKFhWzw",
      "scope": "GOOGLE",
      "types": [
        "doctor",
        "health",
        "point_of_interest",
        "establishment"
      ],
      "user_ratings_total": 4,
      "vicinity": "3016 30th Drive 3rd Fl, Queens"
    },
    {
      "business_status": "OPERATIONAL",
      "geometry": {
        "location": {
          "lat": 40.7652457,
          "lng": -73.9230882
        },
        "viewport": {
          "northeast": {
            "lat": 40.7666505802915,
            "lng": -73.9216944197085
          },
          "southwest": {
            "lat": 40.7639526197085,
            "lng": -73.92439238029151
          }
        }
      },
      "icon": "https://maps.gstatic.com/mapfiles/place_api/icons/v1/png_71/generic_business-71.png",
      "icon_background_color": "#7B9EB0",
      "icon_mask_base_uri": "https://maps.gstatic.com/mapfiles/place_api/icons/v2/generic_pinlet",
      "name": "Queens Audiology Pllc",
      "place_id": "ChIJn1TSFThfwokRrBTaadwCGO8",
      "plus_code": {
        "compound_code": "Q38G+3Q \u7f8e\u570b\u7d10\u7d04\u963f\u65af\u6258\u5229\u4e9e",
        "global_code": "87G8Q38G+3Q"
      },
      "rating": 5,
      "reference": "ChIJn1TSFThfwokRrBTaadwCGO8",
      "scope": "GOOGLE",
      "types": [
        "doctor",
        "health",
        "point_of_interest",
        "establishment"
      ],
      "user_ratings_total": 1,
      "vicinity": "3016 30th Drive # 4B, Astoria"
    },
    {
      "business_status": "OPERATIONAL",
      "geometry": {
        "location": {
          "lat": 40.76457459999999,
          "lng": -73.9229646
        },
        "viewport": {
          "northeast": {
            "lat": 40.76597843029149,
            "lng": -73.9217320697085
          },
          "southwest": {
            "lat": 40.76328046970849,
            "lng": -73.9244300302915
          }
        }
      },
      "icon": "https://maps.gstatic.com/mapfiles/place_api/icons/v1/png_71/generic_business-71.png",
      "icon_background_color": "#7B9EB0",
      "icon_mask_base_uri": "https://maps.gstatic.com/mapfiles/place_api/icons/v2/generic_pinlet",
      "name": "Astoria Realty",
      "opening_hours": {
        "open_now": true
      },
      "photos": [
        {
          "height": 3024,
          "html_attributions": [
            "<a href=\"https://maps.google.com/maps/contrib/116373933980641959759\">Astoria Realty</a>"
          ],
          "photo_reference": "AeJbb3d1_4flD83aA00wGqnfDB5eIEHWLoVCugG5z7A1HplecRj7Lj-rxlZca2D5kiR4ACQoNnOKzvEq4V3zgEm6NzzpieHBKyfTP_KsNcingppKusfI2DOSDJoWlHijpzd7K8Kpbc-qTfT149v4SFA25lvMVhbhraeDyBgL-1uxkhmt3eTi",
          "width": 4032
        }
      ],
      "place_id": "ChIJgZWdUD9fwokRVaxkP3zx5Xc",
      "plus_code": {
        "compound_code": "Q37G+RR \u7f8e\u570b\u7d10\u7d04\u963f\u65af\u6258\u5229\u4e9e",
        "global_code": "87G8Q37G+RR"
      },
      "rating": 4.8,
      "reference": "ChIJgZWdUD9fwokRVaxkP3zx5Xc",
      "scope": "GOOGLE",
      "types": [
        "real_estate_agency",
        "point_of_interest",
        "establishment"
      ],
      "user_ratings_total": 83,
      "vicinity": "30-89 31st Street, Astoria"
    },
    {
      "business_status": "OPERATIONAL",
      "geometry": {
        "location": {
          "lat": 40.7652395,
          "lng": -73.92309399999999
        },
        "viewport": {
          "northeast": {
            "lat": 40.7666474802915,
            "lng": -73.92169731970849
          },
          "southwest": {
            "lat": 40.7639495197085,
            "lng": -73.9243952802915
          }
        }
      },
      "icon": "https://maps.gstatic.com/mapfiles/place_api/icons/v1/png_71/generic_business-71.png",
      "icon_background_color": "#7B9EB0",
      "icon_mask_base_uri": "https://maps.gstatic.com/mapfiles/place_api/icons/v2/generic_pinlet",
      "name": "Papageorge Ariadna MD",
      "place_id": "ChIJn1TSFThfwokRt0lXKx5Bs7c",
      "plus_code": {
        "compound_code": "Q38G+3Q \u7f8e\u570b\u7d10\u7d04",
        "global_code": "87G8Q38G+3Q"
      },
      "rating": 3.9,
      "reference": "ChIJn1TSFThfwokRt0lXKx5Bs7c",
      "scope": "GOOGLE",
      "types": [
        "doctor",
        "health",
        "point_of_interest",
        "establishment"
      ],
      "user_ratings_total": 11,
      "vicinity": "3016 30th Drive #4, Queens"
    },
    {
      "business_status": "OPERATIONAL",
      "geometry": {
        "location": {
          "lat": 40.7652457,
          "lng": -73.9230882
        },
        "viewport": {
          "northeast": {
            "lat": 40.7666505802915,
            "lng": -73.9216944197085
          },
          "southwest": {
            "lat": 40.7639526197085,
            "lng": -73.92439238029151
          }
        }
      },
      "icon": "https://maps.gstatic.com/mapfiles/place_api/icons/v1/png_71/generic_business-71.png",
      "icon_background_color": "#7B9EB0",
      "icon_mask_base_uri": "https://maps.gstatic.com/mapfiles/place_api/icons/v2/generic_pinlet",
      "name": "Guo Yujin MD",
      "place_id": "ChIJn1TSFThfwokR9HFwxx3rKjg",
      "plus_code": {
        "compound_code": "Q38G+3Q \u7f8e\u570b\u7d10\u7d04\u963f\u65af\u6258\u5229\u4e9e",
        "global_code": "87G8Q38G+3Q"
      },
      "rating": 5,
      "reference": "ChIJn1TSFThfwokR9HFwxx3rKjg",
      "scope": "GOOGLE",
      "types": [
        "doctor",
        "health",
        "point_of_interest",
        "establishment"
      ],
      "user_ratings_total": 1,
      "vicinity": "3016 30th Drive, Astoria"
    },
    {
      "business_status": "OPERATIONAL",
      "geometry": {
        "location": {
          "lat": 40.7623058,
          "lng": -73.92573089999999
        },
        "viewport": {
          "northeast": {
            "lat": 40.76359713029149,
            "lng": -73.92443881970848
          },
          "southwest": {
            "lat": 40.76089916970849,
            "lng": -73.92713678029149
          }
        }
      },
      "icon": "https://maps.gstatic.com/mapfiles/place_api/icons/v1/png_71/bar-71.png",
      "icon_background_color": "#FF9E67",
      "icon_mask_base_uri": "https://maps.gstatic.com/mapfiles/place_api/icons/v2/bar_pinlet",
      "name": "Broadway Station",
      "opening_hours": {
        "open_now": true
      },
      "photos": [
        {
          "height": 3024,
          "html_attributions": [
            "<a href=\"https://maps.google.com/maps/contrib/114125059648511830046\">Tom Moncho</a>"
          ],
          "photo_reference": "AeJbb3fzfuEjE_sSxm7O75n-klC4r8mc-AKck-SRuVVn5JI4uVTr6DuvWWmiMgUO_Iy0ZPqdGZ--YRGbYnVy6LCCE_waxINqRr3X6T93urQKjjY91anYYJBQKEIn5q0p9cbh7JlX-AQmo4ERxf33MmEyTvbYFM9pg-XzOTskasBs0rI63JYP",
          "width": 4032
        }
      ],
      "place_id": "ChIJ_acaSDdfwokRIYDr653_IQc",
      "plus_code": {
        "compound_code": "Q36F+WP \u7f8e\u570b\u7d10\u7d04\u963f\u65af\u6258\u5229\u4e9e",
        "global_code": "87G8Q36F+WP"
      },
      "price_level": 2,
      "rating": 4.2,
      "reference": "ChIJ_acaSDdfwokRIYDr653_IQc",
      "scope": "GOOGLE",
      "types": [
        "bar",
        "restaurant",
        "food",
        "point_of_interest",
        "establishment"
      ],
      "user_ratings_total": 233,
      "vicinity": "30-09 Broadway, Astoria"
    },
    {
      "business_status": "OPERATIONAL",
      "geometry": {
        "location": {
          "lat": 40.7684057,
          "lng": -73.92815850000001
        },
        "viewport": {
          "northeast": {
            "lat": 40.7699586802915,
            "lng": -73.92696416970851
          },
          "southwest": {
            "lat": 40.7672607197085,
            "lng": -73.92966213029152
          }
        }
      },
      "icon": "https://maps.gstatic.com/mapfiles/place_api/icons/v1/png_71/generic_business-71.png",
      "icon_background_color": "#7B9EB0",
      "icon_mask_base_uri": "https://maps.gstatic.com/mapfiles/place_api/icons/v2/generic_pinlet",
      "name": "Variety Boys & Girls Club of Queens",
      "opening_hours": {
        "open_now": true
      },
      "photos": [
        {
          "height": 2448,
          "html_attributions": [
            "<a href=\"https://maps.google.com/maps/contrib/104828227515064470416\">Matthew Troy</a>"
          ],
          "photo_reference": "AeJbb3cRoNlxLdcJ6r_CYMaTWET5fl93Edhobe-JLavl1jVp7StUcKQhB3fSnZAa14SAwGOY61HVV4WDZUaf7Qc-AxRl6CilOetis7m4aBZN5bwfHd7cXLvFSJOGirOF24ESGSWXs-lY1H1HNiiwvvisqjSokK9CaWfiDnLPeB3H8kNthAXV",
          "width": 3264
        }
      ],
      "place_id": "ChIJ50UnuUlfwokRnZJpyvQWitg",
      "plus_code": {
        "compound_code": "Q39C+9P \u7f8e\u570b\u7d10\u7d04",
        "global_code": "87G8Q39C+9P"
      },
      "rating": 3.8,
      "reference": "ChIJ50UnuUlfwokRnZJpyvQWitg",
      "scope": "GOOGLE",
      "types": [
        "school",
        "health",
        "point_of_interest",
        "establishment"
      ],
      "user_ratings_total": 44,
      "vicinity": "21-12 30th Road, Queens"
    },
    {
      "business_status": "OPERATIONAL",
      "geometry": {
        "location": {
          "lat": 40.769619,
          "lng": -73.927799
        },
        "viewport": {
          "northeast": {
            "lat": 40.77104793029149,
            "lng": -73.9264831197085
          },
          "southwest": {
            "lat": 40.7683499697085,
            "lng": -73.9291810802915
          }
        }
      },
      "icon": "https://maps.gstatic.com/mapfiles/place_api/icons/v1/png_71/restaurant-71.png",
      "icon_background_color": "#FF9E67",
      "icon_mask_base_uri": "https://maps.gstatic.com/mapfiles/place_api/icons/v2/restaurant_pinlet",
      "name": "Vesta Trattoria & Wine Bar",
      "opening_hours": {
        "open_now": true
      },
      "photos": [
        {
          "height": 2268,
          "html_attributions": [
            "<a href=\"https://maps.google.com/maps/contrib/110830709759669841846\">James Jakubowski</a>"
          ],
          "photo_reference": "AeJbb3fPHnJgG05PhjN7CwuCuoThvs79HCp-qEMZq5v18tky49EIJUrLDtqT6Hr3lLyJNhp3aR356zs7TZPaDJfbtOqH2tl7vrbszkrwCYM0xq8gzp-loNwXoWLKAqsiIl2tgqFSXlO-A3WH7YeErOnXf5MIq8zE5nlZg9fkWBXf4Ek3aMw-",
          "width": 4032
        }
      ],
      "place_id": "ChIJGc-LBklfwokR4pON1Ije2Ls",
      "plus_code": {
        "compound_code": "Q39C+RV \u7f8e\u570b\u7d10\u7d04",
        "global_code": "87G8Q39C+RV"
      },
      "price_level": 2,
      "rating": 4.5,
      "reference": "ChIJGc-LBklfwokR4pON1Ije2Ls",
      "scope": "GOOGLE",
      "types": [
        "restaurant",
        "food",
        "point_of_interest",
        "establishment"
      ],
      "user_ratings_total": 422,
      "vicinity": "21-02 30th Avenue, Queens"
    },
    {
      "business_status": "OPERATIONAL",
      "geometry": {
        "location": {
          "lat": 40.761939,
          "lng": -73.92475499999999
        },
        "viewport": {
          "northeast": {
            "lat": 40.76318988029149,
            "lng": -73.9234744197085
          },
          "southwest": {
            "lat": 40.76049191970849,
            "lng": -73.9261723802915
          }
        }
      },
      "icon": "https://maps.gstatic.com/mapfiles/place_api/icons/v1/png_71/generic_business-71.png",
      "icon_background_color": "#7B9EB0",
      "icon_mask_base_uri": "https://maps.gstatic.com/mapfiles/place_api/icons/v2/generic_pinlet",
      "name": "Club Fitness New York",
      "opening_hours": {
        "open_now": true
      },
      "photos": [
        {
          "height": 3024,
          "html_attributions": [
            "<a href=\"https://maps.google.com/maps/contrib/114911208380938128563\">Mike Ortiz</a>"
          ],
          "photo_reference": "AeJbb3dVyl9cMtCh9Zq4Q8XmVxYTqMnhtg4u5apeJ0wEnOEJbhvP1GepND1mI4VJWy6emqwwGMhNm4EMOMz3WviUTW_otiBmywrZQFTtjsR3ljl_9T7OrdVTWfLZ6F9k4xJxCWKMFabQQc0xVvKPyNT6CLE71yNmJfhfB8VrpbBVK0Z1ltob",
          "width": 4032
        }
      ],
      "place_id": "ChIJnVMYVzdfwokRIC-ul_G8kNo",
      "plus_code": {
        "compound_code": "Q36G+Q3 \u7f8e\u570b\u7d10\u7d04",
        "global_code": "87G8Q36G+Q3"
      },
      "rating": 4.2,
      "reference": "ChIJnVMYVzdfwokRIC-ul_G8kNo",
      "scope": "GOOGLE",
      "types": [
        "gym",
        "health",
        "point_of_interest",
        "establishment"
      ],
      "user_ratings_total": 314,
      "vicinity": "31-11 Broadway, Queens"
    },
    {
      "geometry": {
        "location": {
          "lat": 40.7643574,
          "lng": -73.92346189999999
        },
        "viewport": {
          "northeast": {
            "lat": 40.7826018068365,
            "lng": -73.90221823033325
          },
          "southwest": {
            "lat": 40.75294753494164,
            "lng": -73.94473418403395
          }
        }
      },
      "icon": "https://maps.gstatic.com/mapfiles/place_api/icons/v1/png_71/geocode-71.png",
      "icon_background_color": "#7B9EB0",
      "icon_mask_base_uri": "https://maps.gstatic.com/mapfiles/place_api/icons/v2/generic_pinlet",
      "name": "\u963f\u65af\u6258\u5229\u4e9e",
      "photos": [
        {
          "height": 2040,
          "html_attributions": [
            "<a href=\"https://maps.google.com/maps/contrib/100919248807932008582\">ariovaldo oliveira</a>"
          ],
          "photo_reference": "AeJbb3cweed0yFoERAOeqCvJDRf4FXCGX1wf5wCbJm_23gg-wvSVNa-Ae8h4FsZ2P1_1OxN7iDnQsscHoI8x2TuGAIOegQzqQn73X1uJYxuZkFzo_Rbw9G1fX_8ORowsfkRBqeuOxz53dtaLjtY_7Yk1K4CWJYNb5iz8kiRq7ZQiqxNGP5kZ",
          "width": 1536
        }
      ],
      "place_id": "ChIJU6W15zZfwokRDhGErMSvCpw",
      "reference": "ChIJU6W15zZfwokRDhGErMSvCpw",
      "scope": "GOOGLE",
      "types": [
        "neighborhood",
        "political"
      ],
      "vicinity": "\u7687\u540e\u5340"
    },
    {
      "business_status": "OPERATIONAL",
      "geometry": {
        "location": {
          "lat": 40.7645881,
          "lng": -73.92996289999999
        },
        "viewport": {
          "northeast": {
            "lat": 40.7660311302915,
            "lng": -73.92870961970848
          },
          "southwest": {
            "lat": 40.7633331697085,
            "lng": -73.9314075802915
          }
        }
      },
      "icon": "https://maps.gstatic.com/mapfiles/place_api/icons/v1/png_71/generic_business-71.png",
      "icon_background_color": "#7B9EB0",
      "icon_mask_base_uri": "https://maps.gstatic.com/mapfiles/place_api/icons/v2/generic_pinlet",
      "name": "Beatriz Mendez, MD",
      "place_id": "ChIJAZp4KjRfwokR5qA8np4RYoU",
      "plus_code": {
        "compound_code": "Q37C+R2 Astoria, Queens, NY, USA",
        "global_code": "87G8Q37C+R2"
      },
      "rating": 3.3,
      "reference": "ChIJAZp4KjRfwokR5qA8np4RYoU",
      "scope": "GOOGLE",
      "types": [
        "doctor",
        "health",
        "point_of_interest",
        "establishment"
      ],
      "user_ratings_total": 3,
      "vicinity": "31-75 23rd Street, Astoria"
    },
    {
      "business_status": "OPERATIONAL",
      "geometry": {
        "location": {
          "lat": 40.76606669999999,
          "lng": -73.9300136
        },
        "viewport": {
          "northeast": {
            "lat": 40.76756243029149,
            "lng": -73.92898036970848
          },
          "southwest": {
            "lat": 40.76486446970849,
            "lng": -73.93167833029149
          }
        }
      },
      "icon": "https://maps.gstatic.com/mapfiles/place_api/icons/v1/png_71/school-71.png",
      "icon_background_color": "#7B9EB0",
      "icon_mask_base_uri": "https://maps.gstatic.com/mapfiles/place_api/icons/v2/school_pinlet",
      "name": "I.S. 126Q Albert Shanker School for Visual & Performing Arts",
      "opening_hours": {
        "open_now": false
      },
      "photos": [
        {
          "height": 1536,
          "html_attributions": [
            "<a href=\"https://maps.google.com/maps/contrib/108412851055544048343\">anthony macciola</a>"
          ],
          "photo_reference": "AeJbb3elB2z686Wul0V_owuV8lXQE6KPV2fX8zLLignO72Wm6Gi1vj7UDO3LHGBULIlwZcJGz56lgGkVzbCYJbbvAFmoAkZeLODvaNCGAL8EN374If1YRAsL4HIQ5ziKu3Em4MqZVNWGtIgYy8q8BVgAnJ8vn3DLVxny33KhcHpEaudR1cQk",
          "width": 2048
        }
      ],
      "place_id": "ChIJj0wWdTZfwokRQ1MsmJgZ-Co",
      "plus_code": {
        "compound_code": "Q389+CX Astoria, Queens, NY, USA",
        "global_code": "87G8Q389+CX"
      },
      "rating": 3.8,
      "reference": "ChIJj0wWdTZfwokRQ1MsmJgZ-Co",
      "scope": "GOOGLE",
      "types": [
        "school",
        "point_of_interest",
        "establishment"
      ],
      "user_ratings_total": 49,
      "vicinity": "31-51 21st Street, Astoria"
    },
    {
      "business_status": "OPERATIONAL",
      "geometry": {
        "location": {
          "lat": 40.7639572,
          "lng": -73.92904500000002
        },
        "viewport": {
          "northeast": {
            "lat": 40.76523768029151,
            "lng": -73.92774656970852
          },
          "southwest": {
            "lat": 40.76253971970851,
            "lng": -73.93044453029152
          }
        }
      },
      "icon": "https://maps.gstatic.com/mapfiles/place_api/icons/v1/png_71/generic_business-71.png",
      "icon_background_color": "#7B9EB0",
      "icon_mask_base_uri": "https://maps.gstatic.com/mapfiles/place_api/icons/v2/generic_pinlet",
      "name": "Synergy Fitness Clubs",
      "opening_hours": {
        "open_now": true
      },
      "photos": [
        {
          "height": 4032,
          "html_attributions": [
            "<a href=\"https://maps.google.com/maps/contrib/100278948245499326026\">alex vicuna</a>"
          ],
          "photo_reference": "AeJbb3fbkvEbNzpfBEBiKnVDw4TmLpG7U-qSSRwtRTfAa7x9TEEFgGWkS-mUkfWhR7-RJvgIG0fSGQanBfCoAOJ2cf5XsL4TF-p88NrGugGvul4cE78lWPUWEhm_-KQTnC0zVruTQ0yuQQUvoPcY_vJ4CsLtsc2h_-hi0YCgIhyGphNSD3rk",
          "width": 3024
        }
      ],
      "place_id": "ChIJi7hfkDZfwokR8OrMLVP-nJg",
      "plus_code": {
        "compound_code": "Q37C+H9 New York, NY, USA",
        "global_code": "87G8Q37C+H9"
      },
      "rating": 3.5,
      "reference": "ChIJi7hfkDZfwokR8OrMLVP-nJg",
      "scope": "GOOGLE",
      "types": [
        "gym",
        "health",
        "point_of_interest",
        "establishment"
      ],
      "user_ratings_total": 211,
      "vicinity": "23-35 Broadway, Queens"
    },
    {
      "business_status": "OPERATIONAL",
      "geometry": {
        "location": {
          "lat": 40.76459379999999,
          "lng": -73.92997559999999
        },
        "viewport": {
          "northeast": {
            "lat": 40.7660339802915,
            "lng": -73.92871596970849
          },
          "southwest": {
            "lat": 40.7633360197085,
            "lng": -73.9314139302915
          }
        }
      },
      "icon": "https://maps.gstatic.com/mapfiles/place_api/icons/v1/png_71/generic_business-71.png",
      "icon_background_color": "#7B9EB0",
      "icon_mask_base_uri": "https://maps.gstatic.com/mapfiles/place_api/icons/v2/generic_pinlet",
      "name": "Shishir K. Bose",
      "place_id": "ChIJAZp4KjRfwokRYuHGBcCgczc",
      "plus_code": {
        "compound_code": "Q37C+R2 Astoria, Queens, NY, USA",
        "global_code": "87G8Q37C+R2"
      },
      "rating": 4,
      "reference": "ChIJAZp4KjRfwokRYuHGBcCgczc",
      "scope": "GOOGLE",
      "types": [
        "doctor",
        "health",
        "point_of_interest",
        "establishment"
      ],
      "user_ratings_total": 1,
      "vicinity": "3175 23rd Street, Astoria"
    },
    {
      "business_status": "OPERATIONAL",
      "geometry": {
        "location": {
          "lat": 40.7678817,
          "lng": -73.92647319999999
        },
        "viewport": {
          "northeast": {
            "lat": 40.76931458029149,
            "lng": -73.9250662697085
          },
          "southwest": {
            "lat": 40.76661661970849,
            "lng": -73.9277642302915
          }
        }
      },
      "icon": "https://maps.gstatic.com/mapfiles/place_api/icons/v1/png_71/generic_business-71.png",
      "icon_background_color": "#7B9EB0",
      "icon_mask_base_uri": "https://maps.gstatic.com/mapfiles/place_api/icons/v2/generic_pinlet",
      "name": "Valerie Lindenfeld-Costin, MD",
      "place_id": "ChIJ8dOPN0hfwokRFxEOrXgUk84",
      "plus_code": {
        "compound_code": "Q39F+5C Astoria, Queens, NY, USA",
        "global_code": "87G8Q39F+5C"
      },
      "reference": "ChIJ8dOPN0hfwokRFxEOrXgUk84",
      "scope": "GOOGLE",
      "types": [
        "doctor",
        "health",
        "point_of_interest",
        "establishment"
      ],
      "vicinity": "23-22 30th Road, Astoria"
    },
    {
      "business_status": "OPERATIONAL",
      "geometry": {
        "location": {
          "lat": 40.7617379,
          "lng": -73.925847
        },
        "viewport": {
          "northeast": {
            "lat": 40.7632595302915,
            "lng": -73.92436761970848
          },
          "southwest": {
            "lat": 40.7605615697085,
            "lng": -73.9270655802915
          }
        }
      },
      "icon": "https://maps.gstatic.com/mapfiles/place_api/icons/v1/png_71/restaurant-71.png",
      "icon_background_color": "#FF9E67",
      "icon_mask_base_uri": "https://maps.gstatic.com/mapfiles/place_api/icons/v2/restaurant_pinlet",
      "name": "Broadway China Station",
      "opening_hours": {
        "open_now": true
      },
      "photos": [
        {
          "height": 3161,
          "html_attributions": [
            "<a href=\"https://maps.google.com/maps/contrib/106740845827278873381\">Steve</a>"
          ],
          "photo_reference": "AeJbb3f7k2d2zlPARZlE9bhVkBiTZ0LAof6So2F_YFnZRzBULiCihMx3FsohvB1pR1kd9qe1cbvX5zQTXiyz9PugTHnDxS18XYdISYtaHXoEueMFD8iUpKhoAwNHUkorg73ihrlEFQ0iQwPf5W_CzlzCYUJWK5MvDh2oZpBQ-3TZ72k6T9rr",
          "width": 2371
        }
      ],
      "place_id": "ChIJ_acaSDdfwokRdcr5G78vjqI",
      "plus_code": {
        "compound_code": "Q36F+MM New York, NY, USA",
        "global_code": "87G8Q36F+MM"
      },
      "price_level": 2,
      "rating": 4,
      "reference": "ChIJ_acaSDdfwokRdcr5G78vjqI",
      "scope": "GOOGLE",
      "types": [
        "meal_delivery",
        "restaurant",
        "food",
        "point_of_interest",
        "establishment"
      ],
      "user_ratings_total": 66,
      "vicinity": "32-12 31st Street, Queens"
    },
    {
      "business_status": "OPERATIONAL",
      "geometry": {
        "location": {
          "lat": 40.7645433,
          "lng": -73.9235263
        },
        "viewport": {
          "northeast": {
            "lat": 40.7658522802915,
            "lng": -73.9222116697085
          },
          "southwest": {
            "lat": 40.76315431970851,
            "lng": -73.92490963029152
          }
        }
      },
      "icon": "https://maps.gstatic.com/mapfiles/place_api/icons/v1/png_71/generic_business-71.png",
      "icon_background_color": "#7B9EB0",
      "icon_mask_base_uri": "https://maps.gstatic.com/mapfiles/place_api/icons/v2/generic_pinlet",
      "name": "IT Niche 36 LLC",
      "place_id": "ChIJDcyu2_9YwokRgeHLxT_mghk",
      "plus_code": {
        "compound_code": "Q37G+RH Astoria, Queens, NY, USA",
        "global_code": "87G8Q37G+RH"
      },
      "reference": "ChIJDcyu2_9YwokRgeHLxT_mghk",
      "scope": "GOOGLE",
      "types": [
        "point_of_interest",
        "establishment"
      ],
      "vicinity": "31st ave, Astoria"
    },
    {
      "business_status": "OPERATIONAL",
      "geometry": {
        "location": {
          "lat": 40.7634604,
          "lng": -73.9238106
        },
        "viewport": {
          "northeast": {
            "lat": 40.7648738802915,
            "lng": -73.9226003197085
          },
          "southwest": {
            "lat": 40.7621759197085,
            "lng": -73.92529828029151
          }
        }
      },
      "icon": "https://maps.gstatic.com/mapfiles/place_api/icons/v1/png_71/shopping-71.png",
      "icon_background_color": "#4B96F3",
      "icon_mask_base_uri": "https://maps.gstatic.com/mapfiles/place_api/icons/v2/shopping_pinlet",
      "name": "Astoria Bookshop",
      "opening_hours": {
        "open_now": true
      },
      "photos": [
        {
          "height": 1536,
          "html_attributions": [
            "<a href=\"https://maps.google.com/maps/contrib/112874665260383578371\">SHA</a>"
          ],
          "photo_reference": "AeJbb3e7TdlmDZ1xEGPuZIHuJj2OCJ42BdGUBCZsrOBpnel-HBAb8JNpXFPrvr-34OBXwm7iL0fSR9PjwZf5idLS-PuiZeJsZJ7KVHfk0QoL5dGKcgbtj-LXqEgKqbvzBW5Rbj9BHzk-I3lY-dZnoY2rL475rtSUjbh1n0TUh_rkRatrZqEt",
          "width": 2048
        }
      ],
      "place_id": "ChIJfdvSYzdfwokRMZAbPHtJkWY",
      "plus_code": {
        "compound_code": "Q37G+9F Astoria, Queens, NY, USA",
        "global_code": "87G8Q37G+9F"
      },
      "rating": 4.7,
      "reference": "ChIJfdvSYzdfwokRMZAbPHtJkWY",
      "scope": "GOOGLE",
      "types": [
        "book_store",
        "store",
        "point_of_interest",
        "establishment"
      ],
      "user_ratings_total": 421,
      "vicinity": "31-29 31st Street, Astoria"
    },
    {
      "business_status": "OPERATIONAL",
      "geometry": {
        "location": {
          "lat": 40.7656736,
          "lng": -73.9230769
        },
        "viewport": {
          "northeast": {
            "lat": 40.7669209302915,
            "lng": -73.9218108197085
          },
          "southwest": {
            "lat": 40.7642229697085,
            "lng": -73.9245087802915
          }
        }
      },
      "icon": "https://maps.gstatic.com/mapfiles/place_api/icons/v1/png_71/school-71.png",
      "icon_background_color": "#7B9EB0",
      "icon_mask_base_uri": "https://maps.gstatic.com/mapfiles/place_api/icons/v2/school_pinlet",
      "name": "Saint Demetrios Preparatory",
      "photos": [
        {
          "height": 476,
          "html_attributions": [
            "<a href=\"https://maps.google.com/maps/contrib/107880441390516036606\">Saint Demetrios Preparatory</a>"
          ],
          "photo_reference": "AeJbb3cJTp-HTHft1ao8uUUBsym_YDFiGFN2RpgCxZMEbE75uvtiDlWJIG9kG-tiQy7mQWGM6Z0uDmTYMfHVwA5-SD_ranGx6sbG1Z2bLHAAYDGHU0OGKCDfc0dl8JKieZiIiUQRLeQowvI9yhso0ormVq_UoJJWNoWfYLPu0hXPLduPgJhZ",
          "width": 636
        }
      ],
      "place_id": "ChIJpw1wEThfwokRoVVPD-MyIqg",
      "plus_code": {
        "compound_code": "Q38G+7Q Astoria, Queens, NY, USA",
        "global_code": "87G8Q38G+7Q"
      },
      "rating": 4.3,
      "reference": "ChIJpw1wEThfwokRoVVPD-MyIqg",
      "scope": "GOOGLE",
      "types": [
        "primary_school",
        "school",
        "point_of_interest",
        "establishment"
      ],
      "user_ratings_total": 8,
      "vicinity": "3003 30th Drive, Astoria"
    },
    {
      "business_status": "OPERATIONAL",
      "geometry": {
        "location": {
          "lat": 40.767696,
          "lng": -73.923395
        },
        "viewport": {
          "northeast": {
            "lat": 40.7690951302915,
            "lng": -73.92203666970849
          },
          "southwest": {
            "lat": 40.7663971697085,
            "lng": -73.9247346302915
          }
        }
      },
      "icon": "https://maps.gstatic.com/mapfiles/place_api/icons/v1/png_71/generic_business-71.png",
      "icon_background_color": "#7B9EB0",
      "icon_mask_base_uri": "https://maps.gstatic.com/mapfiles/place_api/icons/v2/generic_pinlet",
      "name": "Astoria Family Dental Care",
      "opening_hours": {
        "open_now": true
      },
      "photos": [
        {
          "height": 270,
          "html_attributions": [
            "<a href=\"https://maps.google.com/maps/contrib/118004654809848994047\">Astoria Family Dental Care</a>"
          ],
          "photo_reference": "AeJbb3e7hyq9z7svdwQYoFU1yZTP5Behm8X4YbH48CBjdDDQNQNrW_g6S9rYItXiGO-8e7Uub0gLi3iQ7PTkdlOVNtu5ceQppM-qAlWH5GdpB3lGi3GEbXi8xE5Dxu9mAoqjxcgLiTf49sXPdFO0_D3-aDOCeK3rkSWE_NqkGLHYoWO9omCQ",
          "width": 480
        }
      ],
      "place_id": "ChIJWeHB6kdfwokRbQDrVoVkOB0",
      "plus_code": {
        "compound_code": "Q39G+3J New York, NY, USA",
        "global_code": "87G8Q39G+3J"
      },
      "rating": 4.5,
      "reference": "ChIJWeHB6kdfwokRbQDrVoVkOB0",
      "scope": "GOOGLE",
      "types": [
        "dentist",
        "health",
        "point_of_interest",
        "establishment"
      ],
      "user_ratings_total": 84,
      "vicinity": "29-08 30th Avenue, Queens"
    },
    {
      "business_status": "OPERATIONAL",
      "geometry": {
        "location": {
          "lat": 40.7655623,
          "lng": -73.9292754
        },
        "viewport": {
          "northeast": {
            "lat": 40.7669501802915,
            "lng": -73.9280112197085
          },
          "southwest": {
            "lat": 40.7642522197085,
            "lng": -73.93070918029152
          }
        }
      },
      "icon": "https://maps.gstatic.com/mapfiles/place_api/icons/v1/png_71/generic_business-71.png",
      "icon_background_color": "#7B9EB0",
      "icon_mask_base_uri": "https://maps.gstatic.com/mapfiles/place_api/icons/v2/generic_pinlet",
      "name": "Catherine Sheridan Houses",
      "photos": [
        {
          "height": 3024,
          "html_attributions": [
            "<a href=\"https://maps.google.com/maps/contrib/115071727200825227270\">Irene Arielle</a>"
          ],
          "photo_reference": "AeJbb3fQh3Q7iiw56ncDNrOeFN72kcQ2xKua-ubsgqV64Tc-rRSCOnObaMODzRyJlxJPT1EDRcWfCrealO2G_y2bDMV2VtuGy9YRl0amgVFB6Lchol4kYtebW8ey4TLXL7lWQhIJZjwXgMvNxugl5EFLNMnqxdrLam18L6okCiCcD8vv4RsD",
          "width": 4032
        }
      ],
      "place_id": "ChIJ5_jDaDZfwokRPbem71ZayFA",
      "plus_code": {
        "compound_code": "Q38C+67 New York, NY, USA",
        "global_code": "87G8Q38C+67"
      },
      "rating": 4.3,
      "reference": "ChIJ5_jDaDZfwokRPbem71ZayFA",
      "scope": "GOOGLE",
      "types": [
        "point_of_interest",
        "establishment"
      ],
      "user_ratings_total": 26,
      "vicinity": "31-41 23rd Street"
    },
    {
      "business_status": "OPERATIONAL",
      "geometry": {
        "location": {
          "lat": 40.7652457,
          "lng": -73.9230882
        },
        "viewport": {
          "northeast": {
            "lat": 40.7666505802915,
            "lng": -73.9216944197085
          },
          "southwest": {
            "lat": 40.7639526197085,
            "lng": -73.92439238029151
          }
        }
      },
      "icon": "https://maps.gstatic.com/mapfiles/place_api/icons/v1/png_71/generic_business-71.png",
      "icon_background_color": "#7B9EB0",
      "icon_mask_base_uri": "https://maps.gstatic.com/mapfiles/place_api/icons/v2/generic_pinlet",
      "name": "Asklipios Medical Group",
      "place_id": "ChIJn1TSFThfwokRd4PQtVtRSWM",
      "plus_code": {
        "compound_code": "Q38G+3Q Astoria, Queens, NY, USA",
        "global_code": "87G8Q38G+3Q"
      },
      "reference": "ChIJn1TSFThfwokRd4PQtVtRSWM",
      "scope": "GOOGLE",
      "types": [
        "doctor",
        "health",
        "point_of_interest",
        "establishment"
      ],
      "vicinity": "3016 30th Drive STE 3B, Astoria"
    },
    {
      "business_status": "OPERATIONAL",
      "geometry": {
        "location": {
          "lat": 40.7652457,
          "lng": -73.9230882
        },
        "viewport": {
          "northeast": {
            "lat": 40.7666505802915,
            "lng": -73.9216944197085
          },
          "southwest": {
            "lat": 40.7639526197085,
            "lng": -73.92439238029151
          }
        }
      },
      "icon": "https://maps.gstatic.com/mapfiles/place_api/icons/v1/png_71/generic_business-71.png",
      "icon_background_color": "#7B9EB0",
      "icon_mask_base_uri": "https://maps.gstatic.com/mapfiles/place_api/icons/v2/generic_pinlet",
      "name": "Dr. Joan Padouvas, MD",
      "place_id": "ChIJn1TSFThfwokRbvaMod4-A4c",
      "plus_code": {
        "compound_code": "Q38G+3Q Astoria, Queens, NY, USA",
        "global_code": "87G8Q38G+3Q"
      },
      "reference": "ChIJn1TSFThfwokRbvaMod4-A4c",
      "scope": "GOOGLE",
      "types": [
        "doctor",
        "health",
        "point_of_interest",
        "establishment"
      ],
      "vicinity": "3016 30th Drive STE 3B, Astoria"
    },
    {
      "business_status": "OPERATIONAL",
      "geometry": {
        "location": {
          "lat": 40.7645881,
          "lng": -73.92996289999999
        },
        "viewport": {
          "northeast": {
            "lat": 40.7660311302915,
            "lng": -73.92870961970848
          },
          "southwest": {
            "lat": 40.7633331697085,
            "lng": -73.9314075802915
          }
        }
      },
      "icon": "https://maps.gstatic.com/mapfiles/place_api/icons/v1/png_71/generic_business-71.png",
      "icon_background_color": "#7B9EB0",
      "icon_mask_base_uri": "https://maps.gstatic.com/mapfiles/place_api/icons/v2/generic_pinlet",
      "name": "Roy E. Harnett-Robinson, MD",
      "place_id": "ChIJAZp4KjRfwokRP00oCv6qAIY",
      "plus_code": {
        "compound_code": "Q37C+R2 Astoria, Queens, NY, USA",
        "global_code": "87G8Q37C+R2"
      },
      "reference": "ChIJAZp4KjRfwokRP00oCv6qAIY",
      "scope": "GOOGLE",
      "types": [
        "doctor",
        "health",
        "point_of_interest",
        "establishment"
      ],
      "vicinity": "31-75 23rd Street, Astoria"
    },
    {
      "business_status": "OPERATIONAL",
      "geometry": {
        "location": {
          "lat": 40.76572420000001,
          "lng": -73.9241943
        },
        "viewport": {
          "northeast": {
            "lat": 40.76713503029151,
            "lng": -73.92297396970848
          },
          "southwest": {
            "lat": 40.76443706970851,
            "lng": -73.9256719302915
          }
        }
      },
      "icon": "https://maps.gstatic.com/mapfiles/place_api/icons/v1/png_71/generic_business-71.png",
      "icon_background_color": "#7B9EB0",
      "icon_mask_base_uri": "https://maps.gstatic.com/mapfiles/place_api/icons/v2/generic_pinlet",
      "name": "Besser Walter A MD",
      "opening_hours": {
        "open_now": false
      },
      "place_id": "ChIJDU639zdfwokRiSIuJ5HLmA0",
      "plus_code": {
        "compound_code": "Q38G+78 Astoria, Queens, NY, USA",
        "global_code": "87G8Q38G+78"
      },
      "rating": 3.7,
      "reference": "ChIJDU639zdfwokRiSIuJ5HLmA0",
      "scope": "GOOGLE",
      "types": [
        "doctor",
        "health",
        "point_of_interest",
        "establishment"
      ],
      "user_ratings_total": 60,
      "vicinity": "3071 29th Street, Astoria"
    },
    {
      "business_status": "OPERATIONAL",
      "geometry": {
        "location": {
          "lat": 40.7682496,
          "lng": -73.92484019999999
        },
        "viewport": {
          "northeast": {
            "lat": 40.7697180302915,
            "lng": -73.92346161970849
          },
          "southwest": {
            "lat": 40.7670200697085,
            "lng": -73.9261595802915
          }
        }
      },
      "icon": "https://maps.gstatic.com/mapfiles/place_api/icons/v1/png_71/generic_business-71.png",
      "icon_background_color": "#7B9EB0",
      "icon_mask_base_uri": "https://maps.gstatic.com/mapfiles/place_api/icons/v2/generic_pinlet",
      "name": "Heretis Katherine MD",
      "place_id": "ChIJQ49XcEhfwokRl3PYDc4oY4Q",
      "plus_code": {
        "compound_code": "Q39G+73 Astoria, Queens, NY, USA",
        "global_code": "87G8Q39G+73"
      },
      "rating": 4,
      "reference": "ChIJQ49XcEhfwokRl3PYDc4oY4Q",
      "scope": "GOOGLE",
      "types": [
        "doctor",
        "health",
        "point_of_interest",
        "establishment"
      ],
      "user_ratings_total": 1,
      "vicinity": "2510 30th Avenue, Astoria"
    },
    {
      "business_status": "OPERATIONAL",
      "geometry": {
        "location": {
          "lat": 40.7682496,
          "lng": -73.92484019999999
        },
        "viewport": {
          "northeast": {
            "lat": 40.7697180302915,
            "lng": -73.92346161970849
          },
          "southwest": {
            "lat": 40.7670200697085,
            "lng": -73.9261595802915
          }
        }
      },
      "icon": "https://maps.gstatic.com/mapfiles/place_api/icons/v1/png_71/generic_business-71.png",
      "icon_background_color": "#7B9EB0",
      "icon_mask_base_uri": "https://maps.gstatic.com/mapfiles/place_api/icons/v2/generic_pinlet",
      "name": "Kohli Satjiv S MD",
      "place_id": "ChIJQ49XcEhfwokRoZYBn2cDUwU",
      "plus_code": {
        "compound_code": "Q39G+73 Astoria, Queens, NY, USA",
        "global_code": "87G8Q39G+73"
      },
      "reference": "ChIJQ49XcEhfwokRoZYBn2cDUwU",
      "scope": "GOOGLE",
      "types": [
        "doctor",
        "health",
        "point_of_interest",
        "establishment"
      ],
      "vicinity": "2510 30th Avenue, Astoria"
    },
    {
      "business_status": "CLOSED_TEMPORARILY",
      "geometry": {
        "location": {
          "lat": 40.76335539999999,
          "lng": -73.92684299999999
        },
        "viewport": {
          "northeast": {
            "lat": 40.7646432802915,
            "lng": -73.9253627697085
          },
          "southwest": {
            "lat": 40.7619453197085,
            "lng": -73.9280607302915
          }
        }
      },
      "icon": "https://maps.gstatic.com/mapfiles/place_api/icons/v1/png_71/generic_business-71.png",
      "icon_background_color": "#7B9EB0",
      "icon_mask_base_uri": "https://maps.gstatic.com/mapfiles/place_api/icons/v2/generic_pinlet",
      "name": "Classic Photo Video Production",
      "permanently_closed": true,
      "photos": [
        {
          "height": 960,
          "html_attributions": [
            "<a href=\"https://maps.google.com/maps/contrib/100233809278209846727\">Carmen Avalos</a>"
          ],
          "photo_reference": "AeJbb3fzCDZ9HIfIQvkeppUSv8JH4IsOJoZQ46l0jRyf2LeIGAw2fokw_jsCHSt3ozrSrVYO9UZUZn1-qm30Eii1FKy-Q2gCMmuOQaIcMHKsqtrqReSVgIGV-d2p2baexDdL9DWup_b7NTXmQ8O1AI7SY_hpyJs5SivJ1GlZSjP9fwVubt0w",
          "width": 540
        }
      ],
      "place_id": "ChIJ3a-MHjdfwokRmPBwJ9JHPNE",
      "plus_code": {
        "compound_code": "Q37F+87 Queens, NY, USA",
        "global_code": "87G8Q37F+87"
      },
      "reference": "ChIJ3a-MHjdfwokRmPBwJ9JHPNE",
      "scope": "GOOGLE",
      "types": [
        "point_of_interest",
        "establishment"
      ],
      "vicinity": "31-74 29th Street, Queens"
    },
    {
      "business_status": "OPERATIONAL",
      "geometry": {
        "location": {
          "lat": 40.7637036,
          "lng": -73.92359309999999
        },
        "viewport": {
          "northeast": {
            "lat": 40.76512053029149,
            "lng": -73.92239021970849
          },
          "southwest": {
            "lat": 40.76242256970849,
            "lng": -73.9250881802915
          }
        }
      },
      "icon": "https://maps.gstatic.com/mapfiles/place_api/icons/v1/png_71/shopping-71.png",
      "icon_background_color": "#4B96F3",
      "icon_mask_base_uri": "https://maps.gstatic.com/mapfiles/place_api/icons/v2/shopping_pinlet",
      "name": "Ectaco Inc",
      "opening_hours": {
        "open_now": false
      },
      "photos": [
        {
          "height": 5312,
          "html_attributions": [
            "<a href=\"https://maps.google.com/maps/contrib/116014784162188314256\">J. Price</a>"
          ],
          "photo_reference": "AeJbb3drqXbjxcst4tFvJjo4xaQi77A0q2wH1PCqriNq8NV7nB4WlU7Mac9gadjgeS-QHBVXPNW8-IPQDLAmtTgjVDN94jSRKHFkvsCGrEvZ-M1Huws4vzK8Xy48A-arx8Hb0qwNX7Dwi07J9YttvfGwLOnoP6Imttzv_RNElWlVvj3otw2r",
          "width": 2988
        }
      ],
      "place_id": "ChIJM4_bLDhfwokRRw-QdySEr1g",
      "plus_code": {
        "compound_code": "Q37G+FH New York, NY, USA",
        "global_code": "87G8Q37G+FH"
      },
      "rating": 3.2,
      "reference": "ChIJM4_bLDhfwokRRw-QdySEr1g",
      "scope": "GOOGLE",
      "types": [
        "electronics_store",
        "store",
        "point_of_interest",
        "establishment"
      ],
      "user_ratings_total": 14,
      "vicinity": "31-21 31st Street, Queens"
    },
    {
      "business_status": "OPERATIONAL",
      "geometry": {
        "location": {
          "lat": 40.766436,
          "lng": -73.92360599999999
        },
        "viewport": {
          "northeast": {
            "lat": 40.7678464802915,
            "lng": -73.92238696970848
          },
          "southwest": {
            "lat": 40.7651485197085,
            "lng": -73.92508493029149
          }
        }
      },
      "icon": "https://maps.gstatic.com/mapfiles/place_api/icons/v1/png_71/generic_business-71.png",
      "icon_background_color": "#7B9EB0",
      "icon_mask_base_uri": "https://maps.gstatic.com/mapfiles/place_api/icons/v2/generic_pinlet",
      "name": "Nancy Jones Enterprises",
      "place_id": "ChIJMYZx-EdfwokRSI-W-BMcmrs",
      "plus_code": {
        "compound_code": "Q38G+HH New York, NY, USA",
        "global_code": "87G8Q38G+HH"
      },
      "reference": "ChIJMYZx-EdfwokRSI-W-BMcmrs",
      "scope": "GOOGLE",
      "types": [
        "point_of_interest",
        "establishment"
      ],
      "vicinity": "3047 29th Street #16, Queens"
    },
    {
      "business_status": "OPERATIONAL",
      "geometry": {
        "location": {
          "lat": 40.76253200000001,
          "lng": -73.926197
        },
        "viewport": {
          "northeast": {
            "lat": 40.7638176802915,
            "lng": -73.9249003697085
          },
          "southwest": {
            "lat": 40.7611197197085,
            "lng": -73.9275983302915
          }
        }
      },
      "icon": "https://maps.gstatic.com/mapfiles/place_api/icons/v1/png_71/restaurant-71.png",
      "icon_background_color": "#FF9E67",
      "icon_mask_base_uri": "https://maps.gstatic.com/mapfiles/place_api/icons/v2/restaurant_pinlet",
      "name": "Aliada",
      "opening_hours": {
        "open_now": true
      },
      "photos": [
        {
          "height": 4032,
          "html_attributions": [
            "<a href=\"https://maps.google.com/maps/contrib/117368193861333420991\">Lucia kojil</a>"
          ],
          "photo_reference": "AeJbb3e8oV58qqCxMvtbgexQ7LAMQveqzBmJsJmVj_YWn9MHZORUxo8uIiRbtfVgTEZ-fjO_w38al8KQ1uPXT9FwRrMp_Yp4dTLgnXkb5wJmJWqss1_5sdE3pfow0ZrNGoBq6h2Fg-40e8t8UENZEbKZECT7ufj7ZdtycC_stt3Zwu-1C7x0",
          "width": 3024
        }
      ],
      "place_id": "ChIJcRXQOzdfwokRC-MF8F6_3Wk",
      "plus_code": {
        "compound_code": "Q37F+2G New York, NY, USA",
        "global_code": "87G8Q37F+2G"
      },
      "price_level": 2,
      "rating": 4.5,
      "reference": "ChIJcRXQOzdfwokRC-MF8F6_3Wk",
      "scope": "GOOGLE",
      "types": [
        "restaurant",
        "food",
        "point_of_interest",
        "establishment"
      ],
      "user_ratings_total": 602,
      "vicinity": "2919 Broadway, Queens"
    },
    {
      "business_status": "OPERATIONAL",
      "geometry": {
        "location": {
          "lat": 40.765197,
          "lng": -73.92302509999999
        },
        "viewport": {
          "northeast": {
            "lat": 40.7666261802915,
            "lng": -73.92167901970849
          },
          "southwest": {
            "lat": 40.7639282197085,
            "lng": -73.9243769802915
          }
        }
      },
      "icon": "https://maps.gstatic.com/mapfiles/place_api/icons/v1/png_71/generic_business-71.png",
      "icon_background_color": "#7B9EB0",
      "icon_mask_base_uri": "https://maps.gstatic.com/mapfiles/place_api/icons/v2/generic_pinlet",
      "name": "Axman Wayne R DPM",
      "place_id": "ChIJn1TSFThfwokRwltdJ4jbom0",
      "plus_code": {
        "compound_code": "Q38G+3Q Long Island City, Queens, NY, USA",
        "global_code": "87G8Q38G+3Q"
      },
      "rating": 2.1,
      "reference": "ChIJn1TSFThfwokRwltdJ4jbom0",
      "scope": "GOOGLE",
      "types": [
        "doctor",
        "health",
        "point_of_interest",
        "establishment"
      ],
      "user_ratings_total": 16,
      "vicinity": "30-16 30th Drive, Long Island City"
    },
    {
      "business_status": "OPERATIONAL",
      "geometry": {
        "location": {
          "lat": 40.7682496,
          "lng": -73.92484019999999
        },
        "viewport": {
          "northeast": {
            "lat": 40.7697180302915,
            "lng": -73.92346161970849
          },
          "southwest": {
            "lat": 40.7670200697085,
            "lng": -73.9261595802915
          }
        }
      },
      "icon": "https://maps.gstatic.com/mapfiles/place_api/icons/v1/png_71/generic_business-71.png",
      "icon_background_color": "#7B9EB0",
      "icon_mask_base_uri": "https://maps.gstatic.com/mapfiles/place_api/icons/v2/generic_pinlet",
      "name": "Dr. Abbe M. Lindsey, MD",
      "place_id": "ChIJQ49XcEhfwokR1JJZW7H3aPc",
      "plus_code": {
        "compound_code": "Q39G+73 Astoria, Queens, NY, USA",
        "global_code": "87G8Q39G+73"
      },
      "rating": 5,
      "reference": "ChIJQ49XcEhfwokR1JJZW7H3aPc",
      "scope": "GOOGLE",
      "types": [
        "doctor",
        "health",
        "point_of_interest",
        "establishment"
      ],
      "user_ratings_total": 2,
      "vicinity": "2510 30th Avenue, Astoria"
    },
    {
      "business_status": "OPERATIONAL",
      "geometry": {
        "location": {
          "lat": 40.76225069999999,
          "lng": -73.9255198
        },
        "viewport": {
          "northeast": {
            "lat": 40.76352218029149,
            "lng": -73.92423221970849
          },
          "southwest": {
            "lat": 40.76082421970849,
            "lng": -73.9269301802915
          }
        }
      },
      "icon": "https://maps.gstatic.com/mapfiles/place_api/icons/v1/png_71/restaurant-71.png",
      "icon_background_color": "#FF9E67",
      "icon_mask_base_uri": "https://maps.gstatic.com/mapfiles/place_api/icons/v2/restaurant_pinlet",
      "name": "King of Falafel & Shawarma",
      "opening_hours": {
        "open_now": true
      },
      "photos": [
        {
          "height": 1080,
          "html_attributions": [
            "<a href=\"https://maps.google.com/maps/contrib/106119741715819873611\">Han Thu</a>"
          ],
          "photo_reference": "AeJbb3d5tJQLUOoTjHUQmO9D5iw1lRlAWn6pRxam2DIkZ57oFy8kJZCEBS_sxQyePeb7GUXz_afdHMkNKaQqfNIiAQqdGlUIJ2CBeai0u4sp2TSCkjv2RoaZ52Xl2TAoJtlF9SMV4weTDNlM1hfelkT_-ehZR_rGF3f8LU6uQULAYD1pBlun",
          "width": 1920
        }
      ],
      "place_id": "ChIJ1WruMDdfwokRyKCxb3ItMBA",
      "plus_code": {
        "compound_code": "Q36F+WQ New York, NY, USA",
        "global_code": "87G8Q36F+WQ"
      },
      "price_level": 1,
      "rating": 4.6,
      "reference": "ChIJ1WruMDdfwokRyKCxb3ItMBA",
      "scope": "GOOGLE",
      "types": [
        "restaurant",
        "food",
        "point_of_interest",
        "establishment"
      ],
      "user_ratings_total": 1112,
      "vicinity": "3015 Broadway, Queens"
    },
    {
      "business_status": "OPERATIONAL",
      "geometry": {
        "location": {
          "lat": 40.7675951,
          "lng": -73.9258078
        },
        "viewport": {
          "northeast": {
            "lat": 40.7689232802915,
            "lng": -73.9243454697085
          },
          "southwest": {
            "lat": 40.7662253197085,
            "lng": -73.9270434302915
          }
        }
      },
      "icon": "https://maps.gstatic.com/mapfiles/place_api/icons/v1/png_71/worship_general-71.png",
      "icon_background_color": "#7B9EB0",
      "icon_mask_base_uri": "https://maps.gstatic.com/mapfiles/place_api/icons/v2/worship_christian_pinlet",
      "name": "Good Shepherd United Methodist Church",
      "photos": [
        {
          "height": 4032,
          "html_attributions": [
            "<a href=\"https://maps.google.com/maps/contrib/106623882990849129290\">Amelia L</a>"
          ],
          "photo_reference": "AeJbb3eHF9y9p9ivfs8WizL01SFtEQPF-MeGAgYXb49oVbKgjR9S2J1-wZaPliT9Y5aaw1FKQRZDyeuwpvMgwa2k3EZVkJdaiI3w7xIv_dj57SbuAo6T_V98Gr3yxWII3geP-9z1mWv17fXiJs1GF59K6QS-tyBZNoZSW2oCxbZh9BdagqRZ",
          "width": 3024
        }
      ],
      "place_id": "ChIJpZmHO0hfwokRzspJ6YaCRQk",
      "plus_code": {
        "compound_code": "Q39F+2M Astoria, Queens, NY, USA",
        "global_code": "87G8Q39F+2M"
      },
      "rating": 4.3,
      "reference": "ChIJpZmHO0hfwokRzspJ6YaCRQk",
      "scope": "GOOGLE",
      "types": [
        "church",
        "place_of_worship",
        "point_of_interest",
        "establishment"
      ],
      "user_ratings_total": 13,
      "vicinity": "30-44 Crescent Street, Astoria"
    },
    {
      "business_status": "OPERATIONAL",
      "geometry": {
        "location": {
          "lat": 40.761969,
          "lng": -73.9249139
        },
        "viewport": {
          "northeast": {
            "lat": 40.76324013029151,
            "lng": -73.92362876970851
          },
          "southwest": {
            "lat": 40.76054216970851,
            "lng": -73.92632673029152
          }
        }
      },
      "icon": "https://maps.gstatic.com/mapfiles/place_api/icons/v1/png_71/cafe-71.png",
      "icon_background_color": "#FF9E67",
      "icon_mask_base_uri": "https://maps.gstatic.com/mapfiles/place_api/icons/v2/cafe_pinlet",
      "name": "Starbucks",
      "opening_hours": {
        "open_now": true
      },
      "photos": [
        {
          "height": 2160,
          "html_attributions": [
            "<a href=\"https://maps.google.com/maps/contrib/103923721704591145463\">Wellington J\u00fanior</a>"
          ],
          "photo_reference": "AeJbb3d1bm4hPJozI1JJRT4VPhVv1sm4UFvBFFk0zGzcKMB88uR3A2Tq5X12zjxS82Oa3Gr94Wr_I1xVpRji4MnwAk2B-SPfuHGWf9YnAij2FwzdZBsT5gNWBHj3AXjTVLciwzIh-z7QI9K_LRWGoSw2kIWtxE9S1BeJSH_3s87Zg-Lbqj9m",
          "width": 3840
        }
      ],
      "place_id": "ChIJN0z1TjdfwokR5ZtxNH-GbG4",
      "plus_code": {
        "compound_code": "Q36G+Q2 New York, NY, USA",
        "global_code": "87G8Q36G+Q2"
      },
      "price_level": 2,
      "rating": 4.3,
      "reference": "ChIJN0z1TjdfwokR5ZtxNH-GbG4",
      "scope": "GOOGLE",
      "types": [
        "cafe",
        "store",
        "restaurant",
        "food",
        "point_of_interest",
        "establishment"
      ],
      "user_ratings_total": 465,
      "vicinity": "31-01 Broadway, Queens"
    },
    {
      "business_status": "OPERATIONAL",
      "geometry": {
        "location": {
          "lat": 40.7682496,
          "lng": -73.92484019999999
        },
        "viewport": {
          "northeast": {
            "lat": 40.7697180302915,
            "lng": -73.92346161970849
          },
          "southwest": {
            "lat": 40.7670200697085,
            "lng": -73.9261595802915
          }
        }
      },
      "icon": "https://maps.gstatic.com/mapfiles/place_api/icons/v1/png_71/generic_business-71.png",
      "icon_background_color": "#7B9EB0",
      "icon_mask_base_uri": "https://maps.gstatic.com/mapfiles/place_api/icons/v2/generic_pinlet",
      "name": "Dr. Michelle Garcia-Rybkin, MD",
      "place_id": "ChIJQ49XcEhfwokREty7Phk2cIc",
      "plus_code": {
        "compound_code": "Q39G+73 Astoria, Queens, NY, USA",
        "global_code": "87G8Q39G+73"
      },
      "reference": "ChIJQ49XcEhfwokREty7Phk2cIc",
      "scope": "GOOGLE",
      "types": [
        "doctor",
        "health",
        "point_of_interest",
        "establishment"
      ],
      "vicinity": "2510 30th Avenue, Astoria"
    },
    {
      "business_status": "OPERATIONAL",
      "geometry": {
        "location": {
          "lat": 40.7652332,
          "lng": -73.9230999
        },
        "viewport": {
          "northeast": {
            "lat": 40.7666446302915,
            "lng": -73.92170086970849
          },
          "southwest": {
            "lat": 40.7639466697085,
            "lng": -73.92439883029151
          }
        }
      },
      "icon": "https://maps.gstatic.com/mapfiles/place_api/icons/v1/png_71/generic_business-71.png",
      "icon_background_color": "#7B9EB0",
      "icon_mask_base_uri": "https://maps.gstatic.com/mapfiles/place_api/icons/v2/generic_pinlet",
      "name": "Margarita Isakharova, Physician",
      "place_id": "ChIJGZQ-ckhfwokR0pVGTgm4Z14",
      "plus_code": {
        "compound_code": "Q38G+3Q New York, NY, USA",
        "global_code": "87G8Q38G+3Q"
      },
      "reference": "ChIJGZQ-ckhfwokR0pVGTgm4Z14",
      "scope": "GOOGLE",
      "types": [
        "doctor",
        "health",
        "point_of_interest",
        "establishment"
      ],
      "vicinity": "30-16 30th Drive, Queens"
    },
    {
      "business_status": "OPERATIONAL",
      "geometry": {
        "location": {
          "lat": 40.7652457,
          "lng": -73.9230882
        },
        "viewport": {
          "northeast": {
            "lat": 40.7666505802915,
            "lng": -73.9216944197085
          },
          "southwest": {
            "lat": 40.7639526197085,
            "lng": -73.92439238029151
          }
        }
      },
      "icon": "https://maps.gstatic.com/mapfiles/place_api/icons/v1/png_71/generic_business-71.png",
      "icon_background_color": "#7B9EB0",
      "icon_mask_base_uri": "https://maps.gstatic.com/mapfiles/place_api/icons/v2/generic_pinlet",
      "name": "Manolas F MD",
      "place_id": "ChIJn1TSFThfwokRTj8J8mB_J6I",
      "plus_code": {
        "compound_code": "Q38G+3Q Astoria, Queens, NY, USA",
        "global_code": "87G8Q38G+3Q"
      },
      "rating": 5,
      "reference": "ChIJn1TSFThfwokRTj8J8mB_J6I",
      "scope": "GOOGLE",
      "types": [
        "doctor",
        "health",
        "point_of_interest",
        "establishment"
      ],
      "user_ratings_total": 1,
      "vicinity": "3016 30th Drive STE 3B, Astoria"
    },
    {
      "business_status": "OPERATIONAL",
      "geometry": {
        "location": {
          "lat": 40.7652923,
          "lng": -73.93128010000001
        },
        "viewport": {
          "northeast": {
            "lat": 40.7665812802915,
            "lng": -73.9300867197085
          },
          "southwest": {
            "lat": 40.7638833197085,
            "lng": -73.9327846802915
          }
        }
      },
      "icon": "https://maps.gstatic.com/mapfiles/place_api/icons/v1/png_71/restaurant-71.png",
      "icon_background_color": "#FF9E67",
      "icon_mask_base_uri": "https://maps.gstatic.com/mapfiles/place_api/icons/v2/restaurant_pinlet",
      "name": "Bel Aire Diner",
      "opening_hours": {
        "open_now": true
      },
      "photos": [
        {
          "height": 453,
          "html_attributions": [
            "<a href=\"https://maps.google.com/maps/contrib/117761530227438504375\">Bel Aire Diner</a>"
          ],
          "photo_reference": "AeJbb3fhmZC-EXB7HAm1Cge52h8gmXCquO8txjrIRznH5kqC-tXYjiAb5IcbUZofCxdE1d1UjRnIKLZvshdTbn7Pra2RoXFgNDHGCrola3uiRyUzJbo_JNOEbEYPcgWF-pnqahM4G6gphmoCvw7gAa9iW0_9gbVOMnspIfsJjNwAD0DfeEC2",
          "width": 604
        }
      ],
      "place_id": "ChIJYQWTyTVfwokRzZtviJxFeb8",
      "plus_code": {
        "compound_code": "Q389+4F New York, NY, USA",
        "global_code": "87G8Q389+4F"
      },
      "price_level": 2,
      "rating": 4.2,
      "reference": "ChIJYQWTyTVfwokRzZtviJxFeb8",
      "scope": "GOOGLE",
      "types": [
        "movie_theater",
        "restaurant",
        "food",
        "point_of_interest",
        "establishment"
      ],
      "user_ratings_total": 2793,
      "vicinity": "31-91 21st Street, Queens"
    },
    {
      "business_status": "OPERATIONAL",
      "geometry": {
        "location": {
          "lat": 40.76524,
          "lng": -73.92308799999999
        },
        "viewport": {
          "northeast": {
            "lat": 40.76664768029149,
            "lng": -73.92169411970849
          },
          "southwest": {
            "lat": 40.7639497197085,
            "lng": -73.9243920802915
          }
        }
      },
      "icon": "https://maps.gstatic.com/mapfiles/place_api/icons/v1/png_71/generic_business-71.png",
      "icon_background_color": "#7B9EB0",
      "icon_mask_base_uri": "https://maps.gstatic.com/mapfiles/place_api/icons/v2/generic_pinlet",
      "name": "Angela M. Dimaggio, RD, CDN, CDE",
      "opening_hours": {
        "open_now": false
      },
      "place_id": "ChIJn1TSFThfwokRTYs4H6fF95g",
      "plus_code": {
        "compound_code": "Q38G+3Q Astoria, Queens, NY, USA",
        "global_code": "87G8Q38G+3Q"
      },
      "reference": "ChIJn1TSFThfwokRTYs4H6fF95g",
      "scope": "GOOGLE",
      "types": [
        "health",
        "point_of_interest",
        "establishment"
      ],
      "vicinity": "30-74 31st Street, Astoria"
    },
    {
      "business_status": "OPERATIONAL",
      "geometry": {
        "location": {
          "lat": 40.76255039999999,
          "lng": -73.92629699999999
        },
        "viewport": {
          "northeast": {
            "lat": 40.76384648029149,
            "lng": -73.92499171970849
          },
          "southwest": {
            "lat": 40.76114851970849,
            "lng": -73.92768968029151
          }
        }
      },
      "icon": "https://maps.gstatic.com/mapfiles/place_api/icons/v1/png_71/shopping-71.png",
      "icon_background_color": "#4B96F3",
      "icon_mask_base_uri": "https://maps.gstatic.com/mapfiles/place_api/icons/v2/shopping_pinlet",
      "name": "Broadway Hardware & Paint Center",
      "opening_hours": {
        "open_now": true
      },
      "photos": [
        {
          "height": 1000,
          "html_attributions": [
            "<a href=\"https://maps.google.com/maps/contrib/104375527945419989901\">Broadway Hardware &amp; Paint Center</a>"
          ],
          "photo_reference": "AeJbb3fGLyH1AuAECw0lJVxll2_SFHjF1-o4P12R4UUYJeqZJg3AejrKO-NCf3Q0RLcK02HhJhZ12JopIxA-UZLXoznyA9HK9dSLINQzC1VnTQ77euZXWDIV48-UcGzBTm82QXuLnPVxuZNAXCPHpJOyPwnzFiQLVKPcxa3bNfTHbwzoXTQF",
          "width": 1000
        }
      ],
      "place_id": "ChIJ3diSOjdfwokRDPSdISeXT1w",
      "plus_code": {
        "compound_code": "Q37F+2F New York, NY, USA",
        "global_code": "87G8Q37F+2F"
      },
      "price_level": 2,
      "rating": 4.5,
      "reference": "ChIJ3diSOjdfwokRDPSdISeXT1w",
      "scope": "GOOGLE",
      "types": [
        "hardware_store",
        "home_goods_store",
        "store",
        "point_of_interest",
        "establishment"
      ],
      "user_ratings_total": 83,
      "vicinity": "2917 Broadway, Queens"
    },
    {
      "business_status": "OPERATIONAL",
      "geometry": {
        "location": {
          "lat": 40.7682178,
          "lng": -73.9246782
        },
        "viewport": {
          "northeast": {
            "lat": 40.7697021302915,
            "lng": -73.9234148197085
          },
          "southwest": {
            "lat": 40.7670041697085,
            "lng": -73.92611278029152
          }
        }
      },
      "icon": "https://maps.gstatic.com/mapfiles/place_api/icons/v1/png_71/generic_business-71.png",
      "icon_background_color": "#7B9EB0",
      "icon_mask_base_uri": "https://maps.gstatic.com/mapfiles/place_api/icons/v2/generic_pinlet",
      "name": "Mohamed Shahana",
      "opening_hours": {
        "open_now": true
      },
      "place_id": "ChIJQ49XcEhfwokRXSCNnYFUynM",
      "plus_code": {
        "compound_code": "Q39G+74 Astoria, Queens, NY, USA",
        "global_code": "87G8Q39G+74"
      },
      "rating": 5,
      "reference": "ChIJQ49XcEhfwokRXSCNnYFUynM",
      "scope": "GOOGLE",
      "types": [
        "health",
        "point_of_interest",
        "establishment"
      ],
      "user_ratings_total": 1,
      "vicinity": "2510 30th Avenue, Astoria"
    },
    {
      "business_status": "OPERATIONAL",
      "geometry": {
        "location": {
          "lat": 40.7678845,
          "lng": -73.9264401
        },
        "viewport": {
          "northeast": {
            "lat": 40.7693107302915,
            "lng": -73.92505516970849
          },
          "southwest": {
            "lat": 40.7666127697085,
            "lng": -73.9277531302915
          }
        }
      },
      "icon": "https://maps.gstatic.com/mapfiles/place_api/icons/v1/png_71/generic_business-71.png",
      "icon_background_color": "#7B9EB0",
      "icon_mask_base_uri": "https://maps.gstatic.com/mapfiles/place_api/icons/v2/generic_pinlet",
      "name": "Bloom Thomas MD",
      "place_id": "ChIJd1aFN0hfwokR4LMBSe29HQc",
      "plus_code": {
        "compound_code": "Q39F+5C Astoria, Queens, NY, USA",
        "global_code": "87G8Q39F+5C"
      },
      "reference": "ChIJd1aFN0hfwokR4LMBSe29HQc",
      "scope": "GOOGLE",
      "types": [
        "doctor",
        "health",
        "point_of_interest",
        "establishment"
      ],
      "vicinity": "2322 30th Road STE 1A, Astoria"
    },
    {
      "business_status": "OPERATIONAL",
      "geometry": {
        "location": {
          "lat": 40.76481560000001,
          "lng": -73.93049549999999
        },
        "viewport": {
          "northeast": {
            "lat": 40.7660673802915,
            "lng": -73.92903941970849
          },
          "southwest": {
            "lat": 40.7633694197085,
            "lng": -73.9317373802915
          }
        }
      },
      "icon": "https://maps.gstatic.com/mapfiles/place_api/icons/v1/png_71/generic_business-71.png",
      "icon_background_color": "#4B96F3",
      "icon_mask_base_uri": "https://maps.gstatic.com/mapfiles/place_api/icons/v2/generic_pinlet",
      "name": "Rite Aid",
      "opening_hours": {
        "open_now": true
      },
      "photos": [
        {
          "height": 4032,
          "html_attributions": [
            "<a href=\"https://maps.google.com/maps/contrib/118193258731810541379\">GRAHAM ASTUTO</a>"
          ],
          "photo_reference": "AeJbb3f6MMWM3e2bxyWUhCBky0Ayv7BBlq2IpEN0J1YJyOovRnkNz1keaKZa9con-I_J1rupVZUOwgY-hGFqds2orM6AsQ6LW9_drzz--_5NbxD-IEwRJo_q7z6GRfA5OKy_F_Ua_-Y_hZh2SoA1_u3Dy8QZ0jmLWMOMTuhDMQb8Jxx445ci",
          "width": 3024
        }
      ],
      "place_id": "ChIJWSu8wTZfwokRW5fVdmct8tk",
      "plus_code": {
        "compound_code": "Q379+WR New York, NY, USA",
        "global_code": "87G8Q379+WR"
      },
      "price_level": 2,
      "rating": 2.9,
      "reference": "ChIJWSu8wTZfwokRW5fVdmct8tk",
      "scope": "GOOGLE",
      "types": [
        "drugstore",
        "convenience_store",
        "health",
        "store",
        "food",
        "point_of_interest",
        "establishment"
      ],
      "user_ratings_total": 65,
      "vicinity": "21-25 Broadway, Queens"
    },
    {
      "business_status": "OPERATIONAL",
      "geometry": {
        "location": {
          "lat": 40.7650288,
          "lng": -73.9231324
        },
        "viewport": {
          "northeast": {
            "lat": 40.7663585302915,
            "lng": -73.9216972697085
          },
          "southwest": {
            "lat": 40.7636605697085,
            "lng": -73.92439523029152
          }
        }
      },
      "icon": "https://maps.gstatic.com/mapfiles/place_api/icons/v1/png_71/generic_business-71.png",
      "icon_background_color": "#7B9EB0",
      "icon_mask_base_uri": "https://maps.gstatic.com/mapfiles/place_api/icons/v2/generic_pinlet",
      "name": "Lerner Paul MD",
      "opening_hours": {
        "open_now": false
      },
      "place_id": "ChIJn1TSFThfwokRWLPehU3SKRA",
      "plus_code": {
        "compound_code": "Q38G+2P New York, NY, USA",
        "global_code": "87G8Q38G+2P"
      },
      "rating": 2.9,
      "reference": "ChIJn1TSFThfwokRWLPehU3SKRA",
      "scope": "GOOGLE",
      "types": [
        "doctor",
        "health",
        "point_of_interest",
        "establishment"
      ],
      "user_ratings_total": 9,
      "vicinity": "30-80 31st Street, Queens"
    },
    {
      "business_status": "CLOSED_TEMPORARILY",
      "geometry": {
        "location": {
          "lat": 40.76610110000001,
          "lng": -73.9299135
        },
        "viewport": {
          "northeast": {
            "lat": 40.7675507302915,
            "lng": -73.92846666970848
          },
          "southwest": {
            "lat": 40.7648527697085,
            "lng": -73.93116463029149
          }
        }
      },
      "icon": "https://maps.gstatic.com/mapfiles/place_api/icons/v1/png_71/school-71.png",
      "icon_background_color": "#7B9EB0",
      "icon_mask_base_uri": "https://maps.gstatic.com/mapfiles/place_api/icons/v2/school_pinlet",
      "name": "New York City Board-Education",
      "permanently_closed": true,
      "place_id": "ChIJj0wWdTZfwokRR5m7fF_Kzwc",
      "plus_code": {
        "compound_code": "Q38C+C2 Long Island City, Queens, NY, USA",
        "global_code": "87G8Q38C+C2"
      },
      "reference": "ChIJj0wWdTZfwokRR5m7fF_Kzwc",
      "scope": "GOOGLE",
      "types": [
        "school",
        "point_of_interest",
        "establishment"
      ],
      "vicinity": "3151 21st Street, Long Island City"
    },
    {
      "business_status": "OPERATIONAL",
      "geometry": {
        "location": {
          "lat": 40.7683462,
          "lng": -73.9247899
        },
        "viewport": {
          "northeast": {
            "lat": 40.7697663302915,
            "lng": -73.92346161970849
          },
          "southwest": {
            "lat": 40.7670683697085,
            "lng": -73.9261595802915
          }
        }
      },
      "icon": "https://maps.gstatic.com/mapfiles/place_api/icons/v1/png_71/generic_business-71.png",
      "icon_background_color": "#7B9EB0",
      "icon_mask_base_uri": "https://maps.gstatic.com/mapfiles/place_api/icons/v2/generic_pinlet",
      "name": "Dr. Nasser Alkurdi, MD",
      "place_id": "ChIJQ49XcEhfwokR14HxaZMhdnQ",
      "plus_code": {
        "compound_code": "Q39G+83 Astoria, Queens, NY, USA",
        "global_code": "87G8Q39G+83"
      },
      "rating": 5,
      "reference": "ChIJQ49XcEhfwokR14HxaZMhdnQ",
      "scope": "GOOGLE",
      "types": [
        "doctor",
        "health",
        "point_of_interest",
        "establishment"
      ],
      "user_ratings_total": 1,
      "vicinity": "2510 30th Avenue, Astoria"
    },
    {
      "business_status": "OPERATIONAL",
      "geometry": {
        "location": {
          "lat": 40.7691615,
          "lng": -73.92427099999999
        },
        "viewport": {
          "northeast": {
            "lat": 40.7705726302915,
            "lng": -73.92306806970849
          },
          "southwest": {
            "lat": 40.7678746697085,
            "lng": -73.92576603029151
          }
        }
      },
      "icon": "https://maps.gstatic.com/mapfiles/place_api/icons/v1/png_71/generic_business-71.png",
      "icon_background_color": "#7B9EB0",
      "icon_mask_base_uri": "https://maps.gstatic.com/mapfiles/place_api/icons/v2/generic_pinlet",
      "name": "Quest Diagnostics",
      "opening_hours": {
        "open_now": false
      },
      "photos": [
        {
          "height": 608,
          "html_attributions": [
            "<a href=\"https://maps.google.com/maps/contrib/116879517258760306576\">Quest Diagnostics Queens Astoria Crescent Street</a>"
          ],
          "photo_reference": "AeJbb3fxQ5DLlePNgqPUtlyhHtZVNh12XHfTjhPJyHKb2Bqu2OJF21UdMBxgACLP8sH09fqbHfdr_EnTEDUJxwC9Bw4H5w-kLwXSuIkDvR7liOpiDWWrK9GmU1Z8R4t64swvD3bcVTgCyz7EHz1iUlwWOFPvNImikMDAZQbUFxNykuxGnESv",
          "width": 1080
        }
      ],
      "place_id": "ChIJsVwSMANZwokR7KizHYe3kpY",
      "plus_code": {
        "compound_code": "Q39G+M7 Astoria, Queens, NY, USA",
        "global_code": "87G8Q39G+M7"
      },
      "rating": 2.6,
      "reference": "ChIJsVwSMANZwokR7KizHYe3kpY",
      "scope": "GOOGLE",
      "types": [
        "health",
        "point_of_interest",
        "establishment"
      ],
      "user_ratings_total": 83,
      "vicinity": "27-47 Crescent St Lower Level Ste 102-103, Astoria"
    },
    {
      "business_status": "OPERATIONAL",
      "geometry": {
        "location": {
          "lat": 40.7664254,
          "lng": -73.92139209999999
        },
        "viewport": {
          "northeast": {
            "lat": 40.7678602802915,
            "lng": -73.92016451970848
          },
          "southwest": {
            "lat": 40.7651623197085,
            "lng": -73.9228624802915
          }
        }
      },
      "icon": "https://maps.gstatic.com/mapfiles/place_api/icons/v1/png_71/shopping-71.png",
      "icon_background_color": "#4B96F3",
      "icon_mask_base_uri": "https://maps.gstatic.com/mapfiles/place_api/icons/v2/shopping_pinlet",
      "name": "Grand Wine & Liquor Store",
      "opening_hours": {
        "open_now": true
      },
      "photos": [
        {
          "height": 330,
          "html_attributions": [
            "<a href=\"https://maps.google.com/maps/contrib/117518544018925021954\">radhaa victorino</a>"
          ],
          "photo_reference": "AeJbb3dTZvfd0qNRy2Y4RLexmRPrmtPvtay1eC6g_aGDhYBffGyAjglEikGalKGeiv7-3Ue389r52GNg0Jc37Vqvt46aoh767HAlUuKAu9F4OfUGRnWqHnOzJU0wkQQ_0uSrJigx42u9kRV46W3bYXoa5qu3n-Ea2qf7NVCt_SnBYNaNOZT-",
          "width": 398
        }
      ],
      "place_id": "ChIJD9GlnUdfwokRQRdVgNnJG-0",
      "plus_code": {
        "compound_code": "Q38H+HC Astoria, Queens, NY, USA",
        "global_code": "87G8Q38H+HC"
      },
      "price_level": 2,
      "rating": 4.2,
      "reference": "ChIJD9GlnUdfwokRQRdVgNnJG-0",
      "scope": "GOOGLE",
      "types": [
        "liquor_store",
        "store",
        "food",
        "point_of_interest",
        "establishment"
      ],
      "user_ratings_total": 161,
      "vicinity": "30-05 31st Street, Astoria"
    }
  ],
  "status": "OK"
}