{
  "html_attributions": [],
  "results": [
    {
      "geometry": {
        "location": {
          "lat": 40.7127753,
          "lng": -74.0059728
        },
        "viewport": {
          "northeast": {
            "lat": 40.91757705070789,
            "lng": -73.70027206817629
          },
          "southwest": {
            "lat": 40.47739906045452,
            "lng": -74.25908991427882
          }
        }
      },
      "icon": "https://maps.gstatic.com/mapfiles/place_api/icons/v1/png_71/geocode-71.png",
      "icon_background_color": "#7B9EB0",
      "icon_mask_base_uri": "https://maps.gstatic.com/mapfiles/place_api/icons/v2/generic_pinlet",
      "name": "\u7d10\u7d04",
      "photos": [
        {
          "height": 600,
          "html_attributions": [
            "<a href=\"https://maps.google.com/maps/contrib/102389334567210814614\">Bukurie</a>"
          ],
          "photo_reference": "AeJbb3cjmpdCk28hWJ9V4ejfSq5_kdIFlyxDmUl6UkCnfvlU_wcSzjbB-MB3x-YTpNnSvFEvbg3IuV0ZKcb4TLENt-eWtbuXQVaJw9Qtfe6eTd7ctShcXSBD_hdWnaaWe6Go-T9e6pxzQurowiWj3dikS7ghCcm5sJ7UYA7IHRoYzk_rWETd",
          "width": 480
        }
      ],
      "place_id": "ChIJOwg_06VPwokRYv534QaPC8g",
      "reference": "ChIJOwg_06VPwokRYv534QaPC8g",
      "scope": "GOOGLE",
      "types": [
        "locality",
        "political"
      ],
      "vicinity": "\u7d10\u7d04"
    },
    {
      "business_status": "OPERATIONAL",
      "geometry": {
        "location": {
          "lat": 40.7450155,
          "lng": -73.95014669999999
        },
        "viewport": {
          "northeast": {
            "lat": 40.7463133302915,
            "lng": -73.94880196970848
          },
          "southwest": {
            "lat": 40.7436153697085,
            "lng": -73.9514999302915
          }
        }
      },
      "icon": "https://maps.gstatic.com/mapfiles/place_api/icons/v1/png_71/civic_building-71.png",
      "icon_background_color": "#7B9EB0",
      "icon_mask_base_uri": "https://maps.gstatic.com/mapfiles/place_api/icons/v2/civic-bldg_pinlet",
      "name": "ACCES-VR Queens District Office",
      "opening_hours": {
        "open_now": false
      },
      "photos": [
        {
          "height": 3672,
          "html_attributions": [
            "<a href=\"https://maps.google.com/maps/contrib/117979751334919367476\">Alexander Mejia</a>"
          ],
          "photo_reference": "AeJbb3c3HNXJcThrdTihhlbuhr0Enlal5WMhiOCIuNPl3GSboQ57aF7IPL-UmXMqKcY_s2qy2XA8e8s0UdvvaOHM-2RjNVyR84-VzOXDoxpXVekEtRrjoWIEPRLDA60tJvnJb9t66wc59l73M_SvN_p-QDzq_AF7YMRodcIC3bgLk1xcMVhS",
          "width": 4896
        }
      ],
      "place_id": "ChIJe3iNTrVfwokRpkvMfJ1yLwo",
      "plus_code": {
        "compound_code": "P2WX+2W \u7f8e\u570b\u7d10\u7d04\u9577\u5cf6\u5e02",
        "global_code": "87G8P2WX+2W"
      },
      "rating": 3.1,
      "reference": "ChIJe3iNTrVfwokRpkvMfJ1yLwo",
      "scope": "GOOGLE",
      "types": [
        "local_government_office",
        "point_of_interest",
        "establishment"
      ],
      "user_ratings_total": 18,
      "vicinity": "11-15 47th Avenue, Long Island City"
    },
    {
      "business_status": "OPERATIONAL",
      "geometry": {
        "location": {
          "lat": 40.74467899999999,
          "lng": -73.948542
        },
        "viewport": {
          "northeast": {
            "lat": 40.74601603029149,
            "lng": -73.9471843197085
          },
          "southwest": {
            "lat": 40.7433180697085,
            "lng": -73.9498822802915
          }
        }
      },
      "icon": "https://maps.gstatic.com/mapfiles/place_api/icons/v1/png_71/generic_business-71.png",
      "icon_background_color": "#7B9EB0",
      "icon_mask_base_uri": "https://maps.gstatic.com/mapfiles/place_api/icons/v2/generic_pinlet",
      "name": "UMI VISION",
      "opening_hours": {
        "open_now": true
      },
      "place_id": "ChIJQahc5SVZwokR-L2JewnW7Ys",
      "plus_code": {
        "compound_code": "P3V2+VH \u7f8e\u570b\u7d10\u7d04\u9577\u5cf6\u5e02",
        "global_code": "87G8P3V2+VH"
      },
      "rating": 5,
      "reference": "ChIJQahc5SVZwokR-L2JewnW7Ys",
      "scope": "GOOGLE",
      "types": [
        "point_of_interest",
        "establishment"
      ],
      "user_ratings_total": 1,
      "vicinity": "27-3 42nd Road, Long Island City"
    },
    {
      "business_status": "OPERATIONAL",
      "geometry": {
        "location": {
          "lat": 40.7456856,
          "lng": -73.94837609999999
        },
        "viewport": {
          "northeast": {
            "lat": 40.74702743029149,
            "lng": -73.9469327697085
          },
          "southwest": {
            "lat": 40.74432946970849,
            "lng": -73.9496307302915
          }
        }
      },
      "icon": "https://maps.gstatic.com/mapfiles/place_api/icons/v1/png_71/civic_building-71.png",
      "icon_background_color": "#7B9EB0",
      "icon_mask_base_uri": "https://maps.gstatic.com/mapfiles/place_api/icons/v2/civic-bldg_pinlet",
      "name": "United States Postal Service",
      "opening_hours": {
        "open_now": false
      },
      "photos": [
        {
          "height": 2448,
          "html_attributions": [
            "<a href=\"https://maps.google.com/maps/contrib/116882937263130282699\">TheMrscarface2009</a>"
          ],
          "photo_reference": "AeJbb3fOgKXvKxiXpKb2zcFeXzvdJeHDWuXZPqQGm_bDxR9R_x0jqErsEJaNgBipxU3mVJOfpGGA7MVydLDRHTXivCbOEa7uw2jsGXgMn72IphJyStelOTkAZYXCcEAoLCnJXdhyXywv9ErQgJ72N_6C9aZxLmLz0OeGjh63GHWdKTzg3VQd",
          "width": 3264
        }
      ],
      "place_id": "ChIJZ8yxBSZZwokRHblbiqKoCvU",
      "plus_code": {
        "compound_code": "P3W2+7J \u7f8e\u570b\u7d10\u7d04",
        "global_code": "87G8P3W2+7J"
      },
      "rating": 2.2,
      "reference": "ChIJZ8yxBSZZwokRHblbiqKoCvU",
      "scope": "GOOGLE",
      "types": [
        "post_office",
        "finance",
        "local_government_office",
        "point_of_interest",
        "establishment"
      ],
      "user_ratings_total": 275,
      "vicinity": "4602 21st Street, Queens"
    },
    {
      "business_status": "OPERATIONAL",
      "geometry": {
        "location": {
          "lat": 40.7448243,
          "lng": -73.9459669
        },
        "viewport": {
          "northeast": {
            "lat": 40.74615523029149,
            "lng": -73.94466561970849
          },
          "southwest": {
            "lat": 40.74345726970849,
            "lng": -73.9473635802915
          }
        }
      },
      "icon": "https://maps.gstatic.com/mapfiles/place_api/icons/v1/png_71/generic_business-71.png",
      "icon_background_color": "#7B9EB0",
      "icon_mask_base_uri": "https://maps.gstatic.com/mapfiles/place_api/icons/v2/generic_pinlet",
      "name": "Maia Marinelli's Studio",
      "photos": [
        {
          "height": 500,
          "html_attributions": [
            "<a href=\"https://maps.google.com/maps/contrib/105563791681380215890\">Maia Marinelli Studio</a>"
          ],
          "photo_reference": "AeJbb3d3G4UTkXMp-DnACmuTDqwUuzohVy2YoVRhYv6macuRsKRHeGkxzJlp0JWA-xzBfv_lsxQIklY37Ql8YbKpzYKjymYOQL8LwJU8wUWsw9Ey7VOpM09UVzsyjhxlCr5IMm9o-UNGxryFrzzlDvkZn5RIrxptf0UIMqxrG2o56P4lEwrC",
          "width": 400
        }
      ],
      "place_id": "ChIJkRgeNS9ZwokRog6CldEGxP4",
      "plus_code": {
        "compound_code": "P3V3+WJ \u7f8e\u570b\u7d10\u7d04\u9577\u5cf6\u5e02",
        "global_code": "87G8P3V3+WJ"
      },
      "rating": 5,
      "reference": "ChIJkRgeNS9ZwokRog6CldEGxP4",
      "scope": "GOOGLE",
      "types": [
        "point_of_interest",
        "establishment"
      ],
      "user_ratings_total": 1,
      "vicinity": "4623 Crane Street, Long Island City"
    },
    {
      "business_status": "OPERATIONAL",
      "geometry": {
        "location": {
          "lat": 40.740798,
          "lng": -73.94959899999999
        },
        "viewport": {
          "northeast": {
            "lat": 40.7421325802915,
            "lng": -73.94834826970849
          },
          "southwest": {
            "lat": 40.7394346197085,
            "lng": -73.95104623029151
          }
        }
      },
      "icon": "https://maps.gstatic.com/mapfiles/place_api/icons/v1/png_71/generic_business-71.png",
      "icon_background_color": "#7B9EB0",
      "icon_mask_base_uri": "https://maps.gstatic.com/mapfiles/place_api/icons/v2/generic_pinlet",
      "name": "DFB Sales, Inc.",
      "opening_hours": {
        "open_now": false
      },
      "photos": [
        {
          "height": 3648,
          "html_attributions": [
            "<a href=\"https://maps.google.com/maps/contrib/114267004715319131448\">DFB Sales, Inc.</a>"
          ],
          "photo_reference": "AeJbb3ctmG-d1OGqjd4XntKJf3Hwc-kh7rCMVbyZTp1llS3ZTdz3cfofshoqeBIip98hkG7ygqgFny3SE78J8p8cgEK5r-ehLXGwawrXqYyraFoogCjLnoVnxa4x6uGsbczOOl0AukNt_7wxzz5hsGMiXSrZ48b0hicoz509FnTHTX9fonVT",
          "width": 5472
        }
      ],
      "place_id": "ChIJr8wjMyVZwokRLjfNCJZqn8k",
      "plus_code": {
        "compound_code": "P3R2+85 \u7f8e\u570b\u7d10\u7d04\u9577\u5cf6\u5e02",
        "global_code": "87G8P3R2+85"
      },
      "rating": 3,
      "reference": "ChIJr8wjMyVZwokRLjfNCJZqn8k",
      "scope": "GOOGLE",
      "types": [
        "point_of_interest",
        "establishment"
      ],
      "user_ratings_total": 2,
      "vicinity": "21-07 Borden Avenue, Long Island City"
    },
    {
      "business_status": "OPERATIONAL",
      "geometry": {
        "location": {
          "lat": 40.7407432,
          "lng": -73.9496212
        },
        "viewport": {
          "northeast": {
            "lat": 40.7421048302915,
            "lng": -73.9483687697085
          },
          "southwest": {
            "lat": 40.7394068697085,
            "lng": -73.95106673029152
          }
        }
      },
      "icon": "https://maps.gstatic.com/mapfiles/place_api/icons/v1/png_71/shopping-71.png",
      "icon_background_color": "#4B96F3",
      "icon_mask_base_uri": "https://maps.gstatic.com/mapfiles/place_api/icons/v2/shopping_pinlet",
      "name": "Manic Panic",
      "opening_hours": {
        "open_now": false
      },
      "photos": [
        {
          "height": 2394,
          "html_attributions": [
            "<a href=\"https://maps.google.com/maps/contrib/101941569559568361433\">Manic Panic</a>"
          ],
          "photo_reference": "AeJbb3ff9a6RI55rQT5w7Sm5mcsuoSzJpkABFuBCF-_kn4wi8xNR5gpOizGtm_BIG2jqCSvQSZLPeBjtIv-Lwn7qjw88nfsvNxs93pgN3F2X0ThokttGse3wy5iALuV6O0zQ60xaOEVwgOlZ9DzTb5jYBzWonCJAnx0D86fq745rSlF29Oo5",
          "width": 1606
        }
      ],
      "place_id": "ChIJr8wjMyVZwokRuaIHJW66wTM",
      "plus_code": {
        "compound_code": "P3R2+75 \u7f8e\u570b\u7d10\u7d04",
        "global_code": "87G8P3R2+75"
      },
      "rating": 4.5,
      "reference": "ChIJr8wjMyVZwokRuaIHJW66wTM",
      "scope": "GOOGLE",
      "types": [
        "store",
        "point_of_interest",
        "establishment"
      ],
      "user_ratings_total": 25,
      "vicinity": "21-07 Borden Avenue 4th Floor, Queens"
    },
    {
      "business_status": "OPERATIONAL",
      "geometry": {
        "location": {
          "lat": 40.7433138,
          "lng": -73.9516396
        },
        "viewport": {
          "northeast": {
            "lat": 40.74460343029151,
            "lng": -73.95022621970848
          },
          "southwest": {
            "lat": 40.74190546970851,
            "lng": -73.9529241802915
          }
        }
      },
      "icon": "https://maps.gstatic.com/mapfiles/place_api/icons/v1/png_71/cafe-71.png",
      "icon_background_color": "#FF9E67",
      "icon_mask_base_uri": "https://maps.gstatic.com/mapfiles/place_api/icons/v2/cafe_pinlet",
      "name": "Sweetleaf Coffee Roasters",
      "opening_hours": {
        "open_now": true
      },
      "photos": [
        {
          "height": 1365,
          "html_attributions": [
            "<a href=\"https://maps.google.com/maps/contrib/104111246635874032234\">ZAGAT</a>"
          ],
          "photo_reference": "AeJbb3eq1F-asCC3J0YJI_kf5eAp7h5RvIvQ8IfZqEhslu-zmk8ghF0dnyZn-ro7c05OloQVTK1ldKUqoElHmWzzfjDjtxnyeXpAbl8oFWzftFhfN3-TRwzwfwoH5D590tU9gLP5TjHa8EYLneNL8NNqo20QwBm9ULwkhhfIz5QBeMaHI3lB",
          "width": 2048
        }
      ],
      "place_id": "ChIJc50m9iRZwokReFDd1LOMp8U",
      "plus_code": {
        "compound_code": "P2VX+88 \u7f8e\u570b\u7d10\u7d04",
        "global_code": "87G8P2VX+88"
      },
      "price_level": 1,
      "rating": 4.5,
      "reference": "ChIJc50m9iRZwokReFDd1LOMp8U",
      "scope": "GOOGLE",
      "types": [
        "bakery",
        "cafe",
        "store",
        "point_of_interest",
        "food",
        "establishment"
      ],
      "user_ratings_total": 369,
      "vicinity": "10-93 Jackson Avenue, Queens"
    },
    {
      "business_status": "OPERATIONAL",
      "geometry": {
        "location": {
          "lat": 40.74266679999999,
          "lng": -73.9518057
        },
        "viewport": {
          "northeast": {
            "lat": 40.7440980302915,
            "lng": -73.9505101197085
          },
          "southwest": {
            "lat": 40.7414000697085,
            "lng": -73.9532080802915
          }
        }
      },
      "icon": "https://maps.gstatic.com/mapfiles/place_api/icons/v1/png_71/restaurant-71.png",
      "icon_background_color": "#FF9E67",
      "icon_mask_base_uri": "https://maps.gstatic.com/mapfiles/place_api/icons/v2/restaurant_pinlet",
      "name": "Manetta's",
      "opening_hours": {
        "open_now": false
      },
      "photos": [
        {
          "height": 1000,
          "html_attributions": [
            "<a href=\"https://maps.google.com/maps/contrib/114707522175427350567\">Manetta&#39;s</a>"
          ],
          "photo_reference": "AeJbb3c-Byt4tAnmxWeRGxe3RIzyuxAsFVzPw9QlYIp5lU_iurplYnMcxHkcNdIl49iUKbWbf59DN-fWdwWGWtbn0FhuG3HY1OvixEqHoW7O1vXQs9CwtPGutevBAoYj2b5-DXz_Ze8YnAUY77hUpkgeuwMNEPwc4xpR2fPimyuPQ6rQEvtE",
          "width": 1499
        }
      ],
      "place_id": "ChIJJVkc8iRZwokRA-3qv5OZmsg",
      "plus_code": {
        "compound_code": "P2VX+37 \u7f8e\u570b\u7d10\u7d04",
        "global_code": "87G8P2VX+37"
      },
      "price_level": 2,
      "rating": 4.6,
      "reference": "ChIJJVkc8iRZwokRA-3qv5OZmsg",
      "scope": "GOOGLE",
      "types": [
        "store",
        "restaurant",
        "point_of_interest",
        "food",
        "establishment"
      ],
      "user_ratings_total": 636,
      "vicinity": "10-76 Jackson Avenue, Long Island City"
    },
    {
      "business_status": "OPERATIONAL",
      "geometry": {
        "location": {
          "lat": 40.7455521,
          "lng": -73.9501544
        },
        "viewport": {
          "northeast": {
            "lat": 40.7469140802915,
            "lng": -73.94887826970849
          },
          "southwest": {
            "lat": 40.7442161197085,
            "lng": -73.9515762302915
          }
        }
      },
      "icon": "https://maps.gstatic.com/mapfiles/place_api/icons/v1/png_71/cafe-71.png",
      "icon_background_color": "#FF9E67",
      "icon_mask_base_uri": "https://maps.gstatic.com/mapfiles/place_api/icons/v2/cafe_pinlet",
      "name": "Communitea",
      "opening_hours": {
        "open_now": true
      },
      "photos": [
        {
          "height": 2269,
          "html_attributions": [
            "<a href=\"https://maps.google.com/maps/contrib/103901706585127527875\">Communitea</a>"
          ],
          "photo_reference": "AeJbb3feq-Ww-h_npeZ8h5Qz4zDgOAcnI_1rJziDEYmFt8p3dGoobOziuXGk_4kz2ri08bgijS9B4zD2tVLZlYwsA33PDjmsQ-erLJUkwEJ5LaFwFVMGHEvg3P6BVtcv_D6pWyr9vn6SdnFBkPmulfg3YWSHdIL575KogadaAN--bpf0ywvb",
          "width": 4032
        }
      ],
      "place_id": "ChIJ-ZLeBSRZwokRG4LPbDHu5gI",
      "plus_code": {
        "compound_code": "P2WX+6W \u7f8e\u570b\u7d10\u7d04",
        "global_code": "87G8P2WX+6W"
      },
      "price_level": 1,
      "rating": 4.5,
      "reference": "ChIJ-ZLeBSRZwokRG4LPbDHu5gI",
      "scope": "GOOGLE",
      "types": [
        "cafe",
        "bakery",
        "meal_takeaway",
        "bar",
        "store",
        "restaurant",
        "point_of_interest",
        "food",
        "establishment"
      ],
      "user_ratings_total": 346,
      "vicinity": "11-18 46th Road, Queens"
    },
    {
      "business_status": "CLOSED_TEMPORARILY",
      "geometry": {
        "location": {
          "lat": 40.7453458,
          "lng": -73.9509574
        },
        "viewport": {
          "northeast": {
            "lat": 40.74667388029149,
            "lng": -73.94949991970849
          },
          "southwest": {
            "lat": 40.7439759197085,
            "lng": -73.9521978802915
          }
        }
      },
      "icon": "https://maps.gstatic.com/mapfiles/place_api/icons/v1/png_71/shopping-71.png",
      "icon_background_color": "#4B96F3",
      "icon_mask_base_uri": "https://maps.gstatic.com/mapfiles/place_api/icons/v2/shopping_pinlet",
      "name": "Aero Sales Inc",
      "permanently_closed": true,
      "place_id": "ChIJFSZDKyRZwokRutT2_Q2JG0M",
      "plus_code": {
        "compound_code": "P2WX+4J \u7f8e\u570b\u7d10\u7d04",
        "global_code": "87G8P2WX+4J"
      },
      "rating": 5,
      "reference": "ChIJFSZDKyRZwokRutT2_Q2JG0M",
      "scope": "GOOGLE",
      "types": [
        "clothing_store",
        "store",
        "point_of_interest",
        "establishment"
      ],
      "user_ratings_total": 1,
      "vicinity": "4644 11th Street, Queens"
    },
    {
      "business_status": "OPERATIONAL",
      "geometry": {
        "location": {
          "lat": 40.7445755,
          "lng": -73.9491317
        },
        "viewport": {
          "northeast": {
            "lat": 40.7459771802915,
            "lng": -73.9477211697085
          },
          "southwest": {
            "lat": 40.7432792197085,
            "lng": -73.95041913029151
          }
        }
      },
      "icon": "https://maps.gstatic.com/mapfiles/place_api/icons/v1/png_71/restaurant-71.png",
      "icon_background_color": "#FF9E67",
      "icon_mask_base_uri": "https://maps.gstatic.com/mapfiles/place_api/icons/v2/restaurant_pinlet",
      "name": "Manducatis",
      "opening_hours": {
        "open_now": false
      },
      "photos": [
        {
          "height": 3024,
          "html_attributions": [
            "<a href=\"https://maps.google.com/maps/contrib/109457187657517769451\">Jennifer Saylor</a>"
          ],
          "photo_reference": "AeJbb3cPY35Wn0W-rjMShnStXaLedoGkH3jxBBuqxS943vcYoB_ssGJjqECGaVdTulJ-D4Ys-n3Nic-DHLEueuqyQ7ivp7eNk_wyCnKsOwqJbaXRrBSqEQaKnLTv6CdtMg8_lLtIDShrGu6WdrYRd_HAOHYjTAypOEmbDYRbM0jxAuqLuCwo",
          "width": 4032
        }
      ],
      "place_id": "ChIJEz0N7yVZwokRKrOYsmXkKSY",
      "plus_code": {
        "compound_code": "P3V2+R8 \u7f8e\u570b\u7d10\u7d04",
        "global_code": "87G8P3V2+R8"
      },
      "price_level": 2,
      "rating": 4.5,
      "reference": "ChIJEz0N7yVZwokRKrOYsmXkKSY",
      "scope": "GOOGLE",
      "types": [
        "restaurant",
        "point_of_interest",
        "food",
        "establishment"
      ],
      "user_ratings_total": 336,
      "vicinity": "13-27 Jackson Avenue, Queens"
    },
    {
      "business_status": "OPERATIONAL",
      "geometry": {
        "location": {
          "lat": 40.740389,
          "lng": -73.95031569999999
        },
        "viewport": {
          "northeast": {
            "lat": 40.7418009802915,
            "lng": -73.94894431970849
          },
          "southwest": {
            "lat": 40.7391030197085,
            "lng": -73.95164228029151
          }
        }
      },
      "icon": "https://maps.gstatic.com/mapfiles/place_api/icons/v1/png_71/generic_business-71.png",
      "icon_background_color": "#7B9EB0",
      "icon_mask_base_uri": "https://maps.gstatic.com/mapfiles/place_api/icons/v2/generic_pinlet",
      "name": "IDC Corporation",
      "opening_hours": {
        "open_now": false
      },
      "place_id": "ChIJOXRi1DpZwokR02m1lGljvs8",
      "plus_code": {
        "compound_code": "P2RX+5V \u7f8e\u570b\u7d10\u7d04",
        "global_code": "87G8P2RX+5V"
      },
      "rating": 2,
      "reference": "ChIJOXRi1DpZwokR02m1lGljvs8",
      "scope": "GOOGLE",
      "types": [
        "point_of_interest",
        "establishment"
      ],
      "user_ratings_total": 4,
      "vicinity": "11-40 Borden Avenue, Queens"
    },
    {
      "business_status": "OPERATIONAL",
      "geometry": {
        "location": {
          "lat": 40.743192,
          "lng": -73.95411899999999
        },
        "viewport": {
          "northeast": {
            "lat": 40.7445256302915,
            "lng": -73.95269156970849
          },
          "southwest": {
            "lat": 40.7418276697085,
            "lng": -73.95538953029151
          }
        }
      },
      "icon": "https://maps.gstatic.com/mapfiles/place_api/icons/v1/png_71/restaurant-71.png",
      "icon_background_color": "#FF9E67",
      "icon_mask_base_uri": "https://maps.gstatic.com/mapfiles/place_api/icons/v2/restaurant_pinlet",
      "name": "Tuk Tuk",
      "opening_hours": {
        "open_now": true
      },
      "photos": [
        {
          "height": 4032,
          "html_attributions": [
            "<a href=\"https://maps.google.com/maps/contrib/115667322681229465481\">annabelleyixin</a>"
          ],
          "photo_reference": "AeJbb3fDoAyk1sIK3dxuCVD-vXEN4OW0zi4A1AM1ZRdGBRUKeRB8-8iSD-XuCcKFKsMXfwdrYGep_vtJcTCIMvTxxZa0L7BW1kMk7S-h0lcaME-bEO-zPbPYunwKlYXm_Rv8mfO6RhysCUYLcJRk7J8W0GbD1BfC2e3uufUl9ngnhTEXwr34",
          "width": 3024
        }
      ],
      "place_id": "ChIJdzA_eiNZwokRUYzjF1dcHko",
      "plus_code": {
        "compound_code": "P2VW+79 \u7f8e\u570b\u7d10\u7d04\u9577\u5cf6\u5e02",
        "global_code": "87G8P2VW+79"
      },
      "price_level": 2,
      "rating": 4.4,
      "reference": "ChIJdzA_eiNZwokRUYzjF1dcHko",
      "scope": "GOOGLE",
      "types": [
        "meal_delivery",
        "restaurant",
        "point_of_interest",
        "food",
        "establishment"
      ],
      "user_ratings_total": 583,
      "vicinity": "49-06 Vernon Boulevard, Long Island City"
    },
    {
      "business_status": "OPERATIONAL",
      "geometry": {
        "location": {
          "lat": 40.7460847,
          "lng": -73.94584569999999
        },
        "viewport": {
          "northeast": {
            "lat": 40.74738433029149,
            "lng": -73.9443852197085
          },
          "southwest": {
            "lat": 40.7446863697085,
            "lng": -73.94708318029151
          }
        }
      },
      "icon": "https://maps.gstatic.com/mapfiles/place_api/icons/v1/png_71/restaurant-71.png",
      "icon_background_color": "#FF9E67",
      "icon_mask_base_uri": "https://maps.gstatic.com/mapfiles/place_api/icons/v2/restaurant_pinlet",
      "name": "Court Square Diner",
      "opening_hours": {
        "open_now": true
      },
      "photos": [
        {
          "height": 1536,
          "html_attributions": [
            "<a href=\"https://maps.google.com/maps/contrib/110499458087747048324\">S H</a>"
          ],
          "photo_reference": "AeJbb3dNXNMQR53yxBjlM-5QaK5Ih9WRXLnX0fTdrCCXhVxQG4r4q2Yn2z8nm4yipfWmGIwCwL_QjDyE9tY6xaSCyl2GULeN89VbiQwomIZPoCVPJKoLbovcUM8XYKt8uDNt4teW2a8ATMXxoXHKc40vOf5gRV1bOVezmp9ZOEasW2UBtbfk",
          "width": 2048
        }
      ],
      "place_id": "ChIJN6wFwihZwokRMtxwzGii9PI",
      "plus_code": {
        "compound_code": "P3W3+CM \u7f8e\u570b\u7d10\u7d04",
        "global_code": "87G8P3W3+CM"
      },
      "price_level": 1,
      "rating": 4.3,
      "reference": "ChIJN6wFwihZwokRMtxwzGii9PI",
      "scope": "GOOGLE",
      "types": [
        "restaurant",
        "point_of_interest",
        "food",
        "establishment"
      ],
      "user_ratings_total": 2460,
      "vicinity": "45-30 23rd Street, Queens"
    },
    {
      "business_status": "OPERATIONAL",
      "geometry": {
        "location": {
          "lat": 40.745294,
          "lng": -73.9534122
        },
        "viewport": {
          "northeast": {
            "lat": 40.74662748029149,
            "lng": -73.95198351970849
          },
          "southwest": {
            "lat": 40.7439295197085,
            "lng": -73.95468148029151
          }
        }
      },
      "icon": "https://maps.gstatic.com/mapfiles/place_api/icons/v1/png_71/restaurant-71.png",
      "icon_background_color": "#FF9E67",
      "icon_mask_base_uri": "https://maps.gstatic.com/mapfiles/place_api/icons/v2/restaurant_pinlet",
      "name": "Blend LIC",
      "opening_hours": {
        "open_now": true
      },
      "photos": [
        {
          "height": 341,
          "html_attributions": [
            "<a href=\"https://maps.google.com/maps/contrib/107277965028776656754\">Blend LIC</a>"
          ],
          "photo_reference": "AeJbb3dXTwHJLw9copU-15PybbuA6Ye4yTk7bASIB24S8IFOFPfKY4xVpppBFkyIRckxLQnGSLxiMTkx9EMixV_WzVdXVwjmgGuFXO_UT-lkGfOUwRRop11-RvjuFLnwua6_86GOP2rH4klEoaOvpOJunWT8JwaF1EEle6fxugS-zgVQDpvC",
          "width": 512
        }
      ],
      "place_id": "ChIJEdfcByRZwokRQe04uT7LBNY",
      "plus_code": {
        "compound_code": "P2WW+4J \u7f8e\u570b\u7d10\u7d04",
        "global_code": "87G8P2WW+4J"
      },
      "price_level": 2,
      "rating": 4.3,
      "reference": "ChIJEdfcByRZwokRQe04uT7LBNY",
      "scope": "GOOGLE",
      "types": [
        "restaurant",
        "point_of_interest",
        "food",
        "establishment"
      ],
      "user_ratings_total": 1071,
      "vicinity": "47-04 Vernon Boulevard, Long Island City"
    },
    {
      "business_status": "OPERATIONAL",
      "geometry": {
        "location": {
          "lat": 40.7425899,
          "lng": -73.9538049
        },
        "viewport": {
          "northeast": {
            "lat": 40.7439752302915,
            "lng": -73.95242021970849
          },
          "southwest": {
            "lat": 40.7412772697085,
            "lng": -73.95511818029149
          }
        }
      },
      "icon": "https://maps.gstatic.com/mapfiles/place_api/icons/v1/png_71/restaurant-71.png",
      "icon_background_color": "#FF9E67",
      "icon_mask_base_uri": "https://maps.gstatic.com/mapfiles/place_api/icons/v2/restaurant_pinlet",
      "name": "Caf\u00e9 Henri",
      "opening_hours": {
        "open_now": true
      },
      "photos": [
        {
          "height": 1536,
          "html_attributions": [
            "<a href=\"https://maps.google.com/maps/contrib/106285192528850904499\">Caf\u00e9 Henri</a>"
          ],
          "photo_reference": "AeJbb3ci6ddD0uaRIRqhW-sfjsVYiVsSNk7W-dU1UqAbreZoTyfsKtX9apiJUsFlpO74zyd8ub6z4Z4NrgFMSsMkkUkf9oGWWSkjrfHc5NPJ9OK9iaE2h1x5WLGUzB_cu_z_Tdva7bcFmhY0PSZQ-OfVmpPxkgKd436OmWTfvryZM1M9a24w",
          "width": 2048
        }
      ],
      "place_id": "ChIJI8QZECNZwokRJ6nKtIJ_gCw",
      "plus_code": {
        "compound_code": "P2VW+2F \u7f8e\u570b\u7d10\u7d04",
        "global_code": "87G8P2VW+2F"
      },
      "price_level": 2,
      "rating": 4.5,
      "reference": "ChIJI8QZECNZwokRJ6nKtIJ_gCw",
      "scope": "GOOGLE",
      "types": [
        "restaurant",
        "point_of_interest",
        "food",
        "establishment"
      ],
      "user_ratings_total": 802,
      "vicinity": "1010 50th Avenue, Queens"
    },
    {
      "business_status": "OPERATIONAL",
      "geometry": {
        "location": {
          "lat": 40.74529699999999,
          "lng": -73.95116
        },
        "viewport": {
          "northeast": {
            "lat": 40.7465552802915,
            "lng": -73.94984151970849
          },
          "southwest": {
            "lat": 40.7438573197085,
            "lng": -73.95253948029149
          }
        }
      },
      "icon": "https://maps.gstatic.com/mapfiles/place_api/icons/v1/png_71/generic_business-71.png",
      "icon_background_color": "#7B9EB0",
      "icon_mask_base_uri": "https://maps.gstatic.com/mapfiles/place_api/icons/v2/generic_pinlet",
      "name": "Fortress of Evil",
      "place_id": "ChIJqYAxLa5ZwokR8mlwONel0WI",
      "plus_code": {
        "compound_code": "P2WX+4G \u7f8e\u570b\u7d10\u7d04\u9577\u5cf6\u5e02",
        "global_code": "87G8P2WX+4G"
      },
      "reference": "ChIJqYAxLa5ZwokR8mlwONel0WI",
      "scope": "GOOGLE",
      "types": [
        "point_of_interest",
        "establishment"
      ],
      "vicinity": "1055 47th Avenue, Long Island City"
    },
    {
      "business_status": "OPERATIONAL",
      "geometry": {
        "location": {
          "lat": 40.742391,
          "lng": -73.9543966
        },
        "viewport": {
          "northeast": {
            "lat": 40.74372213029151,
            "lng": -73.9529765697085
          },
          "southwest": {
            "lat": 40.74102416970851,
            "lng": -73.9556745302915
          }
        }
      },
      "icon": "https://maps.gstatic.com/mapfiles/place_api/icons/v1/png_71/restaurant-71.png",
      "icon_background_color": "#FF9E67",
      "icon_mask_base_uri": "https://maps.gstatic.com/mapfiles/place_api/icons/v2/restaurant_pinlet",
      "name": "Tournesol",
      "opening_hours": {
        "open_now": true
      },
      "photos": [
        {
          "height": 3024,
          "html_attributions": [
            "<a href=\"https://maps.google.com/maps/contrib/105146849516864617727\">Tournesol</a>"
          ],
          "photo_reference": "AeJbb3dh0CnEJjSu8lMBxCZ84_ozWuKfCMQvb2CdX4tU6Jh7SA-G2P29qFeCy4l6RyVCFuFNvXpr-O82zC0zZnrfyjUDf1N53yH4T9NjXAJTUc767hh3BYvSoFDXLKwDKws1yZGmo6hf_JXLmzq6t4XL25XnOANPAPzenszDZud8FahV1M5j",
          "width": 4032
        }
      ],
      "place_id": "ChIJ2zaeXSNZwokRKugqI9AMNjc",
      "plus_code": {
        "compound_code": "P2RW+X6 \u7f8e\u570b\u7d10\u7d04\u9577\u5cf6\u5e02",
        "global_code": "87G8P2RW+X6"
      },
      "price_level": 2,
      "rating": 4.5,
      "reference": "ChIJ2zaeXSNZwokRKugqI9AMNjc",
      "scope": "GOOGLE",
      "types": [
        "restaurant",
        "point_of_interest",
        "food",
        "establishment"
      ],
      "user_ratings_total": 454,
      "vicinity": "50-12 Vernon Boulevard, Long Island City"
    },
    {
      "geometry": {
        "location": {
          "lat": 40.744679,
          "lng": -73.9485424
        },
        "viewport": {
          "northeast": {
            "lat": 40.76305627050633,
            "lng": -73.90948293911667
          },
          "southwest": {
            "lat": 40.727849032336,
            "lng": -73.96285774645361
          }
        }
      },
      "icon": "https://maps.gstatic.com/mapfiles/place_api/icons/v1/png_71/geocode-71.png",
      "icon_background_color": "#7B9EB0",
      "icon_mask_base_uri": "https://maps.gstatic.com/mapfiles/place_api/icons/v2/generic_pinlet",
      "name": "\u9577\u5cf6\u5e02",
      "photos": [
        {
          "height": 3000,
          "html_attributions": [
            "<a href=\"https://maps.google.com/maps/contrib/106309005578646235768\">love alter</a>"
          ],
          "photo_reference": "AeJbb3drsLcPLbgZtpzMOR9aMrrdviGlM5x--CN_YuJockH87oQYMCrkhN6kj_XlVtmCEow2g3zKg_3Is8v_ORB_D7CDa6BHT9eAxxAZU_c8HEikLPdDugMO7XpjBFS1E3VDNxSt8a5ngPjbcRUkO6U0r7BXtes9C5mCQ0rXwvRE5l9x2zHm",
          "width": 4000
        }
      ],
      "place_id": "ChIJWbG6xytZwokRMY7uxcRsFVY",
      "reference": "ChIJWbG6xytZwokRMY7uxcRsFVY",
      "scope": "GOOGLE",
      "types": [
        "neighborhood",
        "political"
      ],
      "vicinity": "\u7687\u540e\u5340"
    },
    {
      "business_status": "OPERATIONAL",
      "geometry": {
        "location": {
          "lat": 40.7450891,
          "lng": -73.94811779999999
        },
        "viewport": {
          "northeast": {
            "lat": 40.74644938029149,
            "lng": -73.94682511970849
          },
          "southwest": {
            "lat": 40.7437514197085,
            "lng": -73.9495230802915
          }
        }
      },
      "icon": "https://maps.gstatic.com/mapfiles/place_api/icons/v1/png_71/generic_business-71.png",
      "icon_background_color": "#7B9EB0",
      "icon_mask_base_uri": "https://maps.gstatic.com/mapfiles/place_api/icons/v2/generic_pinlet",
      "name": "CEBI Management Inc",
      "opening_hours": {
        "open_now": true
      },
      "place_id": "ChIJ6dOu-yVZwokRV2bC6RiC_o8",
      "plus_code": {
        "compound_code": "P3W2+2Q New York, NY, USA",
        "global_code": "87G8P3W2+2Q"
      },
      "reference": "ChIJ6dOu-yVZwokRV2bC6RiC_o8",
      "scope": "GOOGLE",
      "types": [
        "gas_station",
        "car_repair",
        "point_of_interest",
        "establishment"
      ],
      "vicinity": "2117 Jackson Avenue, Queens"
    },
    {
      "business_status": "OPERATIONAL",
      "geometry": {
        "location": {
          "lat": 40.7456492,
          "lng": -73.948565
        },
        "viewport": {
          "northeast": {
            "lat": 40.7469807802915,
            "lng": -73.9470409697085
          },
          "southwest": {
            "lat": 40.7442828197085,
            "lng": -73.9497389302915
          }
        }
      },
      "icon": "https://maps.gstatic.com/mapfiles/place_api/icons/v1/png_71/generic_business-71.png",
      "icon_background_color": "#7B9EB0",
      "icon_mask_base_uri": "https://maps.gstatic.com/mapfiles/place_api/icons/v2/generic_pinlet",
      "name": "American Postal Workers Union",
      "place_id": "ChIJZ8yxBSZZwokRErmwD18MNTo",
      "plus_code": {
        "compound_code": "P3W2+7H Long Island City, Queens, NY, USA",
        "global_code": "87G8P3W2+7H"
      },
      "rating": 5,
      "reference": "ChIJZ8yxBSZZwokRErmwD18MNTo",
      "scope": "GOOGLE",
      "types": [
        "point_of_interest",
        "establishment"
      ],
      "user_ratings_total": 1,
      "vicinity": "4602 21st Street, Long Island City"
    },
    {
      "business_status": "OPERATIONAL",
      "geometry": {
        "location": {
          "lat": 40.7421472,
          "lng": -73.9505526
        },
        "viewport": {
          "northeast": {
            "lat": 40.7434432302915,
            "lng": -73.94922151970849
          },
          "southwest": {
            "lat": 40.7407452697085,
            "lng": -73.95191948029151
          }
        }
      },
      "icon": "https://maps.gstatic.com/mapfiles/place_api/icons/v1/png_71/shopping-71.png",
      "icon_background_color": "#4B96F3",
      "icon_mask_base_uri": "https://maps.gstatic.com/mapfiles/place_api/icons/v2/shopping_pinlet",
      "name": "Acme Safe Company",
      "opening_hours": {
        "open_now": false
      },
      "photos": [
        {
          "height": 1400,
          "html_attributions": [
            "<a href=\"https://maps.google.com/maps/contrib/100204852307219418713\">Francis Mariani</a>"
          ],
          "photo_reference": "AeJbb3eNEQd5R3PPxgNUvgSTaQKZjzLAoAIgwIm1gqI4Yapz9VM1zVJ8XnQ52jL42ztXonETQ7X3hltc3RwmFwFmExsYDf4_qeGMctW-27fp5sE6R6m6GlR1KnkhOGkxId4pKY-hNCvfMIqy7pMpSg-JWOIfrOonSAlhsdq9PTfO-gfubF4E",
          "width": 1400
        }
      ],
      "place_id": "ChIJ0yjfwa9ZwokRVFSJuzs7vgI",
      "plus_code": {
        "compound_code": "P2RX+VQ Long Island City, Queens, NY, USA",
        "global_code": "87G8P2RX+VQ"
      },
      "rating": 5,
      "reference": "ChIJ0yjfwa9ZwokRVFSJuzs7vgI",
      "scope": "GOOGLE",
      "types": [
        "point_of_interest",
        "store",
        "establishment"
      ],
      "user_ratings_total": 3,
      "vicinity": "11-23 50th Avenue, Long Island City"
    },
    {
      "business_status": "OPERATIONAL",
      "geometry": {
        "location": {
          "lat": 40.7435521,
          "lng": -73.9536626
        },
        "viewport": {
          "northeast": {
            "lat": 40.7449237802915,
            "lng": -73.9523895697085
          },
          "southwest": {
            "lat": 40.7422258197085,
            "lng": -73.95508753029151
          }
        }
      },
      "icon": "https://maps.gstatic.com/mapfiles/place_api/icons/v1/png_71/bar-71.png",
      "icon_background_color": "#FF9E67",
      "icon_mask_base_uri": "https://maps.gstatic.com/mapfiles/place_api/icons/v2/bar_pinlet",
      "name": "Dominie's Hoek",
      "opening_hours": {
        "open_now": true
      },
      "photos": [
        {
          "height": 2268,
          "html_attributions": [
            "<a href=\"https://maps.google.com/maps/contrib/111612673545066792039\">Susan Rice</a>"
          ],
          "photo_reference": "AeJbb3c4N-Gv9R34OxZfgT1eci2LA2y9APNB_otF_y4xujeq0uv01sj_2gI83NE-qfN5nEAwPe_BkamW_xcYErs7VyeEBWvmUcxmktL0n6L50TkYm7w0m7llnmC6dxqqbfRPfy4SNdVpQyaOdwhRyzjaGj0rIjbL2HjfhpN_MUKxMSv7gVgE",
          "width": 4032
        }
      ],
      "place_id": "ChIJ4xXcfyRZwokR6w0QtAvz340",
      "plus_code": {
        "compound_code": "P2VW+CG New York, NY, USA",
        "global_code": "87G8P2VW+CG"
      },
      "price_level": 1,
      "rating": 4.4,
      "reference": "ChIJ4xXcfyRZwokR6w0QtAvz340",
      "scope": "GOOGLE",
      "types": [
        "bar",
        "point_of_interest",
        "establishment"
      ],
      "user_ratings_total": 278,
      "vicinity": "48-17 Vernon Boulevard, Queens"
    },
    {
      "business_status": "OPERATIONAL",
      "geometry": {
        "location": {
          "lat": 40.739372,
          "lng": -73.94560109999999
        },
        "viewport": {
          "northeast": {
            "lat": 40.7408384302915,
            "lng": -73.94425516970848
          },
          "southwest": {
            "lat": 40.7381404697085,
            "lng": -73.94695313029149
          }
        }
      },
      "icon": "https://maps.gstatic.com/mapfiles/place_api/icons/v1/png_71/generic_business-71.png",
      "icon_background_color": "#7B9EB0",
      "icon_mask_base_uri": "https://maps.gstatic.com/mapfiles/place_api/icons/v2/generic_pinlet",
      "name": "Swing Staging LLC",
      "opening_hours": {
        "open_now": false
      },
      "photos": [
        {
          "height": 1584,
          "html_attributions": [
            "<a href=\"https://maps.google.com/maps/contrib/108918866105292993853\">Swing Staging LLC</a>"
          ],
          "photo_reference": "AeJbb3doQwOBlx09-GyN5JyENB4iyAQeWFAHfUaqasXfDgQI2vU6erCDJbZ9ioLVD87-RkUaPOULK1fuF5yV6XENUMbMYPxALoVsLh2Wl_fJJ6peHVoJ-g2N7z8xxeizuE0EsDWdqI8afAtdCm82q-Rxdm-jQ0izDV2M3WHY7DVVvZJTbOif",
          "width": 2813
        }
      ],
      "place_id": "ChIJpZ2XrzJZwokRZMvNdoctWrE",
      "plus_code": {
        "compound_code": "P3Q3+PQ Long Island City, Queens, NY, USA",
        "global_code": "87G8P3Q3+PQ"
      },
      "rating": 4.2,
      "reference": "ChIJpZ2XrzJZwokRZMvNdoctWrE",
      "scope": "GOOGLE",
      "types": [
        "point_of_interest",
        "establishment"
      ],
      "user_ratings_total": 59,
      "vicinity": "25-20 Borden Avenue, Long Island City"
    },
    {
      "business_status": "OPERATIONAL",
      "geometry": {
        "location": {
          "lat": 40.7459697,
          "lng": -73.9468878
        },
        "viewport": {
          "northeast": {
            "lat": 40.7472456802915,
            "lng": -73.94549146970849
          },
          "southwest": {
            "lat": 40.7445477197085,
            "lng": -73.9481894302915
          }
        }
      },
      "icon": "https://maps.gstatic.com/mapfiles/place_api/icons/v1/png_71/bank-71.png",
      "icon_background_color": "#909CE1",
      "icon_mask_base_uri": "https://maps.gstatic.com/mapfiles/place_api/icons/v2/bank-intl_pinlet",
      "name": "TD Bank",
      "opening_hours": {
        "open_now": false
      },
      "photos": [
        {
          "height": 3024,
          "html_attributions": [
            "<a href=\"https://maps.google.com/maps/contrib/113020832504068736638\">Miriam Noyola</a>"
          ],
          "photo_reference": "AeJbb3csPNcDDS8cMzf1DiPPqzwsKlrMIYUO-IHkTPlzNBj9Psqkm2cW3mT_qVladYKfzLhuZO1tp2ZO2_qAgFVhGz40uhsHv-l2KBXhCn1407S22oOM-Oo6ixIx7LbaiBneo1z6nhhW-Rf1TBWol9nCx9uqVyN2bvGdixbmH7_dDLYg3aiq",
          "width": 4032
        }
      ],
      "place_id": "ChIJq9J-vChZwokRELjQvlTHqy0",
      "plus_code": {
        "compound_code": "P3W3+96 New York, NY, USA",
        "global_code": "87G8P3W3+96"
      },
      "rating": 3.1,
      "reference": "ChIJq9J-vChZwokRELjQvlTHqy0",
      "scope": "GOOGLE",
      "types": [
        "bank",
        "atm",
        "finance",
        "point_of_interest",
        "establishment"
      ],
      "user_ratings_total": 44,
      "vicinity": "2131 46th Avenue, Queens"
    },
    {
      "business_status": "OPERATIONAL",
      "geometry": {
        "location": {
          "lat": 40.74327,
          "lng": -73.95412999999999
        },
        "viewport": {
          "northeast": {
            "lat": 40.7446418302915,
            "lng": -73.95268496970849
          },
          "southwest": {
            "lat": 40.7419438697085,
            "lng": -73.95538293029149
          }
        }
      },
      "icon": "https://maps.gstatic.com/mapfiles/place_api/icons/v1/png_71/shopping-71.png",
      "icon_background_color": "#4B96F3",
      "icon_mask_base_uri": "https://maps.gstatic.com/mapfiles/place_api/icons/v2/shopping_pinlet",
      "name": "Spokesman Cycles",
      "opening_hours": {
        "open_now": true
      },
      "photos": [
        {
          "height": 4032,
          "html_attributions": [
            "<a href=\"https://maps.google.com/maps/contrib/104153135830689959815\">Hao Wang</a>"
          ],
          "photo_reference": "AeJbb3fYK1UwRrnyp7G445VsakPy1Rr6GUlzluJTTe3r5IW5i5pNw0jqtJAu1ZrasSbNgdyj9a7_j-a6eXBOJ2QAITutSsyPbISp8OMVP5wo9y-Dimco0ZM0MQcCKBJiGIxZgHOoDP-wEnWm4UdnVNIoYStaqddVwdysQ3fWzBACAbXPIDlr",
          "width": 3024
        }
      ],
      "place_id": "ChIJRRyIeSNZwokRhE_CKm2aAyE",
      "plus_code": {
        "compound_code": "P2VW+88 Long Island City, Queens, NY, USA",
        "global_code": "87G8P2VW+88"
      },
      "rating": 3.4,
      "reference": "ChIJRRyIeSNZwokRhE_CKm2aAyE",
      "scope": "GOOGLE",
      "types": [
        "bicycle_store",
        "point_of_interest",
        "store",
        "establishment"
      ],
      "user_ratings_total": 84,
      "vicinity": "49-04 Vernon Boulevard, Long Island City"
    },
    {
      "business_status": "OPERATIONAL",
      "geometry": {
        "location": {
          "lat": 40.7407146,
          "lng": -73.9442534
        },
        "viewport": {
          "northeast": {
            "lat": 40.7421203802915,
            "lng": -73.9428852197085
          },
          "southwest": {
            "lat": 40.7394224197085,
            "lng": -73.94558318029151
          }
        }
      },
      "icon": "https://maps.gstatic.com/mapfiles/place_api/icons/v1/png_71/generic_business-71.png",
      "icon_background_color": "#7B9EB0",
      "icon_mask_base_uri": "https://maps.gstatic.com/mapfiles/place_api/icons/v2/generic_pinlet",
      "name": "dvDepot Studio and Equipment Rental House",
      "opening_hours": {
        "open_now": false
      },
      "photos": [
        {
          "height": 1512,
          "html_attributions": [
            "<a href=\"https://maps.google.com/maps/contrib/109955796651103287899\">dvDepot Studio and Equipment Rental House</a>"
          ],
          "photo_reference": "AeJbb3e1Al_Vr34IWHPSg9HlOvkSKC9rbN1Us0ZgsDrJH6R0BFk36zok6L09Fo7CRaipkDGIO9Sf1PgHk2vupcurJTG-Le2tvOX0_QgA4MwMCRQ1BOgXFqdwpPruFAH2kyCNIMaI5tVVKBOlr66xosV60e9P6m2b0hWAIkIW1HrU8loYF1zR",
          "width": 2016
        }
      ],
      "place_id": "ChIJFS28vqxZwokRrfF5u0VtY5g",
      "plus_code": {
        "compound_code": "P3R4+77 Long Island City, Queens, NY, USA",
        "global_code": "87G8P3R4+77"
      },
      "rating": 4.8,
      "reference": "ChIJFS28vqxZwokRrfF5u0VtY5g",
      "scope": "GOOGLE",
      "types": [
        "point_of_interest",
        "establishment"
      ],
      "user_ratings_total": 12,
      "vicinity": "25-14 50th Avenue, Long Island City"
    },
    {
      "business_status": "OPERATIONAL",
      "geometry": {
        "location": {
          "lat": 40.7420844,
          "lng": -73.9529986
        },
        "viewport": {
          "northeast": {
            "lat": 40.7434918802915,
            "lng": -73.95176361970849
          },
          "southwest": {
            "lat": 40.7407939197085,
            "lng": -73.95446158029151
          }
        }
      },
      "icon": "https://maps.gstatic.com/mapfiles/place_api/icons/v1/png_71/generic_business-71.png",
      "icon_background_color": "#7B9EB0",
      "icon_mask_base_uri": "https://maps.gstatic.com/mapfiles/place_api/icons/v2/generic_pinlet",
      "name": "New York Irish Center",
      "opening_hours": {
        "open_now": false
      },
      "photos": [
        {
          "height": 3024,
          "html_attributions": [
            "<a href=\"https://maps.google.com/maps/contrib/104711187356553647865\">Unknown User</a>"
          ],
          "photo_reference": "AeJbb3eg5uWZz8x8nzXd7xqxdJWlyUEB2VZi-qheN40yS_c0Pvyavgi9A5c_HrtA9KxpG6OfUmpOZtrYwWKJyelbiyJyB4dwwE3yGI2C0UIiO8Wzuf8yA4RcNDGR3N9sCUHsCBiKnH3oxPcpqz8nZgfR1j7V2xUWlM2xaKk9XCuOEakj1Be2",
          "width": 4032
        }
      ],
      "place_id": "ChIJyeiOoiRZwokR7DrwzKRNlhw",
      "plus_code": {
        "compound_code": "P2RW+RR New York, NY, USA",
        "global_code": "87G8P2RW+RR"
      },
      "rating": 4.7,
      "reference": "ChIJyeiOoiRZwokR7DrwzKRNlhw",
      "scope": "GOOGLE",
      "types": [
        "point_of_interest",
        "establishment"
      ],
      "user_ratings_total": 19,
      "vicinity": "1040 Jackson Avenue # 3, Queens"
    },
    {
      "business_status": "OPERATIONAL",
      "geometry": {
        "location": {
          "lat": 40.74340629999999,
          "lng": -73.95438089999999
        },
        "viewport": {
          "northeast": {
            "lat": 40.7448069302915,
            "lng": -73.95301161970849
          },
          "southwest": {
            "lat": 40.7421089697085,
            "lng": -73.9557095802915
          }
        }
      },
      "icon": "https://maps.gstatic.com/mapfiles/place_api/icons/v1/png_71/restaurant-71.png",
      "icon_background_color": "#FF9E67",
      "icon_mask_base_uri": "https://maps.gstatic.com/mapfiles/place_api/icons/v2/restaurant_pinlet",
      "name": "Casa Enrique",
      "opening_hours": {
        "open_now": true
      },
      "photos": [
        {
          "height": 1188,
          "html_attributions": [
            "<a href=\"https://maps.google.com/maps/contrib/117743134402860826329\">Casa Enrique</a>"
          ],
          "photo_reference": "AeJbb3cO5mU8S8-2TXV7CNBJSSoATvNUeasSrtmPNJ5sGtDqhzdijFe3r-yBQVe3UTCFeT6SuodK-fbvcJQukjzrc7FB9cqPyI3m1N4znZyXs8KrvOScsDicr2jvG_GpQKgu5O9FsWYy9hNcFEh894XW24hA8WK99BtX8_VlvK4Xna7QIt8",
          "width": 2048
        }
      ],
      "place_id": "ChIJv4bbdSNZwokRCgKfDGF8az8",
      "plus_code": {
        "compound_code": "P2VW+96 Long Island City, Queens, NY, USA",
        "global_code": "87G8P2VW+96"
      },
      "price_level": 2,
      "rating": 4.6,
      "reference": "ChIJv4bbdSNZwokRCgKfDGF8az8",
      "scope": "GOOGLE",
      "types": [
        "restaurant",
        "food",
        "point_of_interest",
        "establishment"
      ],
      "user_ratings_total": 2024,
      "vicinity": "5-48 49th Avenue, Long Island City"
    },
    {
      "business_status": "OPERATIONAL",
      "geometry": {
        "location": {
          "lat": 40.7446006,
          "lng": -73.9533343
        },
        "viewport": {
          "northeast": {
            "lat": 40.7459451302915,
            "lng": -73.9520554197085
          },
          "southwest": {
            "lat": 40.7432471697085,
            "lng": -73.95475338029152
          }
        }
      },
      "icon": "https://maps.gstatic.com/mapfiles/place_api/icons/v1/png_71/restaurant-71.png",
      "icon_background_color": "#FF9E67",
      "icon_mask_base_uri": "https://maps.gstatic.com/mapfiles/place_api/icons/v2/restaurant_pinlet",
      "name": "Madera",
      "opening_hours": {
        "open_now": true
      },
      "photos": [
        {
          "height": 4032,
          "html_attributions": [
            "<a href=\"https://maps.google.com/maps/contrib/106876024105410723806\">Catherine Patton</a>"
          ],
          "photo_reference": "AeJbb3da6vqffulvPXDHA0XUmPVlmo6nhfOkSUVXPQ8VS4SqlC1gIm2tMPqThew5PPLsoMDqBZ6RNJqj-bseT3sMp43sXVAXGsHRhITsG0hrTpvN6TS6E3n6jDXFit2gCML2bSz8mK_NLbHfJarmK0LB1JghXs3h8007vTTG-XPTWqaZXC3U",
          "width": 3024
        }
      ],
      "place_id": "ChIJm9ALcyRZwokRiv6uOzTcE0Y",
      "plus_code": {
        "compound_code": "P2VW+RM New York, NY, USA",
        "global_code": "87G8P2VW+RM"
      },
      "price_level": 2,
      "rating": 4.3,
      "reference": "ChIJm9ALcyRZwokRiv6uOzTcE0Y",
      "scope": "GOOGLE",
      "types": [
        "bar",
        "restaurant",
        "food",
        "point_of_interest",
        "establishment"
      ],
      "user_ratings_total": 626,
      "vicinity": "47-29 Vernon Boulevard, Long Island City"
    },
    {
      "business_status": "OPERATIONAL",
      "geometry": {
        "location": {
          "lat": 40.7430384,
          "lng": -73.9546666
        },
        "viewport": {
          "northeast": {
            "lat": 40.7442982802915,
            "lng": -73.95334731970848
          },
          "southwest": {
            "lat": 40.7416003197085,
            "lng": -73.9560452802915
          }
        }
      },
      "icon": "https://maps.gstatic.com/mapfiles/place_api/icons/v1/png_71/civic_building-71.png",
      "icon_background_color": "#7B9EB0",
      "icon_mask_base_uri": "https://maps.gstatic.com/mapfiles/place_api/icons/v2/civic-bldg_pinlet",
      "name": "New York Police Department - 108th Precinct",
      "opening_hours": {
        "open_now": true
      },
      "photos": [
        {
          "height": 1536,
          "html_attributions": [
            "<a href=\"https://maps.google.com/maps/contrib/113647789002726660226\">Stevie K. Carmody</a>"
          ],
          "photo_reference": "AeJbb3ehOhyMiULjwNeIs6nPnY6QkrLmdSdoJ-vJ-4hkczj2Nnp26IRtTirbSlSFwQQ06H_KRZ2qSmPu3EPL8O3FRBgGp2F6Avi85jvirEUp58yuvBtcRNd2Co5-jToAoU6sjp-hSXxF25Jahhn0DCHU-TACFe_oeSOlW8luHU3-gsQweF3g",
          "width": 2048
        }
      ],
      "place_id": "ChIJA2ubbiNZwokRUX4f3J0GF44",
      "plus_code": {
        "compound_code": "P2VW+64 Long Island City, Queens, NY, USA",
        "global_code": "87G8P2VW+64"
      },
      "rating": 2.9,
      "reference": "ChIJA2ubbiNZwokRUX4f3J0GF44",
      "scope": "GOOGLE",
      "types": [
        "police",
        "point_of_interest",
        "establishment"
      ],
      "user_ratings_total": 57,
      "vicinity": "547 50th Avenue, Long Island City"
    },
    {
      "business_status": "OPERATIONAL",
      "geometry": {
        "location": {
          "lat": 40.74651679999999,
          "lng": -73.9476613
        },
        "viewport": {
          "northeast": {
            "lat": 40.74788748029149,
            "lng": -73.9464236197085
          },
          "southwest": {
            "lat": 40.7451895197085,
            "lng": -73.9491215802915
          }
        }
      },
      "icon": "https://maps.gstatic.com/mapfiles/place_api/icons/v1/png_71/worship_general-71.png",
      "icon_background_color": "#7B9EB0",
      "icon_mask_base_uri": "https://maps.gstatic.com/mapfiles/place_api/icons/v2/worship_christian_pinlet",
      "name": "Iglesia Ni Cristo ( Church of Christ) Iglesia De Cristo",
      "opening_hours": {
        "open_now": false
      },
      "photos": [
        {
          "height": 2398,
          "html_attributions": [
            "<a href=\"https://maps.google.com/maps/contrib/106740845827278873381\">Steve</a>"
          ],
          "photo_reference": "AeJbb3dW8R2DqKANW1wHkOnpkT0iW7BloRNzwxoxcaQC68GyLEM4QXoF3s5aU_NHw625N5EeONtTkDie8HhdQiUBiQVIliJoNwYvLD465Y73g6A3CWqL3wzyj1p8jpWwD_zT2YwbTEZRTVGNfpBz9bNt1ti7NrY7yOrmGoS0FKnnrABR3KLv",
          "width": 2997
        }
      ],
      "place_id": "ChIJ4agQICZZwokRvYypmZ-a6_c",
      "plus_code": {
        "compound_code": "P3W2+JW Long Island City, Queens, NY, USA",
        "global_code": "87G8P3W2+JW"
      },
      "rating": 4.6,
      "reference": "ChIJ4agQICZZwokRvYypmZ-a6_c",
      "scope": "GOOGLE",
      "types": [
        "church",
        "place_of_worship",
        "point_of_interest",
        "establishment"
      ],
      "user_ratings_total": 42,
      "vicinity": "45-33 21st Street, Long Island City"
    },
    {
      "business_status": "OPERATIONAL",
      "geometry": {
        "location": {
          "lat": 40.7444253,
          "lng": -73.9538105
        },
        "viewport": {
          "northeast": {
            "lat": 40.7457296802915,
            "lng": -73.95233931970851
          },
          "southwest": {
            "lat": 40.7430317197085,
            "lng": -73.95503728029152
          }
        }
      },
      "icon": "https://maps.gstatic.com/mapfiles/place_api/icons/v1/png_71/generic_business-71.png",
      "icon_background_color": "#7B9EB0",
      "icon_mask_base_uri": "https://maps.gstatic.com/mapfiles/place_api/icons/v2/generic_pinlet",
      "name": "Modern Spaces",
      "opening_hours": {
        "open_now": false
      },
      "place_id": "ChIJt8RTiiNZwokROZ8MCyjhkGs",
      "plus_code": {
        "compound_code": "P2VW+QF New York, NY, USA",
        "global_code": "87G8P2VW+QF"
      },
      "rating": 4.8,
      "reference": "ChIJt8RTiiNZwokROZ8MCyjhkGs",
      "scope": "GOOGLE",
      "types": [
        "real_estate_agency",
        "point_of_interest",
        "establishment"
      ],
      "user_ratings_total": 113,
      "vicinity": "47-42 Vernon Boulevard, Queens"
    },
    {
      "business_status": "OPERATIONAL",
      "geometry": {
        "location": {
          "lat": 40.7466245,
          "lng": -73.9481723
        },
        "viewport": {
          "northeast": {
            "lat": 40.7479450802915,
            "lng": -73.9466778697085
          },
          "southwest": {
            "lat": 40.7452471197085,
            "lng": -73.94937583029152
          }
        }
      },
      "icon": "https://maps.gstatic.com/mapfiles/place_api/icons/v1/png_71/generic_business-71.png",
      "icon_background_color": "#7B9EB0",
      "icon_mask_base_uri": "https://maps.gstatic.com/mapfiles/place_api/icons/v2/generic_pinlet",
      "name": "A&H Co.",
      "opening_hours": {
        "open_now": false
      },
      "place_id": "ChIJqw5vYapZwokR_ZkI3gRVOnM",
      "plus_code": {
        "compound_code": "P3W2+JP Long Island City, Queens, NY, USA",
        "global_code": "87G8P3W2+JP"
      },
      "reference": "ChIJqw5vYapZwokR_ZkI3gRVOnM",
      "scope": "GOOGLE",
      "types": [
        "point_of_interest",
        "store",
        "establishment"
      ],
      "vicinity": "4528 21st Street 2nd fl rm 9, Long Island City"
    },
    {
      "business_status": "CLOSED_TEMPORARILY",
      "geometry": {
        "location": {
          "lat": 40.740824,
          "lng": -73.9472004
        },
        "viewport": {
          "northeast": {
            "lat": 40.7421951802915,
            "lng": -73.9459197197085
          },
          "southwest": {
            "lat": 40.7394972197085,
            "lng": -73.9486176802915
          }
        }
      },
      "icon": "https://maps.gstatic.com/mapfiles/place_api/icons/v1/png_71/generic_business-71.png",
      "icon_background_color": "#7B9EB0",
      "icon_mask_base_uri": "https://maps.gstatic.com/mapfiles/place_api/icons/v2/generic_pinlet",
      "name": "Custom Boiler Cleaners Inc",
      "permanently_closed": true,
      "place_id": "ChIJG5MZiZVcwokRgJ6W3nxkAik",
      "plus_code": {
        "compound_code": "P3R3+84 New York, NY, USA",
        "global_code": "87G8P3R3+84"
      },
      "reference": "ChIJG5MZiZVcwokRgJ6W3nxkAik",
      "scope": "GOOGLE",
      "types": [
        "general_contractor",
        "point_of_interest",
        "establishment"
      ],
      "vicinity": "50-23 23rd Street, Queens"
    },
    {
      "business_status": "OPERATIONAL",
      "geometry": {
        "location": {
          "lat": 40.7443415,
          "lng": -73.95373719999999
        },
        "viewport": {
          "northeast": {
            "lat": 40.7456713802915,
            "lng": -73.9523070697085
          },
          "southwest": {
            "lat": 40.7429734197085,
            "lng": -73.9550050302915
          }
        }
      },
      "icon": "https://maps.gstatic.com/mapfiles/place_api/icons/v1/png_71/generic_business-71.png",
      "icon_background_color": "#7B9EB0",
      "icon_mask_base_uri": "https://maps.gstatic.com/mapfiles/place_api/icons/v2/generic_pinlet",
      "name": "Nest Seekers",
      "opening_hours": {
        "open_now": true
      },
      "photos": [
        {
          "height": 1766,
          "html_attributions": [
            "<a href=\"https://maps.google.com/maps/contrib/101404082929743362739\">Nest Seekers</a>"
          ],
          "photo_reference": "AeJbb3d6mVY2iyS8-eUfdp8XKoy7lsa8jyDQ_K3Ge5Tm3RqTMUOr5LUMzc_e3pvVrrg8Mz1FF5cwAQQPqWRBvLX04Mw_wdGV_6qEW029p8EmvvrpKsb6tRhKG8oTlAsntAW149c8hKmb_0ZVCImv7C8q-eIWkbQ95fOBx3HySdshnxE5jws",
          "width": 1512
        }
      ],
      "place_id": "ChIJRW9LiCNZwokRoWE_nP4qKbo",
      "plus_code": {
        "compound_code": "P2VW+PG New York, NY, USA",
        "global_code": "87G8P2VW+PG"
      },
      "rating": 4.7,
      "reference": "ChIJRW9LiCNZwokRoWE_nP4qKbo",
      "scope": "GOOGLE",
      "types": [
        "real_estate_agency",
        "general_contractor",
        "point_of_interest",
        "establishment"
      ],
      "user_ratings_total": 3,
      "vicinity": "47-44 Vernon Boulevard, Queens"
    },
    {
      "business_status": "OPERATIONAL",
      "geometry": {
        "location": {
          "lat": 40.74209070000001,
          "lng": -73.95307609999999
        },
        "viewport": {
          "northeast": {
            "lat": 40.7435039802915,
            "lng": -73.95178496970848
          },
          "southwest": {
            "lat": 40.7408060197085,
            "lng": -73.9544829302915
          }
        }
      },
      "icon": "https://maps.gstatic.com/mapfiles/place_api/icons/v1/png_71/generic_business-71.png",
      "icon_background_color": "#7B9EB0",
      "icon_mask_base_uri": "https://maps.gstatic.com/mapfiles/place_api/icons/v2/generic_pinlet",
      "name": "Irish Examiner Newspapers",
      "place_id": "ChIJyeiOoiRZwokRRzh5X-V77fI",
      "plus_code": {
        "compound_code": "P2RW+RQ Long Island City, Queens, NY, USA",
        "global_code": "87G8P2RW+RQ"
      },
      "rating": 5,
      "reference": "ChIJyeiOoiRZwokRRzh5X-V77fI",
      "scope": "GOOGLE",
      "types": [
        "point_of_interest",
        "establishment"
      ],
      "user_ratings_total": 1,
      "vicinity": "1040 Jackson Avenue, Long Island City"
    },
    {
      "business_status": "OPERATIONAL",
      "geometry": {
        "location": {
          "lat": 40.7408181,
          "lng": -73.9472114
        },
        "viewport": {
          "northeast": {
            "lat": 40.7421922302915,
            "lng": -73.9459252197085
          },
          "southwest": {
            "lat": 40.7394942697085,
            "lng": -73.9486231802915
          }
        }
      },
      "icon": "https://maps.gstatic.com/mapfiles/place_api/icons/v1/png_71/generic_business-71.png",
      "icon_background_color": "#7B9EB0",
      "icon_mask_base_uri": "https://maps.gstatic.com/mapfiles/place_api/icons/v2/generic_pinlet",
      "name": "The Metro Group",
      "opening_hours": {
        "open_now": false
      },
      "photos": [
        {
          "height": 320,
          "html_attributions": [
            "<a href=\"https://maps.google.com/maps/contrib/113818699479278443194\">The Metro Group</a>"
          ],
          "photo_reference": "AeJbb3e5VGBwbSUMZCjgJetppri8kr1_QYrF5_VocDanTBP3W8_moVaga5Z-NGg4m0Y6Ar0D5N9uHmm26GlUm3xlzMfNFe5GXkRYLGDIXwNke9boGNE4NrWiHWbZvbcoajtMhrzH0VoILPjo88kxwZXiMgUIrlRvFzzowb9coRS1kFIaVRJ2",
          "width": 640
        }
      ],
      "place_id": "ChIJeTvKJNRYwokRt7rx9zUCzA4",
      "plus_code": {
        "compound_code": "P3R3+84 Long Island City, Queens, NY, USA",
        "global_code": "87G8P3R3+84"
      },
      "rating": 4,
      "reference": "ChIJeTvKJNRYwokRt7rx9zUCzA4",
      "scope": "GOOGLE",
      "types": [
        "general_contractor",
        "point_of_interest",
        "establishment"
      ],
      "user_ratings_total": 36,
      "vicinity": "50-23 23rd Street, Long Island City"
    },
    {
      "business_status": "OPERATIONAL",
      "geometry": {
        "location": {
          "lat": 40.7408112,
          "lng": -73.949958
        },
        "viewport": {
          "northeast": {
            "lat": 40.7421440802915,
            "lng": -73.94854141970849
          },
          "southwest": {
            "lat": 40.7394461197085,
            "lng": -73.9512393802915
          }
        }
      },
      "icon": "https://maps.gstatic.com/mapfiles/place_api/icons/v1/png_71/generic_business-71.png",
      "icon_background_color": "#7B9EB0",
      "icon_mask_base_uri": "https://maps.gstatic.com/mapfiles/place_api/icons/v2/generic_pinlet",
      "name": "Furniture Transport & Leasing",
      "place_id": "ChIJSasAMiVZwokRot42O_Ca7l8",
      "plus_code": {
        "compound_code": "P3R2+82 Long Island City, Queens, NY, USA",
        "global_code": "87G8P3R2+82"
      },
      "reference": "ChIJSasAMiVZwokRot42O_Ca7l8",
      "scope": "GOOGLE",
      "types": [
        "point_of_interest",
        "establishment"
      ],
      "vicinity": "5102 21st Street #5, Long Island City"
    },
    {
      "business_status": "OPERATIONAL",
      "geometry": {
        "location": {
          "lat": 40.74091589999999,
          "lng": -73.9500942
        },
        "viewport": {
          "northeast": {
            "lat": 40.74223518029149,
            "lng": -73.94859241970849
          },
          "southwest": {
            "lat": 40.7395372197085,
            "lng": -73.9512903802915
          }
        }
      },
      "icon": "https://maps.gstatic.com/mapfiles/place_api/icons/v1/png_71/generic_business-71.png",
      "icon_background_color": "#7B9EB0",
      "icon_mask_base_uri": "https://maps.gstatic.com/mapfiles/place_api/icons/v2/generic_pinlet",
      "name": "Nirvanna Designs Inc",
      "place_id": "ChIJW68AMiVZwokRWcYN1HyeUk4",
      "plus_code": {
        "compound_code": "P2RX+9X New York, NY, USA",
        "global_code": "87G8P2RX+9X"
      },
      "rating": 3,
      "reference": "ChIJW68AMiVZwokRWcYN1HyeUk4",
      "scope": "GOOGLE",
      "types": [
        "store",
        "point_of_interest",
        "establishment"
      ],
      "user_ratings_total": 4,
      "vicinity": "51-02 21st Street, Queens"
    },
    {
      "business_status": "OPERATIONAL",
      "geometry": {
        "location": {
          "lat": 40.7428049,
          "lng": -73.9525831
        },
        "viewport": {
          "northeast": {
            "lat": 40.7440911302915,
            "lng": -73.95117661970849
          },
          "southwest": {
            "lat": 40.7413931697085,
            "lng": -73.9538745802915
          }
        }
      },
      "icon": "https://maps.gstatic.com/mapfiles/place_api/icons/v1/png_71/generic_business-71.png",
      "icon_background_color": "#7B9EB0",
      "icon_mask_base_uri": "https://maps.gstatic.com/mapfiles/place_api/icons/v2/generic_pinlet",
      "name": "Radiator Gallery",
      "opening_hours": {
        "open_now": false
      },
      "photos": [
        {
          "height": 3024,
          "html_attributions": [
            "<a href=\"https://maps.google.com/maps/contrib/116324064461101504020\">Tamas Veszi</a>"
          ],
          "photo_reference": "AeJbb3ff7Ke7-L6DJ5UO8fNcympGsmaB0W27As0HQ2omb06KgIGDCqxic3qh2wuEUMMCS1HEfKt6NlV9kAXVDjNsipS_Ttd9xowhpn-AxJaMNFuB4Rfjupd1d2WV46IGqEE3TM8bjVLFFeEgOCYDuc2GQtwgiBzuWOJh1EyBZsjAIkfX_e-_",
          "width": 4032
        }
      ],
      "place_id": "ChIJlbyHkSRZwokRtne1JNnLmck",
      "plus_code": {
        "compound_code": "P2VW+4X Long Island City, Queens, NY, USA",
        "global_code": "87G8P2VW+4X"
      },
      "rating": 4.3,
      "reference": "ChIJlbyHkSRZwokRtne1JNnLmck",
      "scope": "GOOGLE",
      "types": [
        "art_gallery",
        "point_of_interest",
        "establishment"
      ],
      "user_ratings_total": 6,
      "vicinity": "10-61 Jackson Avenue, Long Island City"
    },
    {
      "business_status": "OPERATIONAL",
      "geometry": {
        "location": {
          "lat": 40.7442832,
          "lng": -73.95401249999999
        },
        "viewport": {
          "northeast": {
            "lat": 40.7455849802915,
            "lng": -73.95268136970849
          },
          "southwest": {
            "lat": 40.7428870197085,
            "lng": -73.95537933029149
          }
        }
      },
      "icon": "https://maps.gstatic.com/mapfiles/place_api/icons/v1/png_71/generic_business-71.png",
      "icon_background_color": "#7B9EB0",
      "icon_mask_base_uri": "https://maps.gstatic.com/mapfiles/place_api/icons/v2/generic_pinlet",
      "name": "Kata Spa",
      "opening_hours": {
        "open_now": true
      },
      "photos": [
        {
          "height": 1920,
          "html_attributions": [
            "<a href=\"https://maps.google.com/maps/contrib/100964142180693289834\">Katie Lee</a>"
          ],
          "photo_reference": "AeJbb3dmWjbfM7Jm-0ISTKiSQ61EFc_ChQL_NppoLbu6V3dlKtOjmCa1M5sApvwezJYjuK70TT-uhlKK_T6xTnosAVPuXdInkp4hDi0YOfavkO2zmP_baDPzGjPnsUn8gh0WeSKWN4c4QeiwqjYX6IWXqml12yBUm5hFAfwCJLEtjQDU2IAG",
          "width": 1080
        }
      ],
      "place_id": "ChIJ3dbBiCNZwokRPFJb4fyUBlw",
      "plus_code": {
        "compound_code": "P2VW+P9 Long Island City, Queens, NY, USA",
        "global_code": "87G8P2VW+P9"
      },
      "rating": 4.3,
      "reference": "ChIJ3dbBiCNZwokRPFJb4fyUBlw",
      "scope": "GOOGLE",
      "types": [
        "spa",
        "point_of_interest",
        "establishment"
      ],
      "user_ratings_total": 64,
      "vicinity": "47-46 Vernon Boulevard, Long Island City"
    },
    {
      "business_status": "OPERATIONAL",
      "geometry": {
        "location": {
          "lat": 40.7426395,
          "lng": -73.9529096
        },
        "viewport": {
          "northeast": {
            "lat": 40.7439251802915,
            "lng": -73.95150316970849
          },
          "southwest": {
            "lat": 40.7412272197085,
            "lng": -73.9542011302915
          }
        }
      },
      "icon": "https://maps.gstatic.com/mapfiles/place_api/icons/v1/png_71/bank-71.png",
      "icon_background_color": "#909CE1",
      "icon_mask_base_uri": "https://maps.gstatic.com/mapfiles/place_api/icons/v2/bank-intl_pinlet",
      "name": "Chase Bank",
      "opening_hours": {
        "open_now": false
      },
      "photos": [
        {
          "height": 2448,
          "html_attributions": [
            "<a href=\"https://maps.google.com/maps/contrib/104821787665909649338\">Dennis Brewster</a>"
          ],
          "photo_reference": "AeJbb3cHW4I9lApU1JMy2gcQ1MOYnJKjWLhT9VAFwDpk45ga5PMjjE7nR0O_dHhY6jtqAwcND7zjqcpkqE_F-CZpaMLYqbM3KO4HnR6O4T5DvXVcus75lC77L8tIKDvCAXTw5zvu_iZ0j9JWGls2bM-_5ZqIF5sqMzfjmfB3sDNW8vgqI80",
          "width": 3264
        }
      ],
      "place_id": "ChIJCTPpmiRZwokRWPLmEr1Wqck",
      "plus_code": {
        "compound_code": "P2VW+3R New York, NY, USA",
        "global_code": "87G8P2VW+3R"
      },
      "rating": 3.7,
      "reference": "ChIJCTPpmiRZwokRWPLmEr1Wqck",
      "scope": "GOOGLE",
      "types": [
        "bank",
        "atm",
        "finance",
        "point_of_interest",
        "establishment"
      ],
      "user_ratings_total": 34,
      "vicinity": "10-51 Jackson Avenue, Queens"
    },
    {
      "business_status": "OPERATIONAL",
      "geometry": {
        "location": {
          "lat": 40.7432282,
          "lng": -73.9523366
        },
        "viewport": {
          "northeast": {
            "lat": 40.74453258029151,
            "lng": -73.95100211970849
          },
          "southwest": {
            "lat": 40.74183461970851,
            "lng": -73.95370008029151
          }
        }
      },
      "icon": "https://maps.gstatic.com/mapfiles/place_api/icons/v1/png_71/generic_business-71.png",
      "icon_background_color": "#7B9EB0",
      "icon_mask_base_uri": "https://maps.gstatic.com/mapfiles/place_api/icons/v2/generic_pinlet",
      "name": "Lowy & Donnath",
      "place_id": "ChIJTx5XiiRZwokRTLQlxy9_R68",
      "plus_code": {
        "compound_code": "P2VX+73 Long Island City, Queens, NY, USA",
        "global_code": "87G8P2VX+73"
      },
      "rating": 4,
      "reference": "ChIJTx5XiiRZwokRTLQlxy9_R68",
      "scope": "GOOGLE",
      "types": [
        "electrician",
        "point_of_interest",
        "establishment"
      ],
      "user_ratings_total": 4,
      "vicinity": "1037 49th Avenue, Long Island City"
    },
    {
      "business_status": "OPERATIONAL",
      "geometry": {
        "location": {
          "lat": 40.7461801,
          "lng": -73.9483146
        },
        "viewport": {
          "northeast": {
            "lat": 40.7474597302915,
            "lng": -73.9469891697085
          },
          "southwest": {
            "lat": 40.7447617697085,
            "lng": -73.94968713029151
          }
        }
      },
      "icon": "https://maps.gstatic.com/mapfiles/place_api/icons/v1/png_71/generic_business-71.png",
      "icon_background_color": "#7B9EB0",
      "icon_mask_base_uri": "https://maps.gstatic.com/mapfiles/place_api/icons/v2/generic_pinlet",
      "name": "Asymptote Architecture",
      "photos": [
        {
          "height": 1500,
          "html_attributions": [
            "<a href=\"https://maps.google.com/maps/contrib/116365843808688390145\">Arthurious</a>"
          ],
          "photo_reference": "AeJbb3c_CiO9aGrFiOpYGSIvdlCpUWOFqC2m-d1N3UDfKGAndN3qDsZexJW-Ub9x8gpFANjrZwUFgYjhkTDr6QfLZ-UOhkJ5Wcg-YZo3tWs44GAOKqMu2i5e8RoMeavJvS6VYjKaNbZ3Dm5etBUPXoSsnXPZRsleN6EY8m-UG5A-1NmNNEKK",
          "width": 1000
        }
      ],
      "place_id": "ChIJ55urJI1ZwokRlxtSKVWa4us",
      "plus_code": {
        "compound_code": "P3W2+FM Long Island City, Queens, NY, USA",
        "global_code": "87G8P3W2+FM"
      },
      "rating": 3.7,
      "reference": "ChIJ55urJI1ZwokRlxtSKVWa4us",
      "scope": "GOOGLE",
      "types": [
        "point_of_interest",
        "establishment"
      ],
      "user_ratings_total": 3,
      "vicinity": "11-45 46th Avenue, Long Island City"
    },
    {
      "business_status": "OPERATIONAL",
      "geometry": {
        "location": {
          "lat": 40.7418441,
          "lng": -73.9522247
        },
        "viewport": {
          "northeast": {
            "lat": 40.7431320802915,
            "lng": -73.95088146970849
          },
          "southwest": {
            "lat": 40.7404341197085,
            "lng": -73.9535794302915
          }
        }
      },
      "icon": "https://maps.gstatic.com/mapfiles/place_api/icons/v1/png_71/generic_business-71.png",
      "icon_background_color": "#7B9EB0",
      "icon_mask_base_uri": "https://maps.gstatic.com/mapfiles/place_api/icons/v2/generic_pinlet",
      "name": "Doug Holt Photography Studios - Fashion, Still Life, ECommerce and Product",
      "opening_hours": {
        "open_now": false
      },
      "photos": [
        {
          "height": 3000,
          "html_attributions": [
            "<a href=\"https://maps.google.com/maps/contrib/114663322389524841475\">Doug Holt Photography Studios - Fashion, Still Life, ECommerce and Product</a>"
          ],
          "photo_reference": "AeJbb3ezUfuFjITkajtNnGpYAxeWghE9NYFkDsyeOS1r-PYObjm2NCdYA3MQd6Nm-5Y8CLMKKdp8WZAEO0of5FIgBDmV2_550maXvaiB1QDoNpatpyx7wJ6QOrsz3c_Sn6_5aDgG9AK82n4b5hfvLi3Cw1dLXGuAmX44likQy57E3qa9T-C2",
          "width": 6000
        }
      ],
      "place_id": "ChIJubY9MiVZwokRJfCXn_orhGU",
      "plus_code": {
        "compound_code": "P2RX+P4 New York, NY, USA",
        "global_code": "87G8P2RX+P4"
      },
      "rating": 4.8,
      "reference": "ChIJubY9MiVZwokRJfCXn_orhGU",
      "scope": "GOOGLE",
      "types": [
        "point_of_interest",
        "establishment"
      ],
      "user_ratings_total": 5,
      "vicinity": "5102 21st Street Studio 3E, Queens"
    },
    {
      "business_status": "OPERATIONAL",
      "geometry": {
        "location": {
          "lat": 40.7453203,
          "lng": -73.9490675
        },
        "viewport": {
          "northeast": {
            "lat": 40.7467294302915,
            "lng": -73.94770986970849
          },
          "southwest": {
            "lat": 40.7440314697085,
            "lng": -73.9504078302915
          }
        }
      },
      "icon": "https://maps.gstatic.com/mapfiles/place_api/icons/v1/png_71/generic_business-71.png",
      "icon_background_color": "#7B9EB0",
      "icon_mask_base_uri": "https://maps.gstatic.com/mapfiles/place_api/icons/v2/generic_pinlet",
      "name": "Manhattan Cooling Towers Inc",
      "place_id": "ChIJo0deCiZZwokRR11XVQefVd0",
      "plus_code": {
        "compound_code": "P3W2+49 Long Island City, Queens, NY, USA",
        "global_code": "87G8P3W2+49"
      },
      "reference": "ChIJo0deCiZZwokRR11XVQefVd0",
      "scope": "GOOGLE",
      "types": [
        "general_contractor",
        "point_of_interest",
        "establishment"
      ],
      "vicinity": "1142 46th Road, Long Island City"
    },
    {
      "business_status": "OPERATIONAL",
      "geometry": {
        "location": {
          "lat": 40.74091589999999,
          "lng": -73.9500942
        },
        "viewport": {
          "northeast": {
            "lat": 40.74223518029149,
            "lng": -73.94859241970849
          },
          "southwest": {
            "lat": 40.7395372197085,
            "lng": -73.9512903802915
          }
        }
      },
      "icon": "https://maps.gstatic.com/mapfiles/place_api/icons/v1/png_71/generic_business-71.png",
      "icon_background_color": "#7B9EB0",
      "icon_mask_base_uri": "https://maps.gstatic.com/mapfiles/place_api/icons/v2/generic_pinlet",
      "name": "Bayfield Importing Ltd",
      "photos": [
        {
          "height": 409,
          "html_attributions": [
            "<a href=\"https://maps.google.com/maps/contrib/113616368235271564977\">Bayfield Importing Ltd</a>"
          ],
          "photo_reference": "AeJbb3dwYPuvVysqPfWsfrKto33AluO7WrMr71pJ2rEuKDaZc8kH1ntRQaTxgPSa2MPTa_sJhy3mIJxcvX8Xq1fWfU43ylNQ3kxAvuIMytq8LNBtLliknFkrwfEplnV0bTDRW3a1Nbpn8Hl0PtKxye1Y_ORHbmMHoHlzgJURob1t_KNCPwDX",
          "width": 506
        }
      ],
      "place_id": "ChIJUUoHMiVZwokRcpmOaPz3XOg",
      "plus_code": {
        "compound_code": "P2RX+9X Long Island City, Queens, NY, USA",
        "global_code": "87G8P2RX+9X"
      },
      "reference": "ChIJUUoHMiVZwokRcpmOaPz3XOg",
      "scope": "GOOGLE",
      "types": [
        "lawyer",
        "point_of_interest",
        "establishment"
      ],
      "vicinity": "5102 21st Street, Long Island City"
    },
    {
      "business_status": "OPERATIONAL",
      "geometry": {
        "location": {
          "lat": 40.7400988,
          "lng": -73.94654899999999
        },
        "viewport": {
          "northeast": {
            "lat": 40.74130458029151,
            "lng": -73.94524826970849
          },
          "southwest": {
            "lat": 40.73860661970851,
            "lng": -73.94794623029149
          }
        }
      },
      "icon": "https://maps.gstatic.com/mapfiles/place_api/icons/v1/png_71/generic_business-71.png",
      "icon_background_color": "#7B9EB0",
      "icon_mask_base_uri": "https://maps.gstatic.com/mapfiles/place_api/icons/v2/generic_pinlet",
      "name": "Sanova Polytech Inc",
      "place_id": "ChIJW7VtHjBZwokRr5dQb25LaV8",
      "plus_code": {
        "compound_code": "P3R3+29 Long Island City, Queens, NY, USA",
        "global_code": "87G8P3R3+29"
      },
      "reference": "ChIJW7VtHjBZwokRr5dQb25LaV8",
      "scope": "GOOGLE",
      "types": [
        "point_of_interest",
        "establishment"
      ],
      "vicinity": "2323 Borden Avenue # E, Long Island City"
    },
    {
      "business_status": "OPERATIONAL",
      "geometry": {
        "location": {
          "lat": 40.7437788,
          "lng": -73.9507462
        },
        "viewport": {
          "northeast": {
            "lat": 40.7450556802915,
            "lng": -73.94933286970848
          },
          "southwest": {
            "lat": 40.7423577197085,
            "lng": -73.9520308302915
          }
        }
      },
      "icon": "https://maps.gstatic.com/mapfiles/place_api/icons/v1/png_71/generic_business-71.png",
      "icon_background_color": "#7B9EB0",
      "icon_mask_base_uri": "https://maps.gstatic.com/mapfiles/place_api/icons/v2/generic_pinlet",
      "name": "Big Brokerage Inc",
      "place_id": "ChIJs3wYTSRZwokRmcdJdx-W1D4",
      "plus_code": {
        "compound_code": "P2VX+GP New York, NY, USA",
        "global_code": "87G8P2VX+GP"
      },
      "reference": "ChIJs3wYTSRZwokRmcdJdx-W1D4",
      "scope": "GOOGLE",
      "types": [
        "insurance_agency",
        "point_of_interest",
        "establishment"
      ],
      "vicinity": "12-07 Jackson Avenue, Queens"
    },
    {
      "business_status": "OPERATIONAL",
      "geometry": {
        "location": {
          "lat": 40.7438491,
          "lng": -73.9504559
        },
        "viewport": {
          "northeast": {
            "lat": 40.7451533302915,
            "lng": -73.9490648697085
          },
          "southwest": {
            "lat": 40.7424553697085,
            "lng": -73.95176283029151
          }
        }
      },
      "icon": "https://maps.gstatic.com/mapfiles/place_api/icons/v1/png_71/generic_business-71.png",
      "icon_background_color": "#7B9EB0",
      "icon_mask_base_uri": "https://maps.gstatic.com/mapfiles/place_api/icons/v2/generic_pinlet",
      "name": "Manhattan Display & Fixture Co",
      "place_id": "ChIJjRCrsyVZwokRRzDkG3EC7TA",
      "plus_code": {
        "compound_code": "P2VX+GR Long Island City, Queens, NY, USA",
        "global_code": "87G8P2VX+GR"
      },
      "rating": 4,
      "reference": "ChIJjRCrsyVZwokRRzDkG3EC7TA",
      "scope": "GOOGLE",
      "types": [
        "point_of_interest",
        "establishment"
      ],
      "user_ratings_total": 1,
      "vicinity": "1215 Jackson Avenue B, Long Island City"
    },
    {
      "business_status": "CLOSED_TEMPORARILY",
      "geometry": {
        "location": {
          "lat": 40.74467899999999,
          "lng": -73.9485424
        },
        "viewport": {
          "northeast": {
            "lat": 40.7460159302915,
            "lng": -73.9471846197085
          },
          "southwest": {
            "lat": 40.7433179697085,
            "lng": -73.9498825802915
          }
        }
      },
      "icon": "https://maps.gstatic.com/mapfiles/place_api/icons/v1/png_71/generic_business-71.png",
      "icon_background_color": "#7B9EB0",
      "icon_mask_base_uri": "https://maps.gstatic.com/mapfiles/place_api/icons/v2/generic_pinlet",
      "name": "All State Legal",
      "permanently_closed": true,
      "place_id": "ChIJQahc5SVZwokRGJIUK9MyOCk",
      "reference": "ChIJQahc5SVZwokRGJIUK9MyOCk",
      "scope": "GOOGLE",
      "types": [
        "point_of_interest",
        "establishment"
      ],
      "vicinity": "Long Island City"
    },
    {
      "business_status": "OPERATIONAL",
      "geometry": {
        "location": {
          "lat": 40.74467899999999,
          "lng": -73.9485424
        },
        "viewport": {
          "northeast": {
            "lat": 40.7460159302915,
            "lng": -73.9471846197085
          },
          "southwest": {
            "lat": 40.7433179697085,
            "lng": -73.9498825802915
          }
        }
      },
      "icon": "https://maps.gstatic.com/mapfiles/place_api/icons/v1/png_71/generic_business-71.png",
      "icon_background_color": "#7B9EB0",
      "icon_mask_base_uri": "https://maps.gstatic.com/mapfiles/place_api/icons/v2/generic_pinlet",
      "name": "Aaa Stamp & Seal Manufacturing Co Inc",
      "place_id": "ChIJQahc5SVZwokRLobRACnwJtw",
      "reference": "ChIJQahc5SVZwokRLobRACnwJtw",
      "scope": "GOOGLE",
      "types": [
        "point_of_interest",
        "establishment"
      ],
      "vicinity": "Long Island City"
    },
    {
      "business_status": "OPERATIONAL",
      "geometry": {
        "location": {
          "lat": 40.74257799999999,
          "lng": -73.9501531
        },
        "viewport": {
          "northeast": {
            "lat": 40.74398478029149,
            "lng": -73.94882736970848
          },
          "southwest": {
            "lat": 40.74128681970849,
            "lng": -73.9515253302915
          }
        }
      },
      "icon": "https://maps.gstatic.com/mapfiles/place_api/icons/v1/png_71/generic_business-71.png",
      "icon_background_color": "#7B9EB0",
      "icon_mask_base_uri": "https://maps.gstatic.com/mapfiles/place_api/icons/v2/generic_pinlet",
      "name": "Optec Communications Inc",
      "place_id": "ChIJz7EecSVZwokRuBNMgTNpi28",
      "plus_code": {
        "compound_code": "P2VX+2W New York, NY, USA",
        "global_code": "87G8P2VX+2W"
      },
      "rating": 5,
      "reference": "ChIJz7EecSVZwokRuBNMgTNpi28",
      "scope": "GOOGLE",
      "types": [
        "point_of_interest",
        "establishment"
      ],
      "user_ratings_total": 3,
      "vicinity": "1134 49th Avenue, Queens"
    },
    {
      "business_status": "OPERATIONAL",
      "geometry": {
        "location": {
          "lat": 40.74412710000001,
          "lng": -73.9491081
        },
        "viewport": {
          "northeast": {
            "lat": 40.7455469302915,
            "lng": -73.9478241697085
          },
          "southwest": {
            "lat": 40.7428489697085,
            "lng": -73.9505221302915
          }
        }
      },
      "icon": "https://maps.gstatic.com/mapfiles/place_api/icons/v1/png_71/generic_business-71.png",
      "icon_background_color": "#7B9EB0",
      "icon_mask_base_uri": "https://maps.gstatic.com/mapfiles/place_api/icons/v2/generic_pinlet",
      "name": "Spring ROC LLC",
      "place_id": "ChIJMRy-6iVZwokRP3lZd_ccDEw",
      "plus_code": {
        "compound_code": "P3V2+M9 New York, NY, USA",
        "global_code": "87G8P3V2+M9"
      },
      "reference": "ChIJMRy-6iVZwokRP3lZd_ccDEw",
      "scope": "GOOGLE",
      "types": [
        "general_contractor",
        "point_of_interest",
        "establishment"
      ],
      "vicinity": "1310 Jackson Avenue, Queens"
    },
    {
      "business_status": "OPERATIONAL",
      "geometry": {
        "location": {
          "lat": 40.74498109999999,
          "lng": -73.951477
        },
        "viewport": {
          "northeast": {
            "lat": 40.74641928029149,
            "lng": -73.95011361970849
          },
          "southwest": {
            "lat": 40.74372131970849,
            "lng": -73.95281158029151
          }
        }
      },
      "icon": "https://maps.gstatic.com/mapfiles/place_api/icons/v1/png_71/generic_business-71.png",
      "icon_background_color": "#7B9EB0",
      "icon_mask_base_uri": "https://maps.gstatic.com/mapfiles/place_api/icons/v2/generic_pinlet",
      "name": "Chase Fire Services - Fire Extinguisher Inspections",
      "opening_hours": {
        "open_now": true
      },
      "photos": [
        {
          "height": 3024,
          "html_attributions": [
            "<a href=\"https://maps.google.com/maps/contrib/105845202196064367049\">Chase Fire Services - Fire Extinguisher Inspections</a>"
          ],
          "photo_reference": "AeJbb3eu9HmQxml36SDbMAopX2XwQruZuAt5hf8xurlAQ0Vxtd5vJqbXaGuztiI_tZREZeWqzaAop0NRf_IaefT0M9M9p2lFZX18KFsDP1kffUDORR9dL73nxLAwJZ7xLRPjkgzDDR5mDSmxctHuBEg7VV2j49fU4dhZI25JWCkgSaLTQsj1",
          "width": 4032
        }
      ],
      "place_id": "ChIJLx9RJSRZwokRfjM8cSnbHLA",
      "plus_code": {
        "compound_code": "P2VX+XC Long Island City, Queens, NY, USA",
        "global_code": "87G8P2VX+XC"
      },
      "rating": 4.8,
      "reference": "ChIJLx9RJSRZwokRfjM8cSnbHLA",
      "scope": "GOOGLE",
      "types": [
        "point_of_interest",
        "establishment"
      ],
      "user_ratings_total": 91,
      "vicinity": "10-46 47th Avenue, Long Island City"
    },
    {
      "business_status": "OPERATIONAL",
      "geometry": {
        "location": {
          "lat": 40.74257799999999,
          "lng": -73.9501531
        },
        "viewport": {
          "northeast": {
            "lat": 40.74398478029149,
            "lng": -73.94882736970848
          },
          "southwest": {
            "lat": 40.74128681970849,
            "lng": -73.9515253302915
          }
        }
      },
      "icon": "https://maps.gstatic.com/mapfiles/place_api/icons/v1/png_71/shopping-71.png",
      "icon_background_color": "#4B96F3",
      "icon_mask_base_uri": "https://maps.gstatic.com/mapfiles/place_api/icons/v2/shopping_pinlet",
      "name": "TEC Electronics Component",
      "opening_hours": {
        "open_now": true
      },
      "place_id": "ChIJz7EecSVZwokROE6JviMh9_s",
      "plus_code": {
        "compound_code": "P2VX+2W New York, NY, USA",
        "global_code": "87G8P2VX+2W"
      },
      "rating": 4,
      "reference": "ChIJz7EecSVZwokROE6JviMh9_s",
      "scope": "GOOGLE",
      "types": [
        "electronics_store",
        "store",
        "point_of_interest",
        "establishment"
      ],
      "user_ratings_total": 2,
      "vicinity": "1134 49th Avenue, Queens"
    },
    {
      "business_status": "OPERATIONAL",
      "geometry": {
        "location": {
          "lat": 40.74226410000001,
          "lng": -73.9491212
        },
        "viewport": {
          "northeast": {
            "lat": 40.7436911802915,
            "lng": -73.9475405697085
          },
          "southwest": {
            "lat": 40.7409932197085,
            "lng": -73.95023853029151
          }
        }
      },
      "icon": "https://maps.gstatic.com/mapfiles/place_api/icons/v1/png_71/generic_business-71.png",
      "icon_background_color": "#7B9EB0",
      "icon_mask_base_uri": "https://maps.gstatic.com/mapfiles/place_api/icons/v2/generic_pinlet",
      "name": "The Paragon Building",
      "photos": [
        {
          "height": 4032,
          "html_attributions": [
            "<a href=\"https://maps.google.com/maps/contrib/113267333098746343308\">William Garaicoa</a>"
          ],
          "photo_reference": "AeJbb3eSYyMI-cOuc5j42gWotaxRv9x6Niqvw8U-mFfIWbaZ1VaYEExsl-qTUU8GDeaHcOjCpUh1h9J13zwL-xuwtZPkSmcH14q1HzgIDZnrOZM0KbjMtHdpZNBZRzjJQDN2p4yJNwnW54NLev-6l3VzIDTaSLyGUKYh2cxZ5dTCsKjmUcV9",
          "width": 3024
        }
      ],
      "place_id": "ChIJLzWgciVZwokRRwOEvsilaY8",
      "plus_code": {
        "compound_code": "P3R2+W9 Long Island City, Queens, NY, USA",
        "global_code": "87G8P3R2+W9"
      },
      "rating": 4.4,
      "reference": "ChIJLzWgciVZwokRRwOEvsilaY8",
      "scope": "GOOGLE",
      "types": [
        "point_of_interest",
        "establishment"
      ],
      "user_ratings_total": 23,
      "vicinity": "2100 49th Avenue, Long Island City"
    },
    {
      "business_status": "OPERATIONAL",
      "geometry": {
        "location": {
          "lat": 40.74371660000001,
          "lng": -73.9492496
        },
        "viewport": {
          "northeast": {
            "lat": 40.7449429302915,
            "lng": -73.94814425
          },
          "southwest": {
            "lat": 40.7422449697085,
            "lng": -73.95096284999998
          }
        }
      },
      "icon": "https://maps.gstatic.com/mapfiles/place_api/icons/v1/png_71/generic_business-71.png",
      "icon_background_color": "#7B9EB0",
      "icon_mask_base_uri": "https://maps.gstatic.com/mapfiles/place_api/icons/v2/generic_pinlet",
      "name": "ADT Security Services",
      "opening_hours": {
        "open_now": false
      },
      "photos": [
        {
          "height": 395,
          "html_attributions": [
            "<a href=\"https://maps.google.com/maps/contrib/104427173974957168007\">ADT Security Services</a>"
          ],
          "photo_reference": "AeJbb3dqMPl3Lb-FJf6mxGUD9aSCTB2jBZPwqiip0bDRFcVGh0VHi7-wfRacR74iXX_jw8LX4YqA1fVDOH4qmfLPsmK86rfEATwTYgffo8IDGbPkFyZ1qvXK9mi3nA2V_KyQG3pDXr-7NnF7pUMpzy03ptUcq8DjqrwiftERC-FZisu-QO3I",
          "width": 1440
        }
      ],
      "place_id": "ChIJURjuliVZwokRkrvO11UtFH4",
      "plus_code": {
        "compound_code": "P3V2+F8 New York, NY, USA",
        "global_code": "87G8P3V2+F8"
      },
      "price_level": 2,
      "rating": 3.1,
      "reference": "ChIJURjuliVZwokRkrvO11UtFH4",
      "scope": "GOOGLE",
      "types": [
        "electronics_store",
        "store",
        "point_of_interest",
        "establishment"
      ],
      "user_ratings_total": 43,
      "vicinity": "47-40 21st Street, Queens"
    }
  ],
  "status": "OK"
}