{
  "html_attributions": [],
  "results": [
    {
      "geometry": {
        "location": {
          "lat": 40.7127753,
          "lng": -74.0059728
        },
        "viewport": {
          "northeast": {
            "lat": 40.91757705070789,
            "lng": -73.70027206817629
          },
          "southwest": {
            "lat": 40.47739906045452,
            "lng": -74.25908991427882
          }
        }
      },
      "icon": "https://maps.gstatic.com/mapfiles/place_api/icons/v1/png_71/geocode-71.png",
      "icon_background_color": "#7B9EB0",
      "icon_mask_base_uri": "https://maps.gstatic.com/mapfiles/place_api/icons/v2/generic_pinlet",
      "name": "\u7d10\u7d04",
      "photos": [
        {
          "height": 600,
          "html_attributions": [
            "<a href=\"https://maps.google.com/maps/contrib/102389334567210814614\">Bukurie</a>"
          ],
          "photo_reference": "AeJbb3euHmBlRs-G6SVv8wg4BUX-WlfkBwM66LFqCVRDy1TxfwrPoded4rZhG1_brnd8Ot5NWorlj1rNJJ-ZmAHGQ6s4aZODBO75QMUEj-0jsP1HqpIxNsgJCdeXi_0OY_cujwW-lbhJP9hT06lFYylAt1_F_1p4yx482lJcTykDXzPyI13P",
          "width": 480
        }
      ],
      "place_id": "ChIJOwg_06VPwokRYv534QaPC8g",
      "reference": "ChIJOwg_06VPwokRYv534QaPC8g",
      "scope": "GOOGLE",
      "types": [
        "locality",
        "political"
      ],
      "vicinity": "\u7d10\u7d04"
    },
    {
      "business_status": "OPERATIONAL",
      "geometry": {
        "location": {
          "lat": 40.7688089,
          "lng": -73.93650989999999
        },
        "viewport": {
          "northeast": {
            "lat": 40.76969710000002,
            "lng": -73.9348142697085
          },
          "southwest": {
            "lat": 40.76687269999999,
            "lng": -73.93751223029152
          }
        }
      },
      "icon": "https://maps.gstatic.com/mapfiles/place_api/icons/v1/png_71/park-71.png",
      "icon_background_color": "#4DB546",
      "icon_mask_base_uri": "https://maps.gstatic.com/mapfiles/place_api/icons/v2/tree_pinlet",
      "name": "Socrates Sculpture Park",
      "opening_hours": {
        "open_now": true
      },
      "photos": [
        {
          "height": 3268,
          "html_attributions": [
            "<a href=\"https://maps.google.com/maps/contrib/105695154851044654287\">Edward I</a>"
          ],
          "photo_reference": "AeJbb3dIa1BqgxH9aqQwGC2zdrOndGSzS8x72Buws7zQipuyTEhrzH91AWGl1h92OX1yIZOyT80WrKNVQmtJMNXK5AlqIOR6irYWAxrE6HafDXh5XCLcg2Q_gvGIi4FYx6YmNgQt6JNhrA-UuQwG90oEEE7uy9n9ZTZND5WDFIayN4j-J2MS",
          "width": 4896
        }
      ],
      "place_id": "ChIJvcjmWLVYwokRFz2FMdi00cA",
      "plus_code": {
        "compound_code": "Q397+G9 \u7f8e\u570b\u7d10\u7d04",
        "global_code": "87G8Q397+G9"
      },
      "rating": 4.3,
      "reference": "ChIJvcjmWLVYwokRFz2FMdi00cA",
      "scope": "GOOGLE",
      "types": [
        "park",
        "point_of_interest",
        "establishment"
      ],
      "user_ratings_total": 1659,
      "vicinity": "32-01 Vernon Boulevard, Queens"
    },
    {
      "business_status": "OPERATIONAL",
      "geometry": {
        "location": {
          "lat": 40.7665748,
          "lng": -73.93365469999999
        },
        "viewport": {
          "northeast": {
            "lat": 40.7678491802915,
            "lng": -73.9324096197085
          },
          "southwest": {
            "lat": 40.7651512197085,
            "lng": -73.9351075802915
          }
        }
      },
      "icon": "https://maps.gstatic.com/mapfiles/place_api/icons/v1/png_71/lodging-71.png",
      "icon_background_color": "#909CE1",
      "icon_mask_base_uri": "https://maps.gstatic.com/mapfiles/place_api/icons/v2/hotel_pinlet",
      "name": "Super 8 by Wyndham Long Island City LGA Hotel",
      "opening_hours": {
        "open_now": true
      },
      "photos": [
        {
          "height": 400,
          "html_attributions": [
            "<a href=\"https://maps.google.com/maps/contrib/114667908319643972269\">Super 8 by Wyndham Long Island City LGA Hotel</a>"
          ],
          "photo_reference": "AeJbb3cEGAaeA9q2HoTrPi3GQhB0_8iSvIwaXHXjnWCohepJ2pzktts_dXJuD39-2J6spkmCTGvEEFIOI1Jy1ITLW9FqyRPpwb2RoEPAawzvJtiwa6yB5XzXfZWxrGC5Favj5C4u40XN5GeP-XMylCMGkkwaxXxvKGeCrncUlrskepKrlQ0",
          "width": 600
        }
      ],
      "place_id": "ChIJk97mgjVfwokRDPgsZDRthjs",
      "plus_code": {
        "compound_code": "Q388+JG \u7f8e\u570b\u7d10\u7d04",
        "global_code": "87G8Q388+JG"
      },
      "rating": 3.4,
      "reference": "ChIJk97mgjVfwokRDPgsZDRthjs",
      "scope": "GOOGLE",
      "types": [
        "lodging",
        "point_of_interest",
        "establishment"
      ],
      "user_ratings_total": 359,
      "vicinity": "31-62 14th Street, Queens"
    },
    {
      "business_status": "OPERATIONAL",
      "geometry": {
        "location": {
          "lat": 40.7728376,
          "lng": -73.93242980000001
        },
        "viewport": {
          "northeast": {
            "lat": 40.77417618029151,
            "lng": -73.9311452197085
          },
          "southwest": {
            "lat": 40.77147821970851,
            "lng": -73.9338431802915
          }
        }
      },
      "icon": "https://maps.gstatic.com/mapfiles/place_api/icons/v1/png_71/generic_business-71.png",
      "icon_background_color": "#7B9EB0",
      "icon_mask_base_uri": "https://maps.gstatic.com/mapfiles/place_api/icons/v2/generic_pinlet",
      "name": "Astoria",
      "photos": [
        {
          "height": 4032,
          "html_attributions": [
            "<a href=\"https://maps.google.com/maps/contrib/118400429071444396576\">Shams Chowdhury</a>"
          ],
          "photo_reference": "AeJbb3cOK2iwTY2uIwjMhQz6XmqjvTqDiQZ54yXcd7wMT5jVxmfl5tCOlt3eJSSeVFSot9JoJDqugI8vUbx1fSAqta22AxGIAFzI8tSlkN_K92Qsy6r-Gxn1RhD40Zrgrnof746AYB3UbHgTNgSDf8x-HkxSzSGoPOjV3Hzvmjfll0Bat4nX",
          "width": 3024
        }
      ],
      "place_id": "ChIJ62q5hExfwokRsJ9-36MfqKo",
      "plus_code": {
        "compound_code": "Q3F9+42 \u7f8e\u570b\u7d10\u7d04\u9577\u5cf6\u5e02",
        "global_code": "87G8Q3F9+42"
      },
      "rating": 3.5,
      "reference": "ChIJ62q5hExfwokRsJ9-36MfqKo",
      "scope": "GOOGLE",
      "types": [
        "point_of_interest",
        "establishment"
      ],
      "user_ratings_total": 16,
      "vicinity": "4-05 Astoria Boulevard, Long Island City"
    },
    {
      "business_status": "OPERATIONAL",
      "geometry": {
        "location": {
          "lat": 40.7688804,
          "lng": -73.9340762
        },
        "viewport": {
          "northeast": {
            "lat": 40.7703021302915,
            "lng": -73.9326771697085
          },
          "southwest": {
            "lat": 40.7676041697085,
            "lng": -73.93537513029152
          }
        }
      },
      "icon": "https://maps.gstatic.com/mapfiles/place_api/icons/v1/png_71/shopping-71.png",
      "icon_background_color": "#4B96F3",
      "icon_mask_base_uri": "https://maps.gstatic.com/mapfiles/place_api/icons/v2/shopping_pinlet",
      "name": "Rosner Custom Sound, Inc.",
      "opening_hours": {
        "open_now": false
      },
      "place_id": "ChIJvVGYk0pfwokRhil__wTPXGM",
      "plus_code": {
        "compound_code": "Q398+H9 \u7f8e\u570b\u7d10\u7d04\u9577\u5cf6\u5e02",
        "global_code": "87G8Q398+H9"
      },
      "reference": "ChIJvVGYk0pfwokRhil__wTPXGM",
      "scope": "GOOGLE",
      "types": [
        "electronics_store",
        "home_goods_store",
        "store",
        "point_of_interest",
        "establishment"
      ],
      "vicinity": "1138 31st Avenue, Long Island City"
    },
    {
      "business_status": "OPERATIONAL",
      "geometry": {
        "location": {
          "lat": 40.7726914,
          "lng": -73.9332652
        },
        "viewport": {
          "northeast": {
            "lat": 40.77407313029151,
            "lng": -73.93180806970851
          },
          "southwest": {
            "lat": 40.77137516970851,
            "lng": -73.93450603029152
          }
        }
      },
      "icon": "https://maps.gstatic.com/mapfiles/place_api/icons/v1/png_71/generic_business-71.png",
      "icon_background_color": "#7B9EB0",
      "icon_mask_base_uri": "https://maps.gstatic.com/mapfiles/place_api/icons/v2/generic_pinlet",
      "name": "Astoria Houses",
      "opening_hours": {
        "open_now": false
      },
      "photos": [
        {
          "height": 2448,
          "html_attributions": [
            "<a href=\"https://maps.google.com/maps/contrib/116882937263130282699\">TheMrscarface2009</a>"
          ],
          "photo_reference": "AeJbb3dixvkC4Z05j7x0J4w7ssfo-4mehTvcPeOr7-B1Hd4AL5BTo5XTnNI2LKkx2sNzMsc8N29HD2TJH6jNYePlAUSOicBKB9RYUh1tjqXO5ONaeLKmhmfes2Op1pSzmEECwmD8HptDsgrFtdsWZz9dcazmcJtz0J7QEqPzpNpq7r-zM1Zr",
          "width": 3264
        }
      ],
      "place_id": "ChIJV5s6ZkFfwokRZEcSoH4MRc4",
      "plus_code": {
        "compound_code": "Q3F8+3M \u7f8e\u570b\u7d10\u7d04\u963f\u65af\u6258\u5229\u4e9e",
        "global_code": "87G8Q3F8+3M"
      },
      "rating": 3.5,
      "reference": "ChIJV5s6ZkFfwokRZEcSoH4MRc4",
      "scope": "GOOGLE",
      "types": [
        "point_of_interest",
        "establishment"
      ],
      "user_ratings_total": 37,
      "vicinity": "4-25 Astoria Boulevard, Astoria"
    },
    {
      "business_status": "OPERATIONAL",
      "geometry": {
        "location": {
          "lat": 40.7709543,
          "lng": -73.9329281
        },
        "viewport": {
          "northeast": {
            "lat": 40.7722070302915,
            "lng": -73.9316156197085
          },
          "southwest": {
            "lat": 40.7695090697085,
            "lng": -73.9343135802915
          }
        }
      },
      "icon": "https://maps.gstatic.com/mapfiles/place_api/icons/v1/png_71/generic_business-71.png",
      "icon_background_color": "#7B9EB0",
      "icon_mask_base_uri": "https://maps.gstatic.com/mapfiles/place_api/icons/v2/generic_pinlet",
      "name": "Alpha Craft Inc",
      "place_id": "ChIJk3uup0tfwokRBYdm9_WKvRk",
      "plus_code": {
        "compound_code": "Q3C8+9R \u7f8e\u570b\u7d10\u7d04\u963f\u65af\u6258\u5229\u4e9e",
        "global_code": "87G8Q3C8+9R"
      },
      "reference": "ChIJk3uup0tfwokRBYdm9_WKvRk",
      "scope": "GOOGLE",
      "types": [
        "general_contractor",
        "point_of_interest",
        "establishment"
      ],
      "vicinity": "1131 30th Road, Astoria"
    },
    {
      "business_status": "OPERATIONAL",
      "geometry": {
        "location": {
          "lat": 40.77001089999999,
          "lng": -73.930926
        },
        "viewport": {
          "northeast": {
            "lat": 40.77131818029149,
            "lng": -73.9294446197085
          },
          "southwest": {
            "lat": 40.7686202197085,
            "lng": -73.93214258029151
          }
        }
      },
      "icon": "https://maps.gstatic.com/mapfiles/place_api/icons/v1/png_71/generic_business-71.png",
      "icon_background_color": "#7B9EB0",
      "icon_mask_base_uri": "https://maps.gstatic.com/mapfiles/place_api/icons/v2/generic_pinlet",
      "name": "Indigo Blue Group",
      "place_id": "ChIJVUNrzUtfwokRFB6cMYEAQc0",
      "plus_code": {
        "compound_code": "Q3C9+2J \u7f8e\u570b\u7d10\u7d04",
        "global_code": "87G8Q3C9+2J"
      },
      "rating": 5,
      "reference": "ChIJVUNrzUtfwokRFB6cMYEAQc0",
      "scope": "GOOGLE",
      "types": [
        "general_contractor",
        "point_of_interest",
        "establishment"
      ],
      "user_ratings_total": 3,
      "vicinity": "3038 14th Street STE 1F, Queens"
    },
    {
      "business_status": "OPERATIONAL",
      "geometry": {
        "location": {
          "lat": 40.7691425,
          "lng": -73.9352645
        },
        "viewport": {
          "northeast": {
            "lat": 40.7705704802915,
            "lng": -73.9340337697085
          },
          "southwest": {
            "lat": 40.7678725197085,
            "lng": -73.93673173029151
          }
        }
      },
      "icon": "https://maps.gstatic.com/mapfiles/place_api/icons/v1/png_71/shopping-71.png",
      "icon_background_color": "#4B96F3",
      "icon_mask_base_uri": "https://maps.gstatic.com/mapfiles/place_api/icons/v2/shopping_pinlet",
      "name": "Renate Exclusive, LLC",
      "photos": [
        {
          "height": 480,
          "html_attributions": [
            "<a href=\"https://maps.google.com/maps/contrib/108579095514490583261\">Renate Exclusive, LLC</a>"
          ],
          "photo_reference": "AeJbb3f11yY4-htM4_VBvqftvw--iq9wWFqJOmiSTcc8fUh-UO-BqVrMlvrvGh4mvbHe3Bkl1ua_Ol4cj2lBpwdgHzVefH9LBxhKDZk-7RAeYHg7IecQblq4BPM4Jbf0lbX7Sco0ZwCAAUB49AsSVpYXa3Rl9p89cucz6Yd4EipzOQ90Hyd1",
          "width": 1440
        }
      ],
      "place_id": "ChIJG3veoshYwokRcZC361oVjJU",
      "plus_code": {
        "compound_code": "Q397+MV \u7f8e\u570b\u7d10\u7d04\u7687\u540e\u5340",
        "global_code": "87G8Q397+MV"
      },
      "rating": 5,
      "reference": "ChIJG3veoshYwokRcZC361oVjJU",
      "scope": "GOOGLE",
      "types": [
        "jewelry_store",
        "store",
        "point_of_interest",
        "establishment"
      ],
      "user_ratings_total": 1,
      "vicinity": "3101 Vernon Boulevard Apt 504, Queens"
    },
    {
      "business_status": "OPERATIONAL",
      "geometry": {
        "location": {
          "lat": 40.77092200000001,
          "lng": -73.930838
        },
        "viewport": {
          "northeast": {
            "lat": 40.7724059302915,
            "lng": -73.9293799197085
          },
          "southwest": {
            "lat": 40.7697079697085,
            "lng": -73.93207788029152
          }
        }
      },
      "icon": "https://maps.gstatic.com/mapfiles/place_api/icons/v1/png_71/generic_business-71.png",
      "icon_background_color": "#7B9EB0",
      "icon_mask_base_uri": "https://maps.gstatic.com/mapfiles/place_api/icons/v2/generic_pinlet",
      "name": "Meli Contracting Co Inc",
      "place_id": "ChIJkUrL3EtfwokRGpCLbjokpUs",
      "plus_code": {
        "compound_code": "Q3C9+9M \u7f8e\u570b\u7d10\u7d04\u963f\u65af\u6258\u5229\u4e9e",
        "global_code": "87G8Q3C9+9M"
      },
      "reference": "ChIJkUrL3EtfwokRGpCLbjokpUs",
      "scope": "GOOGLE",
      "types": [
        "general_contractor",
        "point_of_interest",
        "establishment"
      ],
      "vicinity": "1216 30th Avenue, Astoria"
    },
    {
      "business_status": "OPERATIONAL",
      "geometry": {
        "location": {
          "lat": 40.768757,
          "lng": -73.9340129
        },
        "viewport": {
          "northeast": {
            "lat": 40.7702174302915,
            "lng": -73.9325872697085
          },
          "southwest": {
            "lat": 40.7675194697085,
            "lng": -73.93528523029151
          }
        }
      },
      "icon": "https://maps.gstatic.com/mapfiles/place_api/icons/v1/png_71/generic_business-71.png",
      "icon_background_color": "#7B9EB0",
      "icon_mask_base_uri": "https://maps.gstatic.com/mapfiles/place_api/icons/v2/generic_pinlet",
      "name": "Community Residents Childrens",
      "place_id": "ChIJuwxukUpfwokRWlAuPeWHC5Q",
      "plus_code": {
        "compound_code": "Q398+G9 \u7f8e\u570b\u7d10\u7d04",
        "global_code": "87G8Q398+G9"
      },
      "reference": "ChIJuwxukUpfwokRWlAuPeWHC5Q",
      "scope": "GOOGLE",
      "types": [
        "health",
        "point_of_interest",
        "establishment"
      ],
      "vicinity": "1140 31st Avenue, Queens"
    },
    {
      "business_status": "OPERATIONAL",
      "geometry": {
        "location": {
          "lat": 40.7685154,
          "lng": -73.93264909999999
        },
        "viewport": {
          "northeast": {
            "lat": 40.7698794302915,
            "lng": -73.9312896697085
          },
          "southwest": {
            "lat": 40.7671814697085,
            "lng": -73.93398763029151
          }
        }
      },
      "icon": "https://maps.gstatic.com/mapfiles/place_api/icons/v1/png_71/generic_business-71.png",
      "icon_background_color": "#7B9EB0",
      "icon_mask_base_uri": "https://maps.gstatic.com/mapfiles/place_api/icons/v2/generic_pinlet",
      "name": "The Victory NY. Cleaning & Maintenance Inc.",
      "opening_hours": {
        "open_now": true
      },
      "photos": [
        {
          "height": 2048,
          "html_attributions": [
            "<a href=\"https://maps.google.com/maps/contrib/116235180409367925064\">The Victory NY. Cleaning &amp; Maintenance Inc.</a>"
          ],
          "photo_reference": "AeJbb3e9FAnLUQaekmI0HzKIQY1gkkDt25tbL6RXBz3Pjew9vFO-Zr9x6ujr9Uc9E5i0WetSFNa0MrngFRjKlhjR3TJm4EEq2qxy95IZ57pXVT82ackdya4ZC6bMdp3Sfxye7DpULETjhTjBUHYKbX3Dvwk4gvnlD95yabm63MWH_oYAolSS",
          "width": 1536
        }
      ],
      "place_id": "ChIJa4BipkpfwokRqKQQ6stxgqk",
      "plus_code": {
        "compound_code": "Q398+CW \u7f8e\u570b\u7d10\u7d04",
        "global_code": "87G8Q398+CW"
      },
      "reference": "ChIJa4BipkpfwokRqKQQ6stxgqk",
      "scope": "GOOGLE",
      "types": [
        "point_of_interest",
        "establishment"
      ],
      "vicinity": "12- 21 31st Avenue STE 2B"
    },
    {
      "business_status": "OPERATIONAL",
      "geometry": {
        "location": {
          "lat": 40.7686957,
          "lng": -73.93251219999999
        },
        "viewport": {
          "northeast": {
            "lat": 40.76995258029149,
            "lng": -73.9312507197085
          },
          "southwest": {
            "lat": 40.7672546197085,
            "lng": -73.93394868029151
          }
        }
      },
      "icon": "https://maps.gstatic.com/mapfiles/place_api/icons/v1/png_71/generic_business-71.png",
      "icon_background_color": "#7B9EB0",
      "icon_mask_base_uri": "https://maps.gstatic.com/mapfiles/place_api/icons/v2/generic_pinlet",
      "name": "R.A Photo Booth",
      "opening_hours": {
        "open_now": true
      },
      "photos": [
        {
          "height": 733,
          "html_attributions": [
            "<a href=\"https://maps.google.com/maps/contrib/111120660520589019754\">R.A Photo Booth</a>"
          ],
          "photo_reference": "AeJbb3c7m9E95oYeYEE7tvGgXMwlV8R32LMbnbY3LhQ3UUpoN8eA7YQYGMhiH1kc5bXApGABnnwUoXiBbriZCmgPdg0DP7FRR88hDQD5G1x-MZb18eret1qaLCKtDYpvxjvnTtZasSrLNN5Ry7E7L0-Su3ShUw7fojfv5KKW5-TrL39H-Es5",
          "width": 1100
        }
      ],
      "place_id": "ChIJQeF5ZEpfwokR-mYD06J7fhM",
      "plus_code": {
        "compound_code": "Q398+FX \u7f8e\u570b\u7d10\u7d04",
        "global_code": "87G8Q398+FX"
      },
      "reference": "ChIJQeF5ZEpfwokR-mYD06J7fhM",
      "scope": "GOOGLE",
      "types": [
        "point_of_interest",
        "establishment"
      ],
      "vicinity": "12-21 31st Avenue #3C, Queens"
    },
    {
      "business_status": "OPERATIONAL",
      "geometry": {
        "location": {
          "lat": 40.7680961,
          "lng": -73.9319582
        },
        "viewport": {
          "northeast": {
            "lat": 40.7694941802915,
            "lng": -73.93057966970851
          },
          "southwest": {
            "lat": 40.7667962197085,
            "lng": -73.93327763029151
          }
        }
      },
      "icon": "https://maps.gstatic.com/mapfiles/place_api/icons/v1/png_71/generic_business-71.png",
      "icon_background_color": "#7B9EB0",
      "icon_mask_base_uri": "https://maps.gstatic.com/mapfiles/place_api/icons/v2/generic_pinlet",
      "name": "Trixie's Delivery Service, Inc.",
      "opening_hours": {
        "open_now": true
      },
      "photos": [
        {
          "height": 4032,
          "html_attributions": [
            "<a href=\"https://maps.google.com/maps/contrib/111595368022265804807\">Vladimir Morales</a>"
          ],
          "photo_reference": "AeJbb3dfydMDWkoSIsqWHVIC3ylL6p_j9CN42CDfILVP_FROij0FycoyLL62pWI34RBkzzVnKr_cLtSpz5d1yYB3v4qNjbFDd4lu00SCG9EcZWvdTQGE2A7MGI7NrmG6n70_FhgD-SkQAglhbTg3JNqqMrCZ5kFcasUCwiaS-kWPwNZLCFOj",
          "width": 2268
        }
      ],
      "place_id": "ChIJraWKdkpfwokRqoQkxHbqO_M",
      "plus_code": {
        "compound_code": "Q399+66 \u7f8e\u570b\u7d10\u7d04",
        "global_code": "87G8Q399+66"
      },
      "rating": 3.9,
      "reference": "ChIJraWKdkpfwokRqoQkxHbqO_M",
      "scope": "GOOGLE",
      "types": [
        "moving_company",
        "point_of_interest",
        "establishment"
      ],
      "user_ratings_total": 7,
      "vicinity": "31-11 14th Street"
    },
    {
      "business_status": "OPERATIONAL",
      "geometry": {
        "location": {
          "lat": 40.77241509999999,
          "lng": -73.9313368
        },
        "viewport": {
          "northeast": {
            "lat": 40.77371698029149,
            "lng": -73.93001031970849
          },
          "southwest": {
            "lat": 40.77101901970849,
            "lng": -73.9327082802915
          }
        }
      },
      "icon": "https://maps.gstatic.com/mapfiles/place_api/icons/v1/png_71/shopping-71.png",
      "icon_background_color": "#4B96F3",
      "icon_mask_base_uri": "https://maps.gstatic.com/mapfiles/place_api/icons/v2/shopping_pinlet",
      "name": "Harold H Anthony Inc",
      "opening_hours": {
        "open_now": false
      },
      "photos": [
        {
          "height": 4032,
          "html_attributions": [
            "<a href=\"https://maps.google.com/maps/contrib/110618203458619055065\">Michael Prezioso</a>"
          ],
          "photo_reference": "AeJbb3dk_F-i82nYNbXY90R2p9aKyert3YrwTeMj_Ep4Q2omvzICV4lhbixw3o-a9WtFlLfqO5O4ZNaKqRAYoZr_HguLNTLcCupf-usXWcPM92qO8VcxdV-AZNATbsUdNJmqNxvIlVFFbOQ8oaSDn55bCelACUAV29ue1b9RIxlPW2DrwV74",
          "width": 3024
        }
      ],
      "place_id": "ChIJ_bGkqUpfwokRR8J3VltyzN4",
      "plus_code": {
        "compound_code": "Q3C9+XF \u7f8e\u570b\u7d10\u7d04\u963f\u65af\u6258\u5229\u4e9e",
        "global_code": "87G8Q3C9+XF"
      },
      "rating": 5,
      "reference": "ChIJ_bGkqUpfwokRR8J3VltyzN4",
      "scope": "GOOGLE",
      "types": [
        "store",
        "point_of_interest",
        "establishment"
      ],
      "user_ratings_total": 1,
      "vicinity": "8-31 Astoria Boulevard, Astoria"
    },
    {
      "business_status": "OPERATIONAL",
      "geometry": {
        "location": {
          "lat": 40.7718116,
          "lng": -73.93221799999999
        },
        "viewport": {
          "northeast": {
            "lat": 40.7732246802915,
            "lng": -73.9308068197085
          },
          "southwest": {
            "lat": 40.77052671970851,
            "lng": -73.9335047802915
          }
        }
      },
      "icon": "https://maps.gstatic.com/mapfiles/place_api/icons/v1/png_71/generic_business-71.png",
      "icon_background_color": "#7B9EB0",
      "icon_mask_base_uri": "https://maps.gstatic.com/mapfiles/place_api/icons/v2/generic_pinlet",
      "name": "All American School Bus Corporation",
      "photos": [
        {
          "height": 480,
          "html_attributions": [
            "<a href=\"https://maps.google.com/maps/contrib/114879621975152648588\">grace brooklyn</a>"
          ],
          "photo_reference": "AeJbb3dWiWt9Uy08W-WFU8hhVU-h5UY_IuRd8GpNLhT4PdWzXhCPxKRVT_gcx4Tw9Mrpi3wldd3Z1MgSo4vOkQtKPHi75WIOHuAZtCEzhr_ZNQP_fMUjH5QPMTiqtYBHB5AatbPv6r-iTSDM6xnCny4TlV4dlm3LW3SJ3XE9hp2D9aqAKLlF",
          "width": 640
        }
      ],
      "place_id": "ChIJ5Sd8kEtfwokRUboPin2N3iM",
      "plus_code": {
        "compound_code": "Q3C9+P4 \u7f8e\u570b\u7d10\u7d04\u963f\u65af\u6258\u5229\u4e9e",
        "global_code": "87G8Q3C9+P4"
      },
      "rating": 2.1,
      "reference": "ChIJ5Sd8kEtfwokRUboPin2N3iM",
      "scope": "GOOGLE",
      "types": [
        "point_of_interest",
        "establishment"
      ],
      "user_ratings_total": 66,
      "vicinity": "1108 30th Avenue, Astoria"
    },
    {
      "business_status": "OPERATIONAL",
      "geometry": {
        "location": {
          "lat": 40.7685165,
          "lng": -73.9333216
        },
        "viewport": {
          "northeast": {
            "lat": 40.7699479802915,
            "lng": -73.9318711697085
          },
          "southwest": {
            "lat": 40.7672500197085,
            "lng": -73.93456913029151
          }
        }
      },
      "icon": "https://maps.gstatic.com/mapfiles/place_api/icons/v1/png_71/generic_business-71.png",
      "icon_background_color": "#7B9EB0",
      "icon_mask_base_uri": "https://maps.gstatic.com/mapfiles/place_api/icons/v2/generic_pinlet",
      "name": "Tower Cleaners",
      "place_id": "ChIJDR3GiEpfwokR_6sqLLwME6U",
      "plus_code": {
        "compound_code": "Q398+CM \u7f8e\u570b\u7d10\u7d04\u9577\u5cf6\u5e02",
        "global_code": "87G8Q398+CM"
      },
      "rating": 1,
      "reference": "ChIJDR3GiEpfwokR_6sqLLwME6U",
      "scope": "GOOGLE",
      "types": [
        "laundry",
        "point_of_interest",
        "establishment"
      ],
      "user_ratings_total": 1,
      "vicinity": "12-04 31st Avenue, Long Island City"
    },
    {
      "business_status": "OPERATIONAL",
      "geometry": {
        "location": {
          "lat": 40.77122199999999,
          "lng": -73.933831
        },
        "viewport": {
          "northeast": {
            "lat": 40.77244343029149,
            "lng": -73.9325315197085
          },
          "southwest": {
            "lat": 40.7697454697085,
            "lng": -73.93522948029151
          }
        }
      },
      "icon": "https://maps.gstatic.com/mapfiles/place_api/icons/v1/png_71/generic_business-71.png",
      "icon_background_color": "#7B9EB0",
      "icon_mask_base_uri": "https://maps.gstatic.com/mapfiles/place_api/icons/v2/generic_pinlet",
      "name": "The Pillar Astoria",
      "photos": [
        {
          "height": 2616,
          "html_attributions": [
            "<a href=\"https://maps.google.com/maps/contrib/105390314484418056092\">Theo Neocli</a>"
          ],
          "photo_reference": "AeJbb3c7f91TI2kXGUOwgV3roLLvSI9zMV4nJuoZ9-P4FoJPu2B1h0BP9Yyv5sbGn-Ze0IhjDdNtgxlWMBT8aMJD3LDoHAOHC-qiIo1czKRWPUuqwrnIittJ5DtcWmIZrjfeZSPYEBNdQ4FIt1XH4VqbOxox-DLm3w3uY2pKdCEfa5y8z5M",
          "width": 3379
        }
      ],
      "place_id": "ChIJMTnwEUtfwokRc4OzRDTr_nc",
      "plus_code": {
        "compound_code": "Q3C8+FF \u7f8e\u570b\u7d10\u7d04",
        "global_code": "87G8Q3C8+FF"
      },
      "rating": 3.1,
      "reference": "ChIJMTnwEUtfwokRc4OzRDTr_nc",
      "scope": "GOOGLE",
      "types": [
        "point_of_interest",
        "establishment"
      ],
      "user_ratings_total": 15,
      "vicinity": "11-05 30th Road, Queens"
    },
    {
      "business_status": "OPERATIONAL",
      "geometry": {
        "location": {
          "lat": 40.76954,
          "lng": -73.934793
        },
        "viewport": {
          "northeast": {
            "lat": 40.7708135802915,
            "lng": -73.9334958697085
          },
          "southwest": {
            "lat": 40.7681156197085,
            "lng": -73.9361938302915
          }
        }
      },
      "icon": "https://maps.gstatic.com/mapfiles/place_api/icons/v1/png_71/generic_business-71.png",
      "icon_background_color": "#7B9EB0",
      "icon_mask_base_uri": "https://maps.gstatic.com/mapfiles/place_api/icons/v2/generic_pinlet",
      "name": "Holistic Wellness With Aida",
      "place_id": "ChIJU_JfwUpfwokRNT5XrnjhQmM",
      "plus_code": {
        "compound_code": "Q398+R3 \u7f8e\u570b\u7d10\u7d04\u963f\u65af\u6258\u5229\u4e9e",
        "global_code": "87G8Q398+R3"
      },
      "reference": "ChIJU_JfwUpfwokRNT5XrnjhQmM",
      "scope": "GOOGLE",
      "types": [
        "health",
        "point_of_interest",
        "establishment"
      ],
      "vicinity": "30-85 Vernon Boulevard #2A, Astoria"
    },
    {
      "geometry": {
        "location": {
          "lat": 40.7830603,
          "lng": -73.9712488
        },
        "viewport": {
          "northeast": {
            "lat": 40.820045,
            "lng": -73.90331300000001
          },
          "southwest": {
            "lat": 40.698078,
            "lng": -74.03514899999999
          }
        }
      },
      "icon": "https://maps.gstatic.com/mapfiles/place_api/icons/v1/png_71/geocode-71.png",
      "icon_background_color": "#7B9EB0",
      "icon_mask_base_uri": "https://maps.gstatic.com/mapfiles/place_api/icons/v2/generic_pinlet",
      "name": "\u66fc\u54c8\u9813",
      "photos": [
        {
          "height": 1199,
          "html_attributions": [
            "<a href=\"https://maps.google.com/maps/contrib/108803842220307386999\">Debeli Atleti\u010dar</a>"
          ],
          "photo_reference": "AeJbb3eCZ06-Jlkb-otLG1YfDARf9W5pWRuP_xCZSFj8yI27JW1fD__ZivCG2Lwn_MsN-nQS3_ZJhl0KZvwpxHmAc1ub1sTiub1JIdq5f2Ko_VdfZsm2ZjHMQGmCCkLajhfb4FSyKHbQD8TxcMuLYeztxmhKQr1cJj84KyKB7YLBKPRYja-D",
          "width": 1800
        }
      ],
      "place_id": "ChIJYeZuBI9YwokRjMDs_IEyCwo",
      "reference": "ChIJYeZuBI9YwokRjMDs_IEyCwo",
      "scope": "GOOGLE",
      "types": [
        "sublocality_level_1",
        "sublocality",
        "political"
      ],
      "vicinity": "\u66fc\u54c8\u9813"
    },
    {
      "business_status": "OPERATIONAL",
      "geometry": {
        "location": {
          "lat": 40.76855259999999,
          "lng": -73.9315044
        },
        "viewport": {
          "northeast": {
            "lat": 40.76994983029149,
            "lng": -73.9302557697085
          },
          "southwest": {
            "lat": 40.7672518697085,
            "lng": -73.9329537302915
          }
        }
      },
      "icon": "https://maps.gstatic.com/mapfiles/place_api/icons/v1/png_71/generic_business-71.png",
      "icon_background_color": "#7B9EB0",
      "icon_mask_base_uri": "https://maps.gstatic.com/mapfiles/place_api/icons/v2/generic_pinlet",
      "name": "Steve's Metro Cabinet Co",
      "place_id": "ChIJiQP3FEpfwokRNv9V-r9AcrU",
      "plus_code": {
        "compound_code": "Q399+C9 New York, NY, USA",
        "global_code": "87G8Q399+C9"
      },
      "reference": "ChIJiQP3FEpfwokRNv9V-r9AcrU",
      "scope": "GOOGLE",
      "types": [
        "point_of_interest",
        "establishment"
      ],
      "vicinity": "3089 14th Street, Queens"
    },
    {
      "business_status": "OPERATIONAL",
      "geometry": {
        "location": {
          "lat": 40.76883239999999,
          "lng": -73.934631
        },
        "viewport": {
          "northeast": {
            "lat": 40.77035908029149,
            "lng": -73.93315976970848
          },
          "southwest": {
            "lat": 40.76766111970849,
            "lng": -73.9358577302915
          }
        }
      },
      "icon": "https://maps.gstatic.com/mapfiles/place_api/icons/v1/png_71/generic_business-71.png",
      "icon_background_color": "#7B9EB0",
      "icon_mask_base_uri": "https://maps.gstatic.com/mapfiles/place_api/icons/v2/generic_pinlet",
      "name": "Law Offices of Michael S. Discioarro, LLC",
      "place_id": "ChIJB0qy6kpfwokRSWoJwMHMIxM",
      "plus_code": {
        "compound_code": "Q398+G4 Queens, NY, USA",
        "global_code": "87G8Q398+G4"
      },
      "rating": 3.9,
      "reference": "ChIJB0qy6kpfwokRSWoJwMHMIxM",
      "scope": "GOOGLE",
      "types": [
        "lawyer",
        "point_of_interest",
        "establishment"
      ],
      "user_ratings_total": 7,
      "vicinity": "11-24 31st Avenue #3E, Queens"
    },
    {
      "business_status": "CLOSED_TEMPORARILY",
      "geometry": {
        "location": {
          "lat": 40.768727,
          "lng": -73.933933
        },
        "viewport": {
          "northeast": {
            "lat": 40.77018683029149,
            "lng": -73.93250771970851
          },
          "southwest": {
            "lat": 40.7674888697085,
            "lng": -73.93520568029152
          }
        }
      },
      "icon": "https://maps.gstatic.com/mapfiles/place_api/icons/v1/png_71/generic_business-71.png",
      "icon_background_color": "#7B9EB0",
      "icon_mask_base_uri": "https://maps.gstatic.com/mapfiles/place_api/icons/v2/generic_pinlet",
      "name": "Global Best Awards",
      "permanently_closed": true,
      "place_id": "ChIJx3-AkkpfwokRPsb3Kwdmtxs",
      "plus_code": {
        "compound_code": "Q398+FC New York, NY, USA",
        "global_code": "87G8Q398+FC"
      },
      "reference": "ChIJx3-AkkpfwokRPsb3Kwdmtxs",
      "scope": "GOOGLE",
      "types": [
        "point_of_interest",
        "establishment"
      ],
      "vicinity": "1142 31st Avenue #4A, Queens"
    },
    {
      "business_status": "OPERATIONAL",
      "geometry": {
        "location": {
          "lat": 40.7689819,
          "lng": -73.9355621
        },
        "viewport": {
          "northeast": {
            "lat": 40.77037023029149,
            "lng": -73.93431621970849
          },
          "southwest": {
            "lat": 40.76767226970849,
            "lng": -73.9370141802915
          }
        }
      },
      "icon": "https://maps.gstatic.com/mapfiles/place_api/icons/v1/png_71/cafe-71.png",
      "icon_background_color": "#FF9E67",
      "icon_mask_base_uri": "https://maps.gstatic.com/mapfiles/place_api/icons/v2/cafe_pinlet",
      "name": "Ch\u00e2teau le Woof",
      "opening_hours": {
        "open_now": true
      },
      "photos": [
        {
          "height": 2448,
          "html_attributions": [
            "<a href=\"https://maps.google.com/maps/contrib/103129069187894032332\">Ch\u00e2teau le Woof</a>"
          ],
          "photo_reference": "AeJbb3dqudMttRtiNVyPIuUWgVqSy74HgknquXnxHWRANcBHZWrpR_Cxtfsv7bKJ_LqChPCIU_H6fExj9Z1PNnDqdKDIRJs9qvEcaS2xZBgbV3cFzPSeSJqZk-ptrHQsJJFHH9KhPVzSJxfyuLvPb_N3-EH22qRvLPLVauE8ADoxWoYL5Xx6",
          "width": 3264
        }
      ],
      "place_id": "ChIJzTLtYUlfwokREss7JqDS5qo",
      "plus_code": {
        "compound_code": "Q397+HQ New York, NY, USA",
        "global_code": "87G8Q397+HQ"
      },
      "price_level": 2,
      "rating": 4.5,
      "reference": "ChIJzTLtYUlfwokREss7JqDS5qo",
      "scope": "GOOGLE",
      "types": [
        "cafe",
        "pet_store",
        "store",
        "food",
        "point_of_interest",
        "establishment"
      ],
      "user_ratings_total": 472,
      "vicinity": "3101 Vernon Boulevard, Queens"
    },
    {
      "business_status": "OPERATIONAL",
      "geometry": {
        "location": {
          "lat": 40.771529,
          "lng": -73.9314097
        },
        "viewport": {
          "northeast": {
            "lat": 40.7728722302915,
            "lng": -73.93005891970849
          },
          "southwest": {
            "lat": 40.77017426970851,
            "lng": -73.93275688029149
          }
        }
      },
      "icon": "https://maps.gstatic.com/mapfiles/place_api/icons/v1/png_71/generic_business-71.png",
      "icon_background_color": "#7B9EB0",
      "icon_mask_base_uri": "https://maps.gstatic.com/mapfiles/place_api/icons/v2/generic_pinlet",
      "name": "Welling Court Mural Project",
      "opening_hours": {
        "open_now": true
      },
      "photos": [
        {
          "height": 2988,
          "html_attributions": [
            "<a href=\"https://maps.google.com/maps/contrib/110620278818148917280\">Gustav R</a>"
          ],
          "photo_reference": "AeJbb3fiXAUBvzARYVHoP-iBSr4rOLNQuOYM40Ybo7C-1daok0eqYkwt85Eck8GAR0Too_yGtNQNRRhPEi8izKhfJxwoaaC8DBq6EOUSO5Jl4P6Z-jed5YcF-w-_1-qKwxKXALUe39NJJOLyNLAG0cVWT0MeXqlY0F6zK1DEfG-QEoRu_bsn",
          "width": 5312
        }
      ],
      "place_id": "ChIJreKB7EtfwokRwMULUC5mTmY",
      "plus_code": {
        "compound_code": "Q3C9+JC New York, NY, USA",
        "global_code": "87G8Q3C9+JC"
      },
      "rating": 4.7,
      "reference": "ChIJreKB7EtfwokRwMULUC5mTmY",
      "scope": "GOOGLE",
      "types": [
        "art_gallery",
        "point_of_interest",
        "establishment"
      ],
      "user_ratings_total": 219,
      "vicinity": "11-98 Welling Court, Queens"
    },
    {
      "business_status": "OPERATIONAL",
      "geometry": {
        "location": {
          "lat": 40.769462,
          "lng": -73.93066499999999
        },
        "viewport": {
          "northeast": {
            "lat": 40.7708797302915,
            "lng": -73.92926456970848
          },
          "southwest": {
            "lat": 40.7681817697085,
            "lng": -73.9319625302915
          }
        }
      },
      "icon": "https://maps.gstatic.com/mapfiles/place_api/icons/v1/png_71/generic_business-71.png",
      "icon_background_color": "#7B9EB0",
      "icon_mask_base_uri": "https://maps.gstatic.com/mapfiles/place_api/icons/v2/generic_pinlet",
      "name": "DUR-ALL Environmental, Inc.",
      "opening_hours": {
        "open_now": true
      },
      "place_id": "ChIJ001YLkpfwokRxIWMFZpbJqo",
      "plus_code": {
        "compound_code": "Q399+QP Astoria, Queens, NY, USA",
        "global_code": "87G8Q399+QP"
      },
      "reference": "ChIJ001YLkpfwokRxIWMFZpbJqo",
      "scope": "GOOGLE",
      "types": [
        "point_of_interest",
        "establishment"
      ],
      "vicinity": "30-51 14th Street, Astoria"
    },
    {
      "business_status": "OPERATIONAL",
      "geometry": {
        "location": {
          "lat": 40.7730746,
          "lng": -73.9329338
        },
        "viewport": {
          "northeast": {
            "lat": 40.7742971802915,
            "lng": -73.9316518197085
          },
          "southwest": {
            "lat": 40.7715992197085,
            "lng": -73.93434978029151
          }
        }
      },
      "icon": "https://maps.gstatic.com/mapfiles/place_api/icons/v1/png_71/generic_business-71.png",
      "icon_background_color": "#7B9EB0",
      "icon_mask_base_uri": "https://maps.gstatic.com/mapfiles/place_api/icons/v2/generic_pinlet",
      "name": "East River Development",
      "place_id": "ChIJV5s6ZkFfwokRC1ksVP0AsjE",
      "plus_code": {
        "compound_code": "Q3F8+6R Astoria, Queens, NY, USA",
        "global_code": "87G8Q3F8+6R"
      },
      "reference": "ChIJV5s6ZkFfwokRC1ksVP0AsjE",
      "scope": "GOOGLE",
      "types": [
        "point_of_interest",
        "establishment"
      ],
      "vicinity": "425 Astoria Boulevard, Astoria"
    },
    {
      "business_status": "CLOSED_TEMPORARILY",
      "geometry": {
        "location": {
          "lat": 40.772531,
          "lng": -73.931725
        },
        "viewport": {
          "northeast": {
            "lat": 40.7738319302915,
            "lng": -73.9304009197085
          },
          "southwest": {
            "lat": 40.7711339697085,
            "lng": -73.93309888029151
          }
        }
      },
      "icon": "https://maps.gstatic.com/mapfiles/place_api/icons/v1/png_71/generic_business-71.png",
      "icon_background_color": "#7B9EB0",
      "icon_mask_base_uri": "https://maps.gstatic.com/mapfiles/place_api/icons/v2/generic_pinlet",
      "name": "Mecca Contracting Inc",
      "permanently_closed": true,
      "place_id": "ChIJ20t_dUxfwokRHCDqr7a6haI",
      "plus_code": {
        "compound_code": "Q3F9+28 Astoria, Queens, NY, USA",
        "global_code": "87G8Q3F9+28"
      },
      "reference": "ChIJ20t_dUxfwokRHCDqr7a6haI",
      "scope": "GOOGLE",
      "types": [
        "general_contractor",
        "point_of_interest",
        "establishment"
      ],
      "vicinity": "823 Astoria Boulevard, Astoria"
    },
    {
      "business_status": "OPERATIONAL",
      "geometry": {
        "location": {
          "lat": 40.7727467,
          "lng": -73.93184049999999
        },
        "viewport": {
          "northeast": {
            "lat": 40.77396908029149,
            "lng": -73.93055716970849
          },
          "southwest": {
            "lat": 40.7712711197085,
            "lng": -73.9332551302915
          }
        }
      },
      "icon": "https://maps.gstatic.com/mapfiles/place_api/icons/v1/png_71/generic_business-71.png",
      "icon_background_color": "#7B9EB0",
      "icon_mask_base_uri": "https://maps.gstatic.com/mapfiles/place_api/icons/v2/generic_pinlet",
      "name": "The Floating Hospital: Astoria Health Center",
      "opening_hours": {
        "open_now": false
      },
      "place_id": "ChIJOyZAdExfwokRk8c2bzslfAA",
      "plus_code": {
        "compound_code": "Q3F9+37 New York, NY, USA",
        "global_code": "87G8Q3F9+37"
      },
      "rating": 5,
      "reference": "ChIJOyZAdExfwokRk8c2bzslfAA",
      "scope": "GOOGLE",
      "types": [
        "health",
        "point_of_interest",
        "establishment"
      ],
      "user_ratings_total": 3,
      "vicinity": "8-13 Astoria Boulevard, Queens"
    },
    {
      "business_status": "OPERATIONAL",
      "geometry": {
        "location": {
          "lat": 40.76842399999999,
          "lng": -73.9329588
        },
        "viewport": {
          "northeast": {
            "lat": 40.76986293029149,
            "lng": -73.9316026697085
          },
          "southwest": {
            "lat": 40.7671649697085,
            "lng": -73.9343006302915
          }
        }
      },
      "icon": "https://maps.gstatic.com/mapfiles/place_api/icons/v1/png_71/restaurant-71.png",
      "icon_background_color": "#FF9E67",
      "icon_mask_base_uri": "https://maps.gstatic.com/mapfiles/place_api/icons/v2/restaurant_pinlet",
      "name": "Fresco's Cantina",
      "opening_hours": {
        "open_now": false
      },
      "photos": [
        {
          "height": 804,
          "html_attributions": [
            "<a href=\"https://maps.google.com/maps/contrib/118305895245866624257\">Fresco&#39;s Cantina</a>"
          ],
          "photo_reference": "AeJbb3dO9N72AKZvmuXEdc6Oc2n7mOD5cDPpRAjv5dp91yfYMxxeuBzPLLljvvTYmKiBFMAxcrzpCuM4kF-PU-ekTxKMIhLraz-_PMMYXijq_eM8eyv6TpJh6jN9L2imy_c8FjgPYEd84igrxaqIY5HXzEq6uOe6a_Y0onw1C4w57M8ne485",
          "width": 1003
        }
      ],
      "place_id": "ChIJV6S_YkpfwokR_gAO4h4ro5A",
      "plus_code": {
        "compound_code": "Q398+9R Astoria, Queens, NY, USA",
        "global_code": "87G8Q398+9R"
      },
      "price_level": 2,
      "rating": 4.6,
      "reference": "ChIJV6S_YkpfwokR_gAO4h4ro5A",
      "scope": "GOOGLE",
      "types": [
        "cafe",
        "restaurant",
        "food",
        "point_of_interest",
        "establishment"
      ],
      "user_ratings_total": 389,
      "vicinity": "12-14 31st Avenue, Astoria"
    },
    {
      "business_status": "OPERATIONAL",
      "geometry": {
        "location": {
          "lat": 40.7693385,
          "lng": -73.9313768
        },
        "viewport": {
          "northeast": {
            "lat": 40.77061108029149,
            "lng": -73.9300824697085
          },
          "southwest": {
            "lat": 40.7679131197085,
            "lng": -73.9327804302915
          }
        }
      },
      "icon": "https://maps.gstatic.com/mapfiles/place_api/icons/v1/png_71/generic_business-71.png",
      "icon_background_color": "#7B9EB0",
      "icon_mask_base_uri": "https://maps.gstatic.com/mapfiles/place_api/icons/v2/generic_pinlet",
      "name": "Amiantos Environmental",
      "opening_hours": {
        "open_now": false
      },
      "photos": [
        {
          "height": 769,
          "html_attributions": [
            "<a href=\"https://maps.google.com/maps/contrib/101267982323742028165\">Amiantos Environmental</a>"
          ],
          "photo_reference": "AeJbb3cB_5DbRAGmKL31eeliSDfXrgOCT9wR8Ml0nlND-5V9ENSav5h_An8GNN-X5FvcIEuFB6PwAUh-33_SjYHgMV_DrOqqZ66G1oRhKUjZeV9LHI3XKisn5-abY6jnj2pYDPBYjRpDvq0qpzIdDcpBmmmsIGEpMzqGwWt1IBW6EiELunQp",
          "width": 1307
        }
      ],
      "place_id": "ChIJCUa71EVfwokRNIOvz6cHaVE",
      "plus_code": {
        "compound_code": "Q399+PC Long Island City, Queens, NY, USA",
        "global_code": "87G8Q399+PC"
      },
      "rating": 5,
      "reference": "ChIJCUa71EVfwokRNIOvz6cHaVE",
      "scope": "GOOGLE",
      "types": [
        "point_of_interest",
        "establishment"
      ],
      "user_ratings_total": 3,
      "vicinity": "1235 30th Drive, Long Island City"
    },
    {
      "business_status": "CLOSED_TEMPORARILY",
      "geometry": {
        "location": {
          "lat": 40.7691164,
          "lng": -73.9316135
        },
        "viewport": {
          "northeast": {
            "lat": 40.77051238029151,
            "lng": -73.93022506970848
          },
          "southwest": {
            "lat": 40.76781441970851,
            "lng": -73.9329230302915
          }
        }
      },
      "icon": "https://maps.gstatic.com/mapfiles/place_api/icons/v1/png_71/generic_business-71.png",
      "icon_background_color": "#7B9EB0",
      "icon_mask_base_uri": "https://maps.gstatic.com/mapfiles/place_api/icons/v2/generic_pinlet",
      "name": "14th St Sewer and Drain Home",
      "permanently_closed": true,
      "place_id": "ChIJH7ZRR0pfwokR_x2nnjvNh9o",
      "plus_code": {
        "compound_code": "Q399+J9 Long Island City, Queens, NY, USA",
        "global_code": "87G8Q399+J9"
      },
      "rating": 1,
      "reference": "ChIJH7ZRR0pfwokR_x2nnjvNh9o",
      "scope": "GOOGLE",
      "types": [
        "plumber",
        "point_of_interest",
        "establishment"
      ],
      "user_ratings_total": 1,
      "vicinity": "30-74 14th Street, Long Island City"
    },
    {
      "business_status": "OPERATIONAL",
      "geometry": {
        "location": {
          "lat": 40.7679155,
          "lng": -73.9325837
        },
        "viewport": {
          "northeast": {
            "lat": 40.7693338802915,
            "lng": -73.93118101970849
          },
          "southwest": {
            "lat": 40.7666359197085,
            "lng": -73.93387898029151
          }
        }
      },
      "icon": "https://maps.gstatic.com/mapfiles/place_api/icons/v1/png_71/generic_business-71.png",
      "icon_background_color": "#7B9EB0",
      "icon_mask_base_uri": "https://maps.gstatic.com/mapfiles/place_api/icons/v2/generic_pinlet",
      "name": "Astoria Health Playground",
      "opening_hours": {
        "open_now": true
      },
      "photos": [
        {
          "height": 4000,
          "html_attributions": [
            "<a href=\"https://maps.google.com/maps/contrib/110707179692752564628\">Peque\u00f1o Santy</a>"
          ],
          "photo_reference": "AeJbb3dKNO4cx_kYOMRHF_gXjuMsI9rkxp_xbpJkyfH5IxlWgq8_5XGrUtF3FmIyiOlNqLm9bEZK3b6fXHxxY0nbSEfTQKO-Bx7C6y5t3xkI71wdTajf3tYcs5eTG9NWcMBeu1J2ptggsIDSRBbbuLQpmFjqPghXQoqJpz5g2NL8GlXi7xBX",
          "width": 3000
        }
      ],
      "place_id": "ChIJ-Zs_eUpfwokRr2oo6F_uIzA",
      "plus_code": {
        "compound_code": "Q398+5X Astoria, Queens, NY, USA",
        "global_code": "87G8Q398+5X"
      },
      "rating": 4.3,
      "reference": "ChIJ-Zs_eUpfwokRr2oo6F_uIzA",
      "scope": "GOOGLE",
      "types": [
        "park",
        "point_of_interest",
        "establishment"
      ],
      "user_ratings_total": 35,
      "vicinity": "31-25 14th Street, Astoria"
    },
    {
      "business_status": "OPERATIONAL",
      "geometry": {
        "location": {
          "lat": 40.7700371,
          "lng": -73.93076719999999
        },
        "viewport": {
          "northeast": {
            "lat": 40.7714158302915,
            "lng": -73.9293806697085
          },
          "southwest": {
            "lat": 40.7687178697085,
            "lng": -73.9320786302915
          }
        }
      },
      "icon": "https://maps.gstatic.com/mapfiles/place_api/icons/v1/png_71/generic_business-71.png",
      "icon_background_color": "#7B9EB0",
      "icon_mask_base_uri": "https://maps.gstatic.com/mapfiles/place_api/icons/v2/generic_pinlet",
      "name": "ALD Services Corp. - Asbestos Removal",
      "opening_hours": {
        "open_now": true
      },
      "photos": [
        {
          "height": 3024,
          "html_attributions": [
            "<a href=\"https://maps.google.com/maps/contrib/115934192000270202161\">ALD Services Corp. - Asbestos Removal</a>"
          ],
          "photo_reference": "AeJbb3fpsav7o4xs2PgdMASwfzJulf3nEw-GOZ__kIyvOhE5laWdPSThpryAR6EqiQFhms7MwsKBAs-mm0ulAvcIETw1BKb7s-dIoA7za3ULLjrRkFjo3TKaaWbH7Ei4efFDCG_9Azk1xszmPU3emlole9C6HsKQgQWIuTygjdp2wJSwtukC",
          "width": 3024
        }
      ],
      "place_id": "ChIJgwCpR8xfwokR145LwZnoqTE",
      "plus_code": {
        "compound_code": "Q3C9+2M Long Island City, Queens, NY, USA",
        "global_code": "87G8Q3C9+2M"
      },
      "rating": 4.9,
      "reference": "ChIJgwCpR8xfwokR145LwZnoqTE",
      "scope": "GOOGLE",
      "types": [
        "point_of_interest",
        "establishment"
      ],
      "user_ratings_total": 46,
      "vicinity": "30-36 14th Street, Long Island City"
    },
    {
      "business_status": "OPERATIONAL",
      "geometry": {
        "location": {
          "lat": 40.7677039,
          "lng": -73.9326514
        },
        "viewport": {
          "northeast": {
            "lat": 40.7690238802915,
            "lng": -73.9312387697085
          },
          "southwest": {
            "lat": 40.76632591970851,
            "lng": -73.9339367302915
          }
        }
      },
      "icon": "https://maps.gstatic.com/mapfiles/place_api/icons/v1/png_71/generic_business-71.png",
      "icon_background_color": "#7B9EB0",
      "icon_mask_base_uri": "https://maps.gstatic.com/mapfiles/place_api/icons/v2/generic_pinlet",
      "name": "Mighty Ducts Inc",
      "place_id": "ChIJkxyqeEpfwokRboq_wmKuf6Y",
      "plus_code": {
        "compound_code": "Q398+3W Long Island City, Queens, NY, USA",
        "global_code": "87G8Q398+3W"
      },
      "reference": "ChIJkxyqeEpfwokRboq_wmKuf6Y",
      "scope": "GOOGLE",
      "types": [
        "general_contractor",
        "point_of_interest",
        "establishment"
      ],
      "vicinity": "3124 14th Street, Long Island City"
    },
    {
      "business_status": "OPERATIONAL",
      "geometry": {
        "location": {
          "lat": 40.76806229999999,
          "lng": -73.933714
        },
        "viewport": {
          "northeast": {
            "lat": 40.76947243029149,
            "lng": -73.93249351970849
          },
          "southwest": {
            "lat": 40.76677446970849,
            "lng": -73.93519148029151
          }
        }
      },
      "icon": "https://maps.gstatic.com/mapfiles/place_api/icons/v1/png_71/generic_business-71.png",
      "icon_background_color": "#7B9EB0",
      "icon_mask_base_uri": "https://maps.gstatic.com/mapfiles/place_api/icons/v2/generic_pinlet",
      "name": "GEMORBIT INC.",
      "opening_hours": {
        "open_now": false
      },
      "photos": [
        {
          "height": 1136,
          "html_attributions": [
            "<a href=\"https://maps.google.com/maps/contrib/108590147295478410389\">GEMORBIT INC.</a>"
          ],
          "photo_reference": "AeJbb3fXge7Bu8VTB3Sli2-5trP0wD6e7wRT4Fd23QM97T7RzWrwhx0wlrbQxx-ijxPveJxWo_m2-tNvZ5_hc06EfiMWsHqhEZj64cBCak85-8qKftFJhkuBah79xsN6RjVhb5Ba28Rmalz0axM707bnBe920OtCPCXJ1ndZL9agdPOyvj9D",
          "width": 640
        }
      ],
      "place_id": "ChIJ-3CnBK1ZwokRxED7D9VsQ5E",
      "plus_code": {
        "compound_code": "Q398+6G New York, NY, USA",
        "global_code": "87G8Q398+6G"
      },
      "reference": "ChIJ-3CnBK1ZwokRxED7D9VsQ5E",
      "scope": "GOOGLE",
      "types": [
        "jewelry_store",
        "store",
        "point_of_interest",
        "establishment"
      ],
      "vicinity": "3123 12th Street, Queens"
    },
    {
      "business_status": "OPERATIONAL",
      "geometry": {
        "location": {
          "lat": 40.769143,
          "lng": -73.9310452
        },
        "viewport": {
          "northeast": {
            "lat": 40.7705437802915,
            "lng": -73.92978111970851
          },
          "southwest": {
            "lat": 40.7678458197085,
            "lng": -73.93247908029151
          }
        }
      },
      "icon": "https://maps.gstatic.com/mapfiles/place_api/icons/v1/png_71/generic_business-71.png",
      "icon_background_color": "#7B9EB0",
      "icon_mask_base_uri": "https://maps.gstatic.com/mapfiles/place_api/icons/v2/generic_pinlet",
      "name": "14th Laundry",
      "opening_hours": {
        "open_now": true
      },
      "photos": [
        {
          "height": 810,
          "html_attributions": [
            "<a href=\"https://maps.google.com/maps/contrib/116905606128194806768\">14th Laundry</a>"
          ],
          "photo_reference": "AeJbb3ff1QEB3eG91GcJs71mpfEsCH4lx6Vi8v-sL2RLb3BxWRxOuMfD4Tq2Y5enoi9PN6s889hK1ALo2HT2DvWqsJ6S224mMwWtlPO9kwfap-rBt01ss-vAdDTl30b1Yk2O5UPgvxCAImNMq_UA4cDFpq2G-IrD_Kt8F51t-2jEt1YwqXHF",
          "width": 1438
        }
      ],
      "place_id": "ChIJpTqmO0pfwokR5VaqEDY8UNc",
      "plus_code": {
        "compound_code": "Q399+MH Astoria, Queens, NY, USA",
        "global_code": "87G8Q399+MH"
      },
      "rating": 4.2,
      "reference": "ChIJpTqmO0pfwokR5VaqEDY8UNc",
      "scope": "GOOGLE",
      "types": [
        "laundry",
        "point_of_interest",
        "establishment"
      ],
      "user_ratings_total": 47,
      "vicinity": "3067 14th Street, Astoria"
    },
    {
      "business_status": "OPERATIONAL",
      "geometry": {
        "location": {
          "lat": 40.7674343,
          "lng": -73.9342228
        },
        "viewport": {
          "northeast": {
            "lat": 40.7688450802915,
            "lng": -73.93300456970849
          },
          "southwest": {
            "lat": 40.7661471197085,
            "lng": -73.9357025302915
          }
        }
      },
      "icon": "https://maps.gstatic.com/mapfiles/place_api/icons/v1/png_71/generic_business-71.png",
      "icon_background_color": "#7B9EB0",
      "icon_mask_base_uri": "https://maps.gstatic.com/mapfiles/place_api/icons/v2/generic_pinlet",
      "name": "Metalmen Sales, Inc.",
      "opening_hours": {
        "open_now": false
      },
      "photos": [
        {
          "height": 833,
          "html_attributions": [
            "<a href=\"https://maps.google.com/maps/contrib/105943252344163555524\">Metalmen Sales, Inc.</a>"
          ],
          "photo_reference": "AeJbb3dMF4ArgLQl6nI6NcvDBtfdhMK2q-OqBK622u-lucbRpjYtZmbBthu3pFn3LPX_Dqv1QhDk0Z2JNWjd3NzR_wU_L3t9o9YLVMdkgSscI7pnVEk7BBuVYYU7nmuEHGN9OkI33W4Hqh7O9hxM_y2X-3pKzjImN1IDagCdVKnbNNWtBksa",
          "width": 1482
        }
      ],
      "place_id": "ChIJlXkQZzVfwokRhz-OIrRJhrc",
      "plus_code": {
        "compound_code": "Q388+X8 Queens, NY, USA",
        "global_code": "87G8Q388+X8"
      },
      "rating": 3.3,
      "reference": "ChIJlXkQZzVfwokRhz-OIrRJhrc",
      "scope": "GOOGLE",
      "types": [
        "point_of_interest",
        "establishment"
      ],
      "user_ratings_total": 4,
      "vicinity": "3149 12th Street, Queens"
    },
    {
      "business_status": "OPERATIONAL",
      "geometry": {
        "location": {
          "lat": 40.76819220000001,
          "lng": -73.932434
        },
        "viewport": {
          "northeast": {
            "lat": 40.76948288029151,
            "lng": -73.9311301197085
          },
          "southwest": {
            "lat": 40.76678491970851,
            "lng": -73.9338280802915
          }
        }
      },
      "icon": "https://maps.gstatic.com/mapfiles/place_api/icons/v1/png_71/generic_business-71.png",
      "icon_background_color": "#7B9EB0",
      "icon_mask_base_uri": "https://maps.gstatic.com/mapfiles/place_api/icons/v2/generic_pinlet",
      "name": "PHS Neighborhood WIC Astoria",
      "opening_hours": {
        "open_now": false
      },
      "place_id": "ChIJrWyrfEpfwokRkh9dRAHQLoo",
      "plus_code": {
        "compound_code": "Q399+72 New York, NY, USA",
        "global_code": "87G8Q399+72"
      },
      "rating": 4.5,
      "reference": "ChIJrWyrfEpfwokRkh9dRAHQLoo",
      "scope": "GOOGLE",
      "types": [
        "point_of_interest",
        "establishment"
      ],
      "user_ratings_total": 24,
      "vicinity": "12-26 31st Avenue, Queens"
    },
    {
      "business_status": "OPERATIONAL",
      "geometry": {
        "location": {
          "lat": 40.7737019,
          "lng": -73.9317118
        },
        "viewport": {
          "northeast": {
            "lat": 40.7750016802915,
            "lng": -73.9301782197085
          },
          "southwest": {
            "lat": 40.7723037197085,
            "lng": -73.9328761802915
          }
        }
      },
      "icon": "https://maps.gstatic.com/mapfiles/place_api/icons/v1/png_71/generic_business-71.png",
      "icon_background_color": "#7B9EB0",
      "icon_mask_base_uri": "https://maps.gstatic.com/mapfiles/place_api/icons/v2/generic_pinlet",
      "name": "AHRC-Astoria Blue Feather",
      "place_id": "ChIJg8xNQUxfwokROIj7R_KTVn4",
      "plus_code": {
        "compound_code": "Q3F9+F8 Astoria, Queens, NY, USA",
        "global_code": "87G8Q3F9+F8"
      },
      "rating": 5,
      "reference": "ChIJg8xNQUxfwokROIj7R_KTVn4",
      "scope": "GOOGLE",
      "types": [
        "point_of_interest",
        "establishment"
      ],
      "user_ratings_total": 6,
      "vicinity": "27-07 8th Street, Astoria"
    },
    {
      "business_status": "OPERATIONAL",
      "geometry": {
        "location": {
          "lat": 40.7683351,
          "lng": -73.9315945
        },
        "viewport": {
          "northeast": {
            "lat": 40.7695835802915,
            "lng": -73.93032026970849
          },
          "southwest": {
            "lat": 40.7668856197085,
            "lng": -73.93301823029151
          }
        }
      },
      "icon": "https://maps.gstatic.com/mapfiles/place_api/icons/v1/png_71/shopping-71.png",
      "icon_background_color": "#4B96F3",
      "icon_mask_base_uri": "https://maps.gstatic.com/mapfiles/place_api/icons/v2/shopping_pinlet",
      "name": "evjewelrydesign.com",
      "opening_hours": {
        "open_now": true
      },
      "photos": [
        {
          "height": 716,
          "html_attributions": [
            "<a href=\"https://maps.google.com/maps/contrib/107404277733526079773\">evjewelrydesign.com</a>"
          ],
          "photo_reference": "AeJbb3eKUIbEi0XmRvEjoAB7NqvNEpbhTyo0nRw8SR1kWoslXhftLMTMu--FzbF7dJ_I5AhoL_b_Qpn5uS6vD7TmXJgl7oNniDiEM0LdlA6AJtnCPm_0QLeNwYB9BbGcSqiDDtE9edfbphlUoyHZunIq27P4HSjTtAInjYsoK8PF8e13Oenr",
          "width": 994
        }
      ],
      "place_id": "ChIJXfnTbEpfwokRoXIg1He97L8",
      "plus_code": {
        "compound_code": "Q399+89 Astoria, Queens, NY, USA",
        "global_code": "87G8Q399+89"
      },
      "rating": 1,
      "reference": "ChIJXfnTbEpfwokRoXIg1He97L8",
      "scope": "GOOGLE",
      "types": [
        "jewelry_store",
        "store",
        "point_of_interest",
        "establishment"
      ],
      "user_ratings_total": 1,
      "vicinity": "1405 31st Avenue #2b, Astoria"
    },
    {
      "business_status": "OPERATIONAL",
      "geometry": {
        "location": {
          "lat": 40.767676,
          "lng": -73.933069
        },
        "viewport": {
          "northeast": {
            "lat": 40.7690777302915,
            "lng": -73.93183111970849
          },
          "southwest": {
            "lat": 40.7663797697085,
            "lng": -73.9345290802915
          }
        }
      },
      "icon": "https://maps.gstatic.com/mapfiles/place_api/icons/v1/png_71/generic_business-71.png",
      "icon_background_color": "#7B9EB0",
      "icon_mask_base_uri": "https://maps.gstatic.com/mapfiles/place_api/icons/v2/generic_pinlet",
      "name": "Maranatha Human Services",
      "place_id": "ChIJs7KMfzVfwokRQsiYhs4YrYQ",
      "plus_code": {
        "compound_code": "Q398+3Q Long Island City, Queens, NY, USA",
        "global_code": "87G8Q398+3Q"
      },
      "reference": "ChIJs7KMfzVfwokRQsiYhs4YrYQ",
      "scope": "GOOGLE",
      "types": [
        "point_of_interest",
        "establishment"
      ],
      "vicinity": "1227 31st Drive, Long Island City"
    },
    {
      "business_status": "OPERATIONAL",
      "geometry": {
        "location": {
          "lat": 40.7675709,
          "lng": -73.932896
        },
        "viewport": {
          "northeast": {
            "lat": 40.7688676302915,
            "lng": -73.93143236970849
          },
          "southwest": {
            "lat": 40.7661696697085,
            "lng": -73.9341303302915
          }
        }
      },
      "icon": "https://maps.gstatic.com/mapfiles/place_api/icons/v1/png_71/generic_business-71.png",
      "icon_background_color": "#7B9EB0",
      "icon_mask_base_uri": "https://maps.gstatic.com/mapfiles/place_api/icons/v2/generic_pinlet",
      "name": "LJR Insulation & General Contracting Inc.",
      "photos": [
        {
          "height": 470,
          "html_attributions": [
            "<a href=\"https://maps.google.com/maps/contrib/107756834590797378781\">LJR Insulation &amp; General Contracting Inc.</a>"
          ],
          "photo_reference": "AeJbb3dql3YjF6Mi1Q715Xn8k98IWDRTKf7lBTDADfFOpFQX1RvIHcutZjb8qIhMWCjRqgyFR5kykTptDseUjAGzjt-z7m50Un9z7HyGxg_R3s2lxB0_yCWZmfDhldQ9kFxMipPqZe3qW9ddkq8EwdK_KpKKdC8PayXxDhvd_CSYRu_3knpE",
          "width": 450
        }
      ],
      "place_id": "ChIJ8yStgTVfwokRKvhWiCqf35E",
      "plus_code": {
        "compound_code": "Q398+2R Long Island City, Queens, NY, USA",
        "global_code": "87G8Q398+2R"
      },
      "rating": 5,
      "reference": "ChIJ8yStgTVfwokRKvhWiCqf35E",
      "scope": "GOOGLE",
      "types": [
        "general_contractor",
        "point_of_interest",
        "establishment"
      ],
      "user_ratings_total": 2,
      "vicinity": "31-30 14th Street, Long Island City"
    },
    {
      "business_status": "OPERATIONAL",
      "geometry": {
        "location": {
          "lat": 40.7737019,
          "lng": -73.9317118
        },
        "viewport": {
          "northeast": {
            "lat": 40.7750016802915,
            "lng": -73.9301782197085
          },
          "southwest": {
            "lat": 40.7723037197085,
            "lng": -73.9328761802915
          }
        }
      },
      "icon": "https://maps.gstatic.com/mapfiles/place_api/icons/v1/png_71/school-71.png",
      "icon_background_color": "#7B9EB0",
      "icon_mask_base_uri": "https://maps.gstatic.com/mapfiles/place_api/icons/v2/school_pinlet",
      "name": "Astoria Blue Feather Early Learning Center",
      "place_id": "ChIJhyyFakxfwokR3We1fMQ0KN8",
      "plus_code": {
        "compound_code": "Q3F9+F8 Astoria, Queens, NY, USA",
        "global_code": "87G8Q3F9+F8"
      },
      "rating": 3.8,
      "reference": "ChIJhyyFakxfwokR3We1fMQ0KN8",
      "scope": "GOOGLE",
      "types": [
        "school",
        "point_of_interest",
        "establishment"
      ],
      "user_ratings_total": 5,
      "vicinity": "27-07 8th Street, Astoria"
    },
    {
      "business_status": "OPERATIONAL",
      "geometry": {
        "location": {
          "lat": 40.77199829999999,
          "lng": -73.9297158
        },
        "viewport": {
          "northeast": {
            "lat": 40.7734104802915,
            "lng": -73.92837056970849
          },
          "southwest": {
            "lat": 40.7707125197085,
            "lng": -73.93106853029151
          }
        }
      },
      "icon": "https://maps.gstatic.com/mapfiles/place_api/icons/v1/png_71/shopping-71.png",
      "icon_background_color": "#4B96F3",
      "icon_mask_base_uri": "https://maps.gstatic.com/mapfiles/place_api/icons/v2/shopping_pinlet",
      "name": "Y & C Upholstery",
      "opening_hours": {
        "open_now": true
      },
      "photos": [
        {
          "height": 818,
          "html_attributions": [
            "<a href=\"https://maps.google.com/maps/contrib/114550390209350145444\">Y &amp; C Upholstery</a>"
          ],
          "photo_reference": "AeJbb3fteFfNnsNhmS_JK1u7FDxdq8Fn8kkB8xeolhnBO3KSuprr8PERSBJrAfznwfkrKs5EiKUzpqdZi35WbzM7xr3RtkDpcJRMIFKPQOGSPtarnVh1SZci7gtE6nt4RbUv5BPeJOTpUeQKamZNCVxrZ2BfWQD5OppMpWzh8vZjQLlr7PN_",
          "width": 1450
        }
      ],
      "place_id": "ChIJr9yIbB5fwokRdxJCEmB54Ic",
      "plus_code": {
        "compound_code": "Q3CC+Q4 Astoria, Queens, NY, USA",
        "global_code": "87G8Q3CC+Q4"
      },
      "rating": 1,
      "reference": "ChIJr9yIbB5fwokRdxJCEmB54Ic",
      "scope": "GOOGLE",
      "types": [
        "furniture_store",
        "home_goods_store",
        "store",
        "point_of_interest",
        "establishment"
      ],
      "user_ratings_total": 1,
      "vicinity": "1210 Astoria Boulevard, Astoria"
    },
    {
      "business_status": "OPERATIONAL",
      "geometry": {
        "location": {
          "lat": 40.7681286,
          "lng": -73.93137999999999
        },
        "viewport": {
          "northeast": {
            "lat": 40.7694207302915,
            "lng": -73.93007331970848
          },
          "southwest": {
            "lat": 40.7667227697085,
            "lng": -73.93277128029149
          }
        }
      },
      "icon": "https://maps.gstatic.com/mapfiles/place_api/icons/v1/png_71/shopping-71.png",
      "icon_background_color": "#4B96F3",
      "icon_mask_base_uri": "https://maps.gstatic.com/mapfiles/place_api/icons/v2/shopping_pinlet",
      "name": "Zartech",
      "opening_hours": {
        "open_now": true
      },
      "place_id": "ChIJ33uADUpfwokR8suoOnFtxPU",
      "plus_code": {
        "compound_code": "Q399+7C Astoria, Queens, NY, USA",
        "global_code": "87G8Q399+7C"
      },
      "rating": 4.7,
      "reference": "ChIJ33uADUpfwokR8suoOnFtxPU",
      "scope": "GOOGLE",
      "types": [
        "store",
        "point_of_interest",
        "establishment"
      ],
      "user_ratings_total": 3,
      "vicinity": "14-15 31st Avenue, Astoria"
    },
    {
      "business_status": "OPERATIONAL",
      "geometry": {
        "location": {
          "lat": 40.7717488,
          "lng": -73.9297254
        },
        "viewport": {
          "northeast": {
            "lat": 40.77328763029151,
            "lng": -73.92831781970848
          },
          "southwest": {
            "lat": 40.77058966970851,
            "lng": -73.9310157802915
          }
        }
      },
      "icon": "https://maps.gstatic.com/mapfiles/place_api/icons/v1/png_71/generic_business-71.png",
      "icon_background_color": "#7B9EB0",
      "icon_mask_base_uri": "https://maps.gstatic.com/mapfiles/place_api/icons/v2/generic_pinlet",
      "name": "Primetime Baseball Complex",
      "opening_hours": {
        "open_now": false
      },
      "place_id": "ChIJVxmtUUlfwokR9lQ3WcaxujE",
      "plus_code": {
        "compound_code": "Q3CC+M4 New York, NY, USA",
        "global_code": "87G8Q3CC+M4"
      },
      "rating": 3.8,
      "reference": "ChIJVxmtUUlfwokR9lQ3WcaxujE",
      "scope": "GOOGLE",
      "types": [
        "point_of_interest",
        "establishment"
      ],
      "user_ratings_total": 17,
      "vicinity": "28-14 14th Street, Queens"
    },
    {
      "business_status": "CLOSED_TEMPORARILY",
      "geometry": {
        "location": {
          "lat": 40.7722139,
          "lng": -73.9298292
        },
        "viewport": {
          "northeast": {
            "lat": 40.77351658029149,
            "lng": -73.9284774697085
          },
          "southwest": {
            "lat": 40.7708186197085,
            "lng": -73.93117543029152
          }
        }
      },
      "icon": "https://maps.gstatic.com/mapfiles/place_api/icons/v1/png_71/generic_business-71.png",
      "icon_background_color": "#7B9EB0",
      "icon_mask_base_uri": "https://maps.gstatic.com/mapfiles/place_api/icons/v2/generic_pinlet",
      "name": "PRP Glass Inc",
      "permanently_closed": true,
      "photos": [
        {
          "height": 2736,
          "html_attributions": [
            "<a href=\"https://maps.google.com/maps/contrib/114685066074909480445\">Paris Roussopoulos</a>"
          ],
          "photo_reference": "AeJbb3cB7a2D-SoLr1idIvUjG9v4UVKN2HXmUYxuSC9YFm6I-l4UsJ9drLAx2-XV3KfyUmPy4I1v734FVk_t-iezNGB_QNV9ANAee7OuXDUmCIhrD0YLIRE5JewzXNiLNwW-uGpnyEnBDm6Sil9-Y8Tv-yvuuBUvnJK5OqGJ16lz57O3EZJn",
          "width": 4608
        }
      ],
      "place_id": "ChIJ8QRUVUlfwokRaXFNNk_iELk",
      "plus_code": {
        "compound_code": "Q3CC+V3 New York, NY, USA",
        "global_code": "87G8Q3CC+V3"
      },
      "rating": 3.3,
      "reference": "ChIJ8QRUVUlfwokRaXFNNk_iELk",
      "scope": "GOOGLE",
      "types": [
        "point_of_interest",
        "establishment"
      ],
      "user_ratings_total": 6,
      "vicinity": "12-07 Astoria Boulevard, Queens"
    },
    {
      "business_status": "OPERATIONAL",
      "geometry": {
        "location": {
          "lat": 40.7717432,
          "lng": -73.9295296
        },
        "viewport": {
          "northeast": {
            "lat": 40.77303398029149,
            "lng": -73.92805236970851
          },
          "southwest": {
            "lat": 40.7703360197085,
            "lng": -73.93075033029152
          }
        }
      },
      "icon": "https://maps.gstatic.com/mapfiles/place_api/icons/v1/png_71/generic_business-71.png",
      "icon_background_color": "#7B9EB0",
      "icon_mask_base_uri": "https://maps.gstatic.com/mapfiles/place_api/icons/v2/generic_pinlet",
      "name": "Oriental Rug Repair",
      "opening_hours": {
        "open_now": true
      },
      "photos": [
        {
          "height": 576,
          "html_attributions": [
            "<a href=\"https://maps.google.com/maps/contrib/106843529321883640594\">Oriental Rug Repair</a>"
          ],
          "photo_reference": "AeJbb3fGcfJ6pnSfl4pdPlmJx06vJbzgd62GBVgggyrdzOkVPDao_eyOLJLSTZaf_2KeU9F_1o1swxBB0x-Uuw5aH39Pq29agjEajwyq4y_c6ed68jyr1ZOHpOZOTnSI483F7mNYwQiJl2rMJL5tJvBXoqAhuRnxm4QNPPxmG5OUchQQODSV",
          "width": 768
        }
      ],
      "place_id": "ChIJXQOqUUlfwokR_2f6oU-n-bg",
      "plus_code": {
        "compound_code": "Q3CC+M5 Astoria, Queens, NY, USA",
        "global_code": "87G8Q3CC+M5"
      },
      "rating": 4.8,
      "reference": "ChIJXQOqUUlfwokR_2f6oU-n-bg",
      "scope": "GOOGLE",
      "types": [
        "laundry",
        "general_contractor",
        "furniture_store",
        "home_goods_store",
        "store",
        "point_of_interest",
        "establishment"
      ],
      "user_ratings_total": 24,
      "vicinity": "28-14 14th Street, Astoria"
    },
    {
      "business_status": "OPERATIONAL",
      "geometry": {
        "location": {
          "lat": 40.7729578,
          "lng": -73.9302206
        },
        "viewport": {
          "northeast": {
            "lat": 40.7742979302915,
            "lng": -73.9287641197085
          },
          "southwest": {
            "lat": 40.7715999697085,
            "lng": -73.93146208029151
          }
        }
      },
      "icon": "https://maps.gstatic.com/mapfiles/place_api/icons/v1/png_71/worship_general-71.png",
      "icon_background_color": "#7B9EB0",
      "icon_mask_base_uri": "https://maps.gstatic.com/mapfiles/place_api/icons/v2/worship_christian_pinlet",
      "name": "The First Reformed Church of Astoria",
      "opening_hours": {
        "open_now": false
      },
      "photos": [
        {
          "height": 4032,
          "html_attributions": [
            "<a href=\"https://maps.google.com/maps/contrib/111775020822314570786\">Memet Emin</a>"
          ],
          "photo_reference": "AeJbb3ddz22qz72TQy2xsdrXRt7ek0WdJYW_rtl1D4M5Gg4HPDB3UsPZWf2pGP0ZcjtCk5OQTqZldHJ0SIMffl-hAOzQ1O-7-fhEdPSiAASxOXrMmuUt12ZAp6nM_3J3e5Cb5X9LtszJYiymh13yGwg1Pu7D-w5fh_AO5ZC5_bBtXarENUrH",
          "width": 3024
        }
      ],
      "place_id": "ChIJNXuqoE5fwokRQYFdFvAi5xc",
      "plus_code": {
        "compound_code": "Q3F9+5W Astoria, Queens, NY, USA",
        "global_code": "87G8Q3F9+5W"
      },
      "rating": 4.9,
      "reference": "ChIJNXuqoE5fwokRQYFdFvAi5xc",
      "scope": "GOOGLE",
      "types": [
        "church",
        "place_of_worship",
        "point_of_interest",
        "establishment"
      ],
      "user_ratings_total": 15,
      "vicinity": "2726 12th Street, Astoria"
    },
    {
      "business_status": "CLOSED_TEMPORARILY",
      "geometry": {
        "location": {
          "lat": 40.7671904,
          "lng": -73.93322630000002
        },
        "viewport": {
          "northeast": {
            "lat": 40.7686011302915,
            "lng": -73.9318241197085
          },
          "southwest": {
            "lat": 40.7659031697085,
            "lng": -73.93452208029152
          }
        }
      },
      "icon": "https://maps.gstatic.com/mapfiles/place_api/icons/v1/png_71/generic_business-71.png",
      "icon_background_color": "#7B9EB0",
      "icon_mask_base_uri": "https://maps.gstatic.com/mapfiles/place_api/icons/v2/generic_pinlet",
      "name": "Be Healthy Be Fit",
      "permanently_closed": true,
      "place_id": "ChIJV7h3dzVfwokRX5_OyG8TrTI",
      "plus_code": {
        "compound_code": "Q388+VP Astoria, Queens, NY, USA",
        "global_code": "87G8Q388+VP"
      },
      "reference": "ChIJV7h3dzVfwokRX5_OyG8TrTI",
      "scope": "GOOGLE",
      "types": [
        "health",
        "point_of_interest",
        "establishment"
      ],
      "vicinity": "12-34 31st Drive, Astoria"
    },
    {
      "business_status": "OPERATIONAL",
      "geometry": {
        "location": {
          "lat": 40.772294,
          "lng": -73.9294855
        },
        "viewport": {
          "northeast": {
            "lat": 40.77356253029149,
            "lng": -73.92813171970849
          },
          "southwest": {
            "lat": 40.77086456970849,
            "lng": -73.9308296802915
          }
        }
      },
      "icon": "https://maps.gstatic.com/mapfiles/place_api/icons/v1/png_71/generic_business-71.png",
      "icon_background_color": "#7B9EB0",
      "icon_mask_base_uri": "https://maps.gstatic.com/mapfiles/place_api/icons/v2/generic_pinlet",
      "name": "Custom Cabinets | Tocaj Concepts",
      "photos": [
        {
          "height": 591,
          "html_attributions": [
            "<a href=\"https://maps.google.com/maps/contrib/110802630258344928350\">Custom Cabinets | Tocaj Concepts</a>"
          ],
          "photo_reference": "AeJbb3e9Cd60H-CQURTJu4gPMbWIgWirkOcFyHUjzF--FyJp9aDLTnbkXbvxuQKYiTS_tlqk6uURZ-bRa16oPHkWNJ1eM9-hX-KjMKKwwEk72-2QsVud3z2iv7Vzmq0HM4uOUyhyEC2MfNn2nITeaNqEvLTzmdQSGRbfHDDNa8UILbceSwUC",
          "width": 1098
        }
      ],
      "place_id": "ChIJDfoRrU5fwokRkrOZVKatTmA",
      "plus_code": {
        "compound_code": "Q3CC+W6 Astoria, Queens, NY, USA",
        "global_code": "87G8Q3CC+W6"
      },
      "reference": "ChIJDfoRrU5fwokRkrOZVKatTmA",
      "scope": "GOOGLE",
      "types": [
        "point_of_interest",
        "establishment"
      ],
      "vicinity": "12-15 Astoria Boulevard, Astoria"
    },
    {
      "business_status": "OPERATIONAL",
      "geometry": {
        "location": {
          "lat": 40.7722329,
          "lng": -73.9293186
        },
        "viewport": {
          "northeast": {
            "lat": 40.77353488029149,
            "lng": -73.9279633697085
          },
          "southwest": {
            "lat": 40.7708369197085,
            "lng": -73.93066133029151
          }
        }
      },
      "icon": "https://maps.gstatic.com/mapfiles/place_api/icons/v1/png_71/generic_business-71.png",
      "icon_background_color": "#7B9EB0",
      "icon_mask_base_uri": "https://maps.gstatic.com/mapfiles/place_api/icons/v2/generic_pinlet",
      "name": "Metro Duct Systems Co",
      "photos": [
        {
          "height": 1536,
          "html_attributions": [
            "<a href=\"https://maps.google.com/maps/contrib/100746421164316858053\">sigfrido Montano</a>"
          ],
          "photo_reference": "AeJbb3cblo7o8xr53GDHMyMkLj6ZZJlUxVXsm2pgSYwWEPV0dXiME5QbC11sNGJ4uuSqY9i-C9ahYg4yb6nm4UEhkPXJRdnV7_UFZWzvI2mTVYTbotxtm52RuBMoZAiwzuf-cUe8a9G4kRIIEpYyEpN9Vs_1jz2k1Y3ZHH3PXLqh8MITBFZY",
          "width": 2048
        }
      ],
      "place_id": "ChIJbUuRsk5fwokRzW5r8-a6Il4",
      "plus_code": {
        "compound_code": "Q3CC+V7 Long Island City, Queens, NY, USA",
        "global_code": "87G8Q3CC+V7"
      },
      "rating": 5,
      "reference": "ChIJbUuRsk5fwokRzW5r8-a6Il4",
      "scope": "GOOGLE",
      "types": [
        "general_contractor",
        "point_of_interest",
        "establishment"
      ],
      "user_ratings_total": 3,
      "vicinity": "1219 Astoria Boulevard, Long Island City"
    },
    {
      "business_status": "OPERATIONAL",
      "geometry": {
        "location": {
          "lat": 40.7709117,
          "lng": -73.9290833
        },
        "viewport": {
          "northeast": {
            "lat": 40.7723726802915,
            "lng": -73.92744976970849
          },
          "southwest": {
            "lat": 40.7696747197085,
            "lng": -73.9301477302915
          }
        }
      },
      "icon": "https://maps.gstatic.com/mapfiles/place_api/icons/v1/png_71/school-71.png",
      "icon_background_color": "#7B9EB0",
      "icon_mask_base_uri": "https://maps.gstatic.com/mapfiles/place_api/icons/v2/school_pinlet",
      "name": "P.S. 171 Peter G. Van Alst",
      "photos": [
        {
          "height": 2268,
          "html_attributions": [
            "<a href=\"https://maps.google.com/maps/contrib/107821815236197059478\">sinan erel</a>"
          ],
          "photo_reference": "AeJbb3fN8o5bpgiHz8LpFC-uZrU1r7nksTczoxJzT1icAJ7WW7ErlOxUw7DqK5CdtwFp6csLmRSIJZ7nqS85145PyNieVAKB1cM_dvsFj6nHBLKg6R20rzN94URyeaDOcJ5uhHXrXTWhbm2OKgLRrR7z-RHfjMwl0q_NWLA3fsVVKhudeClt",
          "width": 4032
        }
      ],
      "place_id": "ChIJmTohQklfwokRv4PP3Wjzkb8",
      "plus_code": {
        "compound_code": "Q3CC+99 New York, NY, USA",
        "global_code": "87G8Q3CC+99"
      },
      "rating": 4.4,
      "reference": "ChIJmTohQklfwokRv4PP3Wjzkb8",
      "scope": "GOOGLE",
      "types": [
        "primary_school",
        "school",
        "point_of_interest",
        "establishment"
      ],
      "user_ratings_total": 13,
      "vicinity": "14-14 29th Avenue, Queens"
    },
    {
      "business_status": "OPERATIONAL",
      "geometry": {
        "location": {
          "lat": 40.76683260000001,
          "lng": -73.9343485
        },
        "viewport": {
          "northeast": {
            "lat": 40.7681333302915,
            "lng": -73.93303826970849
          },
          "southwest": {
            "lat": 40.7654353697085,
            "lng": -73.9357362302915
          }
        }
      },
      "icon": "https://maps.gstatic.com/mapfiles/place_api/icons/v1/png_71/generic_business-71.png",
      "icon_background_color": "#7B9EB0",
      "icon_mask_base_uri": "https://maps.gstatic.com/mapfiles/place_api/icons/v2/generic_pinlet",
      "name": "1215 Broadway LLC",
      "opening_hours": {
        "open_now": false
      },
      "photos": [
        {
          "height": 3024,
          "html_attributions": [
            "<a href=\"https://maps.google.com/maps/contrib/104135268484471286496\">Bryan Ray Lobo</a>"
          ],
          "photo_reference": "AeJbb3fQCzpBc_bjj6FftTAZZbxZMPgcWtPODUuof8BxULlsexvymBA7YLeQFB35GPWcFw162l_Q0dWRw4xgPKpAg9B2voDPhQ48I4lhdYSzA94MohNwWr3S2mCPXL58FkA93_eYO9QIN1PmpEV39_LMgPzVqpbk99b1WJRf7PENnS3zqFqU",
          "width": 4032
        }
      ],
      "place_id": "ChIJaUWgajVfwokR9eRb4iiJ5Os",
      "plus_code": {
        "compound_code": "Q388+P7 Astoria, Queens, NY, USA",
        "global_code": "87G8Q388+P7"
      },
      "rating": 2.3,
      "reference": "ChIJaUWgajVfwokR9eRb4iiJ5Os",
      "scope": "GOOGLE",
      "types": [
        "point_of_interest",
        "establishment"
      ],
      "user_ratings_total": 15,
      "vicinity": "1215 Broadway, Astoria"
    },
    {
      "business_status": "OPERATIONAL",
      "geometry": {
        "location": {
          "lat": 40.769001,
          "lng": -73.92943400000001
        },
        "viewport": {
          "northeast": {
            "lat": 40.77053523029149,
            "lng": -73.9279333697085
          },
          "southwest": {
            "lat": 40.76783726970849,
            "lng": -73.93063133029152
          }
        }
      },
      "icon": "https://maps.gstatic.com/mapfiles/place_api/icons/v1/png_71/generic_business-71.png",
      "icon_background_color": "#7B9EB0",
      "icon_mask_base_uri": "https://maps.gstatic.com/mapfiles/place_api/icons/v2/generic_pinlet",
      "name": "Delta Performance Automotive Group",
      "opening_hours": {
        "open_now": false
      },
      "photos": [
        {
          "height": 2988,
          "html_attributions": [
            "<a href=\"https://maps.google.com/maps/contrib/108833396882420370945\">Delta Performance Automotive Group</a>"
          ],
          "photo_reference": "AeJbb3efLr0zTbq2ibyUiQMycJXvrbOt_gGbS-ZkFdmgEtebsIf2hzX2laYQysBig0YTf52rwJnEYrSCS9O7nR7zkizAskSVmD2BdoPJfHdhEW6SMvhmXKB6ClrJrMO4NAsdTu8b2F4UkPJZGXMcBOe3EuGHEHBvDP2ZpkxKFdf_eXwQY5oS",
          "width": 5312
        }
      ],
      "place_id": "ChIJpTPCj0lfwokR0J5JTrdUFAU",
      "plus_code": {
        "compound_code": "Q39C+J6 Long Island City, Queens, NY, USA",
        "global_code": "87G8Q39C+J6"
      },
      "rating": 5,
      "reference": "ChIJpTPCj0lfwokR0J5JTrdUFAU",
      "scope": "GOOGLE",
      "types": [
        "point_of_interest",
        "establishment"
      ],
      "user_ratings_total": 3,
      "vicinity": "14-44 30th Road, Long Island City"
    },
    {
      "business_status": "OPERATIONAL",
      "geometry": {
        "location": {
          "lat": 40.7675381,
          "lng": -73.93738710000001
        },
        "viewport": {
          "northeast": {
            "lat": 40.76890718029149,
            "lng": -73.9359816697085
          },
          "southwest": {
            "lat": 40.76620921970849,
            "lng": -73.93867963029152
          }
        }
      },
      "icon": "https://maps.gstatic.com/mapfiles/place_api/icons/v1/png_71/shopping-71.png",
      "icon_background_color": "#4B96F3",
      "icon_mask_base_uri": "https://maps.gstatic.com/mapfiles/place_api/icons/v2/shopping_pinlet",
      "name": "Costco Tire Center",
      "opening_hours": {
        "open_now": true
      },
      "photos": [
        {
          "height": 3024,
          "html_attributions": [
            "<a href=\"https://maps.google.com/maps/contrib/103651711385210835193\">Dean Martinez</a>"
          ],
          "photo_reference": "AeJbb3efonDGDmRH_CoXwVCcs8k_WXfZ-NcyNfDiNqfbNp1A10B1wua0wqq-pb-WCWtkzCcZ3Rh9it2WKGkSmc3w1lKi3oeZSOUYJ_iBshsLZuI_4odutNrX1GvL2icEB1_1NLJrbjYq1vgk7jZeIJvWrey5v6_6vnoonWi_BWHa2kyk1cH0",
          "width": 4032
        }
      ],
      "place_id": "ChIJ4VBG7stYwokRe-umqGf-qkk",
      "plus_code": {
        "compound_code": "Q397+22 New York, NY, USA",
        "global_code": "87G8Q397+22"
      },
      "price_level": 2,
      "rating": 4,
      "reference": "ChIJ4VBG7stYwokRe-umqGf-qkk",
      "scope": "GOOGLE",
      "types": [
        "car_repair",
        "store",
        "point_of_interest",
        "establishment"
      ],
      "user_ratings_total": 242,
      "vicinity": "3250 Vernon Boulevard, Queens"
    },
    {
      "business_status": "OPERATIONAL",
      "geometry": {
        "location": {
          "lat": 40.7694722,
          "lng": -73.9346281
        },
        "viewport": {
          "northeast": {
            "lat": 40.7707491302915,
            "lng": -73.93337276970848
          },
          "southwest": {
            "lat": 40.7680511697085,
            "lng": -73.9360707302915
          }
        }
      },
      "icon": "https://maps.gstatic.com/mapfiles/place_api/icons/v1/png_71/generic_business-71.png",
      "icon_background_color": "#7B9EB0",
      "icon_mask_base_uri": "https://maps.gstatic.com/mapfiles/place_api/icons/v2/generic_pinlet",
      "name": "Hallet's Cove Condominium",
      "photos": [
        {
          "height": 2448,
          "html_attributions": [
            "<a href=\"https://maps.google.com/maps/contrib/116882937263130282699\">TheMrscarface2009</a>"
          ],
          "photo_reference": "AeJbb3eZkXMD7NlFAKdFxR8eqltMr8WjR4vaC3QJCQQhNJ98EVS31KGNvxNN8q4v5-zzCD0y7eD5pmUlwJQ9yLumPdSItwEviQwhoJHljeywRADn_UvZFG3dJiI7Co2lUS627CRaY3orJuQG850r9nncyJtWCyl2TxuMPZ36vMpxaGq5z3S-",
          "width": 3264
        }
      ],
      "place_id": "ChIJjd1twUpfwokRLfNLLFsdxnI",
      "plus_code": {
        "compound_code": "Q398+Q4 Astoria, Queens, NY, USA",
        "global_code": "87G8Q398+Q4"
      },
      "rating": 3.6,
      "reference": "ChIJjd1twUpfwokRLfNLLFsdxnI",
      "scope": "GOOGLE",
      "types": [
        "point_of_interest",
        "establishment"
      ],
      "user_ratings_total": 7,
      "vicinity": "3085 Vernon Boulevard, Astoria"
    },
    {
      "business_status": "OPERATIONAL",
      "geometry": {
        "location": {
          "lat": 40.7681742,
          "lng": -73.93240229999999
        },
        "viewport": {
          "northeast": {
            "lat": 40.7694663802915,
            "lng": -73.93109731970848
          },
          "southwest": {
            "lat": 40.76676841970851,
            "lng": -73.93379528029149
          }
        }
      },
      "icon": "https://maps.gstatic.com/mapfiles/place_api/icons/v1/png_71/generic_business-71.png",
      "icon_background_color": "#7B9EB0",
      "icon_mask_base_uri": "https://maps.gstatic.com/mapfiles/place_api/icons/v2/generic_pinlet",
      "name": "NYC Dept. of Health Astoria Health Center",
      "opening_hours": {
        "open_now": false
      },
      "place_id": "ChIJ0VJiZEpfwokRoxfK3hUxs_0",
      "plus_code": {
        "compound_code": "Q399+72 Long Island City, Queens, NY, USA",
        "global_code": "87G8Q399+72"
      },
      "rating": 1.8,
      "reference": "ChIJ0VJiZEpfwokRoxfK3hUxs_0",
      "scope": "GOOGLE",
      "types": [
        "health",
        "point_of_interest",
        "establishment"
      ],
      "user_ratings_total": 5,
      "vicinity": "1226 31st Avenue, Long Island City"
    },
    {
      "business_status": "OPERATIONAL",
      "geometry": {
        "location": {
          "lat": 40.7748733,
          "lng": -73.93277420000001
        },
        "viewport": {
          "northeast": {
            "lat": 40.77606938029149,
            "lng": -73.93150931970851
          },
          "southwest": {
            "lat": 40.7733714197085,
            "lng": -73.93420728029152
          }
        }
      },
      "icon": "https://maps.gstatic.com/mapfiles/place_api/icons/v1/png_71/generic_business-71.png",
      "icon_background_color": "#7B9EB0",
      "icon_mask_base_uri": "https://maps.gstatic.com/mapfiles/place_api/icons/v2/generic_pinlet",
      "name": "Martin De Porres Clinic",
      "place_id": "ChIJK6viWExfwokRkKAzOYABXF4",
      "plus_code": {
        "compound_code": "Q3F8+WV Astoria, Queens, NY, USA",
        "global_code": "87G8Q3F8+WV"
      },
      "reference": "ChIJK6viWExfwokRkKAzOYABXF4",
      "scope": "GOOGLE",
      "types": [
        "doctor",
        "health",
        "point_of_interest",
        "establishment"
      ],
      "vicinity": "4-21 27th Avenue, Astoria"
    }
  ],
  "status": "OK"
}