{
  "html_attributions": [],
  "results": [
    {
      "geometry": {
        "location": {
          "lat": 40.7127753,
          "lng": -74.0059728
        },
        "viewport": {
          "northeast": {
            "lat": 40.91757705070789,
            "lng": -73.70027206817629
          },
          "southwest": {
            "lat": 40.47739906045452,
            "lng": -74.25908991427882
          }
        }
      },
      "icon": "https://maps.gstatic.com/mapfiles/place_api/icons/v1/png_71/geocode-71.png",
      "icon_background_color": "#7B9EB0",
      "icon_mask_base_uri": "https://maps.gstatic.com/mapfiles/place_api/icons/v2/generic_pinlet",
      "name": "\u7d10\u7d04",
      "photos": [
        {
          "height": 600,
          "html_attributions": [
            "<a href=\"https://maps.google.com/maps/contrib/102389334567210814614\">Bukurie</a>"
          ],
          "photo_reference": "AeJbb3dt-jvji2T5R-QIxlZGtOkrKX1MYdSI9XTPWRJeaE167E8AnvXn9odL4dtXKuZs05_04qDjfaKn6o7A8fdF8GQ-vAvjKCPb5SXj3MaWSAvl9VgQUtfwzbSnOZY3NrOpIzvgAYOtKAt9lqzVzvirFHqS-nnowwhsNwe8JRzZqa-qkg3T",
          "width": 480
        }
      ],
      "place_id": "ChIJOwg_06VPwokRYv534QaPC8g",
      "reference": "ChIJOwg_06VPwokRYv534QaPC8g",
      "scope": "GOOGLE",
      "types": [
        "locality",
        "political"
      ],
      "vicinity": "\u7d10\u7d04"
    },
    {
      "business_status": "OPERATIONAL",
      "geometry": {
        "location": {
          "lat": 40.7495427,
          "lng": -73.951739
        },
        "viewport": {
          "northeast": {
            "lat": 40.75090773029149,
            "lng": -73.95059301970849
          },
          "southwest": {
            "lat": 40.7482097697085,
            "lng": -73.9532909802915
          }
        }
      },
      "icon": "https://maps.gstatic.com/mapfiles/place_api/icons/v1/png_71/lodging-71.png",
      "icon_background_color": "#909CE1",
      "icon_mask_base_uri": "https://maps.gstatic.com/mapfiles/place_api/icons/v2/hotel_pinlet",
      "name": "\u6587\u4e39\u52a0\u767b\u9577\u5cf6\u5e02",
      "opening_hours": {
        "open_now": true
      },
      "photos": [
        {
          "height": 400,
          "html_attributions": [
            "<a href=\"https://maps.google.com/maps/contrib/107549948808201099063\">Wyndham Garden Long Island City</a>"
          ],
          "photo_reference": "AeJbb3fmrzQ2jlI8af3Tt6-DQ6u_xzWawt6oTa-su_XCyUh9UGOc-hTI_ctCjMhPVI7r9tQW4aaqG8XDGC8tfFbXksOxwMdQC1jRUqNwyJWesAsLwRVy9Ebn6F6amICzHqlvFcJOw3pL6_3_H1dRbdjanNa2YRngq0_-qzbbDoBHt0pa-K-g",
          "width": 711
        }
      ],
      "place_id": "ChIJz02KaSdZwokRG1YYOPmgK3E",
      "plus_code": {
        "compound_code": "P2XX+R8 \u7f8e\u570b\u7d10\u7d04",
        "global_code": "87G8P2XX+R8"
      },
      "rating": 3.7,
      "reference": "ChIJz02KaSdZwokRG1YYOPmgK3E",
      "scope": "GOOGLE",
      "types": [
        "lodging",
        "point_of_interest",
        "establishment"
      ],
      "user_ratings_total": 777,
      "vicinity": "44-29 9th Street, Queens"
    },
    {
      "business_status": "OPERATIONAL",
      "geometry": {
        "location": {
          "lat": 40.749595,
          "lng": -73.947825
        },
        "viewport": {
          "northeast": {
            "lat": 40.75101383029151,
            "lng": -73.94649196970849
          },
          "southwest": {
            "lat": 40.74831586970851,
            "lng": -73.9491899302915
          }
        }
      },
      "icon": "https://maps.gstatic.com/mapfiles/place_api/icons/v1/png_71/lodging-71.png",
      "icon_background_color": "#909CE1",
      "icon_mask_base_uri": "https://maps.gstatic.com/mapfiles/place_api/icons/v2/hotel_pinlet",
      "name": "The Local NY",
      "opening_hours": {
        "open_now": true
      },
      "photos": [
        {
          "height": 1365,
          "html_attributions": [
            "<a href=\"https://maps.google.com/maps/contrib/107679528737601211756\">The Local NY</a>"
          ],
          "photo_reference": "AeJbb3fEjc0dv7yudu2FHub5BRhKJGU9Cfi4AJ4G88hq3fb02V_BWo1ma-qps0pzDiONn0Fiy4mLcn7J_4OR7P_TWSNL10UqMUVruGM1FBNX4rOJ0nH35yguKR4S5t0tLH0aDIIf7IpdGA_6iXdOOSEipaZ6WF-RkLXKKhapEHufClf0XZ_D",
          "width": 2048
        }
      ],
      "place_id": "ChIJqQHQ_CdZwokRd7UAPw_Mzlg",
      "plus_code": {
        "compound_code": "P3X2+RV \u7f8e\u570b\u7d10\u7d04",
        "global_code": "87G8P3X2+RV"
      },
      "rating": 4.4,
      "reference": "ChIJqQHQ_CdZwokRd7UAPw_Mzlg",
      "scope": "GOOGLE",
      "types": [
        "lodging",
        "point_of_interest",
        "establishment"
      ],
      "user_ratings_total": 1044,
      "vicinity": "13-02 44th Avenue, Queens"
    },
    {
      "business_status": "OPERATIONAL",
      "geometry": {
        "location": {
          "lat": 40.7514412,
          "lng": -73.9436225
        },
        "viewport": {
          "northeast": {
            "lat": 40.7527189802915,
            "lng": -73.9421726697085
          },
          "southwest": {
            "lat": 40.7500210197085,
            "lng": -73.94487063029152
          }
        }
      },
      "icon": "https://maps.gstatic.com/mapfiles/place_api/icons/v1/png_71/generic_business-71.png",
      "icon_background_color": "#7B9EB0",
      "icon_mask_base_uri": "https://maps.gstatic.com/mapfiles/place_api/icons/v2/generic_pinlet",
      "name": "Silvercup Studios",
      "opening_hours": {
        "open_now": true
      },
      "photos": [
        {
          "height": 4080,
          "html_attributions": [
            "<a href=\"https://maps.google.com/maps/contrib/103145811619360758550\">Eddie Santiago</a>"
          ],
          "photo_reference": "AeJbb3eiICM54qeI40UxlRLWYsUvTqBFzkkFo0YnULh-A8Akc5CQRkuTtfuZxD9Wmpugn7ptCDYc_f1Uzg8WsLNDx3nbniTslZ7FKB4m2JCssIu7N3Q6Iy7XOrNuLaBrucgj-QC1IldOd2LKKBFS8cU5t5sfoDCH0IxTeq1PGndU-L6h4Ivp",
          "width": 3060
        }
      ],
      "place_id": "ChIJ5UXsRChZwokRZocInSCJZpA",
      "plus_code": {
        "compound_code": "Q324+HH \u7f8e\u570b\u7d10\u7d04",
        "global_code": "87G8Q324+HH"
      },
      "rating": 4.5,
      "reference": "ChIJ5UXsRChZwokRZocInSCJZpA",
      "scope": "GOOGLE",
      "types": [
        "point_of_interest",
        "establishment"
      ],
      "user_ratings_total": 106,
      "vicinity": "42-22 22nd Street, Queens"
    },
    {
      "business_status": "OPERATIONAL",
      "geometry": {
        "location": {
          "lat": 40.7489415,
          "lng": -73.9449009
        },
        "viewport": {
          "northeast": {
            "lat": 40.7501998802915,
            "lng": -73.9433676197085
          },
          "southwest": {
            "lat": 40.7475019197085,
            "lng": -73.9460655802915
          }
        }
      },
      "icon": "https://maps.gstatic.com/mapfiles/place_api/icons/v1/png_71/school-71.png",
      "icon_background_color": "#7B9EB0",
      "icon_mask_base_uri": "https://maps.gstatic.com/mapfiles/place_api/icons/v2/school_pinlet",
      "name": "Shinjinbukan New York D\u014dj\u014d",
      "opening_hours": {
        "open_now": false
      },
      "place_id": "ChIJ20L03PdYwokRcBK52_u5QHE",
      "plus_code": {
        "compound_code": "P3X4+H2 \u7f8e\u570b\u7d10\u7d04\u9577\u5cf6\u5e02",
        "global_code": "87G8P3X4+H2"
      },
      "reference": "ChIJ20L03PdYwokRcBK52_u5QHE",
      "scope": "GOOGLE",
      "types": [
        "health",
        "point_of_interest",
        "establishment"
      ],
      "vicinity": "44-02 23rd Street #101c, Long Island City"
    },
    {
      "business_status": "OPERATIONAL",
      "geometry": {
        "location": {
          "lat": 40.7510958,
          "lng": -73.9460058
        },
        "viewport": {
          "northeast": {
            "lat": 40.7523334802915,
            "lng": -73.94470781970848
          },
          "southwest": {
            "lat": 40.74963551970851,
            "lng": -73.94740578029149
          }
        }
      },
      "icon": "https://maps.gstatic.com/mapfiles/place_api/icons/v1/png_71/generic_business-71.png",
      "icon_background_color": "#7B9EB0",
      "icon_mask_base_uri": "https://maps.gstatic.com/mapfiles/place_api/icons/v2/generic_pinlet",
      "name": "Five Star Banquet",
      "opening_hours": {
        "open_now": true
      },
      "photos": [
        {
          "height": 591,
          "html_attributions": [
            "<a href=\"https://maps.google.com/maps/contrib/103354213837060889451\">Five Star Banquet</a>"
          ],
          "photo_reference": "AeJbb3cWF0f4PeZgmtXnol1MB2brOMAnQOZEjEdfkZKCBQT3PC7cDjNa0XtvI5PY66I7wcXWK5pPBKTIBeHOwdd3QvK8cLlSFdxWaXrWklyw1xjoH7J3MOAgnJ4a_nPBKxHd3DwoP9vswpgDvh0tDkWQm7UO8KJte6-MjwmB8m-NJCrVaVTF",
          "width": 640
        }
      ],
      "place_id": "ChIJg4BgwNdYwokRsfnbAaWsQb8",
      "plus_code": {
        "compound_code": "Q323+CH \u7f8e\u570b\u7d10\u7d04",
        "global_code": "87G8Q323+CH"
      },
      "price_level": 1,
      "rating": 4.1,
      "reference": "ChIJg4BgwNdYwokRsfnbAaWsQb8",
      "scope": "GOOGLE",
      "types": [
        "restaurant",
        "food",
        "point_of_interest",
        "establishment"
      ],
      "user_ratings_total": 545,
      "vicinity": "13-05 43rd Avenue, Queens"
    },
    {
      "business_status": "CLOSED_TEMPORARILY",
      "geometry": {
        "location": {
          "lat": 40.751816,
          "lng": -73.948798
        },
        "viewport": {
          "northeast": {
            "lat": 40.7532726302915,
            "lng": -73.94757406970851
          },
          "southwest": {
            "lat": 40.7505746697085,
            "lng": -73.95027203029152
          }
        }
      },
      "icon": "https://maps.gstatic.com/mapfiles/place_api/icons/v1/png_71/generic_business-71.png",
      "icon_background_color": "#7B9EB0",
      "icon_mask_base_uri": "https://maps.gstatic.com/mapfiles/place_api/icons/v2/generic_pinlet",
      "name": "East Office PC",
      "permanently_closed": true,
      "place_id": "ChIJg_HfGwFZwokRICIDRSzXClU",
      "plus_code": {
        "compound_code": "Q322+PF \u7f8e\u570b\u7d10\u7d04",
        "global_code": "87G8Q322+PF"
      },
      "rating": 4,
      "reference": "ChIJg_HfGwFZwokRICIDRSzXClU",
      "scope": "GOOGLE",
      "types": [
        "point_of_interest",
        "establishment"
      ],
      "user_ratings_total": 1,
      "vicinity": "43-05 10th Street, Queens"
    },
    {
      "business_status": "OPERATIONAL",
      "geometry": {
        "location": {
          "lat": 40.75387029999999,
          "lng": -73.9493586
        },
        "viewport": {
          "northeast": {
            "lat": 40.7551594802915,
            "lng": -73.9479791697085
          },
          "southwest": {
            "lat": 40.7524615197085,
            "lng": -73.95067713029151
          }
        }
      },
      "icon": "https://maps.gstatic.com/mapfiles/place_api/icons/v1/png_71/generic_business-71.png",
      "icon_background_color": "#7B9EB0",
      "icon_mask_base_uri": "https://maps.gstatic.com/mapfiles/place_api/icons/v2/generic_pinlet",
      "name": "The Penthouse",
      "opening_hours": {
        "open_now": true
      },
      "photos": [
        {
          "height": 1365,
          "html_attributions": [
            "<a href=\"https://maps.google.com/maps/contrib/114109314739966841007\">The Penthouse</a>"
          ],
          "photo_reference": "AeJbb3fhKQOCNyG58aEV-4w8Sp1XOMCdg_IDpR9WQPQ32qmItdpxFRDeQ_fGCzdEvzexbXydA2sJthZBwOvSmxAHaeEPz7OjVR1nkAiFdicoyaEhI_ZfbLF_8ehGfGlCBxjIqaJhYRZqku1XCcPCvIui55qcKOjEyFcYZETMlm4S91IJQHgW",
          "width": 2048
        }
      ],
      "place_id": "ChIJjTsXXNBZwokRv-7Xf0DuNX0",
      "plus_code": {
        "compound_code": "Q332+G7 \u7f8e\u570b\u7d10\u7d04",
        "global_code": "87G8Q332+G7"
      },
      "rating": 3.9,
      "reference": "ChIJjTsXXNBZwokRv-7Xf0DuNX0",
      "scope": "GOOGLE",
      "types": [
        "point_of_interest",
        "establishment"
      ],
      "user_ratings_total": 1462,
      "vicinity": "8-08 Queens Plaza South, Queens"
    },
    {
      "business_status": "OPERATIONAL",
      "geometry": {
        "location": {
          "lat": 40.7510944,
          "lng": -73.94553599999999
        },
        "viewport": {
          "northeast": {
            "lat": 40.75239138029151,
            "lng": -73.94408276970849
          },
          "southwest": {
            "lat": 40.74969341970851,
            "lng": -73.9467807302915
          }
        }
      },
      "icon": "https://maps.gstatic.com/mapfiles/place_api/icons/v1/png_71/generic_business-71.png",
      "icon_background_color": "#7B9EB0",
      "icon_mask_base_uri": "https://maps.gstatic.com/mapfiles/place_api/icons/v2/generic_pinlet",
      "name": "Show Palace Gentlemen's Club NYC",
      "opening_hours": {
        "open_now": false
      },
      "photos": [
        {
          "height": 1512,
          "html_attributions": [
            "<a href=\"https://maps.google.com/maps/contrib/112751686599317907515\">Show Palace Gentlemen&#39;s Club NYC</a>"
          ],
          "photo_reference": "AeJbb3eavV6AhYiIXxTdBvC6d9wBZwBLyBO3wxDzQZw_D_3J33q3w-3TuN4rtzVAmKQ3JjpPEoFF38ft9Cyb4T4lZCSm4ZM9XRlWMnqzUjoaoJOebzam0yecohgt8kPj_OFAo1P_SOUOW_aShl7G6Dm4RNCH07rxLwIqTcllDfBqiBpTLqLU",
          "width": 2284
        }
      ],
      "place_id": "ChIJ1SiUt9dYwokRvBBCh0qdA2I",
      "plus_code": {
        "compound_code": "Q323+CQ \u7f8e\u570b\u7d10\u7d04",
        "global_code": "87G8Q323+CQ"
      },
      "rating": 3.5,
      "reference": "ChIJ1SiUt9dYwokRvBBCh0qdA2I",
      "scope": "GOOGLE",
      "types": [
        "night_club",
        "bar",
        "restaurant",
        "food",
        "point_of_interest",
        "establishment"
      ],
      "user_ratings_total": 158,
      "vicinity": "42-50 21st Street, Queens"
    },
    {
      "business_status": "OPERATIONAL",
      "geometry": {
        "location": {
          "lat": 40.7491042,
          "lng": -73.9450897
        },
        "viewport": {
          "northeast": {
            "lat": 40.7503077302915,
            "lng": -73.9434421697085
          },
          "southwest": {
            "lat": 40.7476097697085,
            "lng": -73.94614013029151
          }
        }
      },
      "icon": "https://maps.gstatic.com/mapfiles/place_api/icons/v1/png_71/generic_business-71.png",
      "icon_background_color": "#7B9EB0",
      "icon_mask_base_uri": "https://maps.gstatic.com/mapfiles/place_api/icons/v2/generic_pinlet",
      "name": "eSense",
      "opening_hours": {
        "open_now": false
      },
      "photos": [
        {
          "height": 1641,
          "html_attributions": [
            "<a href=\"https://maps.google.com/maps/contrib/114228871300291917625\">eSense</a>"
          ],
          "photo_reference": "AeJbb3ebdBjiIgUogj5wcPQ-EjMThj43lRohgOyImf415Wiwd45DgyHZEfQwSy7V83rN48crRJ6mdGmL0LHp7wXWr26gscn_LttxLDqUGLdwno3HhYkpUVKLJfRo7bYsgk6hYkN1Gx5IITkyxxOcDA6UAQcIAS0ei3Q7X-HVx6X7_3bOQbz_",
          "width": 2920
        }
      ],
      "place_id": "ChIJKftbyylZwokRwF_HuFyvLts",
      "plus_code": {
        "compound_code": "P3X3+JX \u7f8e\u570b\u7d10\u7d04",
        "global_code": "87G8P3X3+JX"
      },
      "reference": "ChIJKftbyylZwokRwF_HuFyvLts",
      "scope": "GOOGLE",
      "types": [
        "point_of_interest",
        "establishment"
      ],
      "vicinity": "4402 23rd Street #114, Queens"
    },
    {
      "business_status": "OPERATIONAL",
      "geometry": {
        "location": {
          "lat": 40.7488762,
          "lng": -73.9447268
        },
        "viewport": {
          "northeast": {
            "lat": 40.7502036802915,
            "lng": -73.94327691970848
          },
          "southwest": {
            "lat": 40.7475057197085,
            "lng": -73.9459748802915
          }
        }
      },
      "icon": "https://maps.gstatic.com/mapfiles/place_api/icons/v1/png_71/school-71.png",
      "icon_background_color": "#7B9EB0",
      "icon_mask_base_uri": "https://maps.gstatic.com/mapfiles/place_api/icons/v2/school_pinlet",
      "name": "Sage Music School",
      "opening_hours": {
        "open_now": true
      },
      "photos": [
        {
          "height": 576,
          "html_attributions": [
            "<a href=\"https://maps.google.com/maps/contrib/102277422982963228363\">Sage Music School</a>"
          ],
          "photo_reference": "AeJbb3dE8wwbyApZ-UHgBSARvFjiBIzrRVnWiI9vssd7IT5kYjhcK6uezXojn9n64j7hFa5ib5RXOy7qBDXqjqgDMToK6UvKDxXbbSPzzXrSHbLhcnKCwxlcIu44tW2ZnxXqkygWxrMhaLOOgSOH64AXjgsUUDrCB04a8yc0NTNffuBXDpk",
          "width": 1024
        }
      ],
      "place_id": "ChIJe0KDzClZwokRey-vHYIvcQ4",
      "plus_code": {
        "compound_code": "P3X4+H4 \u7f8e\u570b\u7d10\u7d04\u9577\u5cf6\u5e02",
        "global_code": "87G8P3X4+H4"
      },
      "rating": 5,
      "reference": "ChIJe0KDzClZwokRey-vHYIvcQ4",
      "scope": "GOOGLE",
      "types": [
        "electronics_store",
        "home_goods_store",
        "school",
        "point_of_interest",
        "store",
        "establishment"
      ],
      "user_ratings_total": 60,
      "vicinity": "44-02 23rd Street #204, Long Island City"
    },
    {
      "business_status": "OPERATIONAL",
      "geometry": {
        "location": {
          "lat": 40.74849139999999,
          "lng": -73.946552
        },
        "viewport": {
          "northeast": {
            "lat": 40.74999683029149,
            "lng": -73.9453735697085
          },
          "southwest": {
            "lat": 40.74729886970849,
            "lng": -73.9480715302915
          }
        }
      },
      "icon": "https://maps.gstatic.com/mapfiles/place_api/icons/v1/png_71/school-71.png",
      "icon_background_color": "#7B9EB0",
      "icon_mask_base_uri": "https://maps.gstatic.com/mapfiles/place_api/icons/v2/school_pinlet",
      "name": "Information Technology High School",
      "opening_hours": {
        "open_now": false
      },
      "photos": [
        {
          "height": 5312,
          "html_attributions": [
            "<a href=\"https://maps.google.com/maps/contrib/118148684276360268093\">Palani Kay</a>"
          ],
          "photo_reference": "AeJbb3dPDi51bejgrzmiK7ElUItmI8HEitVyRo9BTQ3UVfJ2bj6V1j3w0dkj6ZXELPc2ILcr08JcR4cLE186eFmLA8Ww4eMQiVCgzVPDcJy0SWTkfyjKdMA8PbkG3lOxcymwbC3OWpAQvJ1mT02IezFdTram8DvSWz4f2PWMco8Gl2n43fN6",
          "width": 2988
        }
      ],
      "place_id": "ChIJEaMsbShZwokRk8JNt5W8WZM",
      "plus_code": {
        "compound_code": "P3X3+99 \u7f8e\u570b\u7d10\u7d04",
        "global_code": "87G8P3X3+99"
      },
      "rating": 4.1,
      "reference": "ChIJEaMsbShZwokRk8JNt5W8WZM",
      "scope": "GOOGLE",
      "types": [
        "secondary_school",
        "school",
        "point_of_interest",
        "establishment"
      ],
      "user_ratings_total": 34,
      "vicinity": "21-16 44th Road, Queens"
    },
    {
      "business_status": "CLOSED_TEMPORARILY",
      "geometry": {
        "location": {
          "lat": 40.7497152,
          "lng": -73.9489323
        },
        "viewport": {
          "northeast": {
            "lat": 40.75109628029151,
            "lng": -73.9477442697085
          },
          "southwest": {
            "lat": 40.74839831970851,
            "lng": -73.9504422302915
          }
        }
      },
      "icon": "https://maps.gstatic.com/mapfiles/place_api/icons/v1/png_71/generic_business-71.png",
      "icon_background_color": "#7B9EB0",
      "icon_mask_base_uri": "https://maps.gstatic.com/mapfiles/place_api/icons/v2/generic_pinlet",
      "name": "Metropolitan Props Ltd.",
      "permanently_closed": true,
      "place_id": "ChIJ3_r37SdZwokRJsh0DPR5FMw",
      "plus_code": {
        "compound_code": "P3X2+VC \u7f8e\u570b\u7d10\u7d04\u9577\u5cf6\u5e02",
        "global_code": "87G8P3X2+VC"
      },
      "reference": "ChIJ3_r37SdZwokRJsh0DPR5FMw",
      "scope": "GOOGLE",
      "types": [
        "general_contractor",
        "point_of_interest",
        "establishment"
      ],
      "vicinity": "44-01 11th Street, Long Island City"
    },
    {
      "business_status": "OPERATIONAL",
      "geometry": {
        "location": {
          "lat": 40.7530722,
          "lng": -73.9494472
        },
        "viewport": {
          "northeast": {
            "lat": 40.75437988029149,
            "lng": -73.94800486970848
          },
          "southwest": {
            "lat": 40.7516819197085,
            "lng": -73.95070283029149
          }
        }
      },
      "icon": "https://maps.gstatic.com/mapfiles/place_api/icons/v1/png_71/generic_business-71.png",
      "icon_background_color": "#7B9EB0",
      "icon_mask_base_uri": "https://maps.gstatic.com/mapfiles/place_api/icons/v2/generic_pinlet",
      "name": "The Foundry",
      "opening_hours": {
        "open_now": true
      },
      "photos": [
        {
          "height": 685,
          "html_attributions": [
            "<a href=\"https://maps.google.com/maps/contrib/102801651219861638565\">The Foundry</a>"
          ],
          "photo_reference": "AeJbb3eo819DM0KLhWtLEFlloh9g6mjbeAXfGx8XMA_YHAV0KFAGE4qnoD99_I-hdmI04DJ3J6a95CmZ4RCz7PMzxOgiNJB653nTTimE5EacY_MtCwdnNRQN8LSBE9va3YDUjVjo3i3hT3zfG1sn68T-rWNtHF_IIbghtJIjWJ0Hi7F_K-Il",
          "width": 1021
        }
      ],
      "place_id": "ChIJOWNrttlYwokR8fIB6u6gEHo",
      "plus_code": {
        "compound_code": "Q332+66 \u7f8e\u570b\u7d10\u7d04",
        "global_code": "87G8Q332+66"
      },
      "rating": 4.7,
      "reference": "ChIJOWNrttlYwokR8fIB6u6gEHo",
      "scope": "GOOGLE",
      "types": [
        "point_of_interest",
        "establishment"
      ],
      "user_ratings_total": 223,
      "vicinity": "42-38 9th Street, Queens"
    },
    {
      "business_status": "OPERATIONAL",
      "geometry": {
        "location": {
          "lat": 40.7487595,
          "lng": -73.9448106
        },
        "viewport": {
          "northeast": {
            "lat": 40.7500611802915,
            "lng": -73.94336691970848
          },
          "southwest": {
            "lat": 40.7473632197085,
            "lng": -73.9460648802915
          }
        }
      },
      "icon": "https://maps.gstatic.com/mapfiles/place_api/icons/v1/png_71/shopping-71.png",
      "icon_background_color": "#4B96F3",
      "icon_mask_base_uri": "https://maps.gstatic.com/mapfiles/place_api/icons/v2/shopping_pinlet",
      "name": "Dara Lamb BESPOKE - By Appointment",
      "photos": [
        {
          "height": 1274,
          "html_attributions": [
            "<a href=\"https://maps.google.com/maps/contrib/111184341115456343676\">Dara Lamb BESPOKE</a>"
          ],
          "photo_reference": "AeJbb3fash_nFxkGVYL67WMZd1nKbzZCSnSAxwRl7CIdr8ZW-yseSJW5y6-74ZVXKWd5c5h-TdKd2AAZjZvN1u_ehBgS2CAMDEnHJ75gMZoKgmyoXNDB04xa7jQaJS8tT-frmcn4o7caJrIjFhU97kGJErEfnXVSrEJ5VFtfdJz5OKATwR0j",
          "width": 1567
        }
      ],
      "place_id": "ChIJNSHcoPBYwokR0qPu2XGz-aI",
      "plus_code": {
        "compound_code": "P3X4+G3 \u7f8e\u570b\u7d10\u7d04",
        "global_code": "87G8P3X4+G3"
      },
      "rating": 5,
      "reference": "ChIJNSHcoPBYwokR0qPu2XGz-aI",
      "scope": "GOOGLE",
      "types": [
        "clothing_store",
        "point_of_interest",
        "store",
        "establishment"
      ],
      "user_ratings_total": 3,
      "vicinity": "4402 23rd Street suite 211, Queens"
    },
    {
      "business_status": "OPERATIONAL",
      "geometry": {
        "location": {
          "lat": 40.7504267,
          "lng": -73.9492212
        },
        "viewport": {
          "northeast": {
            "lat": 40.7517477802915,
            "lng": -73.94778766970849
          },
          "southwest": {
            "lat": 40.7490498197085,
            "lng": -73.95048563029151
          }
        }
      },
      "icon": "https://maps.gstatic.com/mapfiles/place_api/icons/v1/png_71/generic_business-71.png",
      "icon_background_color": "#7B9EB0",
      "icon_mask_base_uri": "https://maps.gstatic.com/mapfiles/place_api/icons/v2/generic_pinlet",
      "name": "MRD",
      "opening_hours": {
        "open_now": false
      },
      "photos": [
        {
          "height": 800,
          "html_attributions": [
            "<a href=\"https://maps.google.com/maps/contrib/107210179344049029327\">MRD</a>"
          ],
          "photo_reference": "AeJbb3f9REdBSJPdTlNT9VwE8hTnpb7lZpkiGxpdLuij1hPw1jKR9AACp0uUTVSHfdvutPfASkiUiHb_HyI7tbVR9KVVge8TNZ3pbbWPl8rmghtAI4IPa182NVyXdawqIOwLBIlsslsxm5sntwyWbMFjpz1TI5mhoup3AayLsdzISusmA25Z",
          "width": 800
        }
      ],
      "place_id": "ChIJ2X__1NdYwokRjUxmdXc4rNk",
      "plus_code": {
        "compound_code": "Q322+58 \u7f8e\u570b\u7d10\u7d04",
        "global_code": "87G8Q322+58"
      },
      "rating": 1.3,
      "reference": "ChIJ2X__1NdYwokRjUxmdXc4rNk",
      "scope": "GOOGLE",
      "types": [
        "point_of_interest",
        "establishment"
      ],
      "user_ratings_total": 3,
      "vicinity": "1111 43rd Road, Queens"
    },
    {
      "business_status": "OPERATIONAL",
      "geometry": {
        "location": {
          "lat": 40.7489912,
          "lng": -73.9490452
        },
        "viewport": {
          "northeast": {
            "lat": 40.7504498302915,
            "lng": -73.9476546197085
          },
          "southwest": {
            "lat": 40.7477518697085,
            "lng": -73.95035258029151
          }
        }
      },
      "icon": "https://maps.gstatic.com/mapfiles/place_api/icons/v1/png_71/generic_business-71.png",
      "icon_background_color": "#7B9EB0",
      "icon_mask_base_uri": "https://maps.gstatic.com/mapfiles/place_api/icons/v2/generic_pinlet",
      "name": "Attic Studios",
      "opening_hours": {
        "open_now": true
      },
      "photos": [
        {
          "height": 631,
          "html_attributions": [
            "<a href=\"https://maps.google.com/maps/contrib/111720272158092840927\">Attic Studios</a>"
          ],
          "photo_reference": "AeJbb3cBcmt9iTIk8wAl-ezcgjOwhoIXKVwH9WA4_GXzDXHlQ17mf-4reqkdRtZiHJ70Le85Lg8YwYlcNcRERyO1W1Ca3gFlJSMezFgZhbJxGdAiWYHSNoA5-BCgkAIyzhVPz6ZcG-xyQbbrFY-n3gG9koYDu_XPRof3pJCD8Km-PDMnKE2F",
          "width": 965
        }
      ],
      "place_id": "ChIJRyMO6ydZwokRP3nE2et6iyU",
      "plus_code": {
        "compound_code": "P3X2+H9 \u7f8e\u570b\u7d10\u7d04",
        "global_code": "87G8P3X2+H9"
      },
      "rating": 4.5,
      "reference": "ChIJRyMO6ydZwokRP3nE2et6iyU",
      "scope": "GOOGLE",
      "types": [
        "point_of_interest",
        "establishment"
      ],
      "user_ratings_total": 20,
      "vicinity": "11-5 44th Road, Queens"
    },
    {
      "business_status": "OPERATIONAL",
      "geometry": {
        "location": {
          "lat": 40.7489308,
          "lng": -73.9445635
        },
        "viewport": {
          "northeast": {
            "lat": 40.7502503802915,
            "lng": -73.9431541197085
          },
          "southwest": {
            "lat": 40.74755241970851,
            "lng": -73.9458520802915
          }
        }
      },
      "icon": "https://maps.gstatic.com/mapfiles/place_api/icons/v1/png_71/generic_business-71.png",
      "icon_background_color": "#7B9EB0",
      "icon_mask_base_uri": "https://maps.gstatic.com/mapfiles/place_api/icons/v2/generic_pinlet",
      "name": "The Abingdon Square Painters",
      "photos": [
        {
          "height": 500,
          "html_attributions": [
            "<a href=\"https://maps.google.com/maps/contrib/107501187465413277841\">The Abingdon Square Painters</a>"
          ],
          "photo_reference": "AeJbb3fxbwKT7RVTTZgqKSa1YOyCfcqiqC259U2SKxcE3anIwkmkN5KDiiwquC4qs90lzcL_2pn77HDlVfG08qchIUyPy4gmpl_Abtd_I9tXmkS3lxtN6xy1haPu_lDGQ6LhjfsLPtfHYx4OiAhIW7C2ce6YK9WY2nRGzEzrhKLhnKnU0ht8",
          "width": 1733
        }
      ],
      "place_id": "ChIJIQC3zSlZwokRSQXIi_PG4oI",
      "plus_code": {
        "compound_code": "P3X4+H5 \u7f8e\u570b\u7d10\u7d04\u9577\u5cf6\u5e02",
        "global_code": "87G8P3X4+H5"
      },
      "rating": 5,
      "reference": "ChIJIQC3zSlZwokRSQXIi_PG4oI",
      "scope": "GOOGLE",
      "types": [
        "point_of_interest",
        "establishment"
      ],
      "user_ratings_total": 1,
      "vicinity": "LIC Arts Center, 44-02 23rd Street, Suite 309, 23rd Street, Long Island City"
    },
    {
      "business_status": "OPERATIONAL",
      "geometry": {
        "location": {
          "lat": 40.7497152,
          "lng": -73.9489323
        },
        "viewport": {
          "northeast": {
            "lat": 40.75109628029151,
            "lng": -73.9477442697085
          },
          "southwest": {
            "lat": 40.74839831970851,
            "lng": -73.9504422302915
          }
        }
      },
      "icon": "https://maps.gstatic.com/mapfiles/place_api/icons/v1/png_71/generic_business-71.png",
      "icon_background_color": "#7B9EB0",
      "icon_mask_base_uri": "https://maps.gstatic.com/mapfiles/place_api/icons/v2/generic_pinlet",
      "name": "Eleanor Ambos Interiors Ltd",
      "place_id": "ChIJ3_r37SdZwokR4ZMePcXNKwY",
      "plus_code": {
        "compound_code": "P3X2+VC \u7f8e\u570b\u7d10\u7d04\u9577\u5cf6\u5e02",
        "global_code": "87G8P3X2+VC"
      },
      "reference": "ChIJ3_r37SdZwokR4ZMePcXNKwY",
      "scope": "GOOGLE",
      "types": [
        "point_of_interest",
        "establishment"
      ],
      "vicinity": "4401 11th Street, Long Island City"
    },
    {
      "geometry": {
        "location": {
          "lat": 40.744679,
          "lng": -73.9485424
        },
        "viewport": {
          "northeast": {
            "lat": 40.76305627050633,
            "lng": -73.90948293911667
          },
          "southwest": {
            "lat": 40.727849032336,
            "lng": -73.96285774645361
          }
        }
      },
      "icon": "https://maps.gstatic.com/mapfiles/place_api/icons/v1/png_71/geocode-71.png",
      "icon_background_color": "#7B9EB0",
      "icon_mask_base_uri": "https://maps.gstatic.com/mapfiles/place_api/icons/v2/generic_pinlet",
      "name": "\u9577\u5cf6\u5e02",
      "photos": [
        {
          "height": 3000,
          "html_attributions": [
            "<a href=\"https://maps.google.com/maps/contrib/106309005578646235768\">love alter</a>"
          ],
          "photo_reference": "AeJbb3cVdLbNtauU4p3vuinXOOumi6UkKS4i7GtzahzuazCF_SCy9DmmVG0ZFtREFmc_yqx22UifGMW09ji35HN2el87K32--hU1qT9wWYOOa5wMRn5hWh1VPobAvc3GBv_TxOlQav4mcLxmq591kQpjolSwkNg7zNYNaAIIb8QZ8M7bmoNy",
          "width": 4000
        }
      ],
      "place_id": "ChIJWbG6xytZwokRMY7uxcRsFVY",
      "reference": "ChIJWbG6xytZwokRMY7uxcRsFVY",
      "scope": "GOOGLE",
      "types": [
        "neighborhood",
        "political"
      ],
      "vicinity": "\u7687\u540e\u5340"
    },
    {
      "business_status": "OPERATIONAL",
      "geometry": {
        "location": {
          "lat": 40.7496853,
          "lng": -73.94495859999999
        },
        "viewport": {
          "northeast": {
            "lat": 40.75105933029149,
            "lng": -73.9436607697085
          },
          "southwest": {
            "lat": 40.7483613697085,
            "lng": -73.94635873029151
          }
        }
      },
      "icon": "https://maps.gstatic.com/mapfiles/place_api/icons/v1/png_71/generic_business-71.png",
      "icon_background_color": "#7B9EB0",
      "icon_mask_base_uri": "https://maps.gstatic.com/mapfiles/place_api/icons/v2/generic_pinlet",
      "name": "Charles Benton Photography",
      "opening_hours": {
        "open_now": true
      },
      "place_id": "ChIJF3jJKihZwokRlv6VyWX4IZk",
      "plus_code": {
        "compound_code": "P3X4+V2 New York, NY, USA",
        "global_code": "87G8P3X4+V2"
      },
      "reference": "ChIJF3jJKihZwokRlv6VyWX4IZk",
      "scope": "GOOGLE",
      "types": [
        "point_of_interest",
        "establishment"
      ],
      "vicinity": "43-01 22nd Street #266, Queens"
    },
    {
      "business_status": "OPERATIONAL",
      "geometry": {
        "location": {
          "lat": 40.7526194,
          "lng": -73.94995829999999
        },
        "viewport": {
          "northeast": {
            "lat": 40.7540296302915,
            "lng": -73.9485554697085
          },
          "southwest": {
            "lat": 40.7513316697085,
            "lng": -73.9512534302915
          }
        }
      },
      "icon": "https://maps.gstatic.com/mapfiles/place_api/icons/v1/png_71/generic_business-71.png",
      "icon_background_color": "#7B9EB0",
      "icon_mask_base_uri": "https://maps.gstatic.com/mapfiles/place_api/icons/v2/generic_pinlet",
      "name": "Brooklyn Studios (Studio 1) - Film & Photo Studios w/ Kitchen, Sound Stage & Production Offices NYC",
      "photos": [
        {
          "height": 667,
          "html_attributions": [
            "<a href=\"https://maps.google.com/maps/contrib/116472118674276423168\">Brooklyn Studios (Studio 1) - Film &amp; Photo Studios w/ Kitchen, Sound Stage &amp; Event Venue NYC</a>"
          ],
          "photo_reference": "AeJbb3dmAcIyIUA_azlQmwcXLYRaCZ0_vT84i7hylBxPUgJL12eAVRLoVo3WFRkBuoHWhWmd-cscTmK9gsm17fpg-kWsdmpRoaM9-pRdyrMcf3JiPU79hdNeNdyPO4fbqplaWFDrUw_Yc2DnjCxQLLVcAoBMuxcSF-7kxWqI45bmHNMWCQUn",
          "width": 1000
        }
      ],
      "place_id": "ChIJb_xmc0hZwokRAY0V5zkn7k8",
      "plus_code": {
        "compound_code": "Q332+22 Long Island City, Queens, NY, USA",
        "global_code": "87G8Q332+22"
      },
      "rating": 4.6,
      "reference": "ChIJb_xmc0hZwokRAY0V5zkn7k8",
      "scope": "GOOGLE",
      "types": [
        "point_of_interest",
        "establishment"
      ],
      "user_ratings_total": 14,
      "vicinity": "8-16 43rd Avenue, Long Island City"
    },
    {
      "business_status": "CLOSED_TEMPORARILY",
      "geometry": {
        "location": {
          "lat": 40.74877009999999,
          "lng": -73.94481780000001
        },
        "viewport": {
          "northeast": {
            "lat": 40.7500689302915,
            "lng": -73.9433684197085
          },
          "southwest": {
            "lat": 40.7473709697085,
            "lng": -73.94606638029151
          }
        }
      },
      "icon": "https://maps.gstatic.com/mapfiles/place_api/icons/v1/png_71/generic_business-71.png",
      "icon_background_color": "#7B9EB0",
      "icon_mask_base_uri": "https://maps.gstatic.com/mapfiles/place_api/icons/v2/generic_pinlet",
      "name": "AES Gallery",
      "permanently_closed": true,
      "place_id": "ChIJe0KDzClZwokRiD-3PWJMDLk",
      "plus_code": {
        "compound_code": "P3X4+G3 Long Island City, Queens, NY, USA",
        "global_code": "87G8P3X4+G3"
      },
      "reference": "ChIJe0KDzClZwokRiD-3PWJMDLk",
      "scope": "GOOGLE",
      "types": [
        "art_gallery",
        "point_of_interest",
        "establishment"
      ],
      "vicinity": "44-02 23rd Street, Long Island City"
    },
    {
      "business_status": "OPERATIONAL",
      "geometry": {
        "location": {
          "lat": 40.75000230000001,
          "lng": -73.95034679999999
        },
        "viewport": {
          "northeast": {
            "lat": 40.7513017302915,
            "lng": -73.94911881970849
          },
          "southwest": {
            "lat": 40.7486037697085,
            "lng": -73.9518167802915
          }
        }
      },
      "icon": "https://maps.gstatic.com/mapfiles/place_api/icons/v1/png_71/generic_business-71.png",
      "icon_background_color": "#7B9EB0",
      "icon_mask_base_uri": "https://maps.gstatic.com/mapfiles/place_api/icons/v2/generic_pinlet",
      "name": "Flick Shine Inc - Web Design Queens, Online Marketing Queens, Web Development Queens, Seo Queens",
      "opening_hours": {
        "open_now": false
      },
      "photos": [
        {
          "height": 1436,
          "html_attributions": [
            "<a href=\"https://maps.google.com/maps/contrib/101434432514356291291\">Flick Shine Inc - Web Design Queens, Online Marketing Queens, Web Development Queens, Seo Queens</a>"
          ],
          "photo_reference": "AeJbb3euecrJYuKE1Re9hDAztKF5oeDIxtW0KvjwbH06X3zN52m2YcGxIVJ8PKSEvsTnqOZJouKM5BHO0N5PlQr7gkvyMaRKMFYabK2WfP6k7jh413xXpT1sYtqFlTPGm7OTFhjROldm_ESpqvxcPsonPGG6D4BP7ZhYDAk0WDjyLcMJZ63u",
          "width": 2048
        }
      ],
      "place_id": "ChIJ_TTThSdZwokRmte2ErU3m9Y",
      "plus_code": {
        "compound_code": "Q22X+2V Long Island City, Queens, NY, USA",
        "global_code": "87G8Q22X+2V"
      },
      "rating": 5,
      "reference": "ChIJ_TTThSdZwokRmte2ErU3m9Y",
      "scope": "GOOGLE",
      "types": [
        "point_of_interest",
        "establishment"
      ],
      "user_ratings_total": 2,
      "vicinity": "10-10 44th Avenue #30, Long Island City"
    },
    {
      "business_status": "OPERATIONAL",
      "geometry": {
        "location": {
          "lat": 40.7518083,
          "lng": -73.94730419999999
        },
        "viewport": {
          "northeast": {
            "lat": 40.7531072302915,
            "lng": -73.94599221970849
          },
          "southwest": {
            "lat": 40.75040926970851,
            "lng": -73.9486901802915
          }
        }
      },
      "icon": "https://maps.gstatic.com/mapfiles/place_api/icons/v1/png_71/generic_business-71.png",
      "icon_background_color": "#7B9EB0",
      "icon_mask_base_uri": "https://maps.gstatic.com/mapfiles/place_api/icons/v2/generic_pinlet",
      "name": "Arrow Transportation",
      "opening_hours": {
        "open_now": true
      },
      "photos": [
        {
          "height": 3024,
          "html_attributions": [
            "<a href=\"https://maps.google.com/maps/contrib/117355852769673540387\">Parwinder Singh</a>"
          ],
          "photo_reference": "AeJbb3ePBuqFkzQd7-I0y3CXfCDS5vC0PMpOINa4ABwIZ_oh4UDYOuPP1EouPamgf8B1pDuQ-fSmV7xnxmS-7uPH16dSxAympUxS51IfgoqdSmGg58-C-BarG_OCygUaIpUk4r2dp3_1VVCyVnZQYvKw3sUof_ANw9rNMhSTXvLdwVEf4C27",
          "width": 4032
        }
      ],
      "place_id": "ChIJ8zIVj9dYwokRbXgUx5-hDhM",
      "plus_code": {
        "compound_code": "Q323+P3 Long Island City, Queens, NY, USA",
        "global_code": "87G8Q323+P3"
      },
      "rating": 4.4,
      "reference": "ChIJ8zIVj9dYwokRbXgUx5-hDhM",
      "scope": "GOOGLE",
      "types": [
        "point_of_interest",
        "establishment"
      ],
      "user_ratings_total": 26,
      "vicinity": "11-17 43rd Avenue, Long Island City"
    },
    {
      "business_status": "OPERATIONAL",
      "geometry": {
        "location": {
          "lat": 40.7484744,
          "lng": -73.95065439999999
        },
        "viewport": {
          "northeast": {
            "lat": 40.74995643029149,
            "lng": -73.9492467197085
          },
          "southwest": {
            "lat": 40.7472584697085,
            "lng": -73.9519446802915
          }
        }
      },
      "icon": "https://maps.gstatic.com/mapfiles/place_api/icons/v1/png_71/generic_business-71.png",
      "icon_background_color": "#7B9EB0",
      "icon_mask_base_uri": "https://maps.gstatic.com/mapfiles/place_api/icons/v2/generic_pinlet",
      "name": "Altios International Inc",
      "opening_hours": {
        "open_now": false
      },
      "photos": [
        {
          "height": 3024,
          "html_attributions": [
            "<a href=\"https://maps.google.com/maps/contrib/107127547769108184282\">Trading GR</a>"
          ],
          "photo_reference": "AeJbb3e1KCuReV6lXFFTrGOC3G_eo6qTLL4U0od15TLsrxfPrAOKDepNYuhFZVCZGeYczDui9dweKOniEz76M831ysLknHe0f6_FSCpA9naa3P8hL2XYDle_hKEuVoc0zcLjBeNY9GpRRCkdoA4r5YDsMhKo6TEHrgzA7azPqSnuWQh8T4DI",
          "width": 4032
        }
      ],
      "place_id": "ChIJ3cwvualZwokRyOvwtzBzcac",
      "plus_code": {
        "compound_code": "P2XX+9P Long Island City, Queens, NY, USA",
        "global_code": "87G8P2XX+9P"
      },
      "reference": "ChIJ3cwvualZwokRyOvwtzBzcac",
      "scope": "GOOGLE",
      "types": [
        "finance",
        "point_of_interest",
        "establishment"
      ],
      "vicinity": "10-34 44th Drive, Long Island City"
    },
    {
      "business_status": "CLOSED_TEMPORARILY",
      "geometry": {
        "location": {
          "lat": 40.75036559999999,
          "lng": -73.9455833
        },
        "viewport": {
          "northeast": {
            "lat": 40.7517733802915,
            "lng": -73.9443532197085
          },
          "southwest": {
            "lat": 40.7490754197085,
            "lng": -73.94705118029151
          }
        }
      },
      "icon": "https://maps.gstatic.com/mapfiles/place_api/icons/v1/png_71/generic_business-71.png",
      "icon_background_color": "#7B9EB0",
      "icon_mask_base_uri": "https://maps.gstatic.com/mapfiles/place_api/icons/v2/generic_pinlet",
      "name": "Keithley & Associates Inc",
      "permanently_closed": true,
      "place_id": "ChIJvagqxddYwokRRedUYGFmcTE",
      "plus_code": {
        "compound_code": "Q323+4Q Long Island City, Queens, NY, USA",
        "global_code": "87G8Q323+4Q"
      },
      "reference": "ChIJvagqxddYwokRRedUYGFmcTE",
      "scope": "GOOGLE",
      "types": [
        "point_of_interest",
        "establishment"
      ],
      "vicinity": "4301 21st Street Suite #339, Long Island City"
    },
    {
      "business_status": "OPERATIONAL",
      "geometry": {
        "location": {
          "lat": 40.7492249,
          "lng": -73.9502031
        },
        "viewport": {
          "northeast": {
            "lat": 40.7507010302915,
            "lng": -73.9489298197085
          },
          "southwest": {
            "lat": 40.7480030697085,
            "lng": -73.95162778029152
          }
        }
      },
      "icon": "https://maps.gstatic.com/mapfiles/place_api/icons/v1/png_71/generic_business-71.png",
      "icon_background_color": "#7B9EB0",
      "icon_mask_base_uri": "https://maps.gstatic.com/mapfiles/place_api/icons/v2/generic_pinlet",
      "name": "Ryder Truck Rental",
      "opening_hours": {
        "open_now": false
      },
      "photos": [
        {
          "height": 2736,
          "html_attributions": [
            "<a href=\"https://maps.google.com/maps/contrib/103864171625913401988\">Jan Tk\u00e1\u010d</a>"
          ],
          "photo_reference": "AeJbb3d4ZcfkOaN6MXoBLgslGsCWmkvHDPFi6y8bBKsDlTnsKB-AEaoEAkPAD5ojbyJTlL8AGpovMO82qD6TOBneH2K7UZl_W9b4eXg0gmbHxPrLh4fc9y6NMkYgfHElveB8WGh-puHxp1czpfTewa9fyvth_0zmIZO-HH3d2LbecRRz1nvv",
          "width": 3648
        }
      ],
      "place_id": "ChIJRQa3nidZwokRo5ZmxxP4lUI",
      "plus_code": {
        "compound_code": "P2XX+MW New York, NY, USA",
        "global_code": "87G8P2XX+MW"
      },
      "rating": 3.6,
      "reference": "ChIJRQa3nidZwokRo5ZmxxP4lUI",
      "scope": "GOOGLE",
      "types": [
        "point_of_interest",
        "establishment"
      ],
      "user_ratings_total": 69,
      "vicinity": "10-20 44th Road, Queens"
    },
    {
      "business_status": "OPERATIONAL",
      "geometry": {
        "location": {
          "lat": 40.749768,
          "lng": -73.9489813
        },
        "viewport": {
          "northeast": {
            "lat": 40.75113708029149,
            "lng": -73.9477617697085
          },
          "southwest": {
            "lat": 40.7484391197085,
            "lng": -73.95045973029151
          }
        }
      },
      "icon": "https://maps.gstatic.com/mapfiles/place_api/icons/v1/png_71/generic_business-71.png",
      "icon_background_color": "#7B9EB0",
      "icon_mask_base_uri": "https://maps.gstatic.com/mapfiles/place_api/icons/v2/generic_pinlet",
      "name": "Metropolitan Building",
      "opening_hours": {
        "open_now": true
      },
      "photos": [
        {
          "height": 3019,
          "html_attributions": [
            "<a href=\"https://maps.google.com/maps/contrib/114120337772096357634\">Metropolitan Building</a>"
          ],
          "photo_reference": "AeJbb3cy3J6Lk_FFCSRY94YKuMuluhW_vVTl0uOukaZxfMkd0gii4et_JhHfdXJgXY6HeoXLWuPTqu1ZfZRcUDELCjxv0QtNCYXzdKOR_xpBuanyRy9tszdabZC-CCX0hnO1umn484d80-J-eeluQIWSaDTihy1OYsv8NS1FARzLxCoezAac",
          "width": 3019
        }
      ],
      "place_id": "ChIJ3_r37SdZwokRjJ1hfcMPJCg",
      "plus_code": {
        "compound_code": "P3X2+WC Long Island City, Queens, NY, USA",
        "global_code": "87G8P3X2+WC"
      },
      "rating": 4.4,
      "reference": "ChIJ3_r37SdZwokRjJ1hfcMPJCg",
      "scope": "GOOGLE",
      "types": [
        "storage",
        "point_of_interest",
        "establishment"
      ],
      "user_ratings_total": 53,
      "vicinity": "4401 11th Street, Long Island City"
    },
    {
      "business_status": "OPERATIONAL",
      "geometry": {
        "location": {
          "lat": 40.7491255,
          "lng": -73.9466101
        },
        "viewport": {
          "northeast": {
            "lat": 40.7505381802915,
            "lng": -73.94539971970849
          },
          "southwest": {
            "lat": 40.7478402197085,
            "lng": -73.9480976802915
          }
        }
      },
      "icon": "https://maps.gstatic.com/mapfiles/place_api/icons/v1/png_71/generic_business-71.png",
      "icon_background_color": "#7B9EB0",
      "icon_mask_base_uri": "https://maps.gstatic.com/mapfiles/place_api/icons/v2/generic_pinlet",
      "name": "Ando Group Inc",
      "place_id": "ChIJd1TCFihZwokRQAlELlOyv7s",
      "plus_code": {
        "compound_code": "P3X3+M9 Long Island City, Queens, NY, USA",
        "global_code": "87G8P3X3+M9"
      },
      "rating": 5,
      "reference": "ChIJd1TCFihZwokRQAlELlOyv7s",
      "scope": "GOOGLE",
      "types": [
        "point_of_interest",
        "establishment"
      ],
      "user_ratings_total": 1,
      "vicinity": "4401 21st Street UNIT 301, Long Island City"
    },
    {
      "business_status": "CLOSED_TEMPORARILY",
      "geometry": {
        "location": {
          "lat": 40.7500063,
          "lng": -73.9503245
        },
        "viewport": {
          "northeast": {
            "lat": 40.7513031802915,
            "lng": -73.94910731970847
          },
          "southwest": {
            "lat": 40.7486052197085,
            "lng": -73.9518052802915
          }
        }
      },
      "icon": "https://maps.gstatic.com/mapfiles/place_api/icons/v1/png_71/shopping-71.png",
      "icon_background_color": "#4B96F3",
      "icon_mask_base_uri": "https://maps.gstatic.com/mapfiles/place_api/icons/v2/shopping_pinlet",
      "name": "Studio24NYC",
      "permanently_closed": true,
      "photos": [
        {
          "height": 457,
          "html_attributions": [
            "<a href=\"https://maps.google.com/maps/contrib/108359634584731268624\">Kilo Gold</a>"
          ],
          "photo_reference": "AeJbb3dp8c7oj-YUk7Rt7xJMKARduhF2qsR90Ko1ck6Yj-jT6DZiZPYey4xJ--QNEvDEA4TC8zKV9Q6li7T7474gQmEtoH8XkirE51ilUCJWkHbPupcLoxKeAizYbW-YRvLv97KvIRA4RGB5FBZ0eJWjILaA4R9VnVXe-6rc6AF7QIMecp8-",
          "width": 900
        }
      ],
      "place_id": "ChIJV9sygydZwokRLA0x3KWMKD0",
      "plus_code": {
        "compound_code": "Q22X+2V New York, NY, USA",
        "global_code": "87G8Q22X+2V"
      },
      "reference": "ChIJV9sygydZwokRLA0x3KWMKD0",
      "scope": "GOOGLE",
      "types": [
        "electronics_store",
        "home_goods_store",
        "store",
        "point_of_interest",
        "establishment"
      ],
      "vicinity": "10-10 44th Avenue, Queens"
    },
    {
      "business_status": "OPERATIONAL",
      "geometry": {
        "location": {
          "lat": 40.7499308,
          "lng": -73.952389
        },
        "viewport": {
          "northeast": {
            "lat": 40.7512845302915,
            "lng": -73.95096941970849
          },
          "southwest": {
            "lat": 40.7485865697085,
            "lng": -73.95366738029149
          }
        }
      },
      "icon": "https://maps.gstatic.com/mapfiles/place_api/icons/v1/png_71/school-71.png",
      "icon_background_color": "#7B9EB0",
      "icon_mask_base_uri": "https://maps.gstatic.com/mapfiles/place_api/icons/v2/school_pinlet",
      "name": "New York City Board-Education",
      "photos": [
        {
          "height": 4032,
          "html_attributions": [
            "<a href=\"https://maps.google.com/maps/contrib/117979751334919367476\">Alexander Mejia</a>"
          ],
          "photo_reference": "AeJbb3eDavZs1LAAB522f3EXIONnPUp4Bvu4oZZAwNcwZYbcGjeFdISezItawg609uiClGeh_dyHxizXEdiCxWVSt1ZJVJM5PGEwSpSkhaxlygrJdPEgcF7sfi-R95X2XjWxWxbzpy6NDK_YzPyqSknWa3SVyQECov07bwnwqCJC52a6vguS",
          "width": 3024
        }
      ],
      "place_id": "ChIJcxi8QydZwokRRCbn1I2O0LY",
      "plus_code": {
        "compound_code": "P2XX+X2 Long Island City, Queens, NY, USA",
        "global_code": "87G8P2XX+X2"
      },
      "rating": 3.3,
      "reference": "ChIJcxi8QydZwokRRCbn1I2O0LY",
      "scope": "GOOGLE",
      "types": [
        "school",
        "point_of_interest",
        "establishment"
      ],
      "user_ratings_total": 3,
      "vicinity": "44-36 Vernon Boulevard, Long Island City"
    },
    {
      "business_status": "OPERATIONAL",
      "geometry": {
        "location": {
          "lat": 40.7498489,
          "lng": -73.9504032
        },
        "viewport": {
          "northeast": {
            "lat": 40.7512053302915,
            "lng": -73.94914471970849
          },
          "southwest": {
            "lat": 40.7485073697085,
            "lng": -73.9518426802915
          }
        }
      },
      "icon": "https://maps.gstatic.com/mapfiles/place_api/icons/v1/png_71/generic_business-71.png",
      "icon_background_color": "#7B9EB0",
      "icon_mask_base_uri": "https://maps.gstatic.com/mapfiles/place_api/icons/v2/generic_pinlet",
      "name": "The Bennington Headshot",
      "opening_hours": {
        "open_now": true
      },
      "photos": [
        {
          "height": 285,
          "html_attributions": [
            "<a href=\"https://maps.google.com/maps/contrib/105949857007904463725\">The Bennington Headshot</a>"
          ],
          "photo_reference": "AeJbb3ftorbvpWbsLw5JhGS0vRQ_DwsOme_RQvCu7YhUQLovZVp9PZoqmEGoZr3cWipqsdfslyYdCn_mZPpr76wfW5G54Du-Vi8PAqJjSVMLfk1Am9FFEA6AUVdK0eoyiqmId_vE6qpfvK-LPgIsIZyim7XC7DoYsRxKEhz-sS9EM5_3VJbV",
          "width": 561
        }
      ],
      "place_id": "ChIJV9sygydZwokRyGabzu_UGPw",
      "plus_code": {
        "compound_code": "P2XX+WR Long Island City, Queens, NY, USA",
        "global_code": "87G8P2XX+WR"
      },
      "rating": 5,
      "reference": "ChIJV9sygydZwokRyGabzu_UGPw",
      "scope": "GOOGLE",
      "types": [
        "point_of_interest",
        "establishment"
      ],
      "user_ratings_total": 327,
      "vicinity": "10-10 44th Avenue #316, Long Island City"
    },
    {
      "business_status": "OPERATIONAL",
      "geometry": {
        "location": {
          "lat": 40.749856,
          "lng": -73.950439
        },
        "viewport": {
          "northeast": {
            "lat": 40.7512066802915,
            "lng": -73.94916261970849
          },
          "southwest": {
            "lat": 40.7485087197085,
            "lng": -73.9518605802915
          }
        }
      },
      "icon": "https://maps.gstatic.com/mapfiles/place_api/icons/v1/png_71/generic_business-71.png",
      "icon_background_color": "#7B9EB0",
      "icon_mask_base_uri": "https://maps.gstatic.com/mapfiles/place_api/icons/v2/generic_pinlet",
      "name": "Anywhere Global Limousine, Inc",
      "place_id": "ChIJV9sygydZwokR4L_dLXMprN4",
      "plus_code": {
        "compound_code": "P2XX+WR Long Island City, Queens, NY, USA",
        "global_code": "87G8P2XX+WR"
      },
      "reference": "ChIJV9sygydZwokR4L_dLXMprN4",
      "scope": "GOOGLE",
      "types": [
        "point_of_interest",
        "establishment"
      ],
      "vicinity": "10-10 44th Avenue #16, Long Island City"
    },
    {
      "business_status": "OPERATIONAL",
      "geometry": {
        "location": {
          "lat": 40.75000379999999,
          "lng": -73.943812
        },
        "viewport": {
          "northeast": {
            "lat": 40.75127348029149,
            "lng": -73.94257206970849
          },
          "southwest": {
            "lat": 40.7485755197085,
            "lng": -73.94527003029151
          }
        }
      },
      "icon": "https://maps.gstatic.com/mapfiles/place_api/icons/v1/png_71/generic_business-71.png",
      "icon_background_color": "#7B9EB0",
      "icon_mask_base_uri": "https://maps.gstatic.com/mapfiles/place_api/icons/v2/generic_pinlet",
      "name": "Steinway Child and Family Services, Inc.",
      "place_id": "ChIJDdyWJdZYwokRt6r6YVbqxKk",
      "plus_code": {
        "compound_code": "Q324+2F New York, NY, USA",
        "global_code": "87G8Q324+2F"
      },
      "rating": 1,
      "reference": "ChIJDdyWJdZYwokRt6r6YVbqxKk",
      "scope": "GOOGLE",
      "types": [
        "health",
        "point_of_interest",
        "establishment"
      ],
      "user_ratings_total": 1,
      "vicinity": "22-15 43rd Avenue, Queens"
    },
    {
      "business_status": "CLOSED_TEMPORARILY",
      "geometry": {
        "location": {
          "lat": 40.74929909999999,
          "lng": -73.948886
        },
        "viewport": {
          "northeast": {
            "lat": 40.75059958029149,
            "lng": -73.9475467697085
          },
          "southwest": {
            "lat": 40.74790161970849,
            "lng": -73.9502447302915
          }
        }
      },
      "icon": "https://maps.gstatic.com/mapfiles/place_api/icons/v1/png_71/shopping-71.png",
      "icon_background_color": "#4B96F3",
      "icon_mask_base_uri": "https://maps.gstatic.com/mapfiles/place_api/icons/v2/shopping_pinlet",
      "name": "New World Rarities",
      "permanently_closed": true,
      "place_id": "ChIJxe0RxCdZwokR0AbNf8G1z7o",
      "plus_code": {
        "compound_code": "P3X2+PC Long Island City, Queens, NY, USA",
        "global_code": "87G8P3X2+PC"
      },
      "rating": 1,
      "reference": "ChIJxe0RxCdZwokR0AbNf8G1z7o",
      "scope": "GOOGLE",
      "types": [
        "store",
        "point_of_interest",
        "establishment"
      ],
      "user_ratings_total": 1,
      "vicinity": "1111 44th Drive #1, Long Island City"
    },
    {
      "business_status": "OPERATIONAL",
      "geometry": {
        "location": {
          "lat": 40.75164789999999,
          "lng": -73.9488068
        },
        "viewport": {
          "northeast": {
            "lat": 40.75320833029149,
            "lng": -73.9475219697085
          },
          "southwest": {
            "lat": 40.75051036970849,
            "lng": -73.95021993029151
          }
        }
      },
      "icon": "https://maps.gstatic.com/mapfiles/place_api/icons/v1/png_71/restaurant-71.png",
      "icon_background_color": "#FF9E67",
      "icon_mask_base_uri": "https://maps.gstatic.com/mapfiles/place_api/icons/v2/restaurant_pinlet",
      "name": "Tom Cat",
      "opening_hours": {
        "open_now": true
      },
      "photos": [
        {
          "height": 3024,
          "html_attributions": [
            "<a href=\"https://maps.google.com/maps/contrib/115680826786519238499\">Evan Reisfeld</a>"
          ],
          "photo_reference": "AeJbb3d6h7xiR8iKbyrxGc5GsNpaaPMru_P1iVPgZQfaW9OLwqaZkuAJfNusZQPsNq87uAwdXFE1W5sWs_-YGFe3aa6pQ5x1bweNLflumcQRABNReQFj-hkfH5f4lvhxRMoi4Ew3Co2f0Ls31HuHJHBny0vmvDzQh9vlXc7y-okk4kn2OjIw",
          "width": 4032
        }
      ],
      "place_id": "ChIJYcofOthYwokRVqY1BpFSInA",
      "plus_code": {
        "compound_code": "Q322+MF New York, NY, USA",
        "global_code": "87G8Q322+MF"
      },
      "rating": 4.3,
      "reference": "ChIJYcofOthYwokRVqY1BpFSInA",
      "scope": "GOOGLE",
      "types": [
        "bakery",
        "store",
        "food",
        "point_of_interest",
        "establishment"
      ],
      "user_ratings_total": 79,
      "vicinity": "43-05 10th Street, Queens"
    },
    {
      "business_status": "OPERATIONAL",
      "geometry": {
        "location": {
          "lat": 40.7491108,
          "lng": -73.94658249999999
        },
        "viewport": {
          "northeast": {
            "lat": 40.75053008029149,
            "lng": -73.94538651970849
          },
          "southwest": {
            "lat": 40.7478321197085,
            "lng": -73.9480844802915
          }
        }
      },
      "icon": "https://maps.gstatic.com/mapfiles/place_api/icons/v1/png_71/generic_business-71.png",
      "icon_background_color": "#7B9EB0",
      "icon_mask_base_uri": "https://maps.gstatic.com/mapfiles/place_api/icons/v2/generic_pinlet",
      "name": "Ando International",
      "opening_hours": {
        "open_now": true
      },
      "photos": [
        {
          "height": 1489,
          "html_attributions": [
            "<a href=\"https://maps.google.com/maps/contrib/109557019388098422306\">Ando International</a>"
          ],
          "photo_reference": "AeJbb3fAA9XZP2rtfmNN5NImp2ZyzOQ46c9UWI8zXwGv8cHHWplVI5_CjpnbV4inqiIpIrp_-1-kSEItAQrdz_DODgEyrAIn20k1VvBRhckZJD-IKTl1OfuKJREcpBp4Qjylzd65rnz30ofvyKkSPQA9NOFcsyyD5Nxiw2dnb_zg3mDsEMTh",
          "width": 1702
        }
      ],
      "place_id": "ChIJd1TCFihZwokRLUupX7tYwkQ",
      "plus_code": {
        "compound_code": "P3X3+J9 New York, NY, USA",
        "global_code": "87G8P3X3+J9"
      },
      "rating": 4.8,
      "reference": "ChIJd1TCFihZwokRLUupX7tYwkQ",
      "scope": "GOOGLE",
      "types": [
        "point_of_interest",
        "establishment"
      ],
      "user_ratings_total": 406,
      "vicinity": "44-01 21st Street Suite #301, Queens"
    },
    {
      "business_status": "CLOSED_TEMPORARILY",
      "geometry": {
        "location": {
          "lat": 40.75036559999999,
          "lng": -73.9455833
        },
        "viewport": {
          "northeast": {
            "lat": 40.7517733802915,
            "lng": -73.9443532197085
          },
          "southwest": {
            "lat": 40.7490754197085,
            "lng": -73.94705118029151
          }
        }
      },
      "icon": "https://maps.gstatic.com/mapfiles/place_api/icons/v1/png_71/generic_business-71.png",
      "icon_background_color": "#7B9EB0",
      "icon_mask_base_uri": "https://maps.gstatic.com/mapfiles/place_api/icons/v2/generic_pinlet",
      "name": "US International Publishing Inc",
      "permanently_closed": true,
      "place_id": "ChIJvagqxddYwokRZFbsy1JwZpI",
      "plus_code": {
        "compound_code": "Q323+4Q Long Island City, Queens, NY, USA",
        "global_code": "87G8Q323+4Q"
      },
      "reference": "ChIJvagqxddYwokRZFbsy1JwZpI",
      "scope": "GOOGLE",
      "types": [
        "point_of_interest",
        "establishment"
      ],
      "vicinity": "4301 21st Street #102, Long Island City"
    },
    {
      "business_status": "OPERATIONAL",
      "geometry": {
        "location": {
          "lat": 40.75036559999999,
          "lng": -73.9455833
        },
        "viewport": {
          "northeast": {
            "lat": 40.7517733802915,
            "lng": -73.9443532197085
          },
          "southwest": {
            "lat": 40.7490754197085,
            "lng": -73.94705118029151
          }
        }
      },
      "icon": "https://maps.gstatic.com/mapfiles/place_api/icons/v1/png_71/shopping-71.png",
      "icon_background_color": "#4B96F3",
      "icon_mask_base_uri": "https://maps.gstatic.com/mapfiles/place_api/icons/v2/shopping_pinlet",
      "name": "Inkstop Tattoo",
      "opening_hours": {
        "open_now": true
      },
      "photos": [
        {
          "height": 2530,
          "html_attributions": [
            "<a href=\"https://maps.google.com/maps/contrib/103316435208353442874\">Inkstop Tattoo</a>"
          ],
          "photo_reference": "AeJbb3dE3AzYho9fIdul_X7BZh8XfwcxRL0hLTVCIGdAA1Y637PT4rCbNy3cDNOHI1LEIS3NNDjSRvRBkxzUfROKqOLr1Pg9VnkgurO19bqaKp_VO6ElF2zumcu5SgSs250foBVk07fAJZlnGrB8978FLh-X0fXH7S3M4yP8a-WrrP0eBL9X",
          "width": 3546
        }
      ],
      "place_id": "ChIJSwHpcHZZwokR2VdF5SirEOo",
      "plus_code": {
        "compound_code": "Q323+4Q New York, NY, USA",
        "global_code": "87G8Q323+4Q"
      },
      "rating": 4.7,
      "reference": "ChIJSwHpcHZZwokR2VdF5SirEOo",
      "scope": "GOOGLE",
      "types": [
        "store",
        "point_of_interest",
        "establishment"
      ],
      "user_ratings_total": 66,
      "vicinity": "43-01 21st Street, Queens"
    },
    {
      "business_status": "OPERATIONAL",
      "geometry": {
        "location": {
          "lat": 40.748647,
          "lng": -73.948775
        },
        "viewport": {
          "northeast": {
            "lat": 40.74987343029149,
            "lng": -73.94747861970849
          },
          "southwest": {
            "lat": 40.74717546970849,
            "lng": -73.9501765802915
          }
        }
      },
      "icon": "https://maps.gstatic.com/mapfiles/place_api/icons/v1/png_71/generic_business-71.png",
      "icon_background_color": "#7B9EB0",
      "icon_mask_base_uri": "https://maps.gstatic.com/mapfiles/place_api/icons/v2/generic_pinlet",
      "name": "City Ride",
      "opening_hours": {
        "open_now": true
      },
      "place_id": "ChIJxe0RxCdZwokR3RQih8MOA6U",
      "plus_code": {
        "compound_code": "P3X2+FF New York, NY, USA",
        "global_code": "87G8P3X2+FF"
      },
      "reference": "ChIJxe0RxCdZwokR3RQih8MOA6U",
      "scope": "GOOGLE",
      "types": [
        "point_of_interest",
        "establishment"
      ],
      "vicinity": "11-11 44th Drive, Queens"
    },
    {
      "business_status": "OPERATIONAL",
      "geometry": {
        "location": {
          "lat": 40.7499437,
          "lng": -73.9438891
        },
        "viewport": {
          "northeast": {
            "lat": 40.7512337802915,
            "lng": -73.94259116970852
          },
          "southwest": {
            "lat": 40.7485358197085,
            "lng": -73.94528913029153
          }
        }
      },
      "icon": "https://maps.gstatic.com/mapfiles/place_api/icons/v1/png_71/generic_business-71.png",
      "icon_background_color": "#7B9EB0",
      "icon_mask_base_uri": "https://maps.gstatic.com/mapfiles/place_api/icons/v2/generic_pinlet",
      "name": "Werwaiss & Co Inc",
      "place_id": "ChIJndAokwJZwokRzQU-1fy3F4s",
      "plus_code": {
        "compound_code": "P3X4+XC New York, NY, USA",
        "global_code": "87G8P3X4+XC"
      },
      "reference": "ChIJndAokwJZwokRzQU-1fy3F4s",
      "scope": "GOOGLE",
      "types": [
        "real_estate_agency",
        "point_of_interest",
        "establishment"
      ],
      "vicinity": "22-15 43rd Avenue Suite 300, Queens"
    },
    {
      "business_status": "OPERATIONAL",
      "geometry": {
        "location": {
          "lat": 40.74943650000001,
          "lng": -73.9455835
        },
        "viewport": {
          "northeast": {
            "lat": 40.7507175802915,
            "lng": -73.94427736970849
          },
          "southwest": {
            "lat": 40.7480196197085,
            "lng": -73.9469753302915
          }
        }
      },
      "icon": "https://maps.gstatic.com/mapfiles/place_api/icons/v1/png_71/generic_business-71.png",
      "icon_background_color": "#7B9EB0",
      "icon_mask_base_uri": "https://maps.gstatic.com/mapfiles/place_api/icons/v2/generic_pinlet",
      "name": "Eva Jensen Design LLC",
      "place_id": "ChIJD4wsQaRZwokR6w8gqb5xs3w",
      "plus_code": {
        "compound_code": "P3X3+QQ New York, NY, USA",
        "global_code": "87G8P3X3+QQ"
      },
      "rating": 5,
      "reference": "ChIJD4wsQaRZwokR6w8gqb5xs3w",
      "scope": "GOOGLE",
      "types": [
        "point_of_interest",
        "establishment"
      ],
      "user_ratings_total": 3,
      "vicinity": "43-32 22nd Street suite 402-1, Queens"
    },
    {
      "business_status": "OPERATIONAL",
      "geometry": {
        "location": {
          "lat": 40.74877009999999,
          "lng": -73.94481780000001
        },
        "viewport": {
          "northeast": {
            "lat": 40.7500689302915,
            "lng": -73.9433684197085
          },
          "southwest": {
            "lat": 40.7473709697085,
            "lng": -73.94606638029151
          }
        }
      },
      "icon": "https://maps.gstatic.com/mapfiles/place_api/icons/v1/png_71/generic_business-71.png",
      "icon_background_color": "#7B9EB0",
      "icon_mask_base_uri": "https://maps.gstatic.com/mapfiles/place_api/icons/v2/generic_pinlet",
      "name": "GRAPHICS 247 PRINTING",
      "opening_hours": {
        "open_now": false
      },
      "photos": [
        {
          "height": 2448,
          "html_attributions": [
            "<a href=\"https://maps.google.com/maps/contrib/107078230597682191824\">GRAPHICS 247 PRINTING</a>"
          ],
          "photo_reference": "AeJbb3fagQgKm_j-zP7iG0L4Sv5zZ3X71rdVMXMe1RldTvWZl__Aj68HzN3kNNRaURR13mTOLv2EYEXIsC6qF3f5CONjQ9TpbK10yezLsxw3DwKuVOfBmBJKJixgwbNozbvBGSoXlm6ztVv1GbIa4Mhy6bu5CUCL9U2d5E_Yg1xNDdsrJdsm",
          "width": 3264
        }
      ],
      "place_id": "ChIJKftbyylZwokR4L72yfhJYkg",
      "plus_code": {
        "compound_code": "P3X4+G3 New York, NY, USA",
        "global_code": "87G8P3X4+G3"
      },
      "rating": 5,
      "reference": "ChIJKftbyylZwokR4L72yfhJYkg",
      "scope": "GOOGLE",
      "types": [
        "point_of_interest",
        "establishment"
      ],
      "user_ratings_total": 1,
      "vicinity": "4402 23rd Street # 108, Queens"
    },
    {
      "business_status": "CLOSED_TEMPORARILY",
      "geometry": {
        "location": {
          "lat": 40.74891700000001,
          "lng": -73.94869299999999
        },
        "viewport": {
          "northeast": {
            "lat": 40.7503790302915,
            "lng": -73.9473056197085
          },
          "southwest": {
            "lat": 40.74768106970851,
            "lng": -73.95000358029151
          }
        }
      },
      "icon": "https://maps.gstatic.com/mapfiles/place_api/icons/v1/png_71/generic_business-71.png",
      "icon_background_color": "#7B9EB0",
      "icon_mask_base_uri": "https://maps.gstatic.com/mapfiles/place_api/icons/v2/generic_pinlet",
      "name": "Pubgears",
      "permanently_closed": true,
      "place_id": "ChIJI69nwidZwokRTpzG3i81Pbk",
      "plus_code": {
        "compound_code": "P3X2+HG New York, NY, USA",
        "global_code": "87G8P3X2+HG"
      },
      "rating": 5,
      "reference": "ChIJI69nwidZwokRTpzG3i81Pbk",
      "scope": "GOOGLE",
      "types": [
        "point_of_interest",
        "establishment"
      ],
      "user_ratings_total": 1,
      "vicinity": "175 Varick Street"
    },
    {
      "business_status": "OPERATIONAL",
      "geometry": {
        "location": {
          "lat": 40.7496654,
          "lng": -73.9496671
        },
        "viewport": {
          "northeast": {
            "lat": 40.7508654802915,
            "lng": -73.9483686697085
          },
          "southwest": {
            "lat": 40.7481675197085,
            "lng": -73.9510666302915
          }
        }
      },
      "icon": "https://maps.gstatic.com/mapfiles/place_api/icons/v1/png_71/shopping-71.png",
      "icon_background_color": "#4B96F3",
      "icon_mask_base_uri": "https://maps.gstatic.com/mapfiles/place_api/icons/v2/shopping_pinlet",
      "name": "Conservation Framing Services",
      "opening_hours": {
        "open_now": false
      },
      "photos": [
        {
          "height": 581,
          "html_attributions": [
            "<a href=\"https://maps.google.com/maps/contrib/115700607952597976868\">Conservation Framing Services</a>"
          ],
          "photo_reference": "AeJbb3e5pwU4fhcJgWtaGSumGZXSfx1IEA_KtVLNkYj3vAm405tMSj8fU0-pSpeoy8sHQIIjYWv-dcDbASkZw1IyE7uQ9fxnHqH_p-dC1k3XvnDQAmDovrVnJ3KzkmpRjNeSL2Od5Uqf_ToQw2MTCXI6lei3YUHmeqgh2c34m1wdDBqnVPrb",
          "width": 1200
        }
      ],
      "place_id": "ChIJEW1XrphZwokReKaC7vlCgQw",
      "plus_code": {
        "compound_code": "P3X2+V4 Long Island City, Queens, NY, USA",
        "global_code": "87G8P3X2+V4"
      },
      "rating": 4,
      "reference": "ChIJEW1XrphZwokReKaC7vlCgQw",
      "scope": "GOOGLE",
      "types": [
        "point_of_interest",
        "store",
        "establishment"
      ],
      "user_ratings_total": 1,
      "vicinity": "44-02 11th Street #408, Long Island City"
    },
    {
      "business_status": "OPERATIONAL",
      "geometry": {
        "location": {
          "lat": 40.74881800000001,
          "lng": -73.9447039
        },
        "viewport": {
          "northeast": {
            "lat": 40.7501873802915,
            "lng": -73.94326911970849
          },
          "southwest": {
            "lat": 40.7474894197085,
            "lng": -73.9459670802915
          }
        }
      },
      "icon": "https://maps.gstatic.com/mapfiles/place_api/icons/v1/png_71/generic_business-71.png",
      "icon_background_color": "#7B9EB0",
      "icon_mask_base_uri": "https://maps.gstatic.com/mapfiles/place_api/icons/v2/generic_pinlet",
      "name": "N M Transportation Inc",
      "place_id": "ChIJKftbyylZwokRUjCLKk7oMp0",
      "plus_code": {
        "compound_code": "P3X4+G4 Long Island City, Queens, NY, USA",
        "global_code": "87G8P3X4+G4"
      },
      "reference": "ChIJKftbyylZwokRUjCLKk7oMp0",
      "scope": "GOOGLE",
      "types": [
        "moving_company",
        "point_of_interest",
        "establishment"
      ],
      "vicinity": "4402 23rd Street UNIT 403, Long Island City"
    },
    {
      "business_status": "OPERATIONAL",
      "geometry": {
        "location": {
          "lat": 40.75060080000001,
          "lng": -73.94512080000001
        },
        "viewport": {
          "northeast": {
            "lat": 40.75186133029151,
            "lng": -73.9438130697085
          },
          "southwest": {
            "lat": 40.74916336970851,
            "lng": -73.94651103029152
          }
        }
      },
      "icon": "https://maps.gstatic.com/mapfiles/place_api/icons/v1/png_71/school-71.png",
      "icon_background_color": "#7B9EB0",
      "icon_mask_base_uri": "https://maps.gstatic.com/mapfiles/place_api/icons/v2/school_pinlet",
      "name": "Mason Tender School",
      "opening_hours": {
        "open_now": false
      },
      "photos": [
        {
          "height": 3000,
          "html_attributions": [
            "<a href=\"https://maps.google.com/maps/contrib/114798189582980517082\">Alexi Bonilla</a>"
          ],
          "photo_reference": "AeJbb3f-ZJTF4UkvzUislVKeAXbgerhFEtoDpMUtO2wWsSScjf4NLxlf7MrnqRQ3odV4PmqZ-0-jRHa3uPJT_HPDxp9sGHOd-zzqxK4I6jpt0wTUtYvaw8C_M0KuVVvygxJfJdSPAVQ-7vfbO7wHvYjIfgbPD_jx0LKbCQ2-4oSAOVmbT8kL",
          "width": 4000
        }
      ],
      "place_id": "ChIJzRMFy9dYwokRbbjqfmuoeJo",
      "plus_code": {
        "compound_code": "Q323+6X Long Island City, Queens, NY, USA",
        "global_code": "87G8Q323+6X"
      },
      "rating": 4.7,
      "reference": "ChIJzRMFy9dYwokRbbjqfmuoeJo",
      "scope": "GOOGLE",
      "types": [
        "point_of_interest",
        "establishment"
      ],
      "user_ratings_total": 72,
      "vicinity": "4253 21st Street, Long Island City"
    },
    {
      "business_status": "OPERATIONAL",
      "geometry": {
        "location": {
          "lat": 40.74856980000001,
          "lng": -73.95060699999999
        },
        "viewport": {
          "northeast": {
            "lat": 40.7500041302915,
            "lng": -73.9492230197085
          },
          "southwest": {
            "lat": 40.7473061697085,
            "lng": -73.9519209802915
          }
        }
      },
      "icon": "https://maps.gstatic.com/mapfiles/place_api/icons/v1/png_71/school-71.png",
      "icon_background_color": "#7B9EB0",
      "icon_mask_base_uri": "https://maps.gstatic.com/mapfiles/place_api/icons/v2/school_pinlet",
      "name": "BrickHouse Ceramic Art Center",
      "opening_hours": {
        "open_now": true
      },
      "photos": [
        {
          "height": 3024,
          "html_attributions": [
            "<a href=\"https://maps.google.com/maps/contrib/106170335079428053302\">Corrie Davidson</a>"
          ],
          "photo_reference": "AeJbb3fYgOFgHZXZUK7ivJ6KzI9QJFJjUEKeCvO4VVpFjlUAcugSneebuMxfS3g5GMdU4GVSGab_pMTt2VmCX1mXSH7vqrEwY0IjZqcZXNhWGlxtEk2d9N4sd1TnbrU86Eippgp-asIxvEMj_MTbr8jTV4NW5IuaCHlszoBYB9ThQBJUfzKV",
          "width": 4032
        }
      ],
      "place_id": "ChIJr-i5qCdZwokR9BGW8bXTBbs",
      "plus_code": {
        "compound_code": "P2XX+CQ Long Island City, Queens, NY, USA",
        "global_code": "87G8P2XX+CQ"
      },
      "rating": 4.8,
      "reference": "ChIJr-i5qCdZwokR9BGW8bXTBbs",
      "scope": "GOOGLE",
      "types": [
        "point_of_interest",
        "store",
        "establishment"
      ],
      "user_ratings_total": 21,
      "vicinity": "10-34 44th Drive, Long Island City"
    },
    {
      "business_status": "OPERATIONAL",
      "geometry": {
        "location": {
          "lat": 40.7497529,
          "lng": -73.9495298
        },
        "viewport": {
          "northeast": {
            "lat": 40.75089938029149,
            "lng": -73.94828181970848
          },
          "southwest": {
            "lat": 40.7482014197085,
            "lng": -73.95097978029149
          }
        }
      },
      "icon": "https://maps.gstatic.com/mapfiles/place_api/icons/v1/png_71/generic_business-71.png",
      "icon_background_color": "#7B9EB0",
      "icon_mask_base_uri": "https://maps.gstatic.com/mapfiles/place_api/icons/v2/generic_pinlet",
      "name": "Derriere L'Etoile Studios",
      "opening_hours": {
        "open_now": false
      },
      "photos": [
        {
          "height": 2736,
          "html_attributions": [
            "<a href=\"https://maps.google.com/maps/contrib/107236151916657791195\">roya haroun</a>"
          ],
          "photo_reference": "AeJbb3cy0jGFA-nlckWMNd7z0ElaSpM03ngAlWazqY5Nm-5t3jInRF_IocFJIj6XwgtTD_3MsPWFisiXGWyqXrj1L_cNbF5lYi2BON448DymRxw3n1Kk9s759jQf2MVlZLh_svaImMrgo0fG_maLy6d6t6tiyZ-jBxygTaQRsMzolhaNs2u3",
          "width": 3648
        }
      ],
      "place_id": "ChIJdYDhDa1ZwokRRCYdIMnoDEo",
      "plus_code": {
        "compound_code": "P3X2+W5 Long Island City, Queens, NY, USA",
        "global_code": "87G8P3X2+W5"
      },
      "reference": "ChIJdYDhDa1ZwokRRCYdIMnoDEo",
      "scope": "GOOGLE",
      "types": [
        "point_of_interest",
        "establishment"
      ],
      "vicinity": "44-02 11th Street #403, Long Island City"
    },
    {
      "business_status": "CLOSED_TEMPORARILY",
      "geometry": {
        "location": {
          "lat": 40.75036559999999,
          "lng": -73.9455833
        },
        "viewport": {
          "northeast": {
            "lat": 40.7517733802915,
            "lng": -73.9443532197085
          },
          "southwest": {
            "lat": 40.7490754197085,
            "lng": -73.94705118029151
          }
        }
      },
      "icon": "https://maps.gstatic.com/mapfiles/place_api/icons/v1/png_71/generic_business-71.png",
      "icon_background_color": "#7B9EB0",
      "icon_mask_base_uri": "https://maps.gstatic.com/mapfiles/place_api/icons/v2/generic_pinlet",
      "name": "Osprey Publishing Inc",
      "permanently_closed": true,
      "place_id": "ChIJKftbyylZwokRhD9gCr3okrw",
      "plus_code": {
        "compound_code": "Q323+4Q New York, NY, USA",
        "global_code": "87G8Q323+4Q"
      },
      "reference": "ChIJKftbyylZwokRhD9gCr3okrw",
      "scope": "GOOGLE",
      "types": [
        "point_of_interest",
        "establishment"
      ],
      "vicinity": "43-01 21st Street, Queens"
    },
    {
      "business_status": "OPERATIONAL",
      "geometry": {
        "location": {
          "lat": 40.7495655,
          "lng": -73.944851
        },
        "viewport": {
          "northeast": {
            "lat": 40.7509866302915,
            "lng": -73.94362716970849
          },
          "southwest": {
            "lat": 40.74828866970851,
            "lng": -73.9463251302915
          }
        }
      },
      "icon": "https://maps.gstatic.com/mapfiles/place_api/icons/v1/png_71/generic_business-71.png",
      "icon_background_color": "#7B9EB0",
      "icon_mask_base_uri": "https://maps.gstatic.com/mapfiles/place_api/icons/v2/generic_pinlet",
      "name": "Cosmos Communications Printing",
      "opening_hours": {
        "open_now": true
      },
      "photos": [
        {
          "height": 1220,
          "html_attributions": [
            "<a href=\"https://maps.google.com/maps/contrib/108916622829638826773\">Cosmos Communications Printing</a>"
          ],
          "photo_reference": "AeJbb3e7cAagCabMIKo7V6nLZKhrNUnq4gOAoTmofjBXGssqHKKDvy0TJ19Sk1ndg5Zsd6JTHOJWExr0eaJenDiBpD9rMFGFXn18NouEphut9WeK7bd7x-u-47DGoin-JWh8XWrRcRKQW5WSTzAAFhurrTwm7Hjcv2x5oeTlAb1WRAxWUtqG",
          "width": 1664
        }
      ],
      "place_id": "ChIJt-yEwCdZwokRgg29bFaoTJg",
      "plus_code": {
        "compound_code": "P3X4+R3 New York, NY, USA",
        "global_code": "87G8P3X4+R3"
      },
      "rating": 5,
      "reference": "ChIJt-yEwCdZwokRgg29bFaoTJg",
      "scope": "GOOGLE",
      "types": [
        "point_of_interest",
        "store",
        "establishment"
      ],
      "user_ratings_total": 11,
      "vicinity": "43-01 22nd Street 1st Floor, Suite 102, Queens"
    },
    {
      "business_status": "OPERATIONAL",
      "geometry": {
        "location": {
          "lat": 40.749773,
          "lng": -73.946083
        },
        "viewport": {
          "northeast": {
            "lat": 40.7511661302915,
            "lng": -73.94487151970849
          },
          "southwest": {
            "lat": 40.7484681697085,
            "lng": -73.9475694802915
          }
        }
      },
      "icon": "https://maps.gstatic.com/mapfiles/place_api/icons/v1/png_71/generic_business-71.png",
      "icon_background_color": "#7B9EB0",
      "icon_mask_base_uri": "https://maps.gstatic.com/mapfiles/place_api/icons/v2/generic_pinlet",
      "name": "Queens Medallion Leasing (NYC Taxi Yellow Cab Company)",
      "opening_hours": {
        "open_now": false
      },
      "photos": [
        {
          "height": 681,
          "html_attributions": [
            "<a href=\"https://maps.google.com/maps/contrib/110197901029470460714\">Queens Medallion Leasing (NYC Taxi Yellow Cab Company)</a>"
          ],
          "photo_reference": "AeJbb3dNw09-J_niTIzZnWcYKUZON-wl7-ZGH7IB4vVxRC59F4adcNwAHW15f6OHqBKX4RBUEvMKMDhR3kw9dp2Hrn2--6-lrp3FV5_p8zMtUpnSHdjxIFH0rEDli9htmpdw6Z_d_b7uidH99j3OGLrSLA7rf13AJVwhFAR12csuSkQRATEL",
          "width": 960
        }
      ],
      "place_id": "ChIJKa2KIChZwokRPkpRpret1Xw",
      "plus_code": {
        "compound_code": "P3X3+WH Long Island City, Queens, NY, USA",
        "global_code": "87G8P3X3+WH"
      },
      "rating": 3.8,
      "reference": "ChIJKa2KIChZwokRPkpRpret1Xw",
      "scope": "GOOGLE",
      "types": [
        "finance",
        "insurance_agency",
        "point_of_interest",
        "establishment"
      ],
      "user_ratings_total": 52,
      "vicinity": "21-03 44th Avenue, Long Island City"
    },
    {
      "business_status": "OPERATIONAL",
      "geometry": {
        "location": {
          "lat": 40.7487595,
          "lng": -73.9448106
        },
        "viewport": {
          "northeast": {
            "lat": 40.7500611802915,
            "lng": -73.94336691970848
          },
          "southwest": {
            "lat": 40.7473632197085,
            "lng": -73.9460648802915
          }
        }
      },
      "icon": "https://maps.gstatic.com/mapfiles/place_api/icons/v1/png_71/generic_business-71.png",
      "icon_background_color": "#13B5C7",
      "icon_mask_base_uri": "https://maps.gstatic.com/mapfiles/place_api/icons/v2/generic_pinlet",
      "name": "Astoria Performing Arts Center",
      "photos": [
        {
          "height": 3024,
          "html_attributions": [
            "<a href=\"https://maps.google.com/maps/contrib/113434700825794442565\">Judson Jones</a>"
          ],
          "photo_reference": "AeJbb3fasSvUvSj6st2QFZMUAOadlGlh4VBePJHJ6vwdFQ6vJNQxK842AVgabHWAgjFgNz8QNW_SOAEBwDBn2kViR56JV76Ad97uPzrt7zjHshCELoVYeugCHdkc7rpknXRG-5duga8Jq9_dMoqKxo1s1g26ux6Pf7KnB44XrwfH-YevvDVG",
          "width": 4032
        }
      ],
      "place_id": "ChIJy_D8F0hfwokRZhpL5gxSQQQ",
      "plus_code": {
        "compound_code": "P3X4+G3 New York, NY, USA",
        "global_code": "87G8P3X4+G3"
      },
      "rating": 4.6,
      "reference": "ChIJy_D8F0hfwokRZhpL5gxSQQQ",
      "scope": "GOOGLE",
      "types": [
        "point_of_interest",
        "establishment"
      ],
      "user_ratings_total": 26,
      "vicinity": "44-02 23rd Street, Queens"
    },
    {
      "business_status": "OPERATIONAL",
      "geometry": {
        "location": {
          "lat": 40.7480519,
          "lng": -73.9457968
        },
        "viewport": {
          "northeast": {
            "lat": 40.7493081302915,
            "lng": -73.9444781697085
          },
          "southwest": {
            "lat": 40.7466101697085,
            "lng": -73.94717613029151
          }
        }
      },
      "icon": "https://maps.gstatic.com/mapfiles/place_api/icons/v1/png_71/generic_business-71.png",
      "icon_background_color": "#7B9EB0",
      "icon_mask_base_uri": "https://maps.gstatic.com/mapfiles/place_api/icons/v2/generic_pinlet",
      "name": "The Industry LIC",
      "photos": [
        {
          "height": 4032,
          "html_attributions": [
            "<a href=\"https://maps.google.com/maps/contrib/100505240180369091554\">Danielle Bitts</a>"
          ],
          "photo_reference": "AeJbb3cy-mody7dFR4ktsd29rsZGOscCjdydE_e90ynoQ9HOrPqmV7Z7C9PaGLFqZ-Rh3DoyS3yxX1HBCK24CUPP-FfVI9bralyGH6hgsBi67RcWkIqwiq5q8rKieiKkpylylYKNbUp7vQT0vZIbvfrpHLtKoe0xnaZ5EjL_5ae2QwoHZfHe",
          "width": 3024
        }
      ],
      "place_id": "ChIJ5UXsRChZwokRIfk4VYWHOE8",
      "plus_code": {
        "compound_code": "P3X3+6M New York, NY, USA",
        "global_code": "87G8P3X3+6M"
      },
      "rating": 4.7,
      "reference": "ChIJ5UXsRChZwokRIfk4VYWHOE8",
      "scope": "GOOGLE",
      "types": [
        "point_of_interest",
        "establishment"
      ],
      "user_ratings_total": 9,
      "vicinity": "21-45 44th Drive, Queens"
    },
    {
      "business_status": "CLOSED_TEMPORARILY",
      "geometry": {
        "location": {
          "lat": 40.7500897,
          "lng": -73.9501303
        },
        "viewport": {
          "northeast": {
            "lat": 40.7514789302915,
            "lng": -73.94876756970851
          },
          "southwest": {
            "lat": 40.74878096970851,
            "lng": -73.95146553029151
          }
        }
      },
      "icon": "https://maps.gstatic.com/mapfiles/place_api/icons/v1/png_71/generic_business-71.png",
      "icon_background_color": "#7B9EB0",
      "icon_mask_base_uri": "https://maps.gstatic.com/mapfiles/place_api/icons/v2/generic_pinlet",
      "name": "Suit Magazine",
      "permanently_closed": true,
      "place_id": "ChIJ_TTThSdZwokRat7CB_sMdmY",
      "plus_code": {
        "compound_code": "Q22X+2W Long Island City, Queens, NY, USA",
        "global_code": "87G8Q22X+2W"
      },
      "reference": "ChIJ_TTThSdZwokRat7CB_sMdmY",
      "scope": "GOOGLE",
      "types": [
        "point_of_interest",
        "establishment"
      ],
      "vicinity": "1010 44th Avenue, Long Island City"
    },
    {
      "business_status": "CLOSED_TEMPORARILY",
      "geometry": {
        "location": {
          "lat": 40.7487595,
          "lng": -73.9448106
        },
        "viewport": {
          "northeast": {
            "lat": 40.7500611802915,
            "lng": -73.94336691970848
          },
          "southwest": {
            "lat": 40.7473632197085,
            "lng": -73.9460648802915
          }
        }
      },
      "icon": "https://maps.gstatic.com/mapfiles/place_api/icons/v1/png_71/shopping-71.png",
      "icon_background_color": "#4B96F3",
      "icon_mask_base_uri": "https://maps.gstatic.com/mapfiles/place_api/icons/v2/shopping_pinlet",
      "name": "KB SAX",
      "permanently_closed": true,
      "photos": [
        {
          "height": 1536,
          "html_attributions": [
            "<a href=\"https://maps.google.com/maps/contrib/103241589115332814064\">KB SAX</a>"
          ],
          "photo_reference": "AeJbb3ftlCzSSHC7uoGmoxfuMsNhtuduyBnSwpYuLjgs1abk9nJSt0P5gXzN1UQvP5sfHvE71sn_xMHdTcIrrEboui99JbaJPxMYRzC5Zd4-EHk6EL1L83lM2GDR_-iONmBu5CLi-dYBZl754JlGDkC0hXvQWGgBholfjpWlnyDj65Ig_uXM",
          "width": 2048
        }
      ],
      "place_id": "ChIJKftbyylZwokRR76kBnY3e0g",
      "plus_code": {
        "compound_code": "P3X4+G3 Long Island City, Queens, NY, USA",
        "global_code": "87G8P3X4+G3"
      },
      "rating": 5,
      "reference": "ChIJKftbyylZwokRR76kBnY3e0g",
      "scope": "GOOGLE",
      "types": [
        "electronics_store",
        "point_of_interest",
        "home_goods_store",
        "store",
        "establishment"
      ],
      "user_ratings_total": 26,
      "vicinity": "44-02 23rd Street Studio 120, Long Island City"
    },
    {
      "business_status": "OPERATIONAL",
      "geometry": {
        "location": {
          "lat": 40.74877009999999,
          "lng": -73.94481780000001
        },
        "viewport": {
          "northeast": {
            "lat": 40.7500689302915,
            "lng": -73.9433684197085
          },
          "southwest": {
            "lat": 40.7473709697085,
            "lng": -73.94606638029151
          }
        }
      },
      "icon": "https://maps.gstatic.com/mapfiles/place_api/icons/v1/png_71/shopping-71.png",
      "icon_background_color": "#4B96F3",
      "icon_mask_base_uri": "https://maps.gstatic.com/mapfiles/place_api/icons/v2/shopping_pinlet",
      "name": "Major League Draft Services",
      "place_id": "ChIJ6w_n0SlZwokRkWZKCIdI-oI",
      "plus_code": {
        "compound_code": "P3X4+G3 Long Island City, Queens, NY, USA",
        "global_code": "87G8P3X4+G3"
      },
      "reference": "ChIJ6w_n0SlZwokRkWZKCIdI-oI",
      "scope": "GOOGLE",
      "types": [
        "store",
        "point_of_interest",
        "establishment"
      ],
      "vicinity": "44-02 23rd Street, Long Island City"
    },
    {
      "business_status": "OPERATIONAL",
      "geometry": {
        "location": {
          "lat": 40.7489415,
          "lng": -73.9449009
        },
        "viewport": {
          "northeast": {
            "lat": 40.7501998802915,
            "lng": -73.9433676197085
          },
          "southwest": {
            "lat": 40.7475019197085,
            "lng": -73.9460655802915
          }
        }
      },
      "icon": "https://maps.gstatic.com/mapfiles/place_api/icons/v1/png_71/generic_business-71.png",
      "icon_background_color": "#7B9EB0",
      "icon_mask_base_uri": "https://maps.gstatic.com/mapfiles/place_api/icons/v2/generic_pinlet",
      "name": "Croxton Collaborative",
      "place_id": "ChIJDYyH9QBZwokRDo7TWj3-c3g",
      "plus_code": {
        "compound_code": "P3X4+H2 Long Island City, Queens, NY, USA",
        "global_code": "87G8P3X4+H2"
      },
      "reference": "ChIJDYyH9QBZwokRDo7TWj3-c3g",
      "scope": "GOOGLE",
      "types": [
        "point_of_interest",
        "establishment"
      ],
      "vicinity": "44-02 23rd Street #412, Long Island City"
    },
    {
      "business_status": "CLOSED_TEMPORARILY",
      "geometry": {
        "location": {
          "lat": 40.7491255,
          "lng": -73.9466101
        },
        "viewport": {
          "northeast": {
            "lat": 40.7505381802915,
            "lng": -73.94539971970849
          },
          "southwest": {
            "lat": 40.7478402197085,
            "lng": -73.9480976802915
          }
        }
      },
      "icon": "https://maps.gstatic.com/mapfiles/place_api/icons/v1/png_71/generic_business-71.png",
      "icon_background_color": "#7B9EB0",
      "icon_mask_base_uri": "https://maps.gstatic.com/mapfiles/place_api/icons/v2/generic_pinlet",
      "name": "Axcess Marketing Group",
      "permanently_closed": true,
      "place_id": "ChIJd1TCFihZwokR9IaXyshpDWk",
      "plus_code": {
        "compound_code": "P3X3+M9 New York, NY, USA",
        "global_code": "87G8P3X3+M9"
      },
      "rating": 5,
      "reference": "ChIJd1TCFihZwokR9IaXyshpDWk",
      "scope": "GOOGLE",
      "types": [
        "point_of_interest",
        "establishment"
      ],
      "user_ratings_total": 1,
      "vicinity": "4401 21st Street #205, Queens"
    }
  ],
  "status": "OK"
}