{
  "html_attributions": [],
  "results": [
    {
      "geometry": {
        "location": {
          "lat": 40.7127753,
          "lng": -74.0059728
        },
        "viewport": {
          "northeast": {
            "lat": 40.91757705070789,
            "lng": -73.70027206817629
          },
          "southwest": {
            "lat": 40.47739906045452,
            "lng": -74.25908991427882
          }
        }
      },
      "icon": "https://maps.gstatic.com/mapfiles/place_api/icons/v1/png_71/geocode-71.png",
      "icon_background_color": "#7B9EB0",
      "icon_mask_base_uri": "https://maps.gstatic.com/mapfiles/place_api/icons/v2/generic_pinlet",
      "name": "\u7d10\u7d04",
      "photos": [
        {
          "height": 600,
          "html_attributions": [
            "<a href=\"https://maps.google.com/maps/contrib/102389334567210814614\">Bukurie</a>"
          ],
          "photo_reference": "AeJbb3daOa93OZynpaSB4-yUwVsJjjYupa21C8PT9F07NVB5pL6hTkngYHFiSqmzg-wU_WiAV07cFlsy613epzLXJAQyM1-lRS4lqccNdHigoas2lbous7QlP1hoT6VSJelib0iZFM_0GGEriZ3f8DGPdYUaybjjcl3tOx-Tlq6EblClhqmp",
          "width": 480
        }
      ],
      "place_id": "ChIJOwg_06VPwokRYv534QaPC8g",
      "reference": "ChIJOwg_06VPwokRYv534QaPC8g",
      "scope": "GOOGLE",
      "types": [
        "locality",
        "political"
      ],
      "vicinity": "\u7d10\u7d04"
    },
    {
      "business_status": "OPERATIONAL",
      "geometry": {
        "location": {
          "lat": 40.6775822,
          "lng": -73.95885659999999
        },
        "viewport": {
          "northeast": {
            "lat": 40.6788863802915,
            "lng": -73.95757166970849
          },
          "southwest": {
            "lat": 40.6761884197085,
            "lng": -73.9602696302915
          }
        }
      },
      "icon": "https://maps.gstatic.com/mapfiles/place_api/icons/v1/png_71/restaurant-71.png",
      "icon_background_color": "#FF9E67",
      "icon_mask_base_uri": "https://maps.gstatic.com/mapfiles/place_api/icons/v2/restaurant_pinlet",
      "name": "Pasha Pizza",
      "opening_hours": {
        "open_now": true
      },
      "photos": [
        {
          "height": 4032,
          "html_attributions": [
            "<a href=\"https://maps.google.com/maps/contrib/110588881692162402659\">Pasha Pizza</a>"
          ],
          "photo_reference": "AeJbb3fCufL9PqD5dCcdC6PTfh8Ur6NofKmvlUcm1FfV8yhZUEyC-JQBFE0v1X1Skt-mAq6TtgsULqdCaB5xObjHFGxF5Bsib2PHkgH9eEjFXZ6DAaaiYpHy8miJhDi9e8Fpj04z2AQvR-JobGK6uZ1RxnxnWRDlbhlaXaitN-fKkiPiOluc",
          "width": 3024
        }
      ],
      "place_id": "ChIJCYRQrZhbwokRj8r4OF33OvA",
      "plus_code": {
        "compound_code": "M2HR+2F \u7f8e\u570b\u7d10\u7d04\u5e03\u9c81\u514b\u6797",
        "global_code": "87G8M2HR+2F"
      },
      "price_level": 2,
      "rating": 4,
      "reference": "ChIJCYRQrZhbwokRj8r4OF33OvA",
      "scope": "GOOGLE",
      "types": [
        "restaurant",
        "food",
        "point_of_interest",
        "establishment"
      ],
      "user_ratings_total": 87,
      "vicinity": "665 Classon Avenue, Brooklyn"
    },
    {
      "business_status": "OPERATIONAL",
      "geometry": {
        "location": {
          "lat": 40.6777993,
          "lng": -73.9575352
        },
        "viewport": {
          "northeast": {
            "lat": 40.67925048029151,
            "lng": -73.95613676970851
          },
          "southwest": {
            "lat": 40.67655251970851,
            "lng": -73.95883473029151
          }
        }
      },
      "icon": "https://maps.gstatic.com/mapfiles/place_api/icons/v1/png_71/generic_business-71.png",
      "icon_background_color": "#7B9EB0",
      "icon_mask_base_uri": "https://maps.gstatic.com/mapfiles/place_api/icons/v2/generic_pinlet",
      "name": "Edward W Hazen Foundation",
      "opening_hours": {
        "open_now": false
      },
      "photos": [
        {
          "height": 824,
          "html_attributions": [
            "<a href=\"https://maps.google.com/maps/contrib/109482084253259878773\">Edward W Hazen Foundation</a>"
          ],
          "photo_reference": "AeJbb3f0-P7PdGl80lsvZj85c9k6Z4O6yjmVpDt4cL85CyPGzpoQZ96Fe64hR0knf-oxPXszcE8P5CkZG1RfZWKkj0kG3SOejYgcIB5HslpokxlaVXMDqeQesy6k-wGMtYTF8NQaH2ZKYWFhiaKy3D9IcVthEQQiF_fQj0lyx_dWzgNbWKSJ",
          "width": 1024
        }
      ],
      "place_id": "ChIJx6sMka9ZwokRk9qt8MY0ce4",
      "plus_code": {
        "compound_code": "M2HR+4X \u7f8e\u570b\u7d10\u7d04",
        "global_code": "87G8M2HR+4X"
      },
      "reference": "ChIJx6sMka9ZwokRk9qt8MY0ce4",
      "scope": "GOOGLE",
      "types": [
        "point_of_interest",
        "establishment"
      ],
      "vicinity": "1000 Dean Street Suite 101, Brooklyn"
    },
    {
      "business_status": "CLOSED_TEMPORARILY",
      "geometry": {
        "location": {
          "lat": 40.6770925,
          "lng": -73.9502835
        },
        "viewport": {
          "northeast": {
            "lat": 40.6783490802915,
            "lng": -73.94894331970849
          },
          "southwest": {
            "lat": 40.6756511197085,
            "lng": -73.9516412802915
          }
        }
      },
      "icon": "https://maps.gstatic.com/mapfiles/place_api/icons/v1/png_71/generic_business-71.png",
      "icon_background_color": "#7B9EB0",
      "icon_mask_base_uri": "https://maps.gstatic.com/mapfiles/place_api/icons/v2/generic_pinlet",
      "name": "Missing Lantern Resident Suites New York City",
      "permanently_closed": true,
      "place_id": "ChIJTz_OdptbwokRx-56UKG3yEE",
      "plus_code": {
        "compound_code": "M2GX+RV \u7f8e\u570b\u7d10\u7d04\u5e03\u9c81\u514b\u6797",
        "global_code": "87G8M2GX+RV"
      },
      "rating": 2.8,
      "reference": "ChIJTz_OdptbwokRx-56UKG3yEE",
      "scope": "GOOGLE",
      "types": [
        "point_of_interest",
        "establishment"
      ],
      "user_ratings_total": 12,
      "vicinity": "1185 Dean Street, Brooklyn"
    },
    {
      "business_status": "OPERATIONAL",
      "geometry": {
        "location": {
          "lat": 40.6770209,
          "lng": -73.9596443
        },
        "viewport": {
          "northeast": {
            "lat": 40.6782118302915,
            "lng": -73.95835291970847
          },
          "southwest": {
            "lat": 40.6755138697085,
            "lng": -73.9610508802915
          }
        }
      },
      "icon": "https://maps.gstatic.com/mapfiles/place_api/icons/v1/png_71/school-71.png",
      "icon_background_color": "#7B9EB0",
      "icon_mask_base_uri": "https://maps.gstatic.com/mapfiles/place_api/icons/v2/school_pinlet",
      "name": "Explore Charter School Exceed Lower School",
      "opening_hours": {
        "open_now": false
      },
      "photos": [
        {
          "height": 4032,
          "html_attributions": [
            "<a href=\"https://maps.google.com/maps/contrib/115329505809597409138\">Kay Kay</a>"
          ],
          "photo_reference": "AeJbb3cYvetmHFnJt9pCihkdRy8fW0D6jDpc3zh_nBQuTN-c_7jyh44VBdAtd0cNaB64HX4_SWaQQ-xL6fDSCIwQWOGH7lxWjTGYej6sGlQb1n0_yQczmLFkCDQPerUSO7_nsQHfTnBIARu9-ES5JHgX5d-GG8tR7zrfM1RuQdgqMBm1wUmn",
          "width": 3024
        }
      ],
      "place_id": "ChIJw-fM-qFbwokRYxM32a8qACU",
      "plus_code": {
        "compound_code": "M2GR+R4 \u7f8e\u570b\u7d10\u7d04",
        "global_code": "87G8M2GR+R4"
      },
      "rating": 3.8,
      "reference": "ChIJw-fM-qFbwokRYxM32a8qACU",
      "scope": "GOOGLE",
      "types": [
        "school",
        "point_of_interest",
        "establishment"
      ],
      "user_ratings_total": 12,
      "vicinity": "443 Saint Marks Avenue, Brooklyn"
    },
    {
      "business_status": "OPERATIONAL",
      "geometry": {
        "location": {
          "lat": 40.67683439999999,
          "lng": -73.9596122
        },
        "viewport": {
          "northeast": {
            "lat": 40.67811338029149,
            "lng": -73.95833161970849
          },
          "southwest": {
            "lat": 40.67541541970849,
            "lng": -73.96102958029151
          }
        }
      },
      "icon": "https://maps.gstatic.com/mapfiles/place_api/icons/v1/png_71/school-71.png",
      "icon_background_color": "#7B9EB0",
      "icon_mask_base_uri": "https://maps.gstatic.com/mapfiles/place_api/icons/v2/school_pinlet",
      "name": "PS 705 Brooklyn Arts & Science Elementary School",
      "place_id": "ChIJw-fM-qFbwokRKUXatbqpLfk",
      "plus_code": {
        "compound_code": "M2GR+P5 \u7f8e\u570b\u7d10\u7d04",
        "global_code": "87G8M2GR+P5"
      },
      "rating": 5,
      "reference": "ChIJw-fM-qFbwokRKUXatbqpLfk",
      "scope": "GOOGLE",
      "types": [
        "school",
        "point_of_interest",
        "establishment"
      ],
      "user_ratings_total": 7,
      "vicinity": "443 Saint Marks Avenue, Brooklyn"
    },
    {
      "business_status": "OPERATIONAL",
      "geometry": {
        "location": {
          "lat": 40.6738961,
          "lng": -73.9570902
        },
        "viewport": {
          "northeast": {
            "lat": 40.67522418029149,
            "lng": -73.95560426970849
          },
          "southwest": {
            "lat": 40.67252621970849,
            "lng": -73.95830223029151
          }
        }
      },
      "icon": "https://maps.gstatic.com/mapfiles/place_api/icons/v1/png_71/bar-71.png",
      "icon_background_color": "#FF9E67",
      "icon_mask_base_uri": "https://maps.gstatic.com/mapfiles/place_api/icons/v2/bar_pinlet",
      "name": "The Crown Inn",
      "opening_hours": {
        "open_now": true
      },
      "photos": [
        {
          "height": 933,
          "html_attributions": [
            "<a href=\"https://maps.google.com/maps/contrib/106755571252393639684\">The Crown Inn</a>"
          ],
          "photo_reference": "AeJbb3cAFGOJryQ0bqoCbJH6IbJgP4-x09OOuzgdkrmpvcVXdrltDbomt-1eqAMBQo2SrpEPnkb9S00MIHpbtUenLNpIvhf1EBsHfHRYhFRwJEOqkN8bP5_4PErbpe6L0FTRTwcSg1f_7adaMYOOIwS-wDG1_7fpm48BhDV8hiLn6EhSv1iQ",
          "width": 1400
        }
      ],
      "place_id": "ChIJe9Sktp9bwokRRcfrw3iSAow",
      "plus_code": {
        "compound_code": "M2FV+H5 \u7f8e\u570b\u7d10\u7d04\u5e03\u9c81\u514b\u6797",
        "global_code": "87G8M2FV+H5"
      },
      "price_level": 2,
      "rating": 4.5,
      "reference": "ChIJe9Sktp9bwokRRcfrw3iSAow",
      "scope": "GOOGLE",
      "types": [
        "bar",
        "point_of_interest",
        "establishment"
      ],
      "user_ratings_total": 533,
      "vicinity": "724 Franklin Avenue, Brooklyn"
    },
    {
      "business_status": "OPERATIONAL",
      "geometry": {
        "location": {
          "lat": 40.67412650000001,
          "lng": -73.9535933
        },
        "viewport": {
          "northeast": {
            "lat": 40.6754982302915,
            "lng": -73.95236086970849
          },
          "southwest": {
            "lat": 40.6728002697085,
            "lng": -73.9550588302915
          }
        }
      },
      "icon": "https://maps.gstatic.com/mapfiles/place_api/icons/v1/png_71/restaurant-71.png",
      "icon_background_color": "#FF9E67",
      "icon_mask_base_uri": "https://maps.gstatic.com/mapfiles/place_api/icons/v2/restaurant_pinlet",
      "name": "Catfish",
      "opening_hours": {
        "open_now": true
      },
      "photos": [
        {
          "height": 667,
          "html_attributions": [
            "<a href=\"https://maps.google.com/maps/contrib/114413097964989377260\">Catfish</a>"
          ],
          "photo_reference": "AeJbb3fQ8ggG_0ZcgaEMuhtVEKIRFEdkyd0R9INLBtUASUgKc8QCrxV-nI8BxJhnCNoAzvT3pOELHYSq5g3qNirir1YJ8H_WxB0aD6z2sD0lVzTb_40OQ9EgAbezJojHin6EiI0EhZMBHg98GYBUHmbn3kauZy4VIZQLInftQDsWGudOAedw",
          "width": 1000
        }
      ],
      "place_id": "ChIJN4Fzf55bwokRIbPIWguahqs",
      "plus_code": {
        "compound_code": "M2FW+MH \u7f8e\u570b\u7d10\u7d04",
        "global_code": "87G8M2FW+MH"
      },
      "price_level": 2,
      "rating": 4.4,
      "reference": "ChIJN4Fzf55bwokRIbPIWguahqs",
      "scope": "GOOGLE",
      "types": [
        "bar",
        "restaurant",
        "food",
        "point_of_interest",
        "establishment"
      ],
      "user_ratings_total": 1193,
      "vicinity": "1433 Bedford Avenue, Brooklyn"
    },
    {
      "business_status": "CLOSED_TEMPORARILY",
      "geometry": {
        "location": {
          "lat": 40.6738335,
          "lng": -73.9566519
        },
        "viewport": {
          "northeast": {
            "lat": 40.6751994302915,
            "lng": -73.9553827197085
          },
          "southwest": {
            "lat": 40.6725014697085,
            "lng": -73.9580806802915
          }
        }
      },
      "icon": "https://maps.gstatic.com/mapfiles/place_api/icons/v1/png_71/generic_business-71.png",
      "icon_background_color": "#7B9EB0",
      "icon_mask_base_uri": "https://maps.gstatic.com/mapfiles/place_api/icons/v2/generic_pinlet",
      "name": "LaunchPad",
      "permanently_closed": true,
      "place_id": "ChIJGW-Js59bwokR5A0qmEKQdQM",
      "plus_code": {
        "compound_code": "M2FV+G8 \u7f8e\u570b\u7d10\u7d04\u5e03\u9c81\u514b\u6797",
        "global_code": "87G8M2FV+G8"
      },
      "rating": 5,
      "reference": "ChIJGW-Js59bwokR5A0qmEKQdQM",
      "scope": "GOOGLE",
      "types": [
        "art_gallery",
        "point_of_interest",
        "establishment"
      ],
      "user_ratings_total": 3,
      "vicinity": "721 Franklin Avenue, Brooklyn"
    },
    {
      "business_status": "OPERATIONAL",
      "geometry": {
        "location": {
          "lat": 40.6812455,
          "lng": -73.9573944
        },
        "viewport": {
          "northeast": {
            "lat": 40.6827179802915,
            "lng": -73.95602891970849
          },
          "southwest": {
            "lat": 40.6800200197085,
            "lng": -73.95872688029151
          }
        }
      },
      "icon": "https://maps.gstatic.com/mapfiles/place_api/icons/v1/png_71/bar-71.png",
      "icon_background_color": "#FF9E67",
      "icon_mask_base_uri": "https://maps.gstatic.com/mapfiles/place_api/icons/v2/bar_pinlet",
      "name": "Doris",
      "opening_hours": {
        "open_now": false
      },
      "photos": [
        {
          "height": 3024,
          "html_attributions": [
            "<a href=\"https://maps.google.com/maps/contrib/114591928289476800172\">Konstantinos Pouliasis</a>"
          ],
          "photo_reference": "AeJbb3dftgntzBjVXKlkRkNo_Ks_UXhWSlaHfSPiweHz6slKKq1BW7UZFMk1cNF0Xzj_IPbGEPRfwK6TmAJQLX_UqngHDBhiO3JIhJhjuMOH2_FfpENsAt70yUQhnf7eIdfAsldxTrFfHXwUq-aH4c37dXuaDnkr_Yf0votl5xQ5zstEeLz7",
          "width": 4032
        }
      ],
      "place_id": "ChIJxUIhOphbwokRBc54moYzW6M",
      "plus_code": {
        "compound_code": "M2JV+F2 \u7f8e\u570b\u7d10\u7d04",
        "global_code": "87G8M2JV+F2"
      },
      "price_level": 1,
      "rating": 4.4,
      "reference": "ChIJxUIhOphbwokRBc54moYzW6M",
      "scope": "GOOGLE",
      "types": [
        "bar",
        "point_of_interest",
        "establishment"
      ],
      "user_ratings_total": 317,
      "vicinity": "1088 Fulton Street, Brooklyn"
    },
    {
      "business_status": "OPERATIONAL",
      "geometry": {
        "location": {
          "lat": 40.6787068,
          "lng": -73.9575883
        },
        "viewport": {
          "northeast": {
            "lat": 40.68012063029149,
            "lng": -73.95621566970848
          },
          "southwest": {
            "lat": 40.6774226697085,
            "lng": -73.95891363029149
          }
        }
      },
      "icon": "https://maps.gstatic.com/mapfiles/place_api/icons/v1/png_71/generic_business-71.png",
      "icon_background_color": "#7B9EB0",
      "icon_mask_base_uri": "https://maps.gstatic.com/mapfiles/place_api/icons/v2/generic_pinlet",
      "name": "Coast to Coast LLC",
      "opening_hours": {
        "open_now": false
      },
      "place_id": "ChIJVfYJwphbwokR84hoLKstpd0",
      "plus_code": {
        "compound_code": "M2HR+FX \u7f8e\u570b\u7d10\u7d04\u5e03\u9c81\u514b\u6797",
        "global_code": "87G8M2HR+FX"
      },
      "rating": 5,
      "reference": "ChIJVfYJwphbwokR84hoLKstpd0",
      "scope": "GOOGLE",
      "types": [
        "point_of_interest",
        "establishment"
      ],
      "user_ratings_total": 2,
      "vicinity": "1058 Pacific Street, Brooklyn"
    },
    {
      "business_status": "OPERATIONAL",
      "geometry": {
        "location": {
          "lat": 40.6775418,
          "lng": -73.95979659999999
        },
        "viewport": {
          "northeast": {
            "lat": 40.67894623029149,
            "lng": -73.95842766970848
          },
          "southwest": {
            "lat": 40.6762482697085,
            "lng": -73.9611256302915
          }
        }
      },
      "icon": "https://maps.gstatic.com/mapfiles/place_api/icons/v1/png_71/generic_business-71.png",
      "icon_background_color": "#7B9EB0",
      "icon_mask_base_uri": "https://maps.gstatic.com/mapfiles/place_api/icons/v2/generic_pinlet",
      "name": "TYM Technology Solutions",
      "opening_hours": {
        "open_now": false
      },
      "photos": [
        {
          "height": 932,
          "html_attributions": [
            "<a href=\"https://maps.google.com/maps/contrib/112628485137521320475\">TYM Technology Solutions</a>"
          ],
          "photo_reference": "AeJbb3eQGgkRzZ0RPzZlA_ug1S5TMott9eOUvByYB0EGi5N-TOIwObunb3sSp8-BTkYX5AczA7aMltTKFzhFQJm9H4EvuCYIR812DGaBy2hlEdc3TQ1ncpjcKYZlxZu1ocR97lEDMfuXzq0iqrzP_mO25LfoQYlSpRSJFiLshfRFic1WoI9v",
          "width": 930
        }
      ],
      "place_id": "ChIJc_iy_qFbwokRQ4h3HtKeIQs",
      "plus_code": {
        "compound_code": "M2HR+23 \u7f8e\u570b\u7d10\u7d04\u5e03\u9c81\u514b\u6797",
        "global_code": "87G8M2HR+23"
      },
      "rating": 5,
      "reference": "ChIJc_iy_qFbwokRQ4h3HtKeIQs",
      "scope": "GOOGLE",
      "types": [
        "point_of_interest",
        "establishment"
      ],
      "user_ratings_total": 1,
      "vicinity": "836 Bergen Street, Brooklyn"
    },
    {
      "business_status": "OPERATIONAL",
      "geometry": {
        "location": {
          "lat": 40.68042049999999,
          "lng": -73.9598354
        },
        "viewport": {
          "northeast": {
            "lat": 40.68164203029149,
            "lng": -73.9583346197085
          },
          "southwest": {
            "lat": 40.67894406970849,
            "lng": -73.9610325802915
          }
        }
      },
      "icon": "https://maps.gstatic.com/mapfiles/place_api/icons/v1/png_71/shopping-71.png",
      "icon_background_color": "#4B96F3",
      "icon_mask_base_uri": "https://maps.gstatic.com/mapfiles/place_api/icons/v2/shopping_pinlet",
      "name": "AutoZone Auto Parts",
      "opening_hours": {
        "open_now": true
      },
      "photos": [
        {
          "height": 4032,
          "html_attributions": [
            "<a href=\"https://maps.google.com/maps/contrib/116810590011564193995\">Rohan Wilson</a>"
          ],
          "photo_reference": "AeJbb3e1mwcPpq9BRCUMzRXjUjgesjjksIVo-7W6sqvU4nvr6knxCOzwJmS8wx0X8D8XsFco1UpMY2w7EXxikmB-QRxc3FoSVBoOGuSxL7ohDiR8f3JDTA4nOVyoCD3d83uajfId5DnBBjq6vQbTITeyf5YGLb_kTuNQFAaJFPQVESPJrZv8",
          "width": 3024
        }
      ],
      "place_id": "ChIJ6QX8YKJbwokRYM5NI-Qx17s",
      "plus_code": {
        "compound_code": "M2JR+53 \u7f8e\u570b\u7d10\u7d04",
        "global_code": "87G8M2JR+53"
      },
      "rating": 3.8,
      "reference": "ChIJ6QX8YKJbwokRYM5NI-Qx17s",
      "scope": "GOOGLE",
      "types": [
        "car_repair",
        "store",
        "point_of_interest",
        "establishment"
      ],
      "user_ratings_total": 1055,
      "vicinity": "975 Atlantic Avenue #983, Brooklyn"
    },
    {
      "business_status": "OPERATIONAL",
      "geometry": {
        "location": {
          "lat": 40.6775491,
          "lng": -73.9573049
        },
        "viewport": {
          "northeast": {
            "lat": 40.6790950802915,
            "lng": -73.95588146970849
          },
          "southwest": {
            "lat": 40.6763971197085,
            "lng": -73.95857943029151
          }
        }
      },
      "icon": "https://maps.gstatic.com/mapfiles/place_api/icons/v1/png_71/generic_business-71.png",
      "icon_background_color": "#7B9EB0",
      "icon_mask_base_uri": "https://maps.gstatic.com/mapfiles/place_api/icons/v2/generic_pinlet",
      "name": "MediaStorm",
      "place_id": "ChIJZaiaZzFawokRRKWrOZxT-V8",
      "plus_code": {
        "compound_code": "M2HV+23 \u7f8e\u570b\u7d10\u7d04\u5e03\u9c81\u514b\u6797",
        "global_code": "87G8M2HV+23"
      },
      "rating": 5,
      "reference": "ChIJZaiaZzFawokRRKWrOZxT-V8",
      "scope": "GOOGLE",
      "types": [
        "point_of_interest",
        "establishment"
      ],
      "user_ratings_total": 1,
      "vicinity": "USA\", 1000 Dean Street #260, Brooklyn"
    },
    {
      "business_status": "OPERATIONAL",
      "geometry": {
        "location": {
          "lat": 40.67514910000001,
          "lng": -73.9597508
        },
        "viewport": {
          "northeast": {
            "lat": 40.6767507302915,
            "lng": -73.95815911970848
          },
          "southwest": {
            "lat": 40.67405276970851,
            "lng": -73.96085708029149
          }
        }
      },
      "icon": "https://maps.gstatic.com/mapfiles/place_api/icons/v1/png_71/generic_business-71.png",
      "icon_background_color": "#7B9EB0",
      "icon_mask_base_uri": "https://maps.gstatic.com/mapfiles/place_api/icons/v2/generic_pinlet",
      "name": "Downtown Brooklyn Nursing and Rehabilitation",
      "opening_hours": {
        "open_now": true
      },
      "photos": [
        {
          "height": 1001,
          "html_attributions": [
            "<a href=\"https://maps.google.com/maps/contrib/108813615034348883534\">Downtown Brooklyn Nursing and Rehabilitation</a>"
          ],
          "photo_reference": "AeJbb3dAjlckVwdiqpBEp86ofBfbYiDddDCNB5p9RwJqW6-_uw2SJMuKsgswReCoXDdj5gAbl_jkNkwI17YLtaUSjZo7hacWUH_dkks_o4GiqAU0TbazEQPyjO2Css09IiBm-nR172RIGM8nzpSLNZAioFRjWrEk1QDHCXnsk0BZr0bWj0Z9",
          "width": 1200
        }
      ],
      "place_id": "ChIJwbfrf59bwokR5zsY5uJw63w",
      "plus_code": {
        "compound_code": "M2GR+33 \u7f8e\u570b\u7d10\u7d04\u5e03\u9c81\u514b\u6797",
        "global_code": "87G8M2GR+33"
      },
      "rating": 4,
      "reference": "ChIJwbfrf59bwokR5zsY5uJw63w",
      "scope": "GOOGLE",
      "types": [
        "health",
        "point_of_interest",
        "establishment"
      ],
      "user_ratings_total": 116,
      "vicinity": "727 Classon Avenue, Brooklyn"
    },
    {
      "business_status": "OPERATIONAL",
      "geometry": {
        "location": {
          "lat": 40.6775491,
          "lng": -73.9573049
        },
        "viewport": {
          "northeast": {
            "lat": 40.6790950802915,
            "lng": -73.95588146970849
          },
          "southwest": {
            "lat": 40.6763971197085,
            "lng": -73.95857943029151
          }
        }
      },
      "icon": "https://maps.gstatic.com/mapfiles/place_api/icons/v1/png_71/generic_business-71.png",
      "icon_background_color": "#7B9EB0",
      "icon_mask_base_uri": "https://maps.gstatic.com/mapfiles/place_api/icons/v2/generic_pinlet",
      "name": "Brooklyn Community Foundation",
      "opening_hours": {
        "open_now": false
      },
      "photos": [
        {
          "height": 1536,
          "html_attributions": [
            "<a href=\"https://maps.google.com/maps/contrib/118151330212049183332\">Brooklyn Community Foundation</a>"
          ],
          "photo_reference": "AeJbb3edF3PdF5Ur5ReIujaqln21tJYJUv-E80klk1cxlmqjXcRYy1UlnEUgT4NJ_ULoJxvI-vG6e30R6mO1d0UkEDcgjqk_HQq0Gjh7vycbr5nqefWerbMb7Tnkjdg-uifDBU9IC8hvJDjMi-eBvsGwlqZ-MwNemDrPxiZrzPIvFAzt2uGF",
          "width": 2048
        }
      ],
      "place_id": "ChIJsVm7PjFawokRdy-eFOwGvyo",
      "plus_code": {
        "compound_code": "M2HV+23 \u7f8e\u570b\u7d10\u7d04\u5e03\u9c81\u514b\u6797",
        "global_code": "87G8M2HV+23"
      },
      "rating": 4.4,
      "reference": "ChIJsVm7PjFawokRdy-eFOwGvyo",
      "scope": "GOOGLE",
      "types": [
        "point_of_interest",
        "establishment"
      ],
      "user_ratings_total": 8,
      "vicinity": "1000 Dean Street #307, Brooklyn"
    },
    {
      "business_status": "OPERATIONAL",
      "geometry": {
        "location": {
          "lat": 40.6753484,
          "lng": -73.9589915
        },
        "viewport": {
          "northeast": {
            "lat": 40.6768124802915,
            "lng": -73.95755711970848
          },
          "southwest": {
            "lat": 40.6741145197085,
            "lng": -73.96025508029149
          }
        }
      },
      "icon": "https://maps.gstatic.com/mapfiles/place_api/icons/v1/png_71/generic_business-71.png",
      "icon_background_color": "#7B9EB0",
      "icon_mask_base_uri": "https://maps.gstatic.com/mapfiles/place_api/icons/v2/generic_pinlet",
      "name": "Bishop Orris G. Walker, Jr. Health Care Center (Interfaith Medical Center)",
      "opening_hours": {
        "open_now": true
      },
      "place_id": "ChIJPZHF64dbwokRrfPj71nOEyI",
      "plus_code": {
        "compound_code": "M2GR+4C \u7f8e\u570b\u7d10\u7d04\u5e03\u9c81\u514b\u6797",
        "global_code": "87G8M2GR+4C"
      },
      "rating": 4,
      "reference": "ChIJPZHF64dbwokRrfPj71nOEyI",
      "scope": "GOOGLE",
      "types": [
        "health",
        "point_of_interest",
        "establishment"
      ],
      "user_ratings_total": 46,
      "vicinity": "528 Prospect Place, Brooklyn"
    },
    {
      "business_status": "OPERATIONAL",
      "geometry": {
        "location": {
          "lat": 40.678163,
          "lng": -73.9520763
        },
        "viewport": {
          "northeast": {
            "lat": 40.67932978029149,
            "lng": -73.9507463197085
          },
          "southwest": {
            "lat": 40.6766318197085,
            "lng": -73.9534442802915
          }
        }
      },
      "icon": "https://maps.gstatic.com/mapfiles/place_api/icons/v1/png_71/worship_general-71.png",
      "icon_background_color": "#7B9EB0",
      "icon_mask_base_uri": "https://maps.gstatic.com/mapfiles/place_api/icons/v2/worship_christian_pinlet",
      "name": "St Bartholomew's Church",
      "photos": [
        {
          "height": 4128,
          "html_attributions": [
            "<a href=\"https://maps.google.com/maps/contrib/110441356257177679566\">Rashaa Fraser</a>"
          ],
          "photo_reference": "AeJbb3ce3L1LNYHIizgyQQ3XM9X610Iaw5TJBasNYKDCjdPOMvXAAsATeArMU3TmD0GSFirSv9HlOKNI_xrXFDNy6kxxBtEMP5Svfnid4x4GbPVJY6LBFSSLGe_uFxFW-Srickh4OhRpsxv7WWblHM4FrNIyIibFGdQzljesjiAwuXhhl2B8",
          "width": 3096
        }
      ],
      "place_id": "ChIJa676wJtbwokRC4BOwxRN5FY",
      "plus_code": {
        "compound_code": "M2HX+75 \u7f8e\u570b\u7d10\u7d04",
        "global_code": "87G8M2HX+75"
      },
      "rating": 4.3,
      "reference": "ChIJa676wJtbwokRC4BOwxRN5FY",
      "scope": "GOOGLE",
      "types": [
        "church",
        "place_of_worship",
        "point_of_interest",
        "establishment"
      ],
      "user_ratings_total": 3,
      "vicinity": "1227 Pacific Street, Brooklyn"
    },
    {
      "business_status": "OPERATIONAL",
      "geometry": {
        "location": {
          "lat": 40.6817033,
          "lng": -73.9570928
        },
        "viewport": {
          "northeast": {
            "lat": 40.6829282802915,
            "lng": -73.9557888197085
          },
          "southwest": {
            "lat": 40.6802303197085,
            "lng": -73.95848678029151
          }
        }
      },
      "icon": "https://maps.gstatic.com/mapfiles/place_api/icons/v1/png_71/restaurant-71.png",
      "icon_background_color": "#FF9E67",
      "icon_mask_base_uri": "https://maps.gstatic.com/mapfiles/place_api/icons/v2/restaurant_pinlet",
      "name": "Buka",
      "opening_hours": {
        "open_now": true
      },
      "photos": [
        {
          "height": 4032,
          "html_attributions": [
            "<a href=\"https://maps.google.com/maps/contrib/114049164155303169111\">Shamirah Jack</a>"
          ],
          "photo_reference": "AeJbb3eNyvZsnwNbxpl-WV9tsRTDga4jOoi6maoynK7j5c-EmbajSElSVuY0aOw5V8TGUAwJfbsuclVdNifi8f-v1binje9D2EDdukXxf_O6HD7TKy7JsgHmp1Rqec0680BnSjBXgUUqA574JZe_5Y_Ub9BEzQ3abCDxlGlCxVRK7xoCeKOo",
          "width": 3024
        }
      ],
      "place_id": "ChIJPdXlLqNbwokRToFmx2p9CJ4",
      "plus_code": {
        "compound_code": "M2JV+M5 \u7f8e\u570b\u7d10\u7d04",
        "global_code": "87G8M2JV+M5"
      },
      "price_level": 2,
      "rating": 3.7,
      "reference": "ChIJPdXlLqNbwokRToFmx2p9CJ4",
      "scope": "GOOGLE",
      "types": [
        "bar",
        "restaurant",
        "food",
        "point_of_interest",
        "establishment"
      ],
      "user_ratings_total": 573,
      "vicinity": "1111 Fulton Street, Brooklyn"
    },
    {
      "geometry": {
        "location": {
          "lat": 40.6781784,
          "lng": -73.9441579
        },
        "viewport": {
          "northeast": {
            "lat": 40.73944597129348,
            "lng": -73.83336505117123
          },
          "southwest": {
            "lat": 40.55104197967331,
            "lng": -74.05662998413648
          }
        }
      },
      "icon": "https://maps.gstatic.com/mapfiles/place_api/icons/v1/png_71/geocode-71.png",
      "icon_background_color": "#7B9EB0",
      "icon_mask_base_uri": "https://maps.gstatic.com/mapfiles/place_api/icons/v2/generic_pinlet",
      "name": "\u5e03\u9c81\u514b\u6797",
      "photos": [
        {
          "height": 3024,
          "html_attributions": [
            "<a href=\"https://maps.google.com/maps/contrib/114417859579881743500\">Chengxiang Yuan</a>"
          ],
          "photo_reference": "AeJbb3eVxtu5lZmCvTWTRgIIS_OkbAc9MVqFwXPWS4JL7eXzm7bZF1vdvAZzpW0Q-dRwgdZ3O3U8KKurKBLaGwxrZYUIDGBxAcdCbvTRA9xjYvZs2LSXbc4c9sC26aj_VkWDRxiu4f9s8RF1FO8_-_qMhGbruyaxdws5eVWUGHlQUN1usSOH",
          "width": 4032
        }
      ],
      "place_id": "ChIJCSF8lBZEwokRhngABHRcdoI",
      "reference": "ChIJCSF8lBZEwokRhngABHRcdoI",
      "scope": "GOOGLE",
      "types": [
        "sublocality_level_1",
        "sublocality",
        "political"
      ],
      "vicinity": "\u5e03\u9c81\u514b\u6797"
    },
    {
      "business_status": "OPERATIONAL",
      "geometry": {
        "location": {
          "lat": 40.6777408,
          "lng": -73.95726549999999
        },
        "viewport": {
          "northeast": {
            "lat": 40.6791942802915,
            "lng": -73.95586981970848
          },
          "southwest": {
            "lat": 40.67649631970851,
            "lng": -73.9585677802915
          }
        }
      },
      "icon": "https://maps.gstatic.com/mapfiles/place_api/icons/v1/png_71/generic_business-71.png",
      "icon_background_color": "#7B9EB0",
      "icon_mask_base_uri": "https://maps.gstatic.com/mapfiles/place_api/icons/v2/generic_pinlet",
      "name": "651 Arts",
      "place_id": "ChIJdRbXsLNbwokRIllUvGYsqp8",
      "plus_code": {
        "compound_code": "M2HV+33 Brooklyn, NY, USA",
        "global_code": "87G8M2HV+33"
      },
      "rating": 3.2,
      "reference": "ChIJdRbXsLNbwokRIllUvGYsqp8",
      "scope": "GOOGLE",
      "types": [
        "point_of_interest",
        "establishment"
      ],
      "user_ratings_total": 5,
      "vicinity": "1000 Dean Street Suite 232, Brooklyn"
    },
    {
      "business_status": "OPERATIONAL",
      "geometry": {
        "location": {
          "lat": 40.6776497,
          "lng": -73.95517749999999
        },
        "viewport": {
          "northeast": {
            "lat": 40.6789564302915,
            "lng": -73.95392386970849
          },
          "southwest": {
            "lat": 40.6762584697085,
            "lng": -73.9566218302915
          }
        }
      },
      "icon": "https://maps.gstatic.com/mapfiles/place_api/icons/v1/png_71/restaurant-71.png",
      "icon_background_color": "#FF9E67",
      "icon_mask_base_uri": "https://maps.gstatic.com/mapfiles/place_api/icons/v2/restaurant_pinlet",
      "name": "Sushi Tatsu",
      "opening_hours": {
        "open_now": true
      },
      "photos": [
        {
          "height": 1167,
          "html_attributions": [
            "<a href=\"https://maps.google.com/maps/contrib/113251037823665794132\">Wenyi Zhou</a>"
          ],
          "photo_reference": "AeJbb3cKah7NEKYA4RH_xWK3UUDd0vXQ80zxDS6iSV59FL4sU3tm_G7YHseptOweOe1EInMJ_pzek2vb59tS7yzr3fx1bZnMIQTJPkcMmcZfK1IpT69qLyUNkgum3AalgumxETEinf8dGSJYrEqHEgOGne6fbm1ZixbTjQLX7TPOm8jRWCKF",
          "width": 2695
        }
      ],
      "place_id": "ChIJ1SDYOZlbwokRymzOWGaeUG0",
      "plus_code": {
        "compound_code": "M2HV+3W New York, NY, USA",
        "global_code": "87G8M2HV+3W"
      },
      "price_level": 1,
      "rating": 4,
      "reference": "ChIJ1SDYOZlbwokRymzOWGaeUG0",
      "scope": "GOOGLE",
      "types": [
        "meal_delivery",
        "restaurant",
        "food",
        "point_of_interest",
        "establishment"
      ],
      "user_ratings_total": 178,
      "vicinity": "609 Franklin Avenue, Brooklyn"
    },
    {
      "business_status": "CLOSED_TEMPORARILY",
      "geometry": {
        "location": {
          "lat": 40.6769629,
          "lng": -73.9600909
        },
        "viewport": {
          "northeast": {
            "lat": 40.6782242802915,
            "lng": -73.9587738697085
          },
          "southwest": {
            "lat": 40.6755263197085,
            "lng": -73.9614718302915
          }
        }
      },
      "icon": "https://maps.gstatic.com/mapfiles/place_api/icons/v1/png_71/school-71.png",
      "icon_background_color": "#7B9EB0",
      "icon_mask_base_uri": "https://maps.gstatic.com/mapfiles/place_api/icons/v2/school_pinlet",
      "name": "Childrens International School",
      "permanently_closed": true,
      "place_id": "ChIJw-fM-qFbwokRkKcTYdtIIkc",
      "plus_code": {
        "compound_code": "M2GQ+QX New York, NY, USA",
        "global_code": "87G8M2GQ+QX"
      },
      "reference": "ChIJw-fM-qFbwokRkKcTYdtIIkc",
      "scope": "GOOGLE",
      "types": [
        "school",
        "point_of_interest",
        "establishment"
      ],
      "vicinity": "443 Saint Marks Avenue, Brooklyn"
    },
    {
      "business_status": "OPERATIONAL",
      "geometry": {
        "location": {
          "lat": 40.6785803,
          "lng": -73.9596236
        },
        "viewport": {
          "northeast": {
            "lat": 40.6798678802915,
            "lng": -73.95829461970848
          },
          "southwest": {
            "lat": 40.6771699197085,
            "lng": -73.9609925802915
          }
        }
      },
      "icon": "https://maps.gstatic.com/mapfiles/place_api/icons/v1/png_71/generic_business-71.png",
      "icon_background_color": "#7B9EB0",
      "icon_mask_base_uri": "https://maps.gstatic.com/mapfiles/place_api/icons/v2/generic_pinlet",
      "name": "Brooklyn Dialysis Center",
      "opening_hours": {
        "open_now": true
      },
      "place_id": "ChIJ5ZZcCqJbwokRAsI_WUB0f1A",
      "plus_code": {
        "compound_code": "M2HR+C5 Brooklyn, NY, USA",
        "global_code": "87G8M2HR+C5"
      },
      "rating": 4.5,
      "reference": "ChIJ5ZZcCqJbwokRAsI_WUB0f1A",
      "scope": "GOOGLE",
      "types": [
        "health",
        "point_of_interest",
        "establishment"
      ],
      "user_ratings_total": 6,
      "vicinity": "915 Dean Street, Brooklyn"
    },
    {
      "business_status": "OPERATIONAL",
      "geometry": {
        "location": {
          "lat": 40.67346670000001,
          "lng": -73.9572417
        },
        "viewport": {
          "northeast": {
            "lat": 40.6747424302915,
            "lng": -73.95581781970849
          },
          "southwest": {
            "lat": 40.6720444697085,
            "lng": -73.95851578029149
          }
        }
      },
      "icon": "https://maps.gstatic.com/mapfiles/place_api/icons/v1/png_71/restaurant-71.png",
      "icon_background_color": "#FF9E67",
      "icon_mask_base_uri": "https://maps.gstatic.com/mapfiles/place_api/icons/v2/restaurant_pinlet",
      "name": "Chavela's",
      "opening_hours": {
        "open_now": true
      },
      "photos": [
        {
          "height": 1072,
          "html_attributions": [
            "<a href=\"https://maps.google.com/maps/contrib/115955152946636469558\">Chavela&#39;s</a>"
          ],
          "photo_reference": "AeJbb3dDDmfuwiMTzmi0Nm1Pg8zhUvD1faXqRjMLafa-dzTsqFyl_UUvEmlPJ03ZJDm4xClJCBeUQqnVjj9qiHFN0mKjojpCh9VeLkiFIGwC7sq3th4ysjHD7uKiacDfX_Brt48aqt-A5oEqElPjxy5ZtXsAvHKATBLXmYArnzs6xgm2CaQg",
          "width": 2048
        }
      ],
      "place_id": "ChIJJ5J8yJ9bwokRjpOkpYgii5k",
      "plus_code": {
        "compound_code": "M2FV+94 New York, NY, USA",
        "global_code": "87G8M2FV+94"
      },
      "price_level": 2,
      "rating": 4.5,
      "reference": "ChIJJ5J8yJ9bwokRjpOkpYgii5k",
      "scope": "GOOGLE",
      "types": [
        "restaurant",
        "food",
        "point_of_interest",
        "establishment"
      ],
      "user_ratings_total": 2214,
      "vicinity": "736 Franklin Avenue, Brooklyn"
    },
    {
      "business_status": "OPERATIONAL",
      "geometry": {
        "location": {
          "lat": 40.6812243,
          "lng": -73.9573128
        },
        "viewport": {
          "northeast": {
            "lat": 40.68269658029151,
            "lng": -73.95593626970849
          },
          "southwest": {
            "lat": 40.67999861970851,
            "lng": -73.9586342302915
          }
        }
      },
      "icon": "https://maps.gstatic.com/mapfiles/place_api/icons/v1/png_71/shopping-71.png",
      "icon_background_color": "#4B96F3",
      "icon_mask_base_uri": "https://maps.gstatic.com/mapfiles/place_api/icons/v2/shopping_pinlet",
      "name": "Family Dollar",
      "opening_hours": {
        "open_now": true
      },
      "photos": [
        {
          "height": 4032,
          "html_attributions": [
            "<a href=\"https://maps.google.com/maps/contrib/104521650013252547074\">Dima</a>"
          ],
          "photo_reference": "AeJbb3fqjrTNb5gJ8tlMVqYjNqzx2txzajfO6bCTvbdQgDAyWzOtdoJKZc8oFqFveuIhZMYKJ4V0AIpFk5_QUXAv0bNnKW-k28NiUCVqHC4W7NhSMjztlzNVHZKDJJGZCGwSHpgXMkoGr-1bH0tbrxicfSnFihE89-Q3phjQWrOen9CyJ88p",
          "width": 3024
        }
      ],
      "place_id": "ChIJtzW2MJhbwokRPXLh-sS7Si0",
      "plus_code": {
        "compound_code": "M2JV+F3 New York, NY, USA",
        "global_code": "87G8M2JV+F3"
      },
      "price_level": 1,
      "rating": 3.7,
      "reference": "ChIJtzW2MJhbwokRPXLh-sS7Si0",
      "scope": "GOOGLE",
      "types": [
        "supermarket",
        "clothing_store",
        "grocery_or_supermarket",
        "store",
        "food",
        "point_of_interest",
        "establishment"
      ],
      "user_ratings_total": 197,
      "vicinity": "1090 Fulton Street, Brooklyn"
    },
    {
      "business_status": "OPERATIONAL",
      "geometry": {
        "location": {
          "lat": 40.6816126,
          "lng": -73.95664699999999
        },
        "viewport": {
          "northeast": {
            "lat": 40.6828364802915,
            "lng": -73.95534341970848
          },
          "southwest": {
            "lat": 40.6801385197085,
            "lng": -73.9580413802915
          }
        }
      },
      "icon": "https://maps.gstatic.com/mapfiles/place_api/icons/v1/png_71/generic_business-71.png",
      "icon_background_color": "#7B9EB0",
      "icon_mask_base_uri": "https://maps.gstatic.com/mapfiles/place_api/icons/v2/generic_pinlet",
      "name": "Dr. Elaine P. Brown, MD",
      "place_id": "ChIJ0YRmLZhbwokRH3XIse50Aio",
      "plus_code": {
        "compound_code": "M2JV+J8 New York, NY, USA",
        "global_code": "87G8M2JV+J8"
      },
      "rating": 3.3,
      "reference": "ChIJ0YRmLZhbwokRH3XIse50Aio",
      "scope": "GOOGLE",
      "types": [
        "doctor",
        "health",
        "point_of_interest",
        "establishment"
      ],
      "user_ratings_total": 12,
      "vicinity": "1125 Fulton Street, Brooklyn"
    },
    {
      "business_status": "OPERATIONAL",
      "geometry": {
        "location": {
          "lat": 40.67377239999999,
          "lng": -73.9570832
        },
        "viewport": {
          "northeast": {
            "lat": 40.6750980802915,
            "lng": -73.9556244697085
          },
          "southwest": {
            "lat": 40.6724001197085,
            "lng": -73.9583224302915
          }
        }
      },
      "icon": "https://maps.gstatic.com/mapfiles/place_api/icons/v1/png_71/cafe-71.png",
      "icon_background_color": "#FF9E67",
      "icon_mask_base_uri": "https://maps.gstatic.com/mapfiles/place_api/icons/v2/cafe_pinlet",
      "name": "Little Zelda",
      "opening_hours": {
        "open_now": true
      },
      "photos": [
        {
          "height": 1026,
          "html_attributions": [
            "<a href=\"https://maps.google.com/maps/contrib/100133541363045329424\">Jillian Schiavi</a>"
          ],
          "photo_reference": "AeJbb3eqzG_MAjbiDCD1OZnt4F3pdGuezi8Ezv_uMhmdf8_v37NgFH_kFRM6QEz4wi4NT0WkLWCaHPQCyeJ9MS7-5xwtT50Yo2t5g74837_uup-pbK2U_7Ln9ge7XspSU9pFU2sGyz6aENdErGvXWMWEfs9251_-C14zgYH_gGG3BfbT3WGB",
          "width": 828
        }
      ],
      "place_id": "ChIJcRx1tp9bwokRzM6p8FzvAQE",
      "plus_code": {
        "compound_code": "M2FV+G5 New York, NY, USA",
        "global_code": "87G8M2FV+G5"
      },
      "price_level": 1,
      "rating": 4.4,
      "reference": "ChIJcRx1tp9bwokRzM6p8FzvAQE",
      "scope": "GOOGLE",
      "types": [
        "cafe",
        "store",
        "food",
        "point_of_interest",
        "establishment"
      ],
      "user_ratings_total": 211,
      "vicinity": "728 Franklin Avenue, Brooklyn"
    },
    {
      "business_status": "OPERATIONAL",
      "geometry": {
        "location": {
          "lat": 40.67542419999999,
          "lng": -73.96011349999999
        },
        "viewport": {
          "northeast": {
            "lat": 40.67675028029149,
            "lng": -73.95865496970849
          },
          "southwest": {
            "lat": 40.6740523197085,
            "lng": -73.9613529302915
          }
        }
      },
      "icon": "https://maps.gstatic.com/mapfiles/place_api/icons/v1/png_71/shopping-71.png",
      "icon_background_color": "#4B96F3",
      "icon_mask_base_uri": "https://maps.gstatic.com/mapfiles/place_api/icons/v2/shopping_pinlet",
      "name": "Park Delicatessen",
      "opening_hours": {
        "open_now": true
      },
      "photos": [
        {
          "height": 3024,
          "html_attributions": [
            "<a href=\"https://maps.google.com/maps/contrib/100001338085962055435\">Park Delicatessen</a>"
          ],
          "photo_reference": "AeJbb3fmL_aXYi0kENQWEd8kUbLruor4ZiJGy1Mz5CwnmRr4NK7vrHNln4bMNJj6200BLfPae-5Cwiwa1Ss6PLq7iRHw_giFieeal4i67T92yNyXyIzPco_UeHpszvGifh7-Z679kdZxS_-B7N0hq5UTqpEnNZWO27xcXfoSEL3e5QQG63Bf",
          "width": 4032
        }
      ],
      "place_id": "ChIJY9GOMqBbwokRvrzQvKW2o9U",
      "plus_code": {
        "compound_code": "M2GQ+5X Brooklyn, NY, USA",
        "global_code": "87G8M2GQ+5X"
      },
      "rating": 4.2,
      "reference": "ChIJY9GOMqBbwokRvrzQvKW2o9U",
      "scope": "GOOGLE",
      "types": [
        "florist",
        "clothing_store",
        "store",
        "point_of_interest",
        "establishment"
      ],
      "user_ratings_total": 50,
      "vicinity": "722 Classon Avenue, Brooklyn"
    },
    {
      "business_status": "OPERATIONAL",
      "geometry": {
        "location": {
          "lat": 40.67523699999999,
          "lng": -73.956734
        },
        "viewport": {
          "northeast": {
            "lat": 40.67653388029149,
            "lng": -73.95539811970849
          },
          "southwest": {
            "lat": 40.6738359197085,
            "lng": -73.95809608029151
          }
        }
      },
      "icon": "https://maps.gstatic.com/mapfiles/place_api/icons/v1/png_71/restaurant-71.png",
      "icon_background_color": "#FF9E67",
      "icon_mask_base_uri": "https://maps.gstatic.com/mapfiles/place_api/icons/v2/restaurant_pinlet",
      "name": "Gueros",
      "opening_hours": {
        "open_now": true
      },
      "photos": [
        {
          "height": 3024,
          "html_attributions": [
            "<a href=\"https://maps.google.com/maps/contrib/103661809067739422003\">Dave Contreras</a>"
          ],
          "photo_reference": "AeJbb3fCvJyp_hefKv-eqK-jECxDoLIWuBkocY5Zhk3mfL6UqKjNxJ5hfO_zspjgT8kCelAoUSA0-rzzfRd0n05hRAwVQNrLZJoZ87b81_-CWwZ9CXYsHi_7T0v6zYJVE6mkPds_m8m1C7-jhlqeGARzNqgQ31vf8WHBtEJ4U7RzBhuwbq8A",
          "width": 4032
        }
      ],
      "place_id": "ChIJedgKAp9bwokROT5n308Y3U0",
      "plus_code": {
        "compound_code": "M2GV+38 Brooklyn, NY, USA",
        "global_code": "87G8M2GV+38"
      },
      "price_level": 1,
      "rating": 4.4,
      "reference": "ChIJedgKAp9bwokROT5n308Y3U0",
      "scope": "GOOGLE",
      "types": [
        "bar",
        "restaurant",
        "food",
        "point_of_interest",
        "establishment"
      ],
      "user_ratings_total": 690,
      "vicinity": "605 Prospect Place, Brooklyn"
    },
    {
      "business_status": "OPERATIONAL",
      "geometry": {
        "location": {
          "lat": 40.6780706,
          "lng": -73.957241
        },
        "viewport": {
          "northeast": {
            "lat": 40.67936923029151,
            "lng": -73.95591106970849
          },
          "southwest": {
            "lat": 40.67667126970851,
            "lng": -73.9586090302915
          }
        }
      },
      "icon": "https://maps.gstatic.com/mapfiles/place_api/icons/v1/png_71/generic_business-71.png",
      "icon_background_color": "#7B9EB0",
      "icon_mask_base_uri": "https://maps.gstatic.com/mapfiles/place_api/icons/v2/generic_pinlet",
      "name": "Alex Figliolia Water & Sewer",
      "opening_hours": {
        "open_now": true
      },
      "photos": [
        {
          "height": 2448,
          "html_attributions": [
            "<a href=\"https://maps.google.com/maps/contrib/106772988282674950939\">Alex Figliolia Water &amp; Sewer</a>"
          ],
          "photo_reference": "AeJbb3fb1l5OshnIQIlOHQYUxkxpbanPSGlFKIT3oWd-6dV58uuIsvyDEmVZcBVCIEpRfLBntg9YjbkLLJnO10yE2VlUzeHbMKTo-91MS_xAS7vekIPoumwbYaFWhv5IT086FaqHvjXx-I6pW0Jk4p6eNuRvufn1ibHET2OEUCvPKrdiD45B",
          "width": 3264
        }
      ],
      "place_id": "ChIJaXQRs6lZwokRwpxQ9KhkFkY",
      "plus_code": {
        "compound_code": "M2HV+64 New York, NY, USA",
        "global_code": "87G8M2HV+64"
      },
      "rating": 4,
      "reference": "ChIJaXQRs6lZwokRwpxQ9KhkFkY",
      "scope": "GOOGLE",
      "types": [
        "plumber",
        "point_of_interest",
        "establishment"
      ],
      "user_ratings_total": 31,
      "vicinity": "983B Dean Street, Brooklyn"
    },
    {
      "business_status": "OPERATIONAL",
      "geometry": {
        "location": {
          "lat": 40.6814446,
          "lng": -73.9576731
        },
        "viewport": {
          "northeast": {
            "lat": 40.6828561302915,
            "lng": -73.9563792197085
          },
          "southwest": {
            "lat": 40.6801581697085,
            "lng": -73.9590771802915
          }
        }
      },
      "icon": "https://maps.gstatic.com/mapfiles/place_api/icons/v1/png_71/generic_business-71.png",
      "icon_background_color": "#7B9EB0",
      "icon_mask_base_uri": "https://maps.gstatic.com/mapfiles/place_api/icons/v2/generic_pinlet",
      "name": "Brooklyn Select Physicians",
      "place_id": "ChIJ2xxQYZpbwokRarlmHfBQ_Kk",
      "plus_code": {
        "compound_code": "M2JR+HW Brooklyn, NY, USA",
        "global_code": "87G8M2JR+HW"
      },
      "rating": 4,
      "reference": "ChIJ2xxQYZpbwokRarlmHfBQ_Kk",
      "scope": "GOOGLE",
      "types": [
        "doctor",
        "health",
        "point_of_interest",
        "establishment"
      ],
      "user_ratings_total": 3,
      "vicinity": "1078 Fulton Street, Brooklyn"
    },
    {
      "business_status": "OPERATIONAL",
      "geometry": {
        "location": {
          "lat": 40.67791809999999,
          "lng": -73.95819829999999
        },
        "viewport": {
          "northeast": {
            "lat": 40.67937948029149,
            "lng": -73.95680966970849
          },
          "southwest": {
            "lat": 40.6766815197085,
            "lng": -73.9595076302915
          }
        }
      },
      "icon": "https://maps.gstatic.com/mapfiles/place_api/icons/v1/png_71/shopping-71.png",
      "icon_background_color": "#4B96F3",
      "icon_mask_base_uri": "https://maps.gstatic.com/mapfiles/place_api/icons/v2/shopping_pinlet",
      "name": "All Bikes",
      "opening_hours": {
        "open_now": false
      },
      "place_id": "ChIJS4WxuZhbwokRknhVLeGjtdg",
      "plus_code": {
        "compound_code": "M2HR+5P New York, NY, USA",
        "global_code": "87G8M2HR+5P"
      },
      "reference": "ChIJS4WxuZhbwokRknhVLeGjtdg",
      "scope": "GOOGLE",
      "types": [
        "store",
        "point_of_interest",
        "establishment"
      ],
      "vicinity": "964 Dean Street, Brooklyn"
    },
    {
      "business_status": "OPERATIONAL",
      "geometry": {
        "location": {
          "lat": 40.6795988,
          "lng": -73.95811680000001
        },
        "viewport": {
          "northeast": {
            "lat": 40.6810092802915,
            "lng": -73.9567455697085
          },
          "southwest": {
            "lat": 40.6783113197085,
            "lng": -73.95944353029151
          }
        }
      },
      "icon": "https://maps.gstatic.com/mapfiles/place_api/icons/v1/png_71/gas_station-71.png",
      "icon_background_color": "#909CE1",
      "icon_mask_base_uri": "https://maps.gstatic.com/mapfiles/place_api/icons/v2/gas_pinlet",
      "name": "Shell",
      "opening_hours": {
        "open_now": true
      },
      "photos": [
        {
          "height": 2448,
          "html_attributions": [
            "<a href=\"https://maps.google.com/maps/contrib/101930931999793382745\">Mariel Henkoff</a>"
          ],
          "photo_reference": "AeJbb3dRhJQkJEOosFue_XpvUzwAkqheBlmFPXhcMyOf71Z2X1_xsrMMT7iLzTYkCPR4En0Z1RMwQHUjut_iScPnPUZYHcyRU3-K2DG8QPbljCtta_bgA3rMvom_6NT4osQdB25_wHoQQQZBWOYq6Jv9KLmenLKN02jdmKnt48VKNb5y4kcX",
          "width": 3264
        }
      ],
      "place_id": "ChIJhzvi9JhbwokRFojBv73UjOE",
      "plus_code": {
        "compound_code": "M2HR+RQ New York, NY, USA",
        "global_code": "87G8M2HR+RQ"
      },
      "price_level": 2,
      "rating": 3.4,
      "reference": "ChIJhzvi9JhbwokRFojBv73UjOE",
      "scope": "GOOGLE",
      "types": [
        "gas_station",
        "atm",
        "convenience_store",
        "finance",
        "store",
        "food",
        "point_of_interest",
        "establishment"
      ],
      "user_ratings_total": 39,
      "vicinity": "1064 Atlantic Avenue, Brooklyn"
    },
    {
      "business_status": "OPERATIONAL",
      "geometry": {
        "location": {
          "lat": 40.6798904,
          "lng": -73.9533766
        },
        "viewport": {
          "northeast": {
            "lat": 40.6812428302915,
            "lng": -73.9519491697085
          },
          "southwest": {
            "lat": 40.6785448697085,
            "lng": -73.9546471302915
          }
        }
      },
      "icon": "https://maps.gstatic.com/mapfiles/place_api/icons/v1/png_71/generic_business-71.png",
      "icon_background_color": "#7B9EB0",
      "icon_mask_base_uri": "https://maps.gstatic.com/mapfiles/place_api/icons/v2/generic_pinlet",
      "name": "New York City Administration for Children's Services",
      "photos": [
        {
          "height": 3096,
          "html_attributions": [
            "<a href=\"https://maps.google.com/maps/contrib/105543858823285303663\">Roger Casanova</a>"
          ],
          "photo_reference": "AeJbb3dVQ5AdBnOngLLHrOFKOoNXXS8s5wV5a4QDzb9QKzL-6EjFYF7rDHpJCOROvU_Y0WMkfrjH0cdWM7wJkklcM2YXBmcEEaRuxwmz9Bs9pYNubmhUn2Yi60wgzi3sscI7c9pqDA8mRTaLSAntG4EHSGza9FXfxWIBZjxWVFNVm7Rjtjxa",
          "width": 4128
        }
      ],
      "place_id": "ChIJ20YNiJlbwokRhLykmk60NZM",
      "plus_code": {
        "compound_code": "M2HW+XJ New York, NY, USA",
        "global_code": "87G8M2HW+XJ"
      },
      "rating": 3,
      "reference": "ChIJ20YNiJlbwokRhLykmk60NZM",
      "scope": "GOOGLE",
      "types": [
        "point_of_interest",
        "establishment"
      ],
      "user_ratings_total": 73,
      "vicinity": "1274 Bedford Avenue, Brooklyn"
    },
    {
      "business_status": "CLOSED_TEMPORARILY",
      "geometry": {
        "location": {
          "lat": 40.6813148,
          "lng": -73.9573783
        },
        "viewport": {
          "northeast": {
            "lat": 40.68274803029151,
            "lng": -73.9559987197085
          },
          "southwest": {
            "lat": 40.68005006970851,
            "lng": -73.95869668029151
          }
        }
      },
      "icon": "https://maps.gstatic.com/mapfiles/place_api/icons/v1/png_71/bar-71.png",
      "icon_background_color": "#FF9E67",
      "icon_mask_base_uri": "https://maps.gstatic.com/mapfiles/place_api/icons/v2/bar_pinlet",
      "name": "Andew J Andres LLC",
      "permanently_closed": true,
      "place_id": "ChIJ6UWuOZhbwokRXqwh-9tHnUM",
      "plus_code": {
        "compound_code": "M2JV+G2 New York, NY, USA",
        "global_code": "87G8M2JV+G2"
      },
      "rating": 5,
      "reference": "ChIJ6UWuOZhbwokRXqwh-9tHnUM",
      "scope": "GOOGLE",
      "types": [
        "bar",
        "point_of_interest",
        "establishment"
      ],
      "user_ratings_total": 1,
      "vicinity": "1088 Fulton Street, Brooklyn"
    },
    {
      "business_status": "OPERATIONAL",
      "geometry": {
        "location": {
          "lat": 40.6785057,
          "lng": -73.9567833
        },
        "viewport": {
          "northeast": {
            "lat": 40.6799359802915,
            "lng": -73.95541176970849
          },
          "southwest": {
            "lat": 40.6772380197085,
            "lng": -73.95810973029151
          }
        }
      },
      "icon": "https://maps.gstatic.com/mapfiles/place_api/icons/v1/png_71/generic_business-71.png",
      "icon_background_color": "#7B9EB0",
      "icon_mask_base_uri": "https://maps.gstatic.com/mapfiles/place_api/icons/v2/generic_pinlet",
      "name": "Everett's HEAVENLY Funeral Home, Inc.",
      "place_id": "ChIJQ-6UM2p8wokRczjZQYsbIMw",
      "plus_code": {
        "compound_code": "M2HV+C7 Brooklyn, NY, USA",
        "global_code": "87G8M2HV+C7"
      },
      "reference": "ChIJQ-6UM2p8wokRczjZQYsbIMw",
      "scope": "GOOGLE",
      "types": [
        "funeral_home",
        "point_of_interest",
        "establishment"
      ],
      "vicinity": "1084 Pacific Street, Brooklyn"
    },
    {
      "business_status": "OPERATIONAL",
      "geometry": {
        "location": {
          "lat": 40.6811438,
          "lng": -73.95632069999999
        },
        "viewport": {
          "northeast": {
            "lat": 40.6825539302915,
            "lng": -73.95494951970849
          },
          "southwest": {
            "lat": 40.67985596970851,
            "lng": -73.9576474802915
          }
        }
      },
      "icon": "https://maps.gstatic.com/mapfiles/place_api/icons/v1/png_71/generic_business-71.png",
      "icon_background_color": "#7B9EB0",
      "icon_mask_base_uri": "https://maps.gstatic.com/mapfiles/place_api/icons/v2/generic_pinlet",
      "name": "Dr. Abraham Demoz, MD",
      "place_id": "ChIJE00fMphbwokRk8hsDlwRyIY",
      "plus_code": {
        "compound_code": "M2JV+FF New York, NY, USA",
        "global_code": "87G8M2JV+FF"
      },
      "rating": 4,
      "reference": "ChIJE00fMphbwokRk8hsDlwRyIY",
      "scope": "GOOGLE",
      "types": [
        "doctor",
        "health",
        "point_of_interest",
        "establishment"
      ],
      "user_ratings_total": 4,
      "vicinity": "1125 Fulton Street, Brooklyn"
    },
    {
      "business_status": "OPERATIONAL",
      "geometry": {
        "location": {
          "lat": 40.6798165,
          "lng": -73.959103
        },
        "viewport": {
          "northeast": {
            "lat": 40.6812202302915,
            "lng": -73.9577342697085
          },
          "southwest": {
            "lat": 40.6785222697085,
            "lng": -73.9604322302915
          }
        }
      },
      "icon": "https://maps.gstatic.com/mapfiles/place_api/icons/v1/png_71/generic_business-71.png",
      "icon_background_color": "#7B9EB0",
      "icon_mask_base_uri": "https://maps.gstatic.com/mapfiles/place_api/icons/v2/generic_pinlet",
      "name": "Leader Refrigeration USA",
      "opening_hours": {
        "open_now": false
      },
      "place_id": "ChIJAxc1gZhbwokR1WZMob8GqAo",
      "plus_code": {
        "compound_code": "M2HR+W9 Brooklyn, NY, USA",
        "global_code": "87G8M2HR+W9"
      },
      "rating": 3.3,
      "reference": "ChIJAxc1gZhbwokR1WZMob8GqAo",
      "scope": "GOOGLE",
      "types": [
        "point_of_interest",
        "establishment"
      ],
      "user_ratings_total": 26,
      "vicinity": "1034-1042, Atlantic Avenue, Brooklyn"
    },
    {
      "business_status": "OPERATIONAL",
      "geometry": {
        "location": {
          "lat": 40.6796556,
          "lng": -73.9564025
        },
        "viewport": {
          "northeast": {
            "lat": 40.6809367302915,
            "lng": -73.9550928197085
          },
          "southwest": {
            "lat": 40.6782387697085,
            "lng": -73.9577907802915
          }
        }
      },
      "icon": "https://maps.gstatic.com/mapfiles/place_api/icons/v1/png_71/generic_business-71.png",
      "icon_background_color": "#7B9EB0",
      "icon_mask_base_uri": "https://maps.gstatic.com/mapfiles/place_api/icons/v2/generic_pinlet",
      "name": "New York Christian Times",
      "place_id": "ChIJCQVmAJlbwokRLgTNxW0zyo8",
      "plus_code": {
        "compound_code": "M2HV+VC Brooklyn, NY, USA",
        "global_code": "87G8M2HV+VC"
      },
      "rating": 5,
      "reference": "ChIJCQVmAJlbwokRLgTNxW0zyo8",
      "scope": "GOOGLE",
      "types": [
        "church",
        "place_of_worship",
        "point_of_interest",
        "establishment"
      ],
      "user_ratings_total": 3,
      "vicinity": "1061 Atlantic Avenue, Brooklyn"
    },
    {
      "business_status": "OPERATIONAL",
      "geometry": {
        "location": {
          "lat": 40.67578689999999,
          "lng": -73.9563026
        },
        "viewport": {
          "northeast": {
            "lat": 40.6771622302915,
            "lng": -73.9548593197085
          },
          "southwest": {
            "lat": 40.6744642697085,
            "lng": -73.95755728029151
          }
        }
      },
      "icon": "https://maps.gstatic.com/mapfiles/place_api/icons/v1/png_71/generic_business-71.png",
      "icon_background_color": "#7B9EB0",
      "icon_mask_base_uri": "https://maps.gstatic.com/mapfiles/place_api/icons/v2/generic_pinlet",
      "name": "Vitamin \"D\" Workouts",
      "opening_hours": {
        "open_now": false
      },
      "place_id": "ChIJv3KM4J5bwokR63ZJPXvpQXc",
      "plus_code": {
        "compound_code": "M2GV+8F Brooklyn, NY, USA",
        "global_code": "87G8M2GV+8F"
      },
      "reference": "ChIJv3KM4J5bwokR63ZJPXvpQXc",
      "scope": "GOOGLE",
      "types": [
        "health",
        "point_of_interest",
        "establishment"
      ],
      "vicinity": "552 Saint Marks Avenue, Brooklyn"
    },
    {
      "business_status": "OPERATIONAL",
      "geometry": {
        "location": {
          "lat": 40.679232,
          "lng": -73.957607
        },
        "viewport": {
          "northeast": {
            "lat": 40.68076363029149,
            "lng": -73.95619186970849
          },
          "southwest": {
            "lat": 40.6780656697085,
            "lng": -73.9588898302915
          }
        }
      },
      "icon": "https://maps.gstatic.com/mapfiles/place_api/icons/v1/png_71/generic_business-71.png",
      "icon_background_color": "#7B9EB0",
      "icon_mask_base_uri": "https://maps.gstatic.com/mapfiles/place_api/icons/v2/generic_pinlet",
      "name": "B&M Cleanup Services, Inc.",
      "opening_hours": {
        "open_now": true
      },
      "photos": [
        {
          "height": 960,
          "html_attributions": [
            "<a href=\"https://maps.google.com/maps/contrib/112425900085285643168\">B&amp;M Cleanup Services, Inc.</a>"
          ],
          "photo_reference": "AeJbb3cvDvyt07QpYWlPRD58oJtlZUgCSEgpUYa2hQGVNjFIq906ZIfxIjiCatLQo0_OwTT-llblsuKcu32j7rqr0_VVRetJrbCWPd1Ac97jHObz3TWIbeysobndbncSshjrMexsPe1sqnP4AP87FdrBl6b9H0mpZ-7-IubYmC2bjNjSsIoC",
          "width": 960
        }
      ],
      "place_id": "ChIJb_tUoSRcwokR90f_4DlbnUs",
      "plus_code": {
        "compound_code": "M2HR+MX Brooklyn, NY, USA",
        "global_code": "87G8M2HR+MX"
      },
      "rating": 4.6,
      "reference": "ChIJb_tUoSRcwokR90f_4DlbnUs",
      "scope": "GOOGLE",
      "types": [
        "general_contractor",
        "point_of_interest",
        "establishment"
      ],
      "user_ratings_total": 33,
      "vicinity": "1072 Atlantic Avenue, Brooklyn"
    },
    {
      "business_status": "OPERATIONAL",
      "geometry": {
        "location": {
          "lat": 40.6778618,
          "lng": -73.9559282
        },
        "viewport": {
          "northeast": {
            "lat": 40.67912723029149,
            "lng": -73.9546135697085
          },
          "southwest": {
            "lat": 40.67642926970849,
            "lng": -73.9573115302915
          }
        }
      },
      "icon": "https://maps.gstatic.com/mapfiles/place_api/icons/v1/png_71/generic_business-71.png",
      "icon_background_color": "#13B5C7",
      "icon_mask_base_uri": "https://maps.gstatic.com/mapfiles/place_api/icons/v2/generic_pinlet",
      "name": "Sure Shot Nyc Events",
      "photos": [
        {
          "height": 682,
          "html_attributions": [
            "<a href=\"https://maps.google.com/maps/contrib/102538478232604149650\">Sure Shot Nyc Events</a>"
          ],
          "photo_reference": "AeJbb3dgVnTH4KD1Vx45axSNyeE09QhR2lawNSxxRFjnhods5btb2nc31vYYOPmQhpU7ynyQLjCHDRiARTK65Qd5zAnWrWX1T2_lF-yMu4NH2ZwVDHWcU5KqudMIzGczJfUuOrQ4hYouJrmFxb8Dslw7IGms5bJ_vg2pcQEVMQh0m7Ilcgec",
          "width": 1024
        }
      ],
      "place_id": "ChIJ22gE2JhbwokR6FCfCI_6YbY",
      "plus_code": {
        "compound_code": "M2HV+4J New York, NY, USA",
        "global_code": "87G8M2HV+4J"
      },
      "reference": "ChIJ22gE2JhbwokR6FCfCI_6YbY",
      "scope": "GOOGLE",
      "types": [
        "point_of_interest",
        "establishment"
      ],
      "vicinity": "1035 Dean Street, Brooklyn"
    },
    {
      "business_status": "OPERATIONAL",
      "geometry": {
        "location": {
          "lat": 40.67842269999999,
          "lng": -73.95899179999999
        },
        "viewport": {
          "northeast": {
            "lat": 40.6797521302915,
            "lng": -73.95774846970849
          },
          "southwest": {
            "lat": 40.6770541697085,
            "lng": -73.96044643029151
          }
        }
      },
      "icon": "https://maps.gstatic.com/mapfiles/place_api/icons/v1/png_71/generic_business-71.png",
      "icon_background_color": "#7B9EB0",
      "icon_mask_base_uri": "https://maps.gstatic.com/mapfiles/place_api/icons/v2/generic_pinlet",
      "name": "Reliant Electrical",
      "opening_hours": {
        "open_now": true
      },
      "place_id": "ChIJ6adPo5hbwokRaHRIKWvLcDQ",
      "plus_code": {
        "compound_code": "M2HR+9C Brooklyn, NY, USA",
        "global_code": "87G8M2HR+9C"
      },
      "rating": 3.6,
      "reference": "ChIJ6adPo5hbwokRaHRIKWvLcDQ",
      "scope": "GOOGLE",
      "types": [
        "electrician",
        "point_of_interest",
        "establishment"
      ],
      "user_ratings_total": 15,
      "vicinity": "628 Classon Avenue, Brooklyn"
    },
    {
      "business_status": "OPERATIONAL",
      "geometry": {
        "location": {
          "lat": 40.6812939,
          "lng": -73.9558706
        },
        "viewport": {
          "northeast": {
            "lat": 40.6825958302915,
            "lng": -73.95458016970849
          },
          "southwest": {
            "lat": 40.6798978697085,
            "lng": -73.9572781302915
          }
        }
      },
      "icon": "https://maps.gstatic.com/mapfiles/place_api/icons/v1/png_71/restaurant-71.png",
      "icon_background_color": "#FF9E67",
      "icon_mask_base_uri": "https://maps.gstatic.com/mapfiles/place_api/icons/v2/restaurant_pinlet",
      "name": "Crown Fried Chicken & Pizza",
      "opening_hours": {
        "open_now": true
      },
      "photos": [
        {
          "height": 796,
          "html_attributions": [
            "<a href=\"https://maps.google.com/maps/contrib/112055303412828749444\">Crown Fried Chicken &amp; Pizza</a>"
          ],
          "photo_reference": "AeJbb3casjeHOnxeWGEOXM1AjlsVqM-sYbjBlsOf4N03X8gULBJuBmbWT1PmHhXyyebsA43vcr1Zvo46YF2OC7TBmo-WcBLbH8SbVx1TpJcB5T__bQD3yjLAQuCHIa0Ue7uSz88_vlzowY6367GceAHkZnGRFtJ7Ptd04T4fRNDgS8EnRa09",
          "width": 848
        }
      ],
      "place_id": "ChIJtVgFWoVbwokRs40DV8KP5Y8",
      "plus_code": {
        "compound_code": "M2JV+GM New York, NY, USA",
        "global_code": "87G8M2JV+GM"
      },
      "price_level": 1,
      "rating": 3.9,
      "reference": "ChIJtVgFWoVbwokRs40DV8KP5Y8",
      "scope": "GOOGLE",
      "types": [
        "restaurant",
        "food",
        "point_of_interest",
        "establishment"
      ],
      "user_ratings_total": 34,
      "vicinity": "1147 Fulton Street, Brooklyn"
    },
    {
      "business_status": "OPERATIONAL",
      "geometry": {
        "location": {
          "lat": 40.67658199999999,
          "lng": -73.9527897
        },
        "viewport": {
          "northeast": {
            "lat": 40.6779656302915,
            "lng": -73.95142126970849
          },
          "southwest": {
            "lat": 40.6752676697085,
            "lng": -73.95411923029151
          }
        }
      },
      "icon": "https://maps.gstatic.com/mapfiles/place_api/icons/v1/png_71/park-71.png",
      "icon_background_color": "#4DB546",
      "icon_mask_base_uri": "https://maps.gstatic.com/mapfiles/place_api/icons/v2/tree_pinlet",
      "name": "Grant Gore",
      "opening_hours": {
        "open_now": true
      },
      "photos": [
        {
          "height": 4000,
          "html_attributions": [
            "<a href=\"https://maps.google.com/maps/contrib/100797509610872199525\">Haisam Ido</a>"
          ],
          "photo_reference": "AeJbb3eeDO2BLxn2nTbTW_uMizSOgDslr-JiMdvJqPfirshq8HhcLAcD79hp4HHijk7lhCwOKMCQFcfLSfT9v9Kl62SQxvN_Z5MeZQV9VpXAXuqyIqWLVA0TSj7V5x-Z9XpgNCC2Ooi-bU7KGKwgWHQoLTPRO7ZnSYnNaL4nThtKfSW2AqQ",
          "width": 3000
        }
      ],
      "place_id": "ChIJ1X8PCJxbwokRbjUXYnGT1BE",
      "plus_code": {
        "compound_code": "M2GW+JV Brooklyn, NY, USA",
        "global_code": "87G8M2GW+JV"
      },
      "rating": 4,
      "reference": "ChIJ1X8PCJxbwokRbjUXYnGT1BE",
      "scope": "GOOGLE",
      "types": [
        "park",
        "tourist_attraction",
        "point_of_interest",
        "establishment"
      ],
      "user_ratings_total": 36,
      "vicinity": "Bedford Avenue, Brooklyn"
    },
    {
      "business_status": "CLOSED_TEMPORARILY",
      "geometry": {
        "location": {
          "lat": 40.67644540000001,
          "lng": -73.95210089999999
        },
        "viewport": {
          "northeast": {
            "lat": 40.6776813802915,
            "lng": -73.95076256970849
          },
          "southwest": {
            "lat": 40.6749834197085,
            "lng": -73.9534605302915
          }
        }
      },
      "icon": "https://maps.gstatic.com/mapfiles/place_api/icons/v1/png_71/generic_business-71.png",
      "icon_background_color": "#7B9EB0",
      "icon_mask_base_uri": "https://maps.gstatic.com/mapfiles/place_api/icons/v2/generic_pinlet",
      "name": "BCJ Management Services Inc.",
      "permanently_closed": true,
      "place_id": "ChIJHRIkdZxbwokRfaVwb24qus0",
      "plus_code": {
        "compound_code": "M2GX+H5 New York, NY, USA",
        "global_code": "87G8M2GX+H5"
      },
      "reference": "ChIJHRIkdZxbwokRfaVwb24qus0",
      "scope": "GOOGLE",
      "types": [
        "general_contractor",
        "accounting",
        "finance",
        "point_of_interest",
        "establishment"
      ],
      "vicinity": "1039 Bergen Street, Brooklyn"
    },
    {
      "business_status": "OPERATIONAL",
      "geometry": {
        "location": {
          "lat": 40.67922900000001,
          "lng": -73.9570191
        },
        "viewport": {
          "northeast": {
            "lat": 40.6807059302915,
            "lng": -73.95562311970849
          },
          "southwest": {
            "lat": 40.6780079697085,
            "lng": -73.95832108029151
          }
        }
      },
      "icon": "https://maps.gstatic.com/mapfiles/place_api/icons/v1/png_71/generic_business-71.png",
      "icon_background_color": "#7B9EB0",
      "icon_mask_base_uri": "https://maps.gstatic.com/mapfiles/place_api/icons/v2/generic_pinlet",
      "name": "Alchemy Paintworks LLC",
      "opening_hours": {
        "open_now": false
      },
      "place_id": "ChIJjYLkIP9bwokRGEbxz-kowpM",
      "plus_code": {
        "compound_code": "M2HV+M5 New York, NY, USA",
        "global_code": "87G8M2HV+M5"
      },
      "rating": 5,
      "reference": "ChIJjYLkIP9bwokRGEbxz-kowpM",
      "scope": "GOOGLE",
      "types": [
        "point_of_interest",
        "establishment"
      ],
      "user_ratings_total": 1,
      "vicinity": "1093 Pacific Street #1c, Brooklyn"
    },
    {
      "business_status": "OPERATIONAL",
      "geometry": {
        "location": {
          "lat": 40.67719679999999,
          "lng": -73.95659789999999
        },
        "viewport": {
          "northeast": {
            "lat": 40.67845013029149,
            "lng": -73.9552838197085
          },
          "southwest": {
            "lat": 40.6757521697085,
            "lng": -73.9579817802915
          }
        }
      },
      "icon": "https://maps.gstatic.com/mapfiles/place_api/icons/v1/png_71/generic_business-71.png",
      "icon_background_color": "#7B9EB0",
      "icon_mask_base_uri": "https://maps.gstatic.com/mapfiles/place_api/icons/v2/generic_pinlet",
      "name": "The Heritage Consortium LLC",
      "place_id": "ChIJlxVP1Z5bwokRjAqURiLlG70",
      "plus_code": {
        "compound_code": "M2GV+V9 New York, NY, USA",
        "global_code": "87G8M2GV+V9"
      },
      "reference": "ChIJlxVP1Z5bwokRjAqURiLlG70",
      "scope": "GOOGLE",
      "types": [
        "point_of_interest",
        "establishment"
      ],
      "vicinity": "925 Bergen Street, Brooklyn"
    },
    {
      "business_status": "CLOSED_TEMPORARILY",
      "geometry": {
        "location": {
          "lat": 40.6785196,
          "lng": -73.9590807
        },
        "viewport": {
          "northeast": {
            "lat": 40.6797830802915,
            "lng": -73.9577929197085
          },
          "southwest": {
            "lat": 40.6770851197085,
            "lng": -73.9604908802915
          }
        }
      },
      "icon": "https://maps.gstatic.com/mapfiles/place_api/icons/v1/png_71/generic_business-71.png",
      "icon_background_color": "#7B9EB0",
      "icon_mask_base_uri": "https://maps.gstatic.com/mapfiles/place_api/icons/v2/generic_pinlet",
      "name": "D & H Contracting",
      "permanently_closed": true,
      "place_id": "ChIJ6adPo5hbwokRoyNAWYA2_Mc",
      "plus_code": {
        "compound_code": "M2HR+C9 Brooklyn, NY, USA",
        "global_code": "87G8M2HR+C9"
      },
      "reference": "ChIJ6adPo5hbwokRoyNAWYA2_Mc",
      "scope": "GOOGLE",
      "types": [
        "general_contractor",
        "point_of_interest",
        "establishment"
      ],
      "vicinity": "628 Classon Avenue, Brooklyn"
    },
    {
      "business_status": "OPERATIONAL",
      "geometry": {
        "location": {
          "lat": 40.6777079,
          "lng": -73.9573077
        },
        "viewport": {
          "northeast": {
            "lat": 40.67920478029149,
            "lng": -73.95604346970849
          },
          "southwest": {
            "lat": 40.67650681970849,
            "lng": -73.95874143029151
          }
        }
      },
      "icon": "https://maps.gstatic.com/mapfiles/place_api/icons/v1/png_71/generic_business-71.png",
      "icon_background_color": "#7B9EB0",
      "icon_mask_base_uri": "https://maps.gstatic.com/mapfiles/place_api/icons/v2/generic_pinlet",
      "name": "nC2 architecture llc",
      "opening_hours": {
        "open_now": false
      },
      "photos": [
        {
          "height": 609,
          "html_attributions": [
            "<a href=\"https://maps.google.com/maps/contrib/115250768288401979223\">nC2 architecture llc</a>"
          ],
          "photo_reference": "AeJbb3f-zJxPNJ-Kre2sUht9z7FMc6hiGWUYri2zoJszPs4wGkRKKxNc7ixL4VOdmi5B8IYMN2QIoaMv1DKXoSPJWBk1MMF-GGh4dmRg0ssprQ0Xu7UkqNQIxYGDCEdm3s38GuCb3fgVZSEtspnaSZAIGMcSa0Z-K0Jz35Iq5iY-nefyV8ib",
          "width": 850
        }
      ],
      "place_id": "ChIJhSMzu0VawokRNf8T0cwKVGQ",
      "plus_code": {
        "compound_code": "M2HV+33 New York, NY, USA",
        "global_code": "87G8M2HV+33"
      },
      "rating": 5,
      "reference": "ChIJhSMzu0VawokRNf8T0cwKVGQ",
      "scope": "GOOGLE",
      "types": [
        "general_contractor",
        "point_of_interest",
        "establishment"
      ],
      "user_ratings_total": 2,
      "vicinity": "1000 Dean Street Suite 220, Brooklyn"
    },
    {
      "business_status": "OPERATIONAL",
      "geometry": {
        "location": {
          "lat": 40.6777779,
          "lng": -73.9559324
        },
        "viewport": {
          "northeast": {
            "lat": 40.67908388029149,
            "lng": -73.95459991970849
          },
          "southwest": {
            "lat": 40.6763859197085,
            "lng": -73.9572978802915
          }
        }
      },
      "icon": "https://maps.gstatic.com/mapfiles/place_api/icons/v1/png_71/generic_business-71.png",
      "icon_background_color": "#7B9EB0",
      "icon_mask_base_uri": "https://maps.gstatic.com/mapfiles/place_api/icons/v2/generic_pinlet",
      "name": "Nichols Realty",
      "place_id": "ChIJA1XDJJlbwokROoVeMAEgBAM",
      "plus_code": {
        "compound_code": "M2HV+4J Brooklyn, NY, USA",
        "global_code": "87G8M2HV+4J"
      },
      "reference": "ChIJA1XDJJlbwokROoVeMAEgBAM",
      "scope": "GOOGLE",
      "types": [
        "real_estate_agency",
        "point_of_interest",
        "establishment"
      ],
      "vicinity": "1035 Dean Street #1, Brooklyn"
    },
    {
      "business_status": "OPERATIONAL",
      "geometry": {
        "location": {
          "lat": 40.68020360000001,
          "lng": -73.9548722
        },
        "viewport": {
          "northeast": {
            "lat": 40.6814668802915,
            "lng": -73.9535048697085
          },
          "southwest": {
            "lat": 40.67876891970851,
            "lng": -73.9562028302915
          }
        }
      },
      "icon": "https://maps.gstatic.com/mapfiles/place_api/icons/v1/png_71/generic_business-71.png",
      "icon_background_color": "#7B9EB0",
      "icon_mask_base_uri": "https://maps.gstatic.com/mapfiles/place_api/icons/v2/generic_pinlet",
      "name": "Black Lion Entertainment Music Group",
      "opening_hours": {
        "open_now": false
      },
      "photos": [
        {
          "height": 357,
          "html_attributions": [
            "<a href=\"https://maps.google.com/maps/contrib/115749739533989454151\">Black Lion Entertainment Music Group</a>"
          ],
          "photo_reference": "AeJbb3cqb-fOrYqyvEipCm-ZZjK-quow7_tXLCcc3fXc8VHcwPBeprufDCc5E41POE_zXBIrPRVQmxgj8YIwIbJdV6aevZ_rxhPxtxHZokTOpmQb0x_ykZkCub8NVqBi1Hm9xjg96xMxza0AsVF3y39i8-695gFpW_bWLTY7Cn7cBmfdD3Aq",
          "width": 500
        }
      ],
      "place_id": "ChIJ4ebhyf9cwokRZn9mmEtS2XM",
      "plus_code": {
        "compound_code": "M2JW+33 Brooklyn, NY, USA",
        "global_code": "87G8M2JW+33"
      },
      "rating": 5,
      "reference": "ChIJ4ebhyf9cwokRZn9mmEtS2XM",
      "scope": "GOOGLE",
      "types": [
        "point_of_interest",
        "establishment"
      ],
      "user_ratings_total": 1,
      "vicinity": "13 Brevoort Place, Brooklyn"
    },
    {
      "business_status": "OPERATIONAL",
      "geometry": {
        "location": {
          "lat": 40.6771912,
          "lng": -73.9565173
        },
        "viewport": {
          "northeast": {
            "lat": 40.67843928029149,
            "lng": -73.95520516970849
          },
          "southwest": {
            "lat": 40.6757413197085,
            "lng": -73.95790313029151
          }
        }
      },
      "icon": "https://maps.gstatic.com/mapfiles/place_api/icons/v1/png_71/generic_business-71.png",
      "icon_background_color": "#7B9EB0",
      "icon_mask_base_uri": "https://maps.gstatic.com/mapfiles/place_api/icons/v2/generic_pinlet",
      "name": "Cahill Bros",
      "opening_hours": {
        "open_now": false
      },
      "place_id": "ChIJN-Vs1Z5bwokRyGsoYTIRsRU",
      "plus_code": {
        "compound_code": "M2GV+V9 New York, NY, USA",
        "global_code": "87G8M2GV+V9"
      },
      "rating": 5,
      "reference": "ChIJN-Vs1Z5bwokRyGsoYTIRsRU",
      "scope": "GOOGLE",
      "types": [
        "point_of_interest",
        "establishment"
      ],
      "user_ratings_total": 1,
      "vicinity": "925 Bergen Street, Brooklyn"
    },
    {
      "business_status": "OPERATIONAL",
      "geometry": {
        "location": {
          "lat": 40.67727439999999,
          "lng": -73.9554252
        },
        "viewport": {
          "northeast": {
            "lat": 40.6786399302915,
            "lng": -73.95415626970849
          },
          "southwest": {
            "lat": 40.6759419697085,
            "lng": -73.9568542302915
          }
        }
      },
      "icon": "https://maps.gstatic.com/mapfiles/place_api/icons/v1/png_71/restaurant-71.png",
      "icon_background_color": "#FF9E67",
      "icon_mask_base_uri": "https://maps.gstatic.com/mapfiles/place_api/icons/v2/restaurant_pinlet",
      "name": "The Crabby Shack",
      "opening_hours": {
        "open_now": true
      },
      "photos": [
        {
          "height": 3036,
          "html_attributions": [
            "<a href=\"https://maps.google.com/maps/contrib/111093122618978092197\">Father Of Legends</a>"
          ],
          "photo_reference": "AeJbb3eT7J1DZpXw_xRxmtdoXCNHeCx7WHWCK6oSChAFMOuFFAAvXzSCTZa45MY-avUGJbLX0iTY5RORlssUcwLbJWwhle4WWnqC2D3NkqmO3ZOWSUvdSlYRrh6yl-Whajn7KFRndfod3Aqtn6i6so9S0SdjE4zqkVcIIogE9iIdMtib_Eox",
          "width": 4048
        }
      ],
      "place_id": "ChIJh-O2NplbwokRzx8psInbPTk",
      "plus_code": {
        "compound_code": "M2GV+WR New York, NY, USA",
        "global_code": "87G8M2GV+WR"
      },
      "price_level": 2,
      "rating": 4.3,
      "reference": "ChIJh-O2NplbwokRzx8psInbPTk",
      "scope": "GOOGLE",
      "types": [
        "restaurant",
        "food",
        "point_of_interest",
        "establishment"
      ],
      "user_ratings_total": 1260,
      "vicinity": "613 Franklin Avenue, Brooklyn"
    },
    {
      "business_status": "OPERATIONAL",
      "geometry": {
        "location": {
          "lat": 40.6776081,
          "lng": -73.95634729999999
        },
        "viewport": {
          "northeast": {
            "lat": 40.6790420802915,
            "lng": -73.9550418697085
          },
          "southwest": {
            "lat": 40.6763441197085,
            "lng": -73.9577398302915
          }
        }
      },
      "icon": "https://maps.gstatic.com/mapfiles/place_api/icons/v1/png_71/generic_business-71.png",
      "icon_background_color": "#7B9EB0",
      "icon_mask_base_uri": "https://maps.gstatic.com/mapfiles/place_api/icons/v2/generic_pinlet",
      "name": "10 Grand Press",
      "place_id": "ChIJf36YKJlbwokR8AbnkKOH2KI",
      "plus_code": {
        "compound_code": "M2HV+2F Brooklyn, NY, USA",
        "global_code": "87G8M2HV+2F"
      },
      "rating": 5,
      "reference": "ChIJf36YKJlbwokR8AbnkKOH2KI",
      "scope": "GOOGLE",
      "types": [
        "point_of_interest",
        "establishment"
      ],
      "user_ratings_total": 1,
      "vicinity": "1024 Dean Street #3, Brooklyn"
    },
    {
      "business_status": "OPERATIONAL",
      "geometry": {
        "location": {
          "lat": 40.67719679999999,
          "lng": -73.95659789999999
        },
        "viewport": {
          "northeast": {
            "lat": 40.67845013029149,
            "lng": -73.9552838197085
          },
          "southwest": {
            "lat": 40.6757521697085,
            "lng": -73.9579817802915
          }
        }
      },
      "icon": "https://maps.gstatic.com/mapfiles/place_api/icons/v1/png_71/generic_business-71.png",
      "icon_background_color": "#7B9EB0",
      "icon_mask_base_uri": "https://maps.gstatic.com/mapfiles/place_api/icons/v2/generic_pinlet",
      "name": "Belladonna Series",
      "place_id": "ChIJQ0OtKp9bwokR8o4VdzHfY_8",
      "plus_code": {
        "compound_code": "M2GV+V9 New York, NY, USA",
        "global_code": "87G8M2GV+V9"
      },
      "rating": 5,
      "reference": "ChIJQ0OtKp9bwokR8o4VdzHfY_8",
      "scope": "GOOGLE",
      "types": [
        "point_of_interest",
        "establishment"
      ],
      "user_ratings_total": 1,
      "vicinity": "925 Bergen Street #405, Brooklyn"
    },
    {
      "business_status": "OPERATIONAL",
      "geometry": {
        "location": {
          "lat": 40.67719679999999,
          "lng": -73.95659789999999
        },
        "viewport": {
          "northeast": {
            "lat": 40.67845013029149,
            "lng": -73.9552838197085
          },
          "southwest": {
            "lat": 40.6757521697085,
            "lng": -73.9579817802915
          }
        }
      },
      "icon": "https://maps.gstatic.com/mapfiles/place_api/icons/v1/png_71/generic_business-71.png",
      "icon_background_color": "#7B9EB0",
      "icon_mask_base_uri": "https://maps.gstatic.com/mapfiles/place_api/icons/v2/generic_pinlet",
      "name": "Litmus Press",
      "place_id": "ChIJQ0OtKp9bwokRSPf9O6OC6xw",
      "plus_code": {
        "compound_code": "M2GV+V9 New York, NY, USA",
        "global_code": "87G8M2GV+V9"
      },
      "reference": "ChIJQ0OtKp9bwokRSPf9O6OC6xw",
      "scope": "GOOGLE",
      "types": [
        "point_of_interest",
        "establishment"
      ],
      "vicinity": "925 Bergen Street #405, Brooklyn"
    },
    {
      "business_status": "OPERATIONAL",
      "geometry": {
        "location": {
          "lat": 40.67719679999999,
          "lng": -73.95659789999999
        },
        "viewport": {
          "northeast": {
            "lat": 40.67845013029149,
            "lng": -73.9552838197085
          },
          "southwest": {
            "lat": 40.6757521697085,
            "lng": -73.9579817802915
          }
        }
      },
      "icon": "https://maps.gstatic.com/mapfiles/place_api/icons/v1/png_71/generic_business-71.png",
      "icon_background_color": "#7B9EB0",
      "icon_mask_base_uri": "https://maps.gstatic.com/mapfiles/place_api/icons/v2/generic_pinlet",
      "name": "+ Lab Architect",
      "place_id": "ChIJlxVP1Z5bwokRAvpSc_sncZs",
      "plus_code": {
        "compound_code": "M2GV+V9 Brooklyn, NY, USA",
        "global_code": "87G8M2GV+V9"
      },
      "reference": "ChIJlxVP1Z5bwokRAvpSc_sncZs",
      "scope": "GOOGLE",
      "types": [
        "point_of_interest",
        "establishment"
      ],
      "vicinity": "925 Bergen Street, Brooklyn"
    },
    {
      "business_status": "CLOSED_TEMPORARILY",
      "geometry": {
        "location": {
          "lat": 40.67859989999999,
          "lng": -73.9589659
        },
        "viewport": {
          "northeast": {
            "lat": 40.6799186302915,
            "lng": -73.9575089197085
          },
          "southwest": {
            "lat": 40.6772206697085,
            "lng": -73.96020688029151
          }
        }
      },
      "icon": "https://maps.gstatic.com/mapfiles/place_api/icons/v1/png_71/generic_business-71.png",
      "icon_background_color": "#7B9EB0",
      "icon_mask_base_uri": "https://maps.gstatic.com/mapfiles/place_api/icons/v2/generic_pinlet",
      "name": "Global Industry",
      "permanently_closed": true,
      "place_id": "ChIJp1PkoJhbwokReUALPSXo0C0",
      "plus_code": {
        "compound_code": "M2HR+CC Brooklyn, NY, USA",
        "global_code": "87G8M2HR+CC"
      },
      "reference": "ChIJp1PkoJhbwokReUALPSXo0C0",
      "scope": "GOOGLE",
      "types": [
        "point_of_interest",
        "establishment"
      ],
      "vicinity": "925 Dean Street, Brooklyn"
    }
  ],
  "status": "OK"
}