{
  "html_attributions": [],
  "results": [
    {
      "geometry": {
        "location": {
          "lat": 40.7127753,
          "lng": -74.0059728
        },
        "viewport": {
          "northeast": {
            "lat": 40.91757705070789,
            "lng": -73.70027206817629
          },
          "southwest": {
            "lat": 40.47739906045452,
            "lng": -74.25908991427882
          }
        }
      },
      "icon": "https://maps.gstatic.com/mapfiles/place_api/icons/v1/png_71/geocode-71.png",
      "icon_background_color": "#7B9EB0",
      "icon_mask_base_uri": "https://maps.gstatic.com/mapfiles/place_api/icons/v2/generic_pinlet",
      "name": "\u7d10\u7d04",
      "photos": [
        {
          "height": 600,
          "html_attributions": [
            "<a href=\"https://maps.google.com/maps/contrib/102389334567210814614\">Bukurie</a>"
          ],
          "photo_reference": "AeJbb3dzuiCRIokvnz2ImNTk3cbssVrEr-4DDLibPvgBNfmtYJPOs9FjjObwI18Q0sLGDAnursvkvLtBFuZsyLa9M_4QKt9qMfPo5Od7mbBOZPWz2UZ6p-WAm0q-zW6U4O7XpFDGzVlpVIwcbNPqpZl6kdOr3bL5FHlVlfXQpS1PYqf1ch1r",
          "width": 480
        }
      ],
      "place_id": "ChIJOwg_06VPwokRYv534QaPC8g",
      "reference": "ChIJOwg_06VPwokRYv534QaPC8g",
      "scope": "GOOGLE",
      "types": [
        "locality",
        "political"
      ],
      "vicinity": "\u7d10\u7d04"
    },
    {
      "business_status": "OPERATIONAL",
      "geometry": {
        "location": {
          "lat": 40.7403942,
          "lng": -73.9723695
        },
        "viewport": {
          "northeast": {
            "lat": 40.7417487802915,
            "lng": -73.9711357697085
          },
          "southwest": {
            "lat": 40.7390508197085,
            "lng": -73.9738337302915
          }
        }
      },
      "icon": "https://maps.gstatic.com/mapfiles/place_api/icons/v1/png_71/generic_business-71.png",
      "icon_background_color": "#7B9EB0",
      "icon_mask_base_uri": "https://maps.gstatic.com/mapfiles/place_api/icons/v2/generic_pinlet",
      "name": "The Water Club",
      "opening_hours": {
        "open_now": true
      },
      "photos": [
        {
          "height": 945,
          "html_attributions": [
            "<a href=\"https://maps.google.com/maps/contrib/105628166879346404792\">The Water Club</a>"
          ],
          "photo_reference": "AeJbb3dltJW9gmobTGuqZuWR-isRy_0WO3O6hckizAM8Tft9dUjbwYDcvBL24TFuy8hAyDe2Va0qHhp2BkzfiXBpTFTQ4TZONGcyzKVow32VX9a8r40-VhFLF4-M8NhPCUNa4roZYLxXkQOTI22H3mnSw-oKi4IpN70Wkfp8BgWURZGuc7Xx",
          "width": 1174
        }
      ],
      "place_id": "ChIJ0wFhOQ5ZwokRU8P93msecs4",
      "plus_code": {
        "compound_code": "P2RH+53 \u7f8e\u570b\u7d10\u7d04",
        "global_code": "87G8P2RH+53"
      },
      "price_level": 3,
      "rating": 4.4,
      "reference": "ChIJ0wFhOQ5ZwokRU8P93msecs4",
      "scope": "GOOGLE",
      "types": [
        "bar",
        "food",
        "point_of_interest",
        "establishment"
      ],
      "user_ratings_total": 424,
      "vicinity": "500 East 30th Street, New York"
    },
    {
      "business_status": "OPERATIONAL",
      "geometry": {
        "location": {
          "lat": 40.7424641,
          "lng": -73.9770711
        },
        "viewport": {
          "northeast": {
            "lat": 40.7436802302915,
            "lng": -73.97589211970849
          },
          "southwest": {
            "lat": 40.7409822697085,
            "lng": -73.9785900802915
          }
        }
      },
      "icon": "https://maps.gstatic.com/mapfiles/place_api/icons/v1/png_71/shopping-71.png",
      "icon_background_color": "#4B96F3",
      "icon_mask_base_uri": "https://maps.gstatic.com/mapfiles/place_api/icons/v2/shoppingcart_pinlet",
      "name": "Fairway Market Kips Bay",
      "opening_hours": {
        "open_now": true
      },
      "photos": [
        {
          "height": 4492,
          "html_attributions": [
            "<a href=\"https://maps.google.com/maps/contrib/102434455647808057309\">Fairway Market Kips Bay</a>"
          ],
          "photo_reference": "AeJbb3e-LFykMjz2ofMEFu-UV8WpRHosz3f4tt1Joq79oE8rODCC7ET1cvKCSa7okdDnQ43DgGohzJhRn6FaAurOtdZ4M_TQ5Tu7zEmNPSH89ETYeqZJc0icHkds02DR9v-P-aXSszuiBkL05E_NClUjMnygKi_SSHrDBfziBCVIylAlIeqY",
          "width": 6731
        }
      ],
      "place_id": "ChIJVY3s0ghZwokR6e1D8qjJL1k",
      "plus_code": {
        "compound_code": "P2RF+X5 \u7f8e\u570b\u7d10\u7d04",
        "global_code": "87G8P2RF+X5"
      },
      "price_level": 2,
      "rating": 4.3,
      "reference": "ChIJVY3s0ghZwokR6e1D8qjJL1k",
      "scope": "GOOGLE",
      "types": [
        "grocery_or_supermarket",
        "supermarket",
        "cafe",
        "food",
        "point_of_interest",
        "store",
        "establishment"
      ],
      "user_ratings_total": 2078,
      "vicinity": "550 2nd Avenue, New York"
    },
    {
      "business_status": "OPERATIONAL",
      "geometry": {
        "location": {
          "lat": 40.7428738,
          "lng": -73.9768627
        },
        "viewport": {
          "northeast": {
            "lat": 40.7440978302915,
            "lng": -73.9756705697085
          },
          "southwest": {
            "lat": 40.7413998697085,
            "lng": -73.9783685302915
          }
        }
      },
      "icon": "https://maps.gstatic.com/mapfiles/place_api/icons/v1/png_71/movies-71.png",
      "icon_background_color": "#13B5C7",
      "icon_mask_base_uri": "https://maps.gstatic.com/mapfiles/place_api/icons/v2/movie_pinlet",
      "name": "AMC Kips Bay 15",
      "photos": [
        {
          "height": 317,
          "html_attributions": [
            "<a href=\"https://maps.google.com/maps/contrib/110845799757584304266\">AMC Kips Bay 15</a>"
          ],
          "photo_reference": "AeJbb3dw0o2L10lOwB5QUMMSobdGOBplHqtt10oDZlnDd_X6QCuXx-SsLKIdvPLuBIVXYRLrT45N_gsdaPiTP6mNU0v7NqfFuD_ujys8-91Y9HFsJfSCIzNkzBeCuC8-bd61b0bGgKuuCdcagc1ifgzjMP5DlXFFh-R3brVJ49W0sP0G4tis",
          "width": 565
        }
      ],
      "place_id": "ChIJUxriNA9ZwokRMKgICTh5kHQ",
      "plus_code": {
        "compound_code": "P2VF+47 \u7f8e\u570b\u7d10\u7d04",
        "global_code": "87G8P2VF+47"
      },
      "rating": 4.5,
      "reference": "ChIJUxriNA9ZwokRMKgICTh5kHQ",
      "scope": "GOOGLE",
      "types": [
        "movie_theater",
        "point_of_interest",
        "establishment"
      ],
      "user_ratings_total": 5040,
      "vicinity": "570 2nd Avenue, New York"
    },
    {
      "business_status": "OPERATIONAL",
      "geometry": {
        "location": {
          "lat": 40.7400445,
          "lng": -73.974369
        },
        "viewport": {
          "northeast": {
            "lat": 40.7413703802915,
            "lng": -73.9730370197085
          },
          "southwest": {
            "lat": 40.7386724197085,
            "lng": -73.9757349802915
          }
        }
      },
      "icon": "https://maps.gstatic.com/mapfiles/place_api/icons/v1/png_71/restaurant-71.png",
      "icon_background_color": "#FF9E67",
      "icon_mask_base_uri": "https://maps.gstatic.com/mapfiles/place_api/icons/v2/restaurant_pinlet",
      "name": "Riverpark",
      "opening_hours": {
        "open_now": false
      },
      "photos": [
        {
          "height": 995,
          "html_attributions": [
            "<a href=\"https://maps.google.com/maps/contrib/117580753827232357971\">Riverpark</a>"
          ],
          "photo_reference": "AeJbb3fpuh32J4dxZX5GNlugBGkQ3RZ9-QpY7j1ObjNW0xK8_FECQXaQ11Xj2PRdmJsuNuGh1KMW-XDlP8VTCWDaxtHwzCiqiFv6zTpp9S8UqpMXeAx_2ncbiC_hl1cm7UMspBhYf5h5L7LPP6nvX146PdLliuUWwh1TVBylc4DbXAecwoXq",
          "width": 1500
        }
      ],
      "place_id": "ChIJ5UozYw5ZwokRO4HaCJGvRPY",
      "plus_code": {
        "compound_code": "P2RG+27 \u7f8e\u570b\u7d10\u7d04",
        "global_code": "87G8P2RG+27"
      },
      "price_level": 3,
      "rating": 4.5,
      "reference": "ChIJ5UozYw5ZwokRO4HaCJGvRPY",
      "scope": "GOOGLE",
      "types": [
        "restaurant",
        "food",
        "point_of_interest",
        "establishment"
      ],
      "user_ratings_total": 717,
      "vicinity": "450 East 29th Street, New York"
    },
    {
      "business_status": "OPERATIONAL",
      "geometry": {
        "location": {
          "lat": 40.7451944,
          "lng": -73.97918349999999
        },
        "viewport": {
          "northeast": {
            "lat": 40.7465830302915,
            "lng": -73.9778050197085
          },
          "southwest": {
            "lat": 40.7438850697085,
            "lng": -73.9805029802915
          }
        }
      },
      "icon": "https://maps.gstatic.com/mapfiles/place_api/icons/v1/png_71/shopping-71.png",
      "icon_background_color": "#4B96F3",
      "icon_mask_base_uri": "https://maps.gstatic.com/mapfiles/place_api/icons/v2/shopping_pinlet",
      "name": "2nd Ave Deli",
      "opening_hours": {
        "open_now": true
      },
      "photos": [
        {
          "height": 2268,
          "html_attributions": [
            "<a href=\"https://maps.google.com/maps/contrib/112908797556357554379\">Lauren Eder</a>"
          ],
          "photo_reference": "AeJbb3dTa986V03F_kGNyLCxEm-Ui4ecCcDOy2Y1kb_JgOnnQ8qgK6ytuGmtLeyV__sSgH3TL0WIPeeR9fX5FbYlFmmTBVCjke5V37zxPZAD4gVpxFnz4Zwe6j-ZJXo97ZYgv4lHEeJ44x6MMzIKZSL6ExtWomIaVsg6PX-c9DdOzIJUP4ek",
          "width": 4032
        }
      ],
      "place_id": "ChIJt7eiMQZZwokRZgq-ovGJhxc",
      "plus_code": {
        "compound_code": "P2WC+38 \u7f8e\u570b\u7d10\u7d04",
        "global_code": "87G8P2WC+38"
      },
      "price_level": 3,
      "rating": 4.4,
      "reference": "ChIJt7eiMQZZwokRZgq-ovGJhxc",
      "scope": "GOOGLE",
      "types": [
        "restaurant",
        "food",
        "point_of_interest",
        "store",
        "establishment"
      ],
      "user_ratings_total": 1559,
      "vicinity": "162 East 33rd Street, New York"
    },
    {
      "business_status": "OPERATIONAL",
      "geometry": {
        "location": {
          "lat": 40.7416214,
          "lng": -73.9747436
        },
        "viewport": {
          "northeast": {
            "lat": 40.7430056302915,
            "lng": -73.97354306970848
          },
          "southwest": {
            "lat": 40.7403076697085,
            "lng": -73.9762410302915
          }
        }
      },
      "icon": "https://maps.gstatic.com/mapfiles/place_api/icons/v1/png_71/generic_business-71.png",
      "icon_background_color": "#7B9EB0",
      "icon_mask_base_uri": "https://maps.gstatic.com/mapfiles/place_api/icons/v2/generic_pinlet",
      "name": "Dr. Prashant Sinha, MD",
      "opening_hours": {
        "open_now": true
      },
      "place_id": "ChIJ-zShJAxZwokRstQ7UWCUe2Q",
      "plus_code": {
        "compound_code": "P2RG+J4 \u7f8e\u570b\u7d10\u7d04",
        "global_code": "87G8P2RG+J4"
      },
      "rating": 5,
      "reference": "ChIJ-zShJAxZwokRstQ7UWCUe2Q",
      "scope": "GOOGLE",
      "types": [
        "doctor",
        "health",
        "point_of_interest",
        "establishment"
      ],
      "user_ratings_total": 5,
      "vicinity": "530 1st Avenue, New York"
    },
    {
      "business_status": "OPERATIONAL",
      "geometry": {
        "location": {
          "lat": 40.7420674,
          "lng": -73.97426329999999
        },
        "viewport": {
          "northeast": {
            "lat": 40.74346928029149,
            "lng": -73.97312316970849
          },
          "southwest": {
            "lat": 40.7407713197085,
            "lng": -73.9758211302915
          }
        }
      },
      "icon": "https://maps.gstatic.com/mapfiles/place_api/icons/v1/png_71/generic_business-71.png",
      "icon_background_color": "#7B9EB0",
      "icon_mask_base_uri": "https://maps.gstatic.com/mapfiles/place_api/icons/v2/generic_pinlet",
      "name": "Lux Joseph Z MD",
      "place_id": "ChIJ-zShJAxZwokRdu9ABAPthZk",
      "plus_code": {
        "compound_code": "P2RG+R7 \u7f8e\u570b\u7d10\u7d04",
        "global_code": "87G8P2RG+R7"
      },
      "reference": "ChIJ-zShJAxZwokRdu9ABAPthZk",
      "scope": "GOOGLE",
      "types": [
        "doctor",
        "health",
        "point_of_interest",
        "establishment"
      ],
      "vicinity": "550 1st Avenue, New York"
    },
    {
      "business_status": "OPERATIONAL",
      "geometry": {
        "location": {
          "lat": 40.7420674,
          "lng": -73.97426329999999
        },
        "viewport": {
          "northeast": {
            "lat": 40.74346928029149,
            "lng": -73.97312316970849
          },
          "southwest": {
            "lat": 40.7407713197085,
            "lng": -73.9758211302915
          }
        }
      },
      "icon": "https://maps.gstatic.com/mapfiles/place_api/icons/v1/png_71/generic_business-71.png",
      "icon_background_color": "#7B9EB0",
      "icon_mask_base_uri": "https://maps.gstatic.com/mapfiles/place_api/icons/v2/generic_pinlet",
      "name": "George Kristinsson, M.D.",
      "place_id": "ChIJUyrmBQ9ZwokR1Caf0q8rBQA",
      "plus_code": {
        "compound_code": "P2RG+R7 \u7f8e\u570b\u7d10\u7d04",
        "global_code": "87G8P2RG+R7"
      },
      "reference": "ChIJUyrmBQ9ZwokR1Caf0q8rBQA",
      "scope": "GOOGLE",
      "types": [
        "doctor",
        "health",
        "point_of_interest",
        "establishment"
      ],
      "vicinity": "550 1st Avenue, New York"
    },
    {
      "business_status": "OPERATIONAL",
      "geometry": {
        "location": {
          "lat": 40.7426315,
          "lng": -73.97322319999999
        },
        "viewport": {
          "northeast": {
            "lat": 40.74466275000002,
            "lng": -73.97215090000002
          },
          "southwest": {
            "lat": 40.74052774999998,
            "lng": -73.97610289999999
          }
        }
      },
      "icon": "https://maps.gstatic.com/mapfiles/place_api/icons/v1/png_71/generic_business-71.png",
      "icon_background_color": "#7B9EB0",
      "icon_mask_base_uri": "https://maps.gstatic.com/mapfiles/place_api/icons/v2/generic_pinlet",
      "name": "Dr. Marc J. Bloom, MD",
      "place_id": "ChIJUyrmBQ9ZwokRQ6SqEEXKqI8",
      "plus_code": {
        "compound_code": "P2VG+3P \u7f8e\u570b\u7d10\u7d04",
        "global_code": "87G8P2VG+3P"
      },
      "reference": "ChIJUyrmBQ9ZwokRQ6SqEEXKqI8",
      "scope": "GOOGLE",
      "types": [
        "doctor",
        "health",
        "point_of_interest",
        "establishment"
      ],
      "vicinity": "550 1st Avenue, New York"
    },
    {
      "business_status": "OPERATIONAL",
      "geometry": {
        "location": {
          "lat": 40.7420674,
          "lng": -73.97426329999999
        },
        "viewport": {
          "northeast": {
            "lat": 40.74346928029149,
            "lng": -73.97312316970849
          },
          "southwest": {
            "lat": 40.7407713197085,
            "lng": -73.9758211302915
          }
        }
      },
      "icon": "https://maps.gstatic.com/mapfiles/place_api/icons/v1/png_71/generic_business-71.png",
      "icon_background_color": "#7B9EB0",
      "icon_mask_base_uri": "https://maps.gstatic.com/mapfiles/place_api/icons/v2/generic_pinlet",
      "name": "Dr. Jennifer H. Mieres, MD",
      "place_id": "ChIJUyrmBQ9ZwokR7JYaFt1bvWs",
      "plus_code": {
        "compound_code": "P2RG+R7 \u7f8e\u570b\u7d10\u7d04",
        "global_code": "87G8P2RG+R7"
      },
      "reference": "ChIJUyrmBQ9ZwokR7JYaFt1bvWs",
      "scope": "GOOGLE",
      "types": [
        "doctor",
        "health",
        "point_of_interest",
        "establishment"
      ],
      "vicinity": "550 1st Avenue, New York"
    },
    {
      "business_status": "OPERATIONAL",
      "geometry": {
        "location": {
          "lat": 40.7420674,
          "lng": -73.97426329999999
        },
        "viewport": {
          "northeast": {
            "lat": 40.74346928029149,
            "lng": -73.97312316970849
          },
          "southwest": {
            "lat": 40.7407713197085,
            "lng": -73.9758211302915
          }
        }
      },
      "icon": "https://maps.gstatic.com/mapfiles/place_api/icons/v1/png_71/generic_business-71.png",
      "icon_background_color": "#7B9EB0",
      "icon_mask_base_uri": "https://maps.gstatic.com/mapfiles/place_api/icons/v2/generic_pinlet",
      "name": "Osman Iman MD",
      "place_id": "ChIJUyrmBQ9ZwokRwGfO1kBax5I",
      "plus_code": {
        "compound_code": "P2RG+R7 \u7f8e\u570b\u7d10\u7d04",
        "global_code": "87G8P2RG+R7"
      },
      "reference": "ChIJUyrmBQ9ZwokRwGfO1kBax5I",
      "scope": "GOOGLE",
      "types": [
        "doctor",
        "health",
        "point_of_interest",
        "establishment"
      ],
      "vicinity": "550 1st Avenue, New York"
    },
    {
      "business_status": "OPERATIONAL",
      "geometry": {
        "location": {
          "lat": 40.74332709999999,
          "lng": -73.9795432
        },
        "viewport": {
          "northeast": {
            "lat": 40.74456513029149,
            "lng": -73.9782766197085
          },
          "southwest": {
            "lat": 40.7418671697085,
            "lng": -73.9809745802915
          }
        }
      },
      "icon": "https://maps.gstatic.com/mapfiles/place_api/icons/v1/png_71/restaurant-71.png",
      "icon_background_color": "#FF9E67",
      "icon_mask_base_uri": "https://maps.gstatic.com/mapfiles/place_api/icons/v2/restaurant_pinlet",
      "name": "Nobi Sushi",
      "opening_hours": {
        "open_now": false
      },
      "photos": [
        {
          "height": 3000,
          "html_attributions": [
            "<a href=\"https://maps.google.com/maps/contrib/111444671146808251214\">Eric Finkelstein</a>"
          ],
          "photo_reference": "AeJbb3f1PqqL3CKhP4L1YbqnIE5mXvuBHd5Bf3jh7pqlQ_XHA6rbCv5pYaH9gzqxnO8yeVgktulzygQAJvM8Dfp4b8hvETh1o6K6XvNo7v61YznRX85XUQy0Ne8u7vEcJ0p5l6amiwEfSW5PVoyeyll6QRFzy5VGq9kChs0Z3xciYIxEpBFl",
          "width": 3368
        }
      ],
      "place_id": "ChIJscJ18whZwokRRVETYAZys7o",
      "plus_code": {
        "compound_code": "P2VC+85 \u7f8e\u570b\u7d10\u7d04",
        "global_code": "87G8P2VC+85"
      },
      "price_level": 2,
      "rating": 4,
      "reference": "ChIJscJ18whZwokRRVETYAZys7o",
      "scope": "GOOGLE",
      "types": [
        "meal_delivery",
        "restaurant",
        "food",
        "point_of_interest",
        "establishment"
      ],
      "user_ratings_total": 126,
      "vicinity": "437 3rd Avenue, New York"
    },
    {
      "business_status": "OPERATIONAL",
      "geometry": {
        "location": {
          "lat": 40.74218579999999,
          "lng": -73.97421059999999
        },
        "viewport": {
          "northeast": {
            "lat": 40.74353818029149,
            "lng": -73.9730813697085
          },
          "southwest": {
            "lat": 40.7408402197085,
            "lng": -73.9757793302915
          }
        }
      },
      "icon": "https://maps.gstatic.com/mapfiles/place_api/icons/v1/png_71/generic_business-71.png",
      "icon_background_color": "#7B9EB0",
      "icon_mask_base_uri": "https://maps.gstatic.com/mapfiles/place_api/icons/v2/generic_pinlet",
      "name": "New York University School Med: Reynolds Jeanne MD",
      "place_id": "ChIJUyrmBQ9ZwokRu53qyd6nmHY",
      "plus_code": {
        "compound_code": "P2RG+V8 \u7f8e\u570b\u7d10\u7d04",
        "global_code": "87G8P2RG+V8"
      },
      "reference": "ChIJUyrmBQ9ZwokRu53qyd6nmHY",
      "scope": "GOOGLE",
      "types": [
        "doctor",
        "health",
        "point_of_interest",
        "establishment"
      ],
      "vicinity": "550 1st Avenue #605, New York"
    },
    {
      "business_status": "OPERATIONAL",
      "geometry": {
        "location": {
          "lat": 40.7421782,
          "lng": -73.97421059999999
        },
        "viewport": {
          "northeast": {
            "lat": 40.74353818029149,
            "lng": -73.9730813697085
          },
          "southwest": {
            "lat": 40.7408402197085,
            "lng": -73.9757793302915
          }
        }
      },
      "icon": "https://maps.gstatic.com/mapfiles/place_api/icons/v1/png_71/generic_business-71.png",
      "icon_background_color": "#7B9EB0",
      "icon_mask_base_uri": "https://maps.gstatic.com/mapfiles/place_api/icons/v2/generic_pinlet",
      "name": "Dr. J D. Roccaforte, MD",
      "place_id": "ChIJUyrmBQ9ZwokR0ekKzyZHIXU",
      "plus_code": {
        "compound_code": "P2RG+V8 \u7f8e\u570b\u7d10\u7d04",
        "global_code": "87G8P2RG+V8"
      },
      "reference": "ChIJUyrmBQ9ZwokR0ekKzyZHIXU",
      "scope": "GOOGLE",
      "types": [
        "doctor",
        "health",
        "point_of_interest",
        "establishment"
      ],
      "vicinity": "550 1st Avenue # R607, New York"
    },
    {
      "business_status": "OPERATIONAL",
      "geometry": {
        "location": {
          "lat": 40.7421225,
          "lng": -73.9739642
        },
        "viewport": {
          "northeast": {
            "lat": 40.7434952302915,
            "lng": -73.97297361970848
          },
          "southwest": {
            "lat": 40.7407972697085,
            "lng": -73.9756715802915
          }
        }
      },
      "icon": "https://maps.gstatic.com/mapfiles/place_api/icons/v1/png_71/generic_business-71.png",
      "icon_background_color": "#7B9EB0",
      "icon_mask_base_uri": "https://maps.gstatic.com/mapfiles/place_api/icons/v2/generic_pinlet",
      "name": "Dr. Caroline M. Badeer, MD",
      "place_id": "ChIJUyrmBQ9ZwokRaNob65pfIug",
      "plus_code": {
        "compound_code": "P2RG+RC \u7f8e\u570b\u7d10\u7d04",
        "global_code": "87G8P2RG+RC"
      },
      "reference": "ChIJUyrmBQ9ZwokRaNob65pfIug",
      "scope": "GOOGLE",
      "types": [
        "doctor",
        "health",
        "point_of_interest",
        "establishment"
      ],
      "vicinity": "550 1st Avenue, New York"
    },
    {
      "business_status": "OPERATIONAL",
      "geometry": {
        "location": {
          "lat": 40.7420674,
          "lng": -73.97426329999999
        },
        "viewport": {
          "northeast": {
            "lat": 40.74346928029149,
            "lng": -73.97312316970849
          },
          "southwest": {
            "lat": 40.7407713197085,
            "lng": -73.9758211302915
          }
        }
      },
      "icon": "https://maps.gstatic.com/mapfiles/place_api/icons/v1/png_71/generic_business-71.png",
      "icon_background_color": "#7B9EB0",
      "icon_mask_base_uri": "https://maps.gstatic.com/mapfiles/place_api/icons/v2/generic_pinlet",
      "name": "Dr. Juana J. Contreras, MD",
      "place_id": "ChIJUyrmBQ9ZwokR2M3s3NGLWzM",
      "plus_code": {
        "compound_code": "P2RG+R7 \u7f8e\u570b\u7d10\u7d04",
        "global_code": "87G8P2RG+R7"
      },
      "reference": "ChIJUyrmBQ9ZwokR2M3s3NGLWzM",
      "scope": "GOOGLE",
      "types": [
        "doctor",
        "health",
        "point_of_interest",
        "establishment"
      ],
      "vicinity": "550 1st Avenue, New York"
    },
    {
      "business_status": "OPERATIONAL",
      "geometry": {
        "location": {
          "lat": 40.7414038,
          "lng": -73.97442149999999
        },
        "viewport": {
          "northeast": {
            "lat": 40.74289863029149,
            "lng": -73.9733820197085
          },
          "southwest": {
            "lat": 40.74020066970849,
            "lng": -73.9760799802915
          }
        }
      },
      "icon": "https://maps.gstatic.com/mapfiles/place_api/icons/v1/png_71/generic_business-71.png",
      "icon_background_color": "#7B9EB0",
      "icon_mask_base_uri": "https://maps.gstatic.com/mapfiles/place_api/icons/v2/generic_pinlet",
      "name": "Mikel Sadek, MD",
      "photos": [
        {
          "height": 1000,
          "html_attributions": [
            "<a href=\"https://maps.google.com/maps/contrib/100949149715619822822\">Mikel Sadek, MD</a>"
          ],
          "photo_reference": "AeJbb3fsV6geP5J3TRTtrg9HQH8AzPCMpJjdG0SDYd6GMZ6X8snOiSB1Hreyava--VKkMn0RKuto_OKGhPJqNhLUMlxdarydzGv-xaETsDDgvG3reRrPwQsn7Q98151E3lthQlEUlGW4-3he6ZtEjjpw3Ji2B09kL2Ja86ZXSQ-ACVE8P5ai",
          "width": 1000
        }
      ],
      "place_id": "ChIJUyrmBQ9ZwokRfK14mBHmC3c",
      "plus_code": {
        "compound_code": "P2RG+H6 \u7f8e\u570b\u7d10\u7d04",
        "global_code": "87G8P2RG+H6"
      },
      "rating": 4.9,
      "reference": "ChIJUyrmBQ9ZwokRfK14mBHmC3c",
      "scope": "GOOGLE",
      "types": [
        "doctor",
        "health",
        "point_of_interest",
        "establishment"
      ],
      "user_ratings_total": 33,
      "vicinity": "530 1st Avenue 11th Floor, New York"
    },
    {
      "business_status": "OPERATIONAL",
      "geometry": {
        "location": {
          "lat": 40.7414038,
          "lng": -73.97442149999999
        },
        "viewport": {
          "northeast": {
            "lat": 40.74289863029149,
            "lng": -73.9733820197085
          },
          "southwest": {
            "lat": 40.74020066970849,
            "lng": -73.9760799802915
          }
        }
      },
      "icon": "https://maps.gstatic.com/mapfiles/place_api/icons/v1/png_71/generic_business-71.png",
      "icon_background_color": "#7B9EB0",
      "icon_mask_base_uri": "https://maps.gstatic.com/mapfiles/place_api/icons/v2/generic_pinlet",
      "name": "Claudia C. Serrano-Gomez, MD",
      "photos": [
        {
          "height": 1000,
          "html_attributions": [
            "<a href=\"https://maps.google.com/maps/contrib/100446419321066888075\">Claudia C. Serrano-Gomez, MD</a>"
          ],
          "photo_reference": "AeJbb3c9-8Do--2n9hpl1ggFNmb7MGC-btukEr22phCK4X2U9nw6qR1RVGnuZj4zF0i1lHUvdcsjeZ1SgU8jMHu_d1DTFpXAW9RveUqFbIaMcflNoCIEbkAyc6RP_Pto3mqKd69zG_S4EAXLAKRXJwzER8e31KqwFiWyI9BAPoliAiijLbMm",
          "width": 1000
        }
      ],
      "place_id": "ChIJ5dEkHQ9ZwokRHrk6DwueCes",
      "plus_code": {
        "compound_code": "P2RG+H6 \u7f8e\u570b\u7d10\u7d04",
        "global_code": "87G8P2RG+H6"
      },
      "rating": 5,
      "reference": "ChIJ5dEkHQ9ZwokRHrk6DwueCes",
      "scope": "GOOGLE",
      "types": [
        "doctor",
        "health",
        "point_of_interest",
        "establishment"
      ],
      "user_ratings_total": 3,
      "vicinity": "530 1st Avenue Skirball 9U, New York"
    },
    {
      "geometry": {
        "location": {
          "lat": 40.7549309,
          "lng": -73.9840195
        },
        "viewport": {
          "northeast": {
            "lat": 40.77410688375117,
            "lng": -73.95889871560205
          },
          "southwest": {
            "lat": 40.72686854646897,
            "lng": -74.00894884492357
          }
        }
      },
      "icon": "https://maps.gstatic.com/mapfiles/place_api/icons/v1/png_71/geocode-71.png",
      "icon_background_color": "#7B9EB0",
      "icon_mask_base_uri": "https://maps.gstatic.com/mapfiles/place_api/icons/v2/generic_pinlet",
      "name": "\u66fc\u54c8\u9813\u4e2d\u57ce",
      "photos": [
        {
          "height": 5450,
          "html_attributions": [
            "<a href=\"https://maps.google.com/maps/contrib/110409177493276546551\">Heidi Kirkland</a>"
          ],
          "photo_reference": "AeJbb3cuIn4UaT8TMMCRfqVqKTjnzgfycgzkiJ6mjJstRhZ5X0zuLiM1KdarPQiAIZuuZOg6gt8jA0rkLVNtgrDGORc_i5cM6Sk1kFhUoLu6zISZViaT7d0KOtnFjtKvo6wN0EiDrA-SOYKeuzmMzVfXE6IXO_bQu5-yWi_LrlU9jluNGGZP",
          "width": 2936
        }
      ],
      "place_id": "ChIJqXwSpAFZwokR28_WgZDMzb4",
      "reference": "ChIJqXwSpAFZwokR28_WgZDMzb4",
      "scope": "GOOGLE",
      "types": [
        "neighborhood",
        "political"
      ],
      "vicinity": "\u66fc\u54c8\u9813"
    },
    {
      "business_status": "OPERATIONAL",
      "geometry": {
        "location": {
          "lat": 40.743767,
          "lng": -73.97393
        },
        "viewport": {
          "northeast": {
            "lat": 40.7450529802915,
            "lng": -73.97242846970849
          },
          "southwest": {
            "lat": 40.7423550197085,
            "lng": -73.9751264302915
          }
        }
      },
      "icon": "https://maps.gstatic.com/mapfiles/place_api/icons/v1/png_71/restaurant-71.png",
      "icon_background_color": "#FF9E67",
      "icon_mask_base_uri": "https://maps.gstatic.com/mapfiles/place_api/icons/v2/restaurant_pinlet",
      "name": "Sophie's Cuban Cuisine - Murray Hill",
      "opening_hours": {
        "open_now": true
      },
      "photos": [
        {
          "height": 4480,
          "html_attributions": [
            "<a href=\"https://maps.google.com/maps/contrib/114273684760391044757\">Sophie&#39;s Cuban Cuisine - Murray Hill</a>"
          ],
          "photo_reference": "AeJbb3fqhlOgCskp7vbeD-oeCgZIbuPPT8re2PhRhVyTb5Jwqk2_jZImfaToo-H1-9hqlshqd6nhoZOVMXM5AiK5GcWt14T-SF9Q7ybwlWxEnP_RibwHy_GvIyFszSjAJBX8gNbuY-iLUxhn5H4i15Mf71zi2BdZQCjuA0Bfi95-4u3GK0Jm",
          "width": 6720
        }
      ],
      "place_id": "ChIJzdnuS6FZwokR_GMbVHJkVDw",
      "plus_code": {
        "compound_code": "P2VG+GC New York, NY, USA",
        "global_code": "87G8P2VG+GC"
      },
      "price_level": 1,
      "rating": 4,
      "reference": "ChIJzdnuS6FZwokR_GMbVHJkVDw",
      "scope": "GOOGLE",
      "types": [
        "restaurant",
        "food",
        "point_of_interest",
        "establishment"
      ],
      "user_ratings_total": 387,
      "vicinity": "593 1st Avenue, New York"
    },
    {
      "business_status": "OPERATIONAL",
      "geometry": {
        "location": {
          "lat": 40.7461701,
          "lng": -73.97750959999999
        },
        "viewport": {
          "northeast": {
            "lat": 40.7475704302915,
            "lng": -73.9762681197085
          },
          "southwest": {
            "lat": 40.7448724697085,
            "lng": -73.9789660802915
          }
        }
      },
      "icon": "https://maps.gstatic.com/mapfiles/place_api/icons/v1/png_71/restaurant-71.png",
      "icon_background_color": "#FF9E67",
      "icon_mask_base_uri": "https://maps.gstatic.com/mapfiles/place_api/icons/v2/restaurant_pinlet",
      "name": "Jackson Hole Burgers",
      "opening_hours": {
        "open_now": true
      },
      "photos": [
        {
          "height": 649,
          "html_attributions": [
            "<a href=\"https://maps.google.com/maps/contrib/118110132806921612014\">Jackson Hole Burgers</a>"
          ],
          "photo_reference": "AeJbb3eWBx5r71jH9N9N99Kq99omoF4W1jCaw5knD4pTk4dDn52uo1O1Nmrq0uDWp651OratYsWDTS1TLxMFuAupI7jQKz73xi1AYw37-3xt6PRzOZEqVdZtyNOhb-0pZvupupJUhZdoTfxesyOImaiKKGmzyco_A-Xl1T1zKh5AF2Ys14vr",
          "width": 1152
        }
      ],
      "place_id": "ChIJxy1zcQZZwokRmuPUv0M9GjA",
      "plus_code": {
        "compound_code": "P2WC+FX New York, NY, USA",
        "global_code": "87G8P2WC+FX"
      },
      "price_level": 2,
      "rating": 4.4,
      "reference": "ChIJxy1zcQZZwokRmuPUv0M9GjA",
      "scope": "GOOGLE",
      "types": [
        "bar",
        "restaurant",
        "food",
        "point_of_interest",
        "establishment"
      ],
      "user_ratings_total": 1675,
      "vicinity": "521 3rd Avenue, New York"
    },
    {
      "business_status": "OPERATIONAL",
      "geometry": {
        "location": {
          "lat": 40.7451535,
          "lng": -73.975869
        },
        "viewport": {
          "northeast": {
            "lat": 40.7465018802915,
            "lng": -73.97438966970849
          },
          "southwest": {
            "lat": 40.7438039197085,
            "lng": -73.9770876302915
          }
        }
      },
      "icon": "https://maps.gstatic.com/mapfiles/place_api/icons/v1/png_71/restaurant-71.png",
      "icon_background_color": "#FF9E67",
      "icon_mask_base_uri": "https://maps.gstatic.com/mapfiles/place_api/icons/v2/restaurant_pinlet",
      "name": "Garlic New York Pizza Bar",
      "opening_hours": {
        "open_now": true
      },
      "photos": [
        {
          "height": 4000,
          "html_attributions": [
            "<a href=\"https://maps.google.com/maps/contrib/103436231281816128853\">Jim Sears</a>"
          ],
          "photo_reference": "AeJbb3coDnW_Ka0qV4f2QhEBojLQNKbyYqGdsA05JlFUslRtdodHIgINFUdM91b1GL0Tou21vKJEndNdFCw3H6K5rmJARWXw1vxXpRK83P9TcP3Q3rQBpIBdHbCrohjTBj4txTZ52Act7KS6DZL0sCPXa0I1P4kPaudrtcbzLcdKY65SDL9-",
          "width": 3000
        }
      ],
      "place_id": "ChIJFe1v6wVZwokR9IkbpwFaK-w",
      "plus_code": {
        "compound_code": "P2WF+3M New York, NY, USA",
        "global_code": "87G8P2WF+3M"
      },
      "price_level": 1,
      "rating": 4.3,
      "reference": "ChIJFe1v6wVZwokR9IkbpwFaK-w",
      "scope": "GOOGLE",
      "types": [
        "restaurant",
        "food",
        "point_of_interest",
        "establishment"
      ],
      "user_ratings_total": 469,
      "vicinity": "629 2nd Avenue, New York"
    },
    {
      "business_status": "OPERATIONAL",
      "geometry": {
        "location": {
          "lat": 40.73936259999999,
          "lng": -73.9756402
        },
        "viewport": {
          "northeast": {
            "lat": 40.7409060802915,
            "lng": -73.9746889697085
          },
          "southwest": {
            "lat": 40.7382081197085,
            "lng": -73.9773869302915
          }
        }
      },
      "icon": "https://maps.gstatic.com/mapfiles/place_api/icons/v1/png_71/generic_business-71.png",
      "icon_background_color": "#7B9EB0",
      "icon_mask_base_uri": "https://maps.gstatic.com/mapfiles/place_api/icons/v2/generic_pinlet",
      "name": "Bellevue Hospital Outpatnt Clinic",
      "place_id": "ChIJ-zShJAxZwokRdpi-X550EFw",
      "plus_code": {
        "compound_code": "P2QF+PP New York, NY, USA",
        "global_code": "87G8P2QF+PP"
      },
      "reference": "ChIJ-zShJAxZwokRdpi-X550EFw",
      "scope": "GOOGLE",
      "types": [
        "health",
        "point_of_interest",
        "establishment"
      ],
      "vicinity": "462 1st Avenue, New York"
    },
    {
      "business_status": "OPERATIONAL",
      "geometry": {
        "location": {
          "lat": 40.7396194,
          "lng": -73.9760634
        },
        "viewport": {
          "northeast": {
            "lat": 40.7410344802915,
            "lng": -73.9749005697085
          },
          "southwest": {
            "lat": 40.7383365197085,
            "lng": -73.97759853029152
          }
        }
      },
      "icon": "https://maps.gstatic.com/mapfiles/place_api/icons/v1/png_71/school-71.png",
      "icon_background_color": "#7B9EB0",
      "icon_mask_base_uri": "https://maps.gstatic.com/mapfiles/place_api/icons/v2/school_pinlet",
      "name": "Bellevue Educare Early Childcare Center",
      "place_id": "ChIJ-zShJAxZwokRh1LknCaUQU4",
      "plus_code": {
        "compound_code": "P2QF+RH New York, NY, USA",
        "global_code": "87G8P2QF+RH"
      },
      "rating": 4,
      "reference": "ChIJ-zShJAxZwokRh1LknCaUQU4",
      "scope": "GOOGLE",
      "types": [
        "point_of_interest",
        "establishment"
      ],
      "user_ratings_total": 4,
      "vicinity": "462 1st Avenue d100, New York"
    },
    {
      "business_status": "OPERATIONAL",
      "geometry": {
        "location": {
          "lat": 40.7449717,
          "lng": -73.9770424
        },
        "viewport": {
          "northeast": {
            "lat": 40.7464123302915,
            "lng": -73.9754536697085
          },
          "southwest": {
            "lat": 40.7437143697085,
            "lng": -73.9781516302915
          }
        }
      },
      "icon": "https://maps.gstatic.com/mapfiles/place_api/icons/v1/png_71/generic_business-71.png",
      "icon_background_color": "#7B9EB0",
      "icon_mask_base_uri": "https://maps.gstatic.com/mapfiles/place_api/icons/v2/generic_pinlet",
      "name": "Crunch Fitness - 34th Street",
      "opening_hours": {
        "open_now": true
      },
      "photos": [
        {
          "height": 2403,
          "html_attributions": [
            "<a href=\"https://maps.google.com/maps/contrib/118116715349257420040\">Crunch Fitness - 34th Street</a>"
          ],
          "photo_reference": "AeJbb3eTY-iumI6cJxDxvwGHCKid9GfH59_lIaIvQifCX-qpuN4irg4-xiNJFyFCCsnLhR1HzkpmvvhLLIWVMjmQH0qviu6X_sUtAxsfTiaDtzNRYHE2RUKHfxAYAIzalrJZWk9_1H0bLO2WaBornYSHH-cOzMLIOgE9BaiKzsSsKv5szmbr",
          "width": 3600
        }
      ],
      "place_id": "ChIJY4w6_QVZwokRUJqjUE3yp9o",
      "plus_code": {
        "compound_code": "P2VF+X5 New York, NY, USA",
        "global_code": "87G8P2VF+X5"
      },
      "rating": 3.6,
      "reference": "ChIJY4w6_QVZwokRUJqjUE3yp9o",
      "scope": "GOOGLE",
      "types": [
        "gym",
        "health",
        "point_of_interest",
        "establishment"
      ],
      "user_ratings_total": 151,
      "vicinity": "222 East 34th Street, New York"
    },
    {
      "business_status": "OPERATIONAL",
      "geometry": {
        "location": {
          "lat": 40.7393782,
          "lng": -73.97562529999999
        },
        "viewport": {
          "northeast": {
            "lat": 40.7409138802915,
            "lng": -73.97468151970848
          },
          "southwest": {
            "lat": 40.7382159197085,
            "lng": -73.9773794802915
          }
        }
      },
      "icon": "https://maps.gstatic.com/mapfiles/place_api/icons/v1/png_71/generic_business-71.png",
      "icon_background_color": "#7B9EB0",
      "icon_mask_base_uri": "https://maps.gstatic.com/mapfiles/place_api/icons/v2/generic_pinlet",
      "name": "Lewis R. Goldfrank",
      "place_id": "ChIJ-zShJAxZwokREythT2hHaAE",
      "plus_code": {
        "compound_code": "P2QF+QP New York, NY, USA",
        "global_code": "87G8P2QF+QP"
      },
      "rating": 5,
      "reference": "ChIJ-zShJAxZwokREythT2hHaAE",
      "scope": "GOOGLE",
      "types": [
        "doctor",
        "health",
        "point_of_interest",
        "establishment"
      ],
      "user_ratings_total": 1,
      "vicinity": "462 1st Avenue A345, New York"
    },
    {
      "business_status": "OPERATIONAL",
      "geometry": {
        "location": {
          "lat": 40.7396865,
          "lng": -73.9762044
        },
        "viewport": {
          "northeast": {
            "lat": 40.74045530000001,
            "lng": -73.97293214999999
          },
          "southwest": {
            "lat": 40.7374817,
            "lng": -73.97764155
          }
        }
      },
      "icon": "https://maps.gstatic.com/mapfiles/place_api/icons/v1/png_71/hospital-71.png",
      "icon_background_color": "#F88181",
      "icon_mask_base_uri": "https://maps.gstatic.com/mapfiles/place_api/icons/v2/hospital-H_pinlet",
      "name": "NYC Health + Hospitals / Bellevue.",
      "opening_hours": {
        "open_now": true
      },
      "photos": [
        {
          "height": 3024,
          "html_attributions": [
            "<a href=\"https://maps.google.com/maps/contrib/118154041382417052634\">Didarul Roman</a>"
          ],
          "photo_reference": "AeJbb3dJkUiXzpTLb3SnGLG6fGCCzrbYe_iwPQL1VKt03sybr0u0cLzcnZa1_uvlNMRKTwUXdjTMxLPqG2B4x57H3PtECPuQAq75W9OiwpUsoPZbAvW3FTiJ1Hn3HefRn1nYZAGT0mAv7nuq0otKHLYtkwznImu-2YmJxk_4nCNUNNidWUJ5",
          "width": 4032
        }
      ],
      "place_id": "ChIJqccvIQxZwokR4PfF_NqTomc",
      "plus_code": {
        "compound_code": "P2QF+VG New York, NY, USA",
        "global_code": "87G8P2QF+VG"
      },
      "rating": 3.6,
      "reference": "ChIJqccvIQxZwokR4PfF_NqTomc",
      "scope": "GOOGLE",
      "types": [
        "hospital",
        "health",
        "point_of_interest",
        "establishment"
      ],
      "user_ratings_total": 1069,
      "vicinity": "462 1st Avenue, New York"
    },
    {
      "business_status": "OPERATIONAL",
      "geometry": {
        "location": {
          "lat": 40.7396579,
          "lng": -73.9763163
        },
        "viewport": {
          "northeast": {
            "lat": 40.7410537302915,
            "lng": -73.9750151197085
          },
          "southwest": {
            "lat": 40.7383557697085,
            "lng": -73.97771308029151
          }
        }
      },
      "icon": "https://maps.gstatic.com/mapfiles/place_api/icons/v1/png_71/generic_business-71.png",
      "icon_background_color": "#7B9EB0",
      "icon_mask_base_uri": "https://maps.gstatic.com/mapfiles/place_api/icons/v2/generic_pinlet",
      "name": "Cohen's Fashion Optical",
      "opening_hours": {
        "open_now": false
      },
      "photos": [
        {
          "height": 600,
          "html_attributions": [
            "<a href=\"https://maps.google.com/maps/contrib/109795212252697100490\">Milagros Torres</a>"
          ],
          "photo_reference": "AeJbb3cBooFM296vhE0TJ5QmcQN4o8saFgIxDOGj8-IkmqSKYUiTYrVLy6eqP3J0yrPNP-qtC9eyG3ignHwvpSXJUMJEDXBUcZe_UygZrYRW0tbAXLDflI21rXTFECn8sk9E5TkeBiaOrhg0-XwhnLP50QvGyJMAShgo7mYmOV_AsJUhZhpc",
          "width": 1200
        }
      ],
      "place_id": "ChIJ-zShJAxZwokRjJLCKubC6aM",
      "plus_code": {
        "compound_code": "P2QF+VF New York, NY, USA",
        "global_code": "87G8P2QF+VF"
      },
      "rating": 2.3,
      "reference": "ChIJ-zShJAxZwokRjJLCKubC6aM",
      "scope": "GOOGLE",
      "types": [
        "health",
        "point_of_interest",
        "store",
        "establishment"
      ],
      "user_ratings_total": 15,
      "vicinity": "462 1st Avenue Bldg F, New York"
    },
    {
      "business_status": "OPERATIONAL",
      "geometry": {
        "location": {
          "lat": 40.7420674,
          "lng": -73.97426329999999
        },
        "viewport": {
          "northeast": {
            "lat": 40.74346928029149,
            "lng": -73.97312316970849
          },
          "southwest": {
            "lat": 40.7407713197085,
            "lng": -73.9758211302915
          }
        }
      },
      "icon": "https://maps.gstatic.com/mapfiles/place_api/icons/v1/png_71/generic_business-71.png",
      "icon_background_color": "#7B9EB0",
      "icon_mask_base_uri": "https://maps.gstatic.com/mapfiles/place_api/icons/v2/generic_pinlet",
      "name": "Galanter Marc MD",
      "place_id": "ChIJgT-tAg9ZwokRk3hktDS0c9M",
      "plus_code": {
        "compound_code": "P2RG+R7 New York, NY, USA",
        "global_code": "87G8P2RG+R7"
      },
      "reference": "ChIJgT-tAg9ZwokRk3hktDS0c9M",
      "scope": "GOOGLE",
      "types": [
        "doctor",
        "health",
        "point_of_interest",
        "establishment"
      ],
      "vicinity": "550 1st Avenue, New York"
    },
    {
      "business_status": "OPERATIONAL",
      "geometry": {
        "location": {
          "lat": 40.7393782,
          "lng": -73.97562529999999
        },
        "viewport": {
          "northeast": {
            "lat": 40.7409138802915,
            "lng": -73.97468151970848
          },
          "southwest": {
            "lat": 40.7382159197085,
            "lng": -73.9773794802915
          }
        }
      },
      "icon": "https://maps.gstatic.com/mapfiles/place_api/icons/v1/png_71/generic_business-71.png",
      "icon_background_color": "#7B9EB0",
      "icon_mask_base_uri": "https://maps.gstatic.com/mapfiles/place_api/icons/v2/generic_pinlet",
      "name": "Frangos Spiros G MD",
      "place_id": "ChIJ-zShJAxZwokR95k8d0NDLvY",
      "plus_code": {
        "compound_code": "P2QF+QP New York, NY, USA",
        "global_code": "87G8P2QF+QP"
      },
      "reference": "ChIJ-zShJAxZwokR95k8d0NDLvY",
      "scope": "GOOGLE",
      "types": [
        "doctor",
        "health",
        "point_of_interest",
        "establishment"
      ],
      "vicinity": "462 1st Avenue, New York"
    },
    {
      "business_status": "OPERATIONAL",
      "geometry": {
        "location": {
          "lat": 40.7393782,
          "lng": -73.97562529999999
        },
        "viewport": {
          "northeast": {
            "lat": 40.7409138802915,
            "lng": -73.97468151970848
          },
          "southwest": {
            "lat": 40.7382159197085,
            "lng": -73.9773794802915
          }
        }
      },
      "icon": "https://maps.gstatic.com/mapfiles/place_api/icons/v1/png_71/generic_business-71.png",
      "icon_background_color": "#7B9EB0",
      "icon_mask_base_uri": "https://maps.gstatic.com/mapfiles/place_api/icons/v2/generic_pinlet",
      "name": "Dr. Esther R. Butler, MD",
      "place_id": "ChIJ-zShJAxZwokRDwPAu-Yrb58",
      "plus_code": {
        "compound_code": "P2QF+QP New York, NY, USA",
        "global_code": "87G8P2QF+QP"
      },
      "reference": "ChIJ-zShJAxZwokRDwPAu-Yrb58",
      "scope": "GOOGLE",
      "types": [
        "doctor",
        "health",
        "point_of_interest",
        "establishment"
      ],
      "vicinity": "462 1st Avenue, New York"
    },
    {
      "business_status": "OPERATIONAL",
      "geometry": {
        "location": {
          "lat": 40.7393782,
          "lng": -73.97562529999999
        },
        "viewport": {
          "northeast": {
            "lat": 40.7409138802915,
            "lng": -73.97468151970848
          },
          "southwest": {
            "lat": 40.7382159197085,
            "lng": -73.9773794802915
          }
        }
      },
      "icon": "https://maps.gstatic.com/mapfiles/place_api/icons/v1/png_71/generic_business-71.png",
      "icon_background_color": "#7B9EB0",
      "icon_mask_base_uri": "https://maps.gstatic.com/mapfiles/place_api/icons/v2/generic_pinlet",
      "name": "Levy Natalie K MD",
      "place_id": "ChIJ-zShJAxZwokRlR9ZedO2QXo",
      "plus_code": {
        "compound_code": "P2QF+QP New York, NY, USA",
        "global_code": "87G8P2QF+QP"
      },
      "reference": "ChIJ-zShJAxZwokRlR9ZedO2QXo",
      "scope": "GOOGLE",
      "types": [
        "doctor",
        "health",
        "point_of_interest",
        "establishment"
      ],
      "vicinity": "462 1st Avenue, New York"
    },
    {
      "business_status": "OPERATIONAL",
      "geometry": {
        "location": {
          "lat": 40.7393782,
          "lng": -73.97562529999999
        },
        "viewport": {
          "northeast": {
            "lat": 40.7409138802915,
            "lng": -73.97468151970848
          },
          "southwest": {
            "lat": 40.7382159197085,
            "lng": -73.9773794802915
          }
        }
      },
      "icon": "https://maps.gstatic.com/mapfiles/place_api/icons/v1/png_71/generic_business-71.png",
      "icon_background_color": "#7B9EB0",
      "icon_mask_base_uri": "https://maps.gstatic.com/mapfiles/place_api/icons/v2/generic_pinlet",
      "name": "Messito Mary Jo MD",
      "place_id": "ChIJ-zShJAxZwokR66_0JVMW_Bo",
      "plus_code": {
        "compound_code": "P2QF+QP New York, NY, USA",
        "global_code": "87G8P2QF+QP"
      },
      "reference": "ChIJ-zShJAxZwokR66_0JVMW_Bo",
      "scope": "GOOGLE",
      "types": [
        "doctor",
        "health",
        "point_of_interest",
        "establishment"
      ],
      "vicinity": "462 1st Avenue, New York"
    },
    {
      "business_status": "OPERATIONAL",
      "geometry": {
        "location": {
          "lat": 40.7393782,
          "lng": -73.97562529999999
        },
        "viewport": {
          "northeast": {
            "lat": 40.7409138802915,
            "lng": -73.97468151970848
          },
          "southwest": {
            "lat": 40.7382159197085,
            "lng": -73.9773794802915
          }
        }
      },
      "icon": "https://maps.gstatic.com/mapfiles/place_api/icons/v1/png_71/generic_business-71.png",
      "icon_background_color": "#7B9EB0",
      "icon_mask_base_uri": "https://maps.gstatic.com/mapfiles/place_api/icons/v2/generic_pinlet",
      "name": "Narayan Nidhi R MD",
      "place_id": "ChIJ-zShJAxZwokRysVhcsi4H1A",
      "plus_code": {
        "compound_code": "P2QF+QP New York, NY, USA",
        "global_code": "87G8P2QF+QP"
      },
      "reference": "ChIJ-zShJAxZwokRysVhcsi4H1A",
      "scope": "GOOGLE",
      "types": [
        "doctor",
        "health",
        "point_of_interest",
        "establishment"
      ],
      "vicinity": "462 1st Avenue, New York"
    },
    {
      "business_status": "OPERATIONAL",
      "geometry": {
        "location": {
          "lat": 40.7393782,
          "lng": -73.97562529999999
        },
        "viewport": {
          "northeast": {
            "lat": 40.7409138802915,
            "lng": -73.97468151970848
          },
          "southwest": {
            "lat": 40.7382159197085,
            "lng": -73.9773794802915
          }
        }
      },
      "icon": "https://maps.gstatic.com/mapfiles/place_api/icons/v1/png_71/generic_business-71.png",
      "icon_background_color": "#7B9EB0",
      "icon_mask_base_uri": "https://maps.gstatic.com/mapfiles/place_api/icons/v2/generic_pinlet",
      "name": "Randlett Diana L MD",
      "place_id": "ChIJ-zShJAxZwokRJYOvZbYr44Q",
      "plus_code": {
        "compound_code": "P2QF+QP New York, NY, USA",
        "global_code": "87G8P2QF+QP"
      },
      "rating": 5,
      "reference": "ChIJ-zShJAxZwokRJYOvZbYr44Q",
      "scope": "GOOGLE",
      "types": [
        "doctor",
        "health",
        "point_of_interest",
        "establishment"
      ],
      "user_ratings_total": 2,
      "vicinity": "462 1st Avenue, New York"
    },
    {
      "business_status": "OPERATIONAL",
      "geometry": {
        "location": {
          "lat": 40.7393782,
          "lng": -73.97562529999999
        },
        "viewport": {
          "northeast": {
            "lat": 40.7409138802915,
            "lng": -73.97468151970848
          },
          "southwest": {
            "lat": 40.7382159197085,
            "lng": -73.9773794802915
          }
        }
      },
      "icon": "https://maps.gstatic.com/mapfiles/place_api/icons/v1/png_71/generic_business-71.png",
      "icon_background_color": "#7B9EB0",
      "icon_mask_base_uri": "https://maps.gstatic.com/mapfiles/place_api/icons/v2/generic_pinlet",
      "name": "Vierczhalek Susan M MD",
      "place_id": "ChIJ-zShJAxZwokRpndrcV8rYNA",
      "plus_code": {
        "compound_code": "P2QF+QP New York, NY, USA",
        "global_code": "87G8P2QF+QP"
      },
      "reference": "ChIJ-zShJAxZwokRpndrcV8rYNA",
      "scope": "GOOGLE",
      "types": [
        "doctor",
        "health",
        "point_of_interest",
        "establishment"
      ],
      "vicinity": "462 1st Avenue, New York"
    },
    {
      "business_status": "OPERATIONAL",
      "geometry": {
        "location": {
          "lat": 40.7393782,
          "lng": -73.97562529999999
        },
        "viewport": {
          "northeast": {
            "lat": 40.7409138802915,
            "lng": -73.97468151970848
          },
          "southwest": {
            "lat": 40.7382159197085,
            "lng": -73.9773794802915
          }
        }
      },
      "icon": "https://maps.gstatic.com/mapfiles/place_api/icons/v1/png_71/generic_business-71.png",
      "icon_background_color": "#7B9EB0",
      "icon_mask_base_uri": "https://maps.gstatic.com/mapfiles/place_api/icons/v2/generic_pinlet",
      "name": "Marsh Lillian MD",
      "place_id": "ChIJ-zShJAxZwokRYt7OB5D_PNE",
      "plus_code": {
        "compound_code": "P2QF+QP New York, NY, USA",
        "global_code": "87G8P2QF+QP"
      },
      "reference": "ChIJ-zShJAxZwokRYt7OB5D_PNE",
      "scope": "GOOGLE",
      "types": [
        "doctor",
        "health",
        "point_of_interest",
        "establishment"
      ],
      "vicinity": "462 1st Ave # of, New York"
    },
    {
      "business_status": "OPERATIONAL",
      "geometry": {
        "location": {
          "lat": 40.7393782,
          "lng": -73.97562529999999
        },
        "viewport": {
          "northeast": {
            "lat": 40.7409138802915,
            "lng": -73.97468151970848
          },
          "southwest": {
            "lat": 40.7382159197085,
            "lng": -73.9773794802915
          }
        }
      },
      "icon": "https://maps.gstatic.com/mapfiles/place_api/icons/v1/png_71/generic_business-71.png",
      "icon_background_color": "#7B9EB0",
      "icon_mask_base_uri": "https://maps.gstatic.com/mapfiles/place_api/icons/v2/generic_pinlet",
      "name": "Fanfan Francelle W MD",
      "place_id": "ChIJ-zShJAxZwokRcJgA_aBpoOI",
      "plus_code": {
        "compound_code": "P2QF+QP New York, NY, USA",
        "global_code": "87G8P2QF+QP"
      },
      "reference": "ChIJ-zShJAxZwokRcJgA_aBpoOI",
      "scope": "GOOGLE",
      "types": [
        "doctor",
        "health",
        "point_of_interest",
        "establishment"
      ],
      "vicinity": "462 1st Avenue, New York"
    },
    {
      "business_status": "OPERATIONAL",
      "geometry": {
        "location": {
          "lat": 40.7393782,
          "lng": -73.97562529999999
        },
        "viewport": {
          "northeast": {
            "lat": 40.7409138802915,
            "lng": -73.97468151970848
          },
          "southwest": {
            "lat": 40.7382159197085,
            "lng": -73.9773794802915
          }
        }
      },
      "icon": "https://maps.gstatic.com/mapfiles/place_api/icons/v1/png_71/generic_business-71.png",
      "icon_background_color": "#7B9EB0",
      "icon_mask_base_uri": "https://maps.gstatic.com/mapfiles/place_api/icons/v2/generic_pinlet",
      "name": "Zakhary Bishoy M MD",
      "place_id": "ChIJ-zShJAxZwokRW8GMtFcmgME",
      "plus_code": {
        "compound_code": "P2QF+QP New York, NY, USA",
        "global_code": "87G8P2QF+QP"
      },
      "reference": "ChIJ-zShJAxZwokRW8GMtFcmgME",
      "scope": "GOOGLE",
      "types": [
        "doctor",
        "health",
        "point_of_interest",
        "establishment"
      ],
      "vicinity": "462 1st Avenue, New York"
    },
    {
      "business_status": "OPERATIONAL",
      "geometry": {
        "location": {
          "lat": 40.7393782,
          "lng": -73.97562529999999
        },
        "viewport": {
          "northeast": {
            "lat": 40.7409138802915,
            "lng": -73.97468151970848
          },
          "southwest": {
            "lat": 40.7382159197085,
            "lng": -73.9773794802915
          }
        }
      },
      "icon": "https://maps.gstatic.com/mapfiles/place_api/icons/v1/png_71/generic_business-71.png",
      "icon_background_color": "#7B9EB0",
      "icon_mask_base_uri": "https://maps.gstatic.com/mapfiles/place_api/icons/v2/generic_pinlet",
      "name": "Kirane Harshal D MD",
      "place_id": "ChIJ-zShJAxZwokRf9o5M525nWE",
      "plus_code": {
        "compound_code": "P2QF+QP New York, NY, USA",
        "global_code": "87G8P2QF+QP"
      },
      "reference": "ChIJ-zShJAxZwokRf9o5M525nWE",
      "scope": "GOOGLE",
      "types": [
        "doctor",
        "health",
        "point_of_interest",
        "establishment"
      ],
      "vicinity": "462 1st Avenue, New York"
    },
    {
      "business_status": "OPERATIONAL",
      "geometry": {
        "location": {
          "lat": 40.7393782,
          "lng": -73.97562529999999
        },
        "viewport": {
          "northeast": {
            "lat": 40.7409138802915,
            "lng": -73.97468151970848
          },
          "southwest": {
            "lat": 40.7382159197085,
            "lng": -73.9773794802915
          }
        }
      },
      "icon": "https://maps.gstatic.com/mapfiles/place_api/icons/v1/png_71/generic_business-71.png",
      "icon_background_color": "#7B9EB0",
      "icon_mask_base_uri": "https://maps.gstatic.com/mapfiles/place_api/icons/v2/generic_pinlet",
      "name": "Perez Dolores L MD",
      "place_id": "ChIJ-zShJAxZwokR7UFct929bQs",
      "plus_code": {
        "compound_code": "P2QF+QP New York, NY, USA",
        "global_code": "87G8P2QF+QP"
      },
      "reference": "ChIJ-zShJAxZwokR7UFct929bQs",
      "scope": "GOOGLE",
      "types": [
        "doctor",
        "health",
        "point_of_interest",
        "establishment"
      ],
      "vicinity": "462 1st Avenue, New York"
    },
    {
      "business_status": "OPERATIONAL",
      "geometry": {
        "location": {
          "lat": 40.7393782,
          "lng": -73.97562529999999
        },
        "viewport": {
          "northeast": {
            "lat": 40.7409138802915,
            "lng": -73.97468151970848
          },
          "southwest": {
            "lat": 40.7382159197085,
            "lng": -73.9773794802915
          }
        }
      },
      "icon": "https://maps.gstatic.com/mapfiles/place_api/icons/v1/png_71/generic_business-71.png",
      "icon_background_color": "#7B9EB0",
      "icon_mask_base_uri": "https://maps.gstatic.com/mapfiles/place_api/icons/v2/generic_pinlet",
      "name": "Simmons Justin L MD",
      "place_id": "ChIJ-zShJAxZwokR5hmviHU3964",
      "plus_code": {
        "compound_code": "P2QF+QP New York, NY, USA",
        "global_code": "87G8P2QF+QP"
      },
      "reference": "ChIJ-zShJAxZwokR5hmviHU3964",
      "scope": "GOOGLE",
      "types": [
        "doctor",
        "health",
        "point_of_interest",
        "establishment"
      ],
      "vicinity": "462 1st Avenue, New York"
    },
    {
      "business_status": "OPERATIONAL",
      "geometry": {
        "location": {
          "lat": 40.7393782,
          "lng": -73.97562529999999
        },
        "viewport": {
          "northeast": {
            "lat": 40.7409138802915,
            "lng": -73.97468151970848
          },
          "southwest": {
            "lat": 40.7382159197085,
            "lng": -73.9773794802915
          }
        }
      },
      "icon": "https://maps.gstatic.com/mapfiles/place_api/icons/v1/png_71/generic_business-71.png",
      "icon_background_color": "#7B9EB0",
      "icon_mask_base_uri": "https://maps.gstatic.com/mapfiles/place_api/icons/v2/generic_pinlet",
      "name": "Korets Sharmilee MD",
      "place_id": "ChIJ-zShJAxZwokRl8YUecgFHCQ",
      "plus_code": {
        "compound_code": "P2QF+QP New York, NY, USA",
        "global_code": "87G8P2QF+QP"
      },
      "rating": 5,
      "reference": "ChIJ-zShJAxZwokRl8YUecgFHCQ",
      "scope": "GOOGLE",
      "types": [
        "doctor",
        "health",
        "point_of_interest",
        "establishment"
      ],
      "user_ratings_total": 1,
      "vicinity": "462 1st Avenue, New York"
    },
    {
      "business_status": "OPERATIONAL",
      "geometry": {
        "location": {
          "lat": 40.7393782,
          "lng": -73.97562529999999
        },
        "viewport": {
          "northeast": {
            "lat": 40.7409138802915,
            "lng": -73.97468151970848
          },
          "southwest": {
            "lat": 40.7382159197085,
            "lng": -73.9773794802915
          }
        }
      },
      "icon": "https://maps.gstatic.com/mapfiles/place_api/icons/v1/png_71/generic_business-71.png",
      "icon_background_color": "#7B9EB0",
      "icon_mask_base_uri": "https://maps.gstatic.com/mapfiles/place_api/icons/v2/generic_pinlet",
      "name": "Khan Mohammad A MD",
      "place_id": "ChIJ-zShJAxZwokRiZbkXQSdumQ",
      "plus_code": {
        "compound_code": "P2QF+QP New York, NY, USA",
        "global_code": "87G8P2QF+QP"
      },
      "reference": "ChIJ-zShJAxZwokRiZbkXQSdumQ",
      "scope": "GOOGLE",
      "types": [
        "doctor",
        "health",
        "point_of_interest",
        "establishment"
      ],
      "vicinity": "462 1st Avenue, New York"
    },
    {
      "business_status": "OPERATIONAL",
      "geometry": {
        "location": {
          "lat": 40.73906420000001,
          "lng": -73.9750139
        },
        "viewport": {
          "northeast": {
            "lat": 40.74068898029149,
            "lng": -73.97425365
          },
          "southwest": {
            "lat": 40.7379910197085,
            "lng": -73.97729464999999
          }
        }
      },
      "icon": "https://maps.gstatic.com/mapfiles/place_api/icons/v1/png_71/generic_business-71.png",
      "icon_background_color": "#7B9EB0",
      "icon_mask_base_uri": "https://maps.gstatic.com/mapfiles/place_api/icons/v2/generic_pinlet",
      "name": "Dr. Lynn M. Buckvar-Keltz, MD",
      "place_id": "ChIJ-zShJAxZwokRrA0EIG2l5oY",
      "plus_code": {
        "compound_code": "P2QF+JX New York, NY, USA",
        "global_code": "87G8P2QF+JX"
      },
      "rating": 2.5,
      "reference": "ChIJ-zShJAxZwokRrA0EIG2l5oY",
      "scope": "GOOGLE",
      "types": [
        "doctor",
        "health",
        "point_of_interest",
        "establishment"
      ],
      "user_ratings_total": 2,
      "vicinity": "462 1st Avenue, New York"
    },
    {
      "business_status": "OPERATIONAL",
      "geometry": {
        "location": {
          "lat": 40.73936259999999,
          "lng": -73.9756402
        },
        "viewport": {
          "northeast": {
            "lat": 40.7409060802915,
            "lng": -73.9746889697085
          },
          "southwest": {
            "lat": 40.7382081197085,
            "lng": -73.9773869302915
          }
        }
      },
      "icon": "https://maps.gstatic.com/mapfiles/place_api/icons/v1/png_71/generic_business-71.png",
      "icon_background_color": "#7B9EB0",
      "icon_mask_base_uri": "https://maps.gstatic.com/mapfiles/place_api/icons/v2/generic_pinlet",
      "name": "Dr. Amit Uppal, MD",
      "place_id": "ChIJ-zShJAxZwokRl_v-l2SXO5E",
      "plus_code": {
        "compound_code": "P2QF+PP New York, NY, USA",
        "global_code": "87G8P2QF+PP"
      },
      "reference": "ChIJ-zShJAxZwokRl_v-l2SXO5E",
      "scope": "GOOGLE",
      "types": [
        "doctor",
        "health",
        "point_of_interest",
        "establishment"
      ],
      "vicinity": "462 1st Avenue, New York"
    },
    {
      "business_status": "OPERATIONAL",
      "geometry": {
        "location": {
          "lat": 40.73936259999999,
          "lng": -73.9756402
        },
        "viewport": {
          "northeast": {
            "lat": 40.7409060802915,
            "lng": -73.9746889697085
          },
          "southwest": {
            "lat": 40.7382081197085,
            "lng": -73.9773869302915
          }
        }
      },
      "icon": "https://maps.gstatic.com/mapfiles/place_api/icons/v1/png_71/generic_business-71.png",
      "icon_background_color": "#7B9EB0",
      "icon_mask_base_uri": "https://maps.gstatic.com/mapfiles/place_api/icons/v2/generic_pinlet",
      "name": "Dr. Sean T. Allan, MD",
      "place_id": "ChIJE4iDxAlZwokRieSkXWidWNI",
      "plus_code": {
        "compound_code": "P2QF+PP New York, NY, USA",
        "global_code": "87G8P2QF+PP"
      },
      "rating": 1,
      "reference": "ChIJE4iDxAlZwokRieSkXWidWNI",
      "scope": "GOOGLE",
      "types": [
        "doctor",
        "health",
        "point_of_interest",
        "establishment"
      ],
      "user_ratings_total": 1,
      "vicinity": "462 1st Avenue, New York"
    },
    {
      "business_status": "OPERATIONAL",
      "geometry": {
        "location": {
          "lat": 40.73936259999999,
          "lng": -73.9756402
        },
        "viewport": {
          "northeast": {
            "lat": 40.7409060802915,
            "lng": -73.9746889697085
          },
          "southwest": {
            "lat": 40.7382081197085,
            "lng": -73.9773869302915
          }
        }
      },
      "icon": "https://maps.gstatic.com/mapfiles/place_api/icons/v1/png_71/generic_business-71.png",
      "icon_background_color": "#7B9EB0",
      "icon_mask_base_uri": "https://maps.gstatic.com/mapfiles/place_api/icons/v2/generic_pinlet",
      "name": "Dr. Arthur H. Fierman, MD",
      "place_id": "ChIJUyrmBQ9ZwokRGkKIC-7QJ1s",
      "plus_code": {
        "compound_code": "P2QF+PP New York, NY, USA",
        "global_code": "87G8P2QF+PP"
      },
      "reference": "ChIJUyrmBQ9ZwokRGkKIC-7QJ1s",
      "scope": "GOOGLE",
      "types": [
        "doctor",
        "health",
        "point_of_interest",
        "establishment"
      ],
      "vicinity": "462 1st Avenue, New York"
    },
    {
      "business_status": "OPERATIONAL",
      "geometry": {
        "location": {
          "lat": 40.73936259999999,
          "lng": -73.9756402
        },
        "viewport": {
          "northeast": {
            "lat": 40.7409060802915,
            "lng": -73.9746889697085
          },
          "southwest": {
            "lat": 40.7382081197085,
            "lng": -73.9773869302915
          }
        }
      },
      "icon": "https://maps.gstatic.com/mapfiles/place_api/icons/v1/png_71/generic_business-71.png",
      "icon_background_color": "#7B9EB0",
      "icon_mask_base_uri": "https://maps.gstatic.com/mapfiles/place_api/icons/v2/generic_pinlet",
      "name": "Dr. Cindy Huang, MD",
      "place_id": "ChIJyxnDqQ5ZwokRPmWqRMUCPoA",
      "plus_code": {
        "compound_code": "P2QF+PP New York, NY, USA",
        "global_code": "87G8P2QF+PP"
      },
      "reference": "ChIJyxnDqQ5ZwokRPmWqRMUCPoA",
      "scope": "GOOGLE",
      "types": [
        "doctor",
        "health",
        "point_of_interest",
        "establishment"
      ],
      "vicinity": "462 1st Avenue, New York"
    },
    {
      "business_status": "OPERATIONAL",
      "geometry": {
        "location": {
          "lat": 40.73936259999999,
          "lng": -73.9756402
        },
        "viewport": {
          "northeast": {
            "lat": 40.7409060802915,
            "lng": -73.9746889697085
          },
          "southwest": {
            "lat": 40.7382081197085,
            "lng": -73.9773869302915
          }
        }
      },
      "icon": "https://maps.gstatic.com/mapfiles/place_api/icons/v1/png_71/generic_business-71.png",
      "icon_background_color": "#7B9EB0",
      "icon_mask_base_uri": "https://maps.gstatic.com/mapfiles/place_api/icons/v2/generic_pinlet",
      "name": "Bellevue Hospital Center Obg",
      "place_id": "ChIJ-zShJAxZwokR8TzUDL-gdUY",
      "plus_code": {
        "compound_code": "P2QF+PP New York, NY, USA",
        "global_code": "87G8P2QF+PP"
      },
      "rating": 3.2,
      "reference": "ChIJ-zShJAxZwokR8TzUDL-gdUY",
      "scope": "GOOGLE",
      "types": [
        "health",
        "point_of_interest",
        "establishment"
      ],
      "user_ratings_total": 5,
      "vicinity": "462 1st Avenue, New York"
    },
    {
      "business_status": "OPERATIONAL",
      "geometry": {
        "location": {
          "lat": 40.73936259999999,
          "lng": -73.9756402
        },
        "viewport": {
          "northeast": {
            "lat": 40.7409060802915,
            "lng": -73.9746889697085
          },
          "southwest": {
            "lat": 40.7382081197085,
            "lng": -73.9773869302915
          }
        }
      },
      "icon": "https://maps.gstatic.com/mapfiles/place_api/icons/v1/png_71/generic_business-71.png",
      "icon_background_color": "#7B9EB0",
      "icon_mask_base_uri": "https://maps.gstatic.com/mapfiles/place_api/icons/v2/generic_pinlet",
      "name": "Dr. Michael P. Janjigian, MD",
      "place_id": "ChIJUyrmBQ9ZwokRzgZVgXsZyfs",
      "plus_code": {
        "compound_code": "P2QF+PP New York, NY, USA",
        "global_code": "87G8P2QF+PP"
      },
      "reference": "ChIJUyrmBQ9ZwokRzgZVgXsZyfs",
      "scope": "GOOGLE",
      "types": [
        "doctor",
        "health",
        "point_of_interest",
        "establishment"
      ],
      "vicinity": "462 1st Avenue, New York"
    },
    {
      "business_status": "OPERATIONAL",
      "geometry": {
        "location": {
          "lat": 40.7445222,
          "lng": -73.9745544
        },
        "viewport": {
          "northeast": {
            "lat": 40.7457575802915,
            "lng": -73.97328896970849
          },
          "southwest": {
            "lat": 40.7430596197085,
            "lng": -73.9759869302915
          }
        }
      },
      "icon": "https://maps.gstatic.com/mapfiles/place_api/icons/v1/png_71/generic_business-71.png",
      "icon_background_color": "#7B9EB0",
      "icon_mask_base_uri": "https://maps.gstatic.com/mapfiles/place_api/icons/v2/generic_pinlet",
      "name": "Sonja K. Olsen, MD",
      "photos": [
        {
          "height": 1200,
          "html_attributions": [
            "<a href=\"https://maps.google.com/maps/contrib/101463959245360652972\">Sonja K. Olsen, MD</a>"
          ],
          "photo_reference": "AeJbb3db8bohIwbiJxRB8qco-8qSWz7mthXS8ISX6yGqqQzBUm9w4VejYqOi0Ez1kMhH9KfqLQU8OvoouKZfjQZMKvrnCvXaOAiUb5btmoAx7layN4NErEpWImSFraAitkDVL2Mz67w9oxp3dEntR15CdERxiEodg6wUuI-5NqD34b6eiWHR",
          "width": 1200
        }
      ],
      "place_id": "ChIJu7sYmMNYwokRjdKDkGTstTw",
      "plus_code": {
        "compound_code": "P2VG+R5 New York, NY, USA",
        "global_code": "87G8P2VG+R5"
      },
      "rating": 3.5,
      "reference": "ChIJu7sYmMNYwokRjdKDkGTstTw",
      "scope": "GOOGLE",
      "types": [
        "doctor",
        "health",
        "point_of_interest",
        "establishment"
      ],
      "user_ratings_total": 11,
      "vicinity": "317 East 34th Street 8th floor, New York"
    },
    {
      "business_status": "OPERATIONAL",
      "geometry": {
        "location": {
          "lat": 40.7414826,
          "lng": -73.9746466
        },
        "viewport": {
          "northeast": {
            "lat": 40.74293803029149,
            "lng": -73.9734945697085
          },
          "southwest": {
            "lat": 40.7402400697085,
            "lng": -73.97619253029151
          }
        }
      },
      "icon": "https://maps.gstatic.com/mapfiles/place_api/icons/v1/png_71/generic_business-71.png",
      "icon_background_color": "#7B9EB0",
      "icon_mask_base_uri": "https://maps.gstatic.com/mapfiles/place_api/icons/v2/generic_pinlet",
      "name": "Mehl Sydney J MD",
      "place_id": "ChIJgT-tAg9ZwokRZJWZJzNNY7Y",
      "plus_code": {
        "compound_code": "P2RG+H4 New York, NY, USA",
        "global_code": "87G8P2RG+H4"
      },
      "rating": 2,
      "reference": "ChIJgT-tAg9ZwokRZJWZJzNNY7Y",
      "scope": "GOOGLE",
      "types": [
        "doctor",
        "health",
        "point_of_interest",
        "establishment"
      ],
      "user_ratings_total": 4,
      "vicinity": "530 1st Avenue suite 4H, New York"
    },
    {
      "business_status": "CLOSED_TEMPORARILY",
      "geometry": {
        "location": {
          "lat": 40.74595980000001,
          "lng": -73.971583
        },
        "viewport": {
          "northeast": {
            "lat": 40.74739598029151,
            "lng": -73.9703460197085
          },
          "southwest": {
            "lat": 40.74469801970851,
            "lng": -73.97304398029151
          }
        }
      },
      "icon": "https://maps.gstatic.com/mapfiles/place_api/icons/v1/png_71/school-71.png",
      "icon_background_color": "#7B9EB0",
      "icon_mask_base_uri": "https://maps.gstatic.com/mapfiles/place_api/icons/v2/school_pinlet",
      "name": "Association of Junior Leagues",
      "permanently_closed": true,
      "place_id": "ChIJIxsd1gRZwokRWnsw7fVKsJk",
      "plus_code": {
        "compound_code": "P2WH+99 New York, NY, USA",
        "global_code": "87G8P2WH+99"
      },
      "reference": "ChIJIxsd1gRZwokRWnsw7fVKsJk",
      "scope": "GOOGLE",
      "types": [
        "point_of_interest",
        "establishment"
      ],
      "vicinity": "660 1st Avenue, New York"
    },
    {
      "business_status": "OPERATIONAL",
      "geometry": {
        "location": {
          "lat": 40.7449717,
          "lng": -73.9770424
        },
        "viewport": {
          "northeast": {
            "lat": 40.7464123302915,
            "lng": -73.9754536697085
          },
          "southwest": {
            "lat": 40.7437143697085,
            "lng": -73.9781516302915
          }
        }
      },
      "icon": "https://maps.gstatic.com/mapfiles/place_api/icons/v1/png_71/generic_business-71.png",
      "icon_background_color": "#7B9EB0",
      "icon_mask_base_uri": "https://maps.gstatic.com/mapfiles/place_api/icons/v2/generic_pinlet",
      "name": "European Wax Center",
      "opening_hours": {
        "open_now": true
      },
      "photos": [
        {
          "height": 2448,
          "html_attributions": [
            "<a href=\"https://maps.google.com/maps/contrib/114873008299199148823\">Karim Bousleiman</a>"
          ],
          "photo_reference": "AeJbb3flUlQilbXi0qZEb4Mf7HUanqIyQOrt8lZ5AFmF_M4rDPbWRGaOJij_OpbVMzimzPp8QwL2fYyqYdeh3A8xL7boLe5FG6Wae6lTotDFGs-RfSbnVdm52_SCLFtpZsVUXhcb9SD7UP5-GAtLBWt1qml719t5kdEeQicHlGE1tbhIGIZP",
          "width": 3264
        }
      ],
      "place_id": "ChIJNyDSCwZZwokRVm0UU7I89k0",
      "plus_code": {
        "compound_code": "P2VF+X5 New York, NY, USA",
        "global_code": "87G8P2VF+X5"
      },
      "rating": 4.4,
      "reference": "ChIJNyDSCwZZwokRVm0UU7I89k0",
      "scope": "GOOGLE",
      "types": [
        "spa",
        "beauty_salon",
        "hair_care",
        "point_of_interest",
        "store",
        "establishment"
      ],
      "user_ratings_total": 82,
      "vicinity": "222 East 34th Street, New York"
    },
    {
      "business_status": "OPERATIONAL",
      "geometry": {
        "location": {
          "lat": 40.739217,
          "lng": -73.9754976
        },
        "viewport": {
          "northeast": {
            "lat": 40.74076538029149,
            "lng": -73.97466701970848
          },
          "southwest": {
            "lat": 40.73806741970849,
            "lng": -73.9773649802915
          }
        }
      },
      "icon": "https://maps.gstatic.com/mapfiles/place_api/icons/v1/png_71/generic_business-71.png",
      "icon_background_color": "#7B9EB0",
      "icon_mask_base_uri": "https://maps.gstatic.com/mapfiles/place_api/icons/v2/generic_pinlet",
      "name": "Nyu Department of Medicine",
      "place_id": "ChIJ-zShJAxZwokRGUAHvVYzUks",
      "plus_code": {
        "compound_code": "P2QF+MR New York, NY, USA",
        "global_code": "87G8P2QF+MR"
      },
      "rating": 1,
      "reference": "ChIJ-zShJAxZwokRGUAHvVYzUks",
      "scope": "GOOGLE",
      "types": [
        "health",
        "point_of_interest",
        "establishment"
      ],
      "user_ratings_total": 1,
      "vicinity": "462 1st Avenue # 6, New York"
    },
    {
      "business_status": "OPERATIONAL",
      "geometry": {
        "location": {
          "lat": 40.7459504,
          "lng": -73.97763810000001
        },
        "viewport": {
          "northeast": {
            "lat": 40.74734928029149,
            "lng": -73.9764123197085
          },
          "southwest": {
            "lat": 40.7446513197085,
            "lng": -73.97911028029152
          }
        }
      },
      "icon": "https://maps.gstatic.com/mapfiles/place_api/icons/v1/png_71/bar-71.png",
      "icon_background_color": "#FF9E67",
      "icon_mask_base_uri": "https://maps.gstatic.com/mapfiles/place_api/icons/v2/bar_pinlet",
      "name": "Joshua Tree",
      "opening_hours": {
        "open_now": true
      },
      "photos": [
        {
          "height": 3024,
          "html_attributions": [
            "<a href=\"https://maps.google.com/maps/contrib/115545465164861455654\">Stephen Popkin</a>"
          ],
          "photo_reference": "AeJbb3d_qNzTOGy4cm_rIUiS5eigtpahkGVdMDP6rnVm3F8UX3L-Iyd4YiB8DvOmLwsSTDtwz4wPTMdIC25KxNcS2wCqyH14_h4Y-RHQUjF9C8njWR9giamehSmMr910O5H_cZPKVNzRB49qIlvQssbBo5vfwt_N2jBpXN1q_Vd7BqFgQbFE",
          "width": 4032
        }
      ],
      "place_id": "ChIJFTTrcwZZwokRAtUo_BgyJAM",
      "plus_code": {
        "compound_code": "P2WC+9W New York, NY, USA",
        "global_code": "87G8P2WC+9W"
      },
      "price_level": 2,
      "rating": 4.1,
      "reference": "ChIJFTTrcwZZwokRAtUo_BgyJAM",
      "scope": "GOOGLE",
      "types": [
        "bar",
        "point_of_interest",
        "establishment"
      ],
      "user_ratings_total": 462,
      "vicinity": "513 3rd Avenue, New York"
    },
    {
      "business_status": "OPERATIONAL",
      "geometry": {
        "location": {
          "lat": 40.7453513,
          "lng": -73.97764029999999
        },
        "viewport": {
          "northeast": {
            "lat": 40.7467701802915,
            "lng": -73.97628041970849
          },
          "southwest": {
            "lat": 40.7440722197085,
            "lng": -73.97897838029151
          }
        }
      },
      "icon": "https://maps.gstatic.com/mapfiles/place_api/icons/v1/png_71/restaurant-71.png",
      "icon_background_color": "#FF9E67",
      "icon_mask_base_uri": "https://maps.gstatic.com/mapfiles/place_api/icons/v2/restaurant_pinlet",
      "name": "Pio Pio 7",
      "opening_hours": {
        "open_now": true
      },
      "photos": [
        {
          "height": 450,
          "html_attributions": [
            "<a href=\"https://maps.google.com/maps/contrib/109880567146315978632\">Pio Pio</a>"
          ],
          "photo_reference": "AeJbb3cc6pTeQ3Ht3jcy5zjTGkM7Tb2803vErdClMiO5lJ_knbXrKzxbzjj_aPVh5rET5bYcsrhEMhFo4LSaq7fIAqzmO15AZWoUaqqtzNWu8dJTrf872rh86KOaHMlUgE-i9Nf2K2NG0gzftf9FM4C_p7o5x68Z1tu0OiyLwHraYrrkrynD",
          "width": 1200
        }
      ],
      "place_id": "ChIJnXFVDgZZwokRWyjYGSq5K38",
      "plus_code": {
        "compound_code": "P2WC+4W New York, NY, USA",
        "global_code": "87G8P2WC+4W"
      },
      "price_level": 2,
      "rating": 4.4,
      "reference": "ChIJnXFVDgZZwokRWyjYGSq5K38",
      "scope": "GOOGLE",
      "types": [
        "restaurant",
        "point_of_interest",
        "food",
        "establishment"
      ],
      "user_ratings_total": 977,
      "vicinity": "210 East 34th Street, New York"
    },
    {
      "business_status": "OPERATIONAL",
      "geometry": {
        "location": {
          "lat": 40.7459559,
          "lng": -73.9713819
        },
        "viewport": {
          "northeast": {
            "lat": 40.7474104802915,
            "lng": -73.97024546970849
          },
          "southwest": {
            "lat": 40.7447125197085,
            "lng": -73.97294343029151
          }
        }
      },
      "icon": "https://maps.gstatic.com/mapfiles/place_api/icons/v1/png_71/generic_business-71.png",
      "icon_background_color": "#7B9EB0",
      "icon_mask_base_uri": "https://maps.gstatic.com/mapfiles/place_api/icons/v2/generic_pinlet",
      "name": "NYU Langone Medical Center Surgical Technology Program",
      "photos": [
        {
          "height": 2250,
          "html_attributions": [
            "<a href=\"https://maps.google.com/maps/contrib/117228257027266609085\">Jordi Grau</a>"
          ],
          "photo_reference": "AeJbb3fir0xq7V4sSn5ke5LzypSaOf2ZipiviKqt8zPDMBgiWvcwl6OzurLotMoJ1_pEgtnHmAJbBRfpx9E9CkibrAKLL3aH9YiypT1QHwx0miICTHNlYvaNf-LV6X2v0Be-NmpFFdKrewh6qiMoapLjy43vgzeHakoznj0a_3Dyw7GrPnP0",
          "width": 4000
        }
      ],
      "place_id": "ChIJIxsd1gRZwokRCflRXdfy2rg",
      "plus_code": {
        "compound_code": "P2WH+9C New York, NY, USA",
        "global_code": "87G8P2WH+9C"
      },
      "rating": 4.6,
      "reference": "ChIJIxsd1gRZwokRCflRXdfy2rg",
      "scope": "GOOGLE",
      "types": [
        "point_of_interest",
        "establishment"
      ],
      "user_ratings_total": 53,
      "vicinity": "660 1st Avenue #2, New York"
    }
  ],
  "status": "OK"
}