{
  "html_attributions": [],
  "results": [
    {
      "geometry": {
        "location": {
          "lat": 40.7127753,
          "lng": -74.0059728
        },
        "viewport": {
          "northeast": {
            "lat": 40.91757705070789,
            "lng": -73.70027206817629
          },
          "southwest": {
            "lat": 40.47739906045452,
            "lng": -74.25908991427882
          }
        }
      },
      "icon": "https://maps.gstatic.com/mapfiles/place_api/icons/v1/png_71/geocode-71.png",
      "icon_background_color": "#7B9EB0",
      "icon_mask_base_uri": "https://maps.gstatic.com/mapfiles/place_api/icons/v2/generic_pinlet",
      "name": "\u7d10\u7d04",
      "photos": [
        {
          "height": 600,
          "html_attributions": [
            "<a href=\"https://maps.google.com/maps/contrib/102389334567210814614\">Bukurie</a>"
          ],
          "photo_reference": "AeJbb3cNKeCAWCpeWwhyAkRwe2ENj5TfF5auuSG5LD3vNk153y_8tfZpm1naWsUTPB5NEpwpb4ayL9_3Atds6gxvv_tctk6DBvmgGHUi_DIOHAiCYOXENNUoQZ4r4eGNphfl-Tcua0ZHYIQ3IQpdc4_y1XCBYgoL74aPNp1s1oYERsXRj8R0",
          "width": 480
        }
      ],
      "place_id": "ChIJOwg_06VPwokRYv534QaPC8g",
      "reference": "ChIJOwg_06VPwokRYv534QaPC8g",
      "scope": "GOOGLE",
      "types": [
        "locality",
        "political"
      ],
      "vicinity": "\u7d10\u7d04"
    },
    {
      "business_status": "OPERATIONAL",
      "geometry": {
        "location": {
          "lat": 40.706411,
          "lng": -73.953777
        },
        "viewport": {
          "northeast": {
            "lat": 40.70769413029149,
            "lng": -73.9525311197085
          },
          "southwest": {
            "lat": 40.7049961697085,
            "lng": -73.9552290802915
          }
        }
      },
      "icon": "https://maps.gstatic.com/mapfiles/place_api/icons/v1/png_71/generic_business-71.png",
      "icon_background_color": "#7B9EB0",
      "icon_mask_base_uri": "https://maps.gstatic.com/mapfiles/place_api/icons/v2/generic_pinlet",
      "name": "ALLOVERWC",
      "photos": [
        {
          "height": 2952,
          "html_attributions": [
            "<a href=\"https://maps.google.com/maps/contrib/105902240948327017554\">kevin Miller</a>"
          ],
          "photo_reference": "AeJbb3d13H71OkGdOc8NYaaK1fQ3kU2bS1B7lP7gQMsaYlyq2fb2sOLYd6nnjdJyxhkkGAhmJStTtP5_SJSo7MjUF3JeowTiB4BpZU8tupmGWUgrdhurdrywiBK4u7gDvi6KLutPJqkDnK8f74H1hzet8o18bVCYUZzbD2nFHVt5SzrxO-fW",
          "width": 5248
        }
      ],
      "place_id": "ChIJAQAAAGRZwokRO79ZL3JmaJ0",
      "plus_code": {
        "compound_code": "P24W+HF \u7f8e\u570b\u7d10\u7d04\u5e03\u9c81\u514b\u6797",
        "global_code": "87G8P24W+HF"
      },
      "reference": "ChIJAQAAAGRZwokRO79ZL3JmaJ0",
      "scope": "GOOGLE",
      "types": [
        "point_of_interest",
        "establishment"
      ],
      "vicinity": "\u5e03\u9c81\u514b\u6797"
    },
    {
      "business_status": "OPERATIONAL",
      "geometry": {
        "location": {
          "lat": 40.70886849999999,
          "lng": -73.9578868
        },
        "viewport": {
          "northeast": {
            "lat": 40.7101729802915,
            "lng": -73.95643431970849
          },
          "southwest": {
            "lat": 40.7074750197085,
            "lng": -73.9591322802915
          }
        }
      },
      "icon": "https://maps.gstatic.com/mapfiles/place_api/icons/v1/png_71/bar-71.png",
      "icon_background_color": "#FF9E67",
      "icon_mask_base_uri": "https://maps.gstatic.com/mapfiles/place_api/icons/v2/bar_pinlet",
      "name": "Duff's",
      "opening_hours": {
        "open_now": false
      },
      "photos": [
        {
          "height": 4000,
          "html_attributions": [
            "<a href=\"https://maps.google.com/maps/contrib/106225237117246967575\">A Portland Resident</a>"
          ],
          "photo_reference": "AeJbb3eSimdugkZfE3nny28T0mn0kIssO-Mn-10fEXHTwwgM3kcXw68-yPjXGbKyEfbvmo-NxQiIDZmjmpGntAHWBRYr8k1Uzh2rbKcQhgQ7VBoZwSMTncbp7FwbgH2j7V2678BoNGerWgVGNHTv-v1KTCjO1j8V9GkPINn98uGVaaFS3Uyg",
          "width": 6000
        }
      ],
      "place_id": "ChIJqTPVsWZZwokRny2D7qlCKaI",
      "plus_code": {
        "compound_code": "P25R+GR \u7f8e\u570b\u7d10\u7d04",
        "global_code": "87G8P25R+GR"
      },
      "price_level": 1,
      "rating": 4.8,
      "reference": "ChIJqTPVsWZZwokRny2D7qlCKaI",
      "scope": "GOOGLE",
      "types": [
        "bar",
        "point_of_interest",
        "establishment"
      ],
      "user_ratings_total": 714,
      "vicinity": "168 Marcy Avenue, Brooklyn"
    },
    {
      "business_status": "OPERATIONAL",
      "geometry": {
        "location": {
          "lat": 40.7100617,
          "lng": -73.957199
        },
        "viewport": {
          "northeast": {
            "lat": 40.7113063802915,
            "lng": -73.9559128697085
          },
          "southwest": {
            "lat": 40.7086084197085,
            "lng": -73.95861083029152
          }
        }
      },
      "icon": "https://maps.gstatic.com/mapfiles/place_api/icons/v1/png_71/civic_building-71.png",
      "icon_background_color": "#7B9EB0",
      "icon_mask_base_uri": "https://maps.gstatic.com/mapfiles/place_api/icons/v2/civic-bldg_pinlet",
      "name": "United States Postal Service",
      "opening_hours": {
        "open_now": false
      },
      "photos": [
        {
          "height": 4032,
          "html_attributions": [
            "<a href=\"https://maps.google.com/maps/contrib/114339123323154895565\">Elvis Jimenez</a>"
          ],
          "photo_reference": "AeJbb3eWwhX3X84gi6zTC0B_eogVzXpmlV8o06CCEzjpTZWlfiqnAk-KAkYHwxXgnVYuLC__W_k5O4LHoSk8R5e5gsppSRs4ibA5eKCjm5ORWTAne0lUeEOXsSZilJeUFbxVxoctAjvh0UdpE7TxdY94urxFp-llIQkLQw15vLM8n_-Eraol",
          "width": 3024
        }
      ],
      "place_id": "ChIJdzONWuBbwokR0G4ca5mGu2M",
      "plus_code": {
        "compound_code": "P26V+24 \u7f8e\u570b\u7d10\u7d04",
        "global_code": "87G8P26V+24"
      },
      "rating": 1.5,
      "reference": "ChIJdzONWuBbwokR0G4ca5mGu2M",
      "scope": "GOOGLE",
      "types": [
        "post_office",
        "finance",
        "local_government_office",
        "point_of_interest",
        "establishment"
      ],
      "user_ratings_total": 507,
      "vicinity": "263 South 4th Street, Brooklyn"
    },
    {
      "business_status": "OPERATIONAL",
      "geometry": {
        "location": {
          "lat": 40.7058576,
          "lng": -73.9514465
        },
        "viewport": {
          "northeast": {
            "lat": 40.7071663802915,
            "lng": -73.95002321970848
          },
          "southwest": {
            "lat": 40.7044684197085,
            "lng": -73.9527211802915
          }
        }
      },
      "icon": "https://maps.gstatic.com/mapfiles/place_api/icons/v1/png_71/shopping-71.png",
      "icon_background_color": "#4B96F3",
      "icon_mask_base_uri": "https://maps.gstatic.com/mapfiles/place_api/icons/v2/shopping_pinlet",
      "name": "Amazing Savings Williamsburg",
      "opening_hours": {
        "open_now": false
      },
      "photos": [
        {
          "height": 1836,
          "html_attributions": [
            "<a href=\"https://maps.google.com/maps/contrib/116149627123417163790\">Shimshy Bee</a>"
          ],
          "photo_reference": "AeJbb3eODm0WzPhsJIe0McIXYfIxvO26IKZlhPWtR2Zp3XQqgj7zbuxd7gMLawxiL60q1Yo0vQWbL1565HFUvfacUP4fWGBSLXcGdMLXXwPtqv9mFlQC0gX6XHQePIo43DuA99tc74TD5AtHJbcHppEQ3srSxZnS-aFzzcGsd6JY0R7Rkn-n",
          "width": 3264
        }
      ],
      "place_id": "ChIJTcjxeeRbwokRfUGi0aq2TrI",
      "plus_code": {
        "compound_code": "P24X+8C \u7f8e\u570b\u7d10\u7d04",
        "global_code": "87G8P24X+8C"
      },
      "rating": 4.4,
      "reference": "ChIJTcjxeeRbwokRfUGi0aq2TrI",
      "scope": "GOOGLE",
      "types": [
        "store",
        "point_of_interest",
        "establishment"
      ],
      "user_ratings_total": 1191,
      "vicinity": "331 Rutledge Street, Brooklyn"
    },
    {
      "business_status": "OPERATIONAL",
      "geometry": {
        "location": {
          "lat": 40.707327,
          "lng": -73.953716
        },
        "viewport": {
          "northeast": {
            "lat": 40.7087065302915,
            "lng": -73.9524262197085
          },
          "southwest": {
            "lat": 40.7060085697085,
            "lng": -73.9551241802915
          }
        }
      },
      "icon": "https://maps.gstatic.com/mapfiles/place_api/icons/v1/png_71/cafe-71.png",
      "icon_background_color": "#FF9E67",
      "icon_mask_base_uri": "https://maps.gstatic.com/mapfiles/place_api/icons/v2/cafe_pinlet",
      "name": "Fiction Bar/Cafe",
      "opening_hours": {
        "open_now": true
      },
      "photos": [
        {
          "height": 600,
          "html_attributions": [
            "<a href=\"https://maps.google.com/maps/contrib/104489279868751068294\">Fiction Bar/Cafe</a>"
          ],
          "photo_reference": "AeJbb3d0XyrOqQwfwYLzopYle1gGR2Tz48Nr-oUm1XKsayZyhlnM-RdedDRxN3mzb8oTt5VdWQyHbR6XwbVpfel-n1VQOUHrOoQB_HMemJ_D8suqeKykWVswqnornWQB2ZatU0dP800pjZr9N5sBbr5VM_9PDl8Ba6qIKHqJM032cgKVSYp6",
          "width": 598
        }
      ],
      "place_id": "ChIJ8SboWOFbwokRiE1YzSAO4Qc",
      "plus_code": {
        "compound_code": "P24W+WG \u7f8e\u570b\u7d10\u7d04\u5e03\u9c81\u514b\u6797",
        "global_code": "87G8P24W+WG"
      },
      "rating": 4.1,
      "reference": "ChIJ8SboWOFbwokRiE1YzSAO4Qc",
      "scope": "GOOGLE",
      "types": [
        "cafe",
        "bar",
        "store",
        "food",
        "point_of_interest",
        "establishment"
      ],
      "user_ratings_total": 388,
      "vicinity": "308 Hooper Street, Brooklyn"
    },
    {
      "business_status": "OPERATIONAL",
      "geometry": {
        "location": {
          "lat": 40.7068767,
          "lng": -73.9500479
        },
        "viewport": {
          "northeast": {
            "lat": 40.7083241802915,
            "lng": -73.9487849697085
          },
          "southwest": {
            "lat": 40.7056262197085,
            "lng": -73.9514829302915
          }
        }
      },
      "icon": "https://maps.gstatic.com/mapfiles/place_api/icons/v1/png_71/generic_business-71.png",
      "icon_background_color": "#4B96F3",
      "icon_mask_base_uri": "https://maps.gstatic.com/mapfiles/place_api/icons/v2/generic_pinlet",
      "name": "Walgreens",
      "opening_hours": {
        "open_now": true
      },
      "photos": [
        {
          "height": 3024,
          "html_attributions": [
            "<a href=\"https://maps.google.com/maps/contrib/100977787671095852487\">Bee one</a>"
          ],
          "photo_reference": "AeJbb3ffpPCWh0m061sACy47LvviS7FIAnaZr-mbaHFRKgrYF4CT-uTMBN6MbETx8LbFfJL6myjpSnYVNMqPC_zjTgdwFujSPzGFq4cC0agFV0cW_JguWcuElCVpd_kbh_zcncWKI1Nt8FLsz4COGDPmwAEpOpNoVnMl6p7Y-XDtolq5Y_JG",
          "width": 4032
        }
      ],
      "place_id": "ChIJVa1ZfONbwokR588idfWhlRU",
      "plus_code": {
        "compound_code": "P24X+QX \u7f8e\u570b\u7d10\u7d04",
        "global_code": "87G8P24X+QX"
      },
      "price_level": 2,
      "rating": 2.8,
      "reference": "ChIJVa1ZfONbwokR588idfWhlRU",
      "scope": "GOOGLE",
      "types": [
        "drugstore",
        "convenience_store",
        "clothing_store",
        "store",
        "food",
        "point_of_interest",
        "health",
        "establishment"
      ],
      "user_ratings_total": 154,
      "vicinity": "210 Union Avenue, Brooklyn"
    },
    {
      "business_status": "OPERATIONAL",
      "geometry": {
        "location": {
          "lat": 40.706339,
          "lng": -73.9505604
        },
        "viewport": {
          "northeast": {
            "lat": 40.7077034302915,
            "lng": -73.9491055697085
          },
          "southwest": {
            "lat": 40.7050054697085,
            "lng": -73.9518035302915
          }
        }
      },
      "icon": "https://maps.gstatic.com/mapfiles/place_api/icons/v1/png_71/civic_building-71.png",
      "icon_background_color": "#7B9EB0",
      "icon_mask_base_uri": "https://maps.gstatic.com/mapfiles/place_api/icons/v2/civic-bldg_pinlet",
      "name": "New York City Police Department - 90th Precinct",
      "opening_hours": {
        "open_now": true
      },
      "photos": [
        {
          "height": 3024,
          "html_attributions": [
            "<a href=\"https://maps.google.com/maps/contrib/100977787671095852487\">Bee one</a>"
          ],
          "photo_reference": "AeJbb3cgLPjlImOt42Tk4E1Q8yfTBhmGsTGX1n2P2pfpUd9VI3YJpN7fOSHdgIKwYCR1kFhu74AQeFU4dX01TGPK3V0sGdda3UtiR99mbl5U3B_IEQ2R3wjENem4D4PbuvyaTosK5FF0-NUhEpk8XIyN_g-Cm3GNyiZRdvDzBtynBsYe1Veh",
          "width": 4032
        }
      ],
      "place_id": "ChIJ73Bhd-NbwokRNlGrMJn7dH0",
      "plus_code": {
        "compound_code": "P24X+GQ \u7f8e\u570b\u7d10\u7d04\u5e03\u9c81\u514b\u6797",
        "global_code": "87G8P24X+GQ"
      },
      "rating": 3.7,
      "reference": "ChIJ73Bhd-NbwokRNlGrMJn7dH0",
      "scope": "GOOGLE",
      "types": [
        "police",
        "point_of_interest",
        "establishment"
      ],
      "user_ratings_total": 61,
      "vicinity": "211 Union Avenue, Brooklyn"
    },
    {
      "business_status": "OPERATIONAL",
      "geometry": {
        "location": {
          "lat": 40.7079126,
          "lng": -73.9557638
        },
        "viewport": {
          "northeast": {
            "lat": 40.7091601302915,
            "lng": -73.95447276970849
          },
          "southwest": {
            "lat": 40.7064621697085,
            "lng": -73.9571707302915
          }
        }
      },
      "icon": "https://maps.gstatic.com/mapfiles/place_api/icons/v1/png_71/generic_business-71.png",
      "icon_background_color": "#7B9EB0",
      "icon_mask_base_uri": "https://maps.gstatic.com/mapfiles/place_api/icons/v2/generic_pinlet",
      "name": "Zamaan Hookah Bar and Restaurant",
      "opening_hours": {
        "open_now": false
      },
      "photos": [
        {
          "height": 4032,
          "html_attributions": [
            "<a href=\"https://maps.google.com/maps/contrib/108103309781443230409\">Shiniqua Y McCall</a>"
          ],
          "photo_reference": "AeJbb3foKpIO86K3GOJ9kiyhYPquBRQhQ-5TaERUE09DKOyje7gk8xuE7JgWo9qH_894_ZyBaub4AWatQogsGq3JHT9pFaV2OQ4gKRFMmX-2DtMM_0IO3ZvKikfoTVfWOMHSrgUjIZGDY3qt_MZSSguNTO6YU1pI9MzbU6cSebiYJj14ULRK",
          "width": 2268
        }
      ],
      "place_id": "ChIJPRxpPeFbwokREvegMN7iPaI",
      "plus_code": {
        "compound_code": "P25V+5M \u7f8e\u570b\u7d10\u7d04",
        "global_code": "87G8P25V+5M"
      },
      "price_level": 1,
      "rating": 3.3,
      "reference": "ChIJPRxpPeFbwokREvegMN7iPaI",
      "scope": "GOOGLE",
      "types": [
        "point_of_interest",
        "establishment"
      ],
      "user_ratings_total": 164,
      "vicinity": "349 Broadway, Brooklyn"
    },
    {
      "business_status": "OPERATIONAL",
      "geometry": {
        "location": {
          "lat": 40.7077811,
          "lng": -73.9581164
        },
        "viewport": {
          "northeast": {
            "lat": 40.7092147802915,
            "lng": -73.9568424697085
          },
          "southwest": {
            "lat": 40.7065168197085,
            "lng": -73.95954043029151
          }
        }
      },
      "icon": "https://maps.gstatic.com/mapfiles/place_api/icons/v1/png_71/generic_business-71.png",
      "icon_background_color": "#7B9EB0",
      "icon_mask_base_uri": "https://maps.gstatic.com/mapfiles/place_api/icons/v2/generic_pinlet",
      "name": "Brooklyn Financial Group",
      "opening_hours": {
        "open_now": false
      },
      "photos": [
        {
          "height": 1493,
          "html_attributions": [
            "<a href=\"https://maps.google.com/maps/contrib/108142143038728270116\">Yoel Felberbaum</a>"
          ],
          "photo_reference": "AeJbb3dyfRZGqOnT5Kwgbr_Os2jbyr_Y3IC7UvYgeWMN3NJskmWra_8uZWeGxK71FyMQl3-So_IMGrFT2hlZbIvV-gCaR_3Wp9j0J8qQpS0JnqPdCu6xcaAIkf20ZPw0ox60tO3I4HguZvr6Xxvgbai_8S8OMb3-CEWcE6Rraw7Exmxt3OQe",
          "width": 1242
        }
      ],
      "place_id": "ChIJjYlZ3t5bwokRuE8DdTbzOxA",
      "plus_code": {
        "compound_code": "P25R+4Q \u7f8e\u570b\u7d10\u7d04",
        "global_code": "87G8P25R+4Q"
      },
      "rating": 5,
      "reference": "ChIJjYlZ3t5bwokRuE8DdTbzOxA",
      "scope": "GOOGLE",
      "types": [
        "insurance_agency",
        "finance",
        "point_of_interest",
        "establishment"
      ],
      "user_ratings_total": 2,
      "vicinity": "185A Marcy Avenue, Brooklyn"
    },
    {
      "business_status": "OPERATIONAL",
      "geometry": {
        "location": {
          "lat": 40.70826599999999,
          "lng": -73.95036300000001
        },
        "viewport": {
          "northeast": {
            "lat": 40.7095998802915,
            "lng": -73.94916301970851
          },
          "southwest": {
            "lat": 40.7069019197085,
            "lng": -73.95186098029151
          }
        }
      },
      "icon": "https://maps.gstatic.com/mapfiles/place_api/icons/v1/png_71/worship_general-71.png",
      "icon_background_color": "#7B9EB0",
      "icon_mask_base_uri": "https://maps.gstatic.com/mapfiles/place_api/icons/v2/worship_christian_pinlet",
      "name": "Iglesia Pentecostal Misionera",
      "opening_hours": {
        "open_now": false
      },
      "photos": [
        {
          "height": 1200,
          "html_attributions": [
            "<a href=\"https://maps.google.com/maps/contrib/108605778596958236375\">Igor Ostrovsky</a>"
          ],
          "photo_reference": "AeJbb3d_Nb_P1ZLNr5gL8iuBb61WeZE3dl1P4Lq4u-iSLINZof8R5rvUSyUSwx-Xot3TPpVQZ0PoBk1uzCQaoWz-xccTPHY4pLgrKM9Pbm2diaZy3IfqUs_IyG7YLW0tshryQAOcHibY1Y9nyQNe71wbPI3grLUSYOkDTyjhPJ9I5X9AoHKz",
          "width": 1200
        }
      ],
      "place_id": "ChIJaetYAONbwokRGwSeEepa6j0",
      "plus_code": {
        "compound_code": "P25X+8V \u7f8e\u570b\u7d10\u7d04\u5e03\u9c81\u514b\u6797",
        "global_code": "87G8P25X+8V"
      },
      "rating": 4.8,
      "reference": "ChIJaetYAONbwokRGwSeEepa6j0",
      "scope": "GOOGLE",
      "types": [
        "church",
        "place_of_worship",
        "point_of_interest",
        "establishment"
      ],
      "user_ratings_total": 5,
      "vicinity": "262 Union Avenue, Brooklyn"
    },
    {
      "business_status": "OPERATIONAL",
      "geometry": {
        "location": {
          "lat": 40.7049294,
          "lng": -73.9559767
        },
        "viewport": {
          "northeast": {
            "lat": 40.7063432802915,
            "lng": -73.9546066697085
          },
          "southwest": {
            "lat": 40.7036453197085,
            "lng": -73.9573046302915
          }
        }
      },
      "icon": "https://maps.gstatic.com/mapfiles/place_api/icons/v1/png_71/civic_building-71.png",
      "icon_background_color": "#7B9EB0",
      "icon_mask_base_uri": "https://maps.gstatic.com/mapfiles/place_api/icons/v2/civic-bldg_pinlet",
      "name": "Southside Community Mission",
      "opening_hours": {
        "open_now": false
      },
      "photos": [
        {
          "height": 2121,
          "html_attributions": [
            "<a href=\"https://maps.google.com/maps/contrib/115085480260601613882\">Southside Community Mission</a>"
          ],
          "photo_reference": "AeJbb3cgyq_8YHdnK5f1qOqRC5DfX2PIyhQnOFvBA95NqoOqdxEwxbI6KS7TfIQmtNGcrLA2Izbhc3vFG1fQJjLlFU47uwBS2Ps-zfn6sW-xCkWDzu-jdsRwYk3R8zsVnvC06A07-uRxxL22SffGqY-EuFl7PmokTax9TlcdJrASJKK8uoxw",
          "width": 4474
        }
      ],
      "place_id": "ChIJC3y_6OZbwokRa8Xge4s1UwA",
      "plus_code": {
        "compound_code": "P23V+XJ \u7f8e\u570b\u7d10\u7d04\u5e03\u9c81\u514b\u6797",
        "global_code": "87G8P23V+XJ"
      },
      "rating": 4.5,
      "reference": "ChIJC3y_6OZbwokRa8Xge4s1UwA",
      "scope": "GOOGLE",
      "types": [
        "point_of_interest",
        "establishment"
      ],
      "user_ratings_total": 15,
      "vicinity": "280 Marcy Avenue, Brooklyn"
    },
    {
      "business_status": "OPERATIONAL",
      "geometry": {
        "location": {
          "lat": 40.70685699999999,
          "lng": -73.951481
        },
        "viewport": {
          "northeast": {
            "lat": 40.7082757302915,
            "lng": -73.9500901197085
          },
          "southwest": {
            "lat": 40.7055777697085,
            "lng": -73.95278808029151
          }
        }
      },
      "icon": "https://maps.gstatic.com/mapfiles/place_api/icons/v1/png_71/shopping-71.png",
      "icon_background_color": "#4B96F3",
      "icon_mask_base_uri": "https://maps.gstatic.com/mapfiles/place_api/icons/v2/shopping_pinlet",
      "name": "Classic of NY (Classic Imports)",
      "opening_hours": {
        "open_now": false
      },
      "photos": [
        {
          "height": 3024,
          "html_attributions": [
            "<a href=\"https://maps.google.com/maps/contrib/107162762216472684922\">Classic of NY (Classic Imports)</a>"
          ],
          "photo_reference": "AeJbb3e4Ye7RuRP1ROJt_cjZoFzwscZt9p5aVSqiDd8AR0YZsMebrvc8dwk8aACoFfMlrrGZx2n_6KxYXCB-pSGdu9LWC4nEgnwXF-0eaNcLCCSFvzkkFfdonDvovFJ6xCG-qtCGRgFK3qG1HoINm-p_StfMBRTiySE8IvQQHH-3hTp30wd0",
          "width": 4032
        }
      ],
      "place_id": "ChIJVwCjt6tZwokRFkD7TKlQ64o",
      "plus_code": {
        "compound_code": "P24X+PC \u7f8e\u570b\u7d10\u7d04",
        "global_code": "87G8P24X+PC"
      },
      "rating": 4.8,
      "reference": "ChIJVwCjt6tZwokRFkD7TKlQ64o",
      "scope": "GOOGLE",
      "types": [
        "jewelry_store",
        "store",
        "point_of_interest",
        "establishment"
      ],
      "user_ratings_total": 4,
      "vicinity": "442 South 5th Street, Brooklyn"
    },
    {
      "business_status": "OPERATIONAL",
      "geometry": {
        "location": {
          "lat": 40.7037506,
          "lng": -73.954071
        },
        "viewport": {
          "northeast": {
            "lat": 40.7052790802915,
            "lng": -73.95258121970849
          },
          "southwest": {
            "lat": 40.7025811197085,
            "lng": -73.9552791802915
          }
        }
      },
      "icon": "https://maps.gstatic.com/mapfiles/place_api/icons/v1/png_71/school-71.png",
      "icon_background_color": "#7B9EB0",
      "icon_mask_base_uri": "https://maps.gstatic.com/mapfiles/place_api/icons/v2/school_pinlet",
      "name": "K071 - Juan Morel Campos Secondary School",
      "opening_hours": {
        "open_now": false
      },
      "photos": [
        {
          "height": 3024,
          "html_attributions": [
            "<a href=\"https://maps.google.com/maps/contrib/113151506387623700108\">\u05d9\u05d5\u05d3\u05d9 \u05de\u05e2\u05dc\u05d1\u05e2\u05e8</a>"
          ],
          "photo_reference": "AeJbb3e-hrBg7Ww7bQ_rOuSZMh4wDgNLeDpeLvKQntmjl1wXbxNhHI4_-T0Dh2oJdRzJ2M8SFocADs0dvacAaMsxz9-rPPa8fcQeco2yP6bvTFJqs96ELxmZtNk1fp8vBZZ9DSQXPHkWq7IEFEABiBwGYK54FmiQ0eTwdEQ5o_oslufiUhpE",
          "width": 4032
        }
      ],
      "place_id": "ChIJQ26z1uVbwokR1BjtpNn2glA",
      "plus_code": {
        "compound_code": "P23W+G9 \u7f8e\u570b\u7d10\u7d04",
        "global_code": "87G8P23W+G9"
      },
      "rating": 3.8,
      "reference": "ChIJQ26z1uVbwokR1BjtpNn2glA",
      "scope": "GOOGLE",
      "types": [
        "point_of_interest",
        "school",
        "establishment"
      ],
      "user_ratings_total": 14,
      "vicinity": "215 Heyward Street, Brooklyn"
    },
    {
      "business_status": "OPERATIONAL",
      "geometry": {
        "location": {
          "lat": 40.7099907,
          "lng": -73.9507146
        },
        "viewport": {
          "northeast": {
            "lat": 40.7113289302915,
            "lng": -73.9494850697085
          },
          "southwest": {
            "lat": 40.70863096970851,
            "lng": -73.95218303029151
          }
        }
      },
      "icon": "https://maps.gstatic.com/mapfiles/place_api/icons/v1/png_71/generic_business-71.png",
      "icon_background_color": "#7B9EB0",
      "icon_mask_base_uri": "https://maps.gstatic.com/mapfiles/place_api/icons/v2/generic_pinlet",
      "name": "UnionDocs",
      "opening_hours": {
        "open_now": false
      },
      "photos": [
        {
          "height": 3264,
          "html_attributions": [
            "<a href=\"https://maps.google.com/maps/contrib/116698420722259109114\">Vincent Verhaar</a>"
          ],
          "photo_reference": "AeJbb3cZmqn7xN1mjaZuz0FHMA47secbYkkthO7eVVX5BpIjerdJ1I3l-16UQ7u0lRBP2uVerEcA1J_RUYxqTvkIG8VsFZNW4VAGfUNLEYRz5wddI1eSCj5qQCMBqgjlCiY65Mo9pvKIIhFuyDIjBOKpUvX6nbsRZfLU9-tchF7XD7EySuTL",
          "width": 2448
        }
      ],
      "place_id": "ChIJ0VuYYeJbwokRlkJaQ6dpCpk",
      "plus_code": {
        "compound_code": "P25X+XP \u7f8e\u570b\u7d10\u7d04\u5e03\u9c81\u514b\u6797",
        "global_code": "87G8P25X+XP"
      },
      "rating": 4.8,
      "reference": "ChIJ0VuYYeJbwokRlkJaQ6dpCpk",
      "scope": "GOOGLE",
      "types": [
        "point_of_interest",
        "establishment"
      ],
      "user_ratings_total": 38,
      "vicinity": "322 Union Avenue, Brooklyn"
    },
    {
      "business_status": "OPERATIONAL",
      "geometry": {
        "location": {
          "lat": 40.703486,
          "lng": -73.95253
        },
        "viewport": {
          "northeast": {
            "lat": 40.7047040302915,
            "lng": -73.95103451970849
          },
          "southwest": {
            "lat": 40.7020060697085,
            "lng": -73.95373248029149
          }
        }
      },
      "icon": "https://maps.gstatic.com/mapfiles/place_api/icons/v1/png_71/civic_building-71.png",
      "icon_background_color": "#7B9EB0",
      "icon_mask_base_uri": "https://maps.gstatic.com/mapfiles/place_api/icons/v2/civic-bldg_pinlet",
      "name": "Military & Naval Affairs Division",
      "photos": [
        {
          "height": 3024,
          "html_attributions": [
            "<a href=\"https://maps.google.com/maps/contrib/113151506387623700108\">\u05d9\u05d5\u05d3\u05d9 \u05de\u05e2\u05dc\u05d1\u05e2\u05e8</a>"
          ],
          "photo_reference": "AeJbb3eRCPTS0Xz6ToJAan2TboR_9LAHn_n7cp1_EWtVpy6S8CjogaDzHOHGkvAVAj7VAGfwgTjWQ7GXR5uoxWOn_g-LVAgsrQFnyIGroJ8Dwztwa8PTGC_dlL6Ub6tk7NRK9TGjOmL03v_BAR36xgNRBRm04m4txTDLy4_8OHUCMgEGhcRr",
          "width": 4032
        }
      ],
      "place_id": "ChIJf0GszuVbwokR0WcfVNZlcHU",
      "plus_code": {
        "compound_code": "P23W+9X \u7f8e\u570b\u7d10\u7d04",
        "global_code": "87G8P23W+9X"
      },
      "rating": 5,
      "reference": "ChIJf0GszuVbwokR0WcfVNZlcHU",
      "scope": "GOOGLE",
      "types": [
        "point_of_interest",
        "establishment"
      ],
      "user_ratings_total": 5,
      "vicinity": "355 Marcy Avenue, Brooklyn"
    },
    {
      "business_status": "OPERATIONAL",
      "geometry": {
        "location": {
          "lat": 40.7041207,
          "lng": -73.9533388
        },
        "viewport": {
          "northeast": {
            "lat": 40.70542313029149,
            "lng": -73.95226126970849
          },
          "southwest": {
            "lat": 40.70272516970849,
            "lng": -73.9549592302915
          }
        }
      },
      "icon": "https://maps.gstatic.com/mapfiles/place_api/icons/v1/png_71/civic_building-71.png",
      "icon_background_color": "#7B9EB0",
      "icon_mask_base_uri": "https://maps.gstatic.com/mapfiles/place_api/icons/v2/civic-bldg_pinlet",
      "name": "Aspira of New York Inc",
      "place_id": "ChIJQ26z1uVbwokR9EYD9hfmHGQ",
      "plus_code": {
        "compound_code": "P23W+JM \u7f8e\u570b\u7d10\u7d04",
        "global_code": "87G8P23W+JM"
      },
      "reference": "ChIJQ26z1uVbwokR9EYD9hfmHGQ",
      "scope": "GOOGLE",
      "types": [
        "local_government_office",
        "point_of_interest",
        "establishment"
      ],
      "vicinity": "215 Heyward Street, Brooklyn"
    },
    {
      "business_status": "OPERATIONAL",
      "geometry": {
        "location": {
          "lat": 40.703486,
          "lng": -73.95253
        },
        "viewport": {
          "northeast": {
            "lat": 40.7047040302915,
            "lng": -73.95103451970849
          },
          "southwest": {
            "lat": 40.7020060697085,
            "lng": -73.95373248029149
          }
        }
      },
      "icon": "https://maps.gstatic.com/mapfiles/place_api/icons/v1/png_71/generic_business-71.png",
      "icon_background_color": "#7B9EB0",
      "icon_mask_base_uri": "https://maps.gstatic.com/mapfiles/place_api/icons/v2/generic_pinlet",
      "name": "715 Veterans Association Inc",
      "place_id": "ChIJf0GszuVbwokRvw4e3ili2gY",
      "plus_code": {
        "compound_code": "P23W+9X \u7f8e\u570b\u7d10\u7d04",
        "global_code": "87G8P23W+9X"
      },
      "reference": "ChIJf0GszuVbwokRvw4e3ili2gY",
      "scope": "GOOGLE",
      "types": [
        "point_of_interest",
        "establishment"
      ],
      "vicinity": "355 Marcy Avenue, Brooklyn"
    },
    {
      "business_status": "OPERATIONAL",
      "geometry": {
        "location": {
          "lat": 40.7066421,
          "lng": -73.95329679999999
        },
        "viewport": {
          "northeast": {
            "lat": 40.70793523029149,
            "lng": -73.95188491970849
          },
          "southwest": {
            "lat": 40.7052372697085,
            "lng": -73.9545828802915
          }
        }
      },
      "icon": "https://maps.gstatic.com/mapfiles/place_api/icons/v1/png_71/generic_business-71.png",
      "icon_background_color": "#7B9EB0",
      "icon_mask_base_uri": "https://maps.gstatic.com/mapfiles/place_api/icons/v2/generic_pinlet",
      "name": "Paradise Management",
      "place_id": "ChIJK-s3-eNbwokRq0EyxiuwmgA",
      "plus_code": {
        "compound_code": "P24W+MM \u7f8e\u570b\u7d10\u7d04\u5e03\u9c81\u514b\u6797",
        "global_code": "87G8P24W+MM"
      },
      "rating": 5,
      "reference": "ChIJK-s3-eNbwokRq0EyxiuwmgA",
      "scope": "GOOGLE",
      "types": [
        "point_of_interest",
        "establishment"
      ],
      "user_ratings_total": 1,
      "vicinity": "329 Hewes Street #6, Brooklyn"
    },
    {
      "geometry": {
        "location": {
          "lat": 40.7081156,
          "lng": -73.9570696
        },
        "viewport": {
          "northeast": {
            "lat": 40.72517731339519,
            "lng": -73.93649795539471
          },
          "southwest": {
            "lat": 40.6979329348545,
            "lng": -73.96984504384962
          }
        }
      },
      "icon": "https://maps.gstatic.com/mapfiles/place_api/icons/v1/png_71/geocode-71.png",
      "icon_background_color": "#7B9EB0",
      "icon_mask_base_uri": "https://maps.gstatic.com/mapfiles/place_api/icons/v2/generic_pinlet",
      "name": "\u5a01\u5ec9\u65af\u5821",
      "photos": [
        {
          "height": 2268,
          "html_attributions": [
            "<a href=\"https://maps.google.com/maps/contrib/110677025721526440304\">Oleg Kapitonov</a>"
          ],
          "photo_reference": "AeJbb3ff9xfI6kJHOHXme7GephKZUa_9HtB_bgHaUlQDIXlYR_NveugkR9QzSxS5akwgSLDutOromHmVnMbCbW8kVWCGpLlZO97ZAKByFgnT800PikDVCwwSEy4W4X7wdK4MuiHWt09mf5U6IBpcGD1kQxylvn-MJ_YowrvusM-CH23bgpCo",
          "width": 4032
        }
      ],
      "place_id": "ChIJQSrBBv1bwokRbNfFHCnyeYI",
      "reference": "ChIJQSrBBv1bwokRbNfFHCnyeYI",
      "scope": "GOOGLE",
      "types": [
        "neighborhood",
        "political"
      ],
      "vicinity": "\u5e03\u9c81\u514b\u6797"
    },
    {
      "business_status": "OPERATIONAL",
      "geometry": {
        "location": {
          "lat": 40.7078966,
          "lng": -73.95244939999999
        },
        "viewport": {
          "northeast": {
            "lat": 40.7093228302915,
            "lng": -73.95107236970848
          },
          "southwest": {
            "lat": 40.7066248697085,
            "lng": -73.95377033029149
          }
        }
      },
      "icon": "https://maps.gstatic.com/mapfiles/place_api/icons/v1/png_71/school-71.png",
      "icon_background_color": "#7B9EB0",
      "icon_mask_base_uri": "https://maps.gstatic.com/mapfiles/place_api/icons/v2/school_pinlet",
      "name": "Nuestros Ninos Child Development Center",
      "photos": [
        {
          "height": 2208,
          "html_attributions": [
            "<a href=\"https://maps.google.com/maps/contrib/101105822381558566251\">Viviana Sanchez</a>"
          ],
          "photo_reference": "AeJbb3cIhN-xG-wCfdrLUKz9RrZASdowrBSamLXMj2lG7gVYAJOvepC1kcQvsQuH-_DBg10xAa9K2E4obknjZ4kPXDdOfqlr6A8DHwzo1Fq8zxIRBrGHzbFeVy7z6RAFptVfrIttgKQVq6QoQamqFVqQqDk9Tm6IIqgRSW9egegdN8aAQ6Up",
          "width": 1112
        }
      ],
      "place_id": "ChIJXadixuNbwokRB83RQ61_xZE",
      "plus_code": {
        "compound_code": "P25X+52 Brooklyn, NY, USA",
        "global_code": "87G8P25X+52"
      },
      "rating": 4.5,
      "reference": "ChIJXadixuNbwokRB83RQ61_xZE",
      "scope": "GOOGLE",
      "types": [
        "point_of_interest",
        "establishment"
      ],
      "user_ratings_total": 12,
      "vicinity": "384 South 4th Street, Brooklyn"
    },
    {
      "business_status": "OPERATIONAL",
      "geometry": {
        "location": {
          "lat": 40.709047,
          "lng": -73.958912
        },
        "viewport": {
          "northeast": {
            "lat": 40.7104375302915,
            "lng": -73.95766516970849
          },
          "southwest": {
            "lat": 40.7077395697085,
            "lng": -73.9603631302915
          }
        }
      },
      "icon": "https://maps.gstatic.com/mapfiles/place_api/icons/v1/png_71/bank-71.png",
      "icon_background_color": "#909CE1",
      "icon_mask_base_uri": "https://maps.gstatic.com/mapfiles/place_api/icons/v2/bank-intl_pinlet",
      "name": "Chase Bank",
      "opening_hours": {
        "open_now": false
      },
      "photos": [
        {
          "height": 4000,
          "html_attributions": [
            "<a href=\"https://maps.google.com/maps/contrib/114222813373469903914\">naftulie</a>"
          ],
          "photo_reference": "AeJbb3dCJUVQuR67tbYx-1ILc35AiAhKCrkg6gr7xZQ-oK47ybSfnDUVu2KugVNehDFNBbPqEFIkgT0gDcx9lH4Vz_QhTV4aYjKpMyw0JCl9TH1SBwRiVQIFP1iM6DTOwqeQZVd_2k2Z5da1wAByUMRIT5ZFu1V9fPj15nnUOQHg5BpdQZFC",
          "width": 3000
        }
      ],
      "place_id": "ChIJsSxGm-BbwokRsl76owLvzjw",
      "plus_code": {
        "compound_code": "P25R+JC New York, NY, USA",
        "global_code": "87G8P25R+JC"
      },
      "rating": 3.2,
      "reference": "ChIJsSxGm-BbwokRsl76owLvzjw",
      "scope": "GOOGLE",
      "types": [
        "bank",
        "atm",
        "finance",
        "point_of_interest",
        "establishment"
      ],
      "user_ratings_total": 76,
      "vicinity": "225 Havemeyer Street, Brooklyn"
    },
    {
      "business_status": "OPERATIONAL",
      "geometry": {
        "location": {
          "lat": 40.7063862,
          "lng": -73.9488365
        },
        "viewport": {
          "northeast": {
            "lat": 40.7076628802915,
            "lng": -73.94745981970848
          },
          "southwest": {
            "lat": 40.7049649197085,
            "lng": -73.9501577802915
          }
        }
      },
      "icon": "https://maps.gstatic.com/mapfiles/place_api/icons/v1/png_71/worship_general-71.png",
      "icon_background_color": "#7B9EB0",
      "icon_mask_base_uri": "https://maps.gstatic.com/mapfiles/place_api/icons/v2/worship_christian_pinlet",
      "name": "Christian Internet",
      "opening_hours": {
        "open_now": false
      },
      "photos": [
        {
          "height": 359,
          "html_attributions": [
            "<a href=\"https://maps.google.com/maps/contrib/105704655223827550973\">Christian Internet</a>"
          ],
          "photo_reference": "AeJbb3ddhxPJrCLzVHN4yRWTeKUBEXNU7fsGGSdKu0JQ3uJHy78TjtegtT3CXuKM855XH5NDIiZbbi_gRhUGXoO9hIb7Ly_mXAFDNp3lVt-E61eLWDHiqwTaWYSGKz4AW2T2loT_i3MfkxVKP4YRFtdjnrvYwjH0hEQoScyEumdyIFcIXvfZ",
          "width": 600
        }
      ],
      "place_id": "ChIJHf6OXuNbwokRVpRaZR-ftRg",
      "plus_code": {
        "compound_code": "P342+HF Brooklyn, NY, USA",
        "global_code": "87G8P342+HF"
      },
      "reference": "ChIJHf6OXuNbwokRVpRaZR-ftRg",
      "scope": "GOOGLE",
      "types": [
        "church",
        "place_of_worship",
        "point_of_interest",
        "establishment"
      ],
      "vicinity": "30 Montrose Avenue, Brooklyn"
    },
    {
      "business_status": "OPERATIONAL",
      "geometry": {
        "location": {
          "lat": 40.706926,
          "lng": -73.9506085
        },
        "viewport": {
          "northeast": {
            "lat": 40.70828343029149,
            "lng": -73.9491846697085
          },
          "southwest": {
            "lat": 40.7055854697085,
            "lng": -73.95188263029151
          }
        }
      },
      "icon": "https://maps.gstatic.com/mapfiles/place_api/icons/v1/png_71/generic_business-71.png",
      "icon_background_color": "#7B9EB0",
      "icon_mask_base_uri": "https://maps.gstatic.com/mapfiles/place_api/icons/v2/generic_pinlet",
      "name": "Circle Evolution",
      "place_id": "ChIJC9cOduNbwokRBoF-hkX_FVg",
      "plus_code": {
        "compound_code": "P24X+QQ New York, NY, USA",
        "global_code": "87G8P24X+QQ"
      },
      "rating": 5,
      "reference": "ChIJC9cOduNbwokRBoF-hkX_FVg",
      "scope": "GOOGLE",
      "types": [
        "health",
        "point_of_interest",
        "establishment"
      ],
      "user_ratings_total": 1,
      "vicinity": "213 Union Avenue, Brooklyn"
    },
    {
      "business_status": "OPERATIONAL",
      "geometry": {
        "location": {
          "lat": 40.7075636,
          "lng": -73.9502457
        },
        "viewport": {
          "northeast": {
            "lat": 40.7088425302915,
            "lng": -73.9488709197085
          },
          "southwest": {
            "lat": 40.7061445697085,
            "lng": -73.9515688802915
          }
        }
      },
      "icon": "https://maps.gstatic.com/mapfiles/place_api/icons/v1/png_71/shopping-71.png",
      "icon_background_color": "#4B96F3",
      "icon_mask_base_uri": "https://maps.gstatic.com/mapfiles/place_api/icons/v2/shopping_pinlet",
      "name": "Armageddon Ink Gallery",
      "opening_hours": {
        "open_now": true
      },
      "photos": [
        {
          "height": 1524,
          "html_attributions": [
            "<a href=\"https://maps.google.com/maps/contrib/107261441703531946396\">Catherine Morales</a>"
          ],
          "photo_reference": "AeJbb3dYar_0hbd3wZwJN11vonnxO16fQUdEWA2iQ4jxNVrg-YkVmjdcSDIFDKHUhCfqcm6P5Lzy7OVI3FAhXqQepEDAk9xKv54ZaGgghlA0wns-h1yEnQX7_esKf9bhTUHUMn7stBmjydBsPeRXkZpvGTpRPBBlhkG3bnKcEIGLgTqQtbxx",
          "width": 1440
        }
      ],
      "place_id": "ChIJZVVayVVZwokRd8DHGamGGUM",
      "plus_code": {
        "compound_code": "P25X+2W New York, NY, USA",
        "global_code": "87G8P25X+2W"
      },
      "rating": 4.5,
      "reference": "ChIJZVVayVVZwokRd8DHGamGGUM",
      "scope": "GOOGLE",
      "types": [
        "store",
        "point_of_interest",
        "establishment"
      ],
      "user_ratings_total": 90,
      "vicinity": "7 Meserole Street, Brooklyn"
    },
    {
      "business_status": "CLOSED_TEMPORARILY",
      "geometry": {
        "location": {
          "lat": 40.707163,
          "lng": -73.9548319
        },
        "viewport": {
          "northeast": {
            "lat": 40.7085957802915,
            "lng": -73.9534344697085
          },
          "southwest": {
            "lat": 40.7058978197085,
            "lng": -73.9561324302915
          }
        }
      },
      "icon": "https://maps.gstatic.com/mapfiles/place_api/icons/v1/png_71/shopping-71.png",
      "icon_background_color": "#4B96F3",
      "icon_mask_base_uri": "https://maps.gstatic.com/mapfiles/place_api/icons/v2/shopping_pinlet",
      "name": "Bike Ahead",
      "permanently_closed": true,
      "photos": [
        {
          "height": 893,
          "html_attributions": [
            "<a href=\"https://maps.google.com/maps/contrib/114085047007537197556\">Ethan Laek</a>"
          ],
          "photo_reference": "AeJbb3fLmOO7225EdYGS4x28YHwEVdW7xAbzpnCFVEUWkXYNs9poh54ioPfrk85lauaNvaMuvrp7sHTJkD4D2DNudpFfwCVuMge_oYoelkODcGyZIlPGUxS3Nju09CwuE6YlIhK_BogjgwZgPrzHgwhvr1WO-_d9V-l6pm58QpUVXvhadSG_",
          "width": 1339
        }
      ],
      "place_id": "ChIJB7ktT-FbwokRjDmHDZtePqY",
      "plus_code": {
        "compound_code": "P24W+V3 Brooklyn, NY, USA",
        "global_code": "87G8P24W+V3"
      },
      "rating": 4,
      "reference": "ChIJB7ktT-FbwokRjDmHDZtePqY",
      "scope": "GOOGLE",
      "types": [
        "bicycle_store",
        "store",
        "point_of_interest",
        "establishment"
      ],
      "user_ratings_total": 40,
      "vicinity": "386 Broadway, Brooklyn"
    },
    {
      "business_status": "OPERATIONAL",
      "geometry": {
        "location": {
          "lat": 40.707398,
          "lng": -73.949057
        },
        "viewport": {
          "northeast": {
            "lat": 40.7088124802915,
            "lng": -73.9477188197085
          },
          "southwest": {
            "lat": 40.7061145197085,
            "lng": -73.9504167802915
          }
        }
      },
      "icon": "https://maps.gstatic.com/mapfiles/place_api/icons/v1/png_71/generic_business-71.png",
      "icon_background_color": "#7B9EB0",
      "icon_mask_base_uri": "https://maps.gstatic.com/mapfiles/place_api/icons/v2/generic_pinlet",
      "name": "38 Meserole Dental",
      "opening_hours": {
        "open_now": false
      },
      "photos": [
        {
          "height": 444,
          "html_attributions": [
            "<a href=\"https://maps.google.com/maps/contrib/112605073716758209199\">38 Meserole Dental</a>"
          ],
          "photo_reference": "AeJbb3ednb-bwNVWgTS6K-2-ZPY3yJXPz9wpLrKdRL2YqS_uB_JtflKnm9jL1pGaLS5lnl2xZOx1--G5WCiy_IDoN6nIu-XrAaFQtYMsIaihh0ix-zAqTaSv6Yy0_8Tdp6-Ut3U70dtnoiE3LWXfo9_qWBGPqunhUacQa8YKA-f4sd5k_Rfo",
          "width": 1200
        }
      ],
      "place_id": "ChIJU-8uFuNbwokR3bzOpyxi0co",
      "plus_code": {
        "compound_code": "P342+X9 Brooklyn, NY, USA",
        "global_code": "87G8P342+X9"
      },
      "rating": 4.5,
      "reference": "ChIJU-8uFuNbwokR3bzOpyxi0co",
      "scope": "GOOGLE",
      "types": [
        "dentist",
        "health",
        "point_of_interest",
        "establishment"
      ],
      "user_ratings_total": 54,
      "vicinity": "38 Meserole Street, Brooklyn"
    },
    {
      "business_status": "OPERATIONAL",
      "geometry": {
        "location": {
          "lat": 40.70968329999999,
          "lng": -73.9527823
        },
        "viewport": {
          "northeast": {
            "lat": 40.71110453029149,
            "lng": -73.95138656970849
          },
          "southwest": {
            "lat": 40.70840656970849,
            "lng": -73.9540845302915
          }
        }
      },
      "icon": "https://maps.gstatic.com/mapfiles/place_api/icons/v1/png_71/generic_business-71.png",
      "icon_background_color": "#7B9EB0",
      "icon_mask_base_uri": "https://maps.gstatic.com/mapfiles/place_api/icons/v2/generic_pinlet",
      "name": "New York Free Poker Inc",
      "place_id": "ChIJv-W7s8dawokRN1_5r1Yd-jw",
      "plus_code": {
        "compound_code": "P25W+VV Brooklyn, NY, USA",
        "global_code": "87G8P25W+VV"
      },
      "rating": 5,
      "reference": "ChIJv-W7s8dawokRN1_5r1Yd-jw",
      "scope": "GOOGLE",
      "types": [
        "point_of_interest",
        "establishment"
      ],
      "user_ratings_total": 2,
      "vicinity": "374 South 2nd Street #2, Brooklyn"
    },
    {
      "business_status": "OPERATIONAL",
      "geometry": {
        "location": {
          "lat": 40.7048355,
          "lng": -73.9554914
        },
        "viewport": {
          "northeast": {
            "lat": 40.7062515802915,
            "lng": -73.95417181970849
          },
          "southwest": {
            "lat": 40.7035536197085,
            "lng": -73.9568697802915
          }
        }
      },
      "icon": "https://maps.gstatic.com/mapfiles/place_api/icons/v1/png_71/generic_business-71.png",
      "icon_background_color": "#7B9EB0",
      "icon_mask_base_uri": "https://maps.gstatic.com/mapfiles/place_api/icons/v2/generic_pinlet",
      "name": "Dr. Elana Nogid, DDS",
      "place_id": "ChIJDeoO7uZbwokR1OlBCL1f_RY",
      "plus_code": {
        "compound_code": "P23V+WR New York, NY, USA",
        "global_code": "87G8P23V+WR"
      },
      "rating": 4.3,
      "reference": "ChIJDeoO7uZbwokR1OlBCL1f_RY",
      "scope": "GOOGLE",
      "types": [
        "dentist",
        "health",
        "point_of_interest",
        "establishment"
      ],
      "user_ratings_total": 3,
      "vicinity": "234 Hewes Street A, Brooklyn"
    },
    {
      "business_status": "OPERATIONAL",
      "geometry": {
        "location": {
          "lat": 40.7086241,
          "lng": -73.95924699999999
        },
        "viewport": {
          "northeast": {
            "lat": 40.7100761802915,
            "lng": -73.95783631970849
          },
          "southwest": {
            "lat": 40.7073782197085,
            "lng": -73.9605342802915
          }
        }
      },
      "icon": "https://maps.gstatic.com/mapfiles/place_api/icons/v1/png_71/generic_business-71.png",
      "icon_background_color": "#7B9EB0",
      "icon_mask_base_uri": "https://maps.gstatic.com/mapfiles/place_api/icons/v2/generic_pinlet",
      "name": "Schonfeld Financial Services",
      "place_id": "ChIJV126nuBbwokR15Lj-K0P85A",
      "plus_code": {
        "compound_code": "P25R+C8 Brooklyn, NY, USA",
        "global_code": "87G8P25R+C8"
      },
      "reference": "ChIJV126nuBbwokR15Lj-K0P85A",
      "scope": "GOOGLE",
      "types": [
        "finance",
        "point_of_interest",
        "establishment"
      ],
      "vicinity": "266 Broadway, Brooklyn"
    },
    {
      "business_status": "OPERATIONAL",
      "geometry": {
        "location": {
          "lat": 40.7088145,
          "lng": -73.95861030000002
        },
        "viewport": {
          "northeast": {
            "lat": 40.7100971302915,
            "lng": -73.9573019697085
          },
          "southwest": {
            "lat": 40.7073991697085,
            "lng": -73.9599999302915
          }
        }
      },
      "icon": "https://maps.gstatic.com/mapfiles/place_api/icons/v1/png_71/bank-71.png",
      "icon_background_color": "#909CE1",
      "icon_mask_base_uri": "https://maps.gstatic.com/mapfiles/place_api/icons/v2/bank-intl_pinlet",
      "name": "Dime Community Bank",
      "opening_hours": {
        "open_now": false
      },
      "photos": [
        {
          "height": 3036,
          "html_attributions": [
            "<a href=\"https://maps.google.com/maps/contrib/115675204236876490370\">Drew Gibbons</a>"
          ],
          "photo_reference": "AeJbb3csOIc7mPkzyXI6zi-u1pOvmiFs6FQLkmF2jx9bBuM3pn_HAdLYLoqMVNFwxUZupvAg1pSp74U9dILqB6-kU2kBlH6Ud8GO_jhwPbjocngUDgeYczJLmBeMTQ_Eaq5ASi0f1FruSE1pXQVu0qfHG8fJRwr9hebzP-2BaroFtq5AQ1dy",
          "width": 4048
        }
      ],
      "place_id": "ChIJwUt_9OBbwokRt6PoDt9EERk",
      "plus_code": {
        "compound_code": "P25R+GH New York, NY, USA",
        "global_code": "87G8P25R+GH"
      },
      "rating": 3.6,
      "reference": "ChIJwUt_9OBbwokRt6PoDt9EERk",
      "scope": "GOOGLE",
      "types": [
        "bank",
        "atm",
        "finance",
        "point_of_interest",
        "establishment"
      ],
      "user_ratings_total": 11,
      "vicinity": "281 Broadway, Brooklyn"
    },
    {
      "business_status": "OPERATIONAL",
      "geometry": {
        "location": {
          "lat": 40.71085110000001,
          "lng": -73.9536962
        },
        "viewport": {
          "northeast": {
            "lat": 40.7121535302915,
            "lng": -73.9523281197085
          },
          "southwest": {
            "lat": 40.7094555697085,
            "lng": -73.9550260802915
          }
        }
      },
      "icon": "https://maps.gstatic.com/mapfiles/place_api/icons/v1/png_71/restaurant-71.png",
      "icon_background_color": "#FF9E67",
      "icon_mask_base_uri": "https://maps.gstatic.com/mapfiles/place_api/icons/v2/restaurant_pinlet",
      "name": "Lighthouse",
      "opening_hours": {
        "open_now": true
      },
      "photos": [
        {
          "height": 1424,
          "html_attributions": [
            "<a href=\"https://maps.google.com/maps/contrib/111963221838605519557\">Lighthouse</a>"
          ],
          "photo_reference": "AeJbb3dXfOm7IGzNr6J1qRy3JGNtRz8K_LP4Bsmb6yXu2z--1U82kF-5DkEDp5ThuZtWlXTnu8dqzMZ-uU93S-Jk1KFp4gBHDCOnOm_EWkZA_k4ZSu-6QpU8ff7f4KnH_3Nen_PVKNR4laSvpcNeqsqAEbZkZZEq2qbGVkTHGD2IN4ujCMqY",
          "width": 2048
        }
      ],
      "place_id": "ChIJmU4y-OFbwokRuuTUu-zsedc",
      "plus_code": {
        "compound_code": "P26W+8G New York, NY, USA",
        "global_code": "87G8P26W+8G"
      },
      "price_level": 2,
      "rating": 4.4,
      "reference": "ChIJmU4y-OFbwokRuuTUu-zsedc",
      "scope": "GOOGLE",
      "types": [
        "bar",
        "restaurant",
        "food",
        "point_of_interest",
        "establishment"
      ],
      "user_ratings_total": 463,
      "vicinity": "145 Borinquen Place, Brooklyn"
    },
    {
      "business_status": "OPERATIONAL",
      "geometry": {
        "location": {
          "lat": 40.70667669999999,
          "lng": -73.9534166
        },
        "viewport": {
          "northeast": {
            "lat": 40.7081087802915,
            "lng": -73.9520169697085
          },
          "southwest": {
            "lat": 40.7054108197085,
            "lng": -73.9547149302915
          }
        }
      },
      "icon": "https://maps.gstatic.com/mapfiles/place_api/icons/v1/png_71/generic_business-71.png",
      "icon_background_color": "#7B9EB0",
      "icon_mask_base_uri": "https://maps.gstatic.com/mapfiles/place_api/icons/v2/generic_pinlet",
      "name": "Waterfront Property Management",
      "place_id": "ChIJMZox-eNbwokRKipVXuzBWB8",
      "plus_code": {
        "compound_code": "P24W+MJ Brooklyn, NY, USA",
        "global_code": "87G8P24W+MJ"
      },
      "reference": "ChIJMZox-eNbwokRKipVXuzBWB8",
      "scope": "GOOGLE",
      "types": [
        "point_of_interest",
        "establishment"
      ],
      "vicinity": "420 Broadway # 2, Brooklyn"
    },
    {
      "business_status": "OPERATIONAL",
      "geometry": {
        "location": {
          "lat": 40.7079548,
          "lng": -73.95322589999999
        },
        "viewport": {
          "northeast": {
            "lat": 40.70930378029149,
            "lng": -73.95187691970848
          },
          "southwest": {
            "lat": 40.7066058197085,
            "lng": -73.95457488029149
          }
        }
      },
      "icon": "https://maps.gstatic.com/mapfiles/place_api/icons/v1/png_71/generic_business-71.png",
      "icon_background_color": "#7B9EB0",
      "icon_mask_base_uri": "https://maps.gstatic.com/mapfiles/place_api/icons/v2/generic_pinlet",
      "name": "Jonannys Unisex",
      "opening_hours": {
        "open_now": true
      },
      "photos": [
        {
          "height": 640,
          "html_attributions": [
            "<a href=\"https://maps.google.com/maps/contrib/102346984369215412187\">Jonannys Unisex</a>"
          ],
          "photo_reference": "AeJbb3dsHDJ9wK1YvUv0kKEyc72TBMQ5bS_-3vSl265cB4DAEP-nXRrEJJt8j796otkQ-NU-G3wIaTDS_Erb_X6A4arKNFVzHKjV_1KnyIDF3Sf4m9hOGih_G15fXlrkK4rQ0JK10N8hdX3PR_i4S95ouRfPl63vWYcYJ8ghBt-qvxfFfIIC",
          "width": 640
        }
      ],
      "place_id": "ChIJ_8I_9YFZwokRri-jxUcRVW8",
      "plus_code": {
        "compound_code": "P25W+5P New York, NY, USA",
        "global_code": "87G8P25W+5P"
      },
      "rating": 4.2,
      "reference": "ChIJ_8I_9YFZwokRri-jxUcRVW8",
      "scope": "GOOGLE",
      "types": [
        "beauty_salon",
        "hair_care",
        "point_of_interest",
        "establishment"
      ],
      "user_ratings_total": 39,
      "vicinity": "332 Hooper Street, Brooklyn"
    },
    {
      "business_status": "OPERATIONAL",
      "geometry": {
        "location": {
          "lat": 40.7064723,
          "lng": -73.9544619
        },
        "viewport": {
          "northeast": {
            "lat": 40.7078708302915,
            "lng": -73.9530356697085
          },
          "southwest": {
            "lat": 40.7051728697085,
            "lng": -73.9557336302915
          }
        }
      },
      "icon": "https://maps.gstatic.com/mapfiles/place_api/icons/v1/png_71/shopping-71.png",
      "icon_background_color": "#4B96F3",
      "icon_mask_base_uri": "https://maps.gstatic.com/mapfiles/place_api/icons/v2/shopping_pinlet",
      "name": "FCI Tech",
      "opening_hours": {
        "open_now": false
      },
      "place_id": "ChIJH97ZAetbwokRrQ-kmT8U7aY",
      "plus_code": {
        "compound_code": "P24W+H6 New York, NY, USA",
        "global_code": "87G8P24W+H6"
      },
      "rating": 4.3,
      "reference": "ChIJH97ZAetbwokRrQ-kmT8U7aY",
      "scope": "GOOGLE",
      "types": [
        "electronics_store",
        "store",
        "point_of_interest",
        "establishment"
      ],
      "user_ratings_total": 7,
      "vicinity": "14 Harrison Avenue, Brooklyn"
    },
    {
      "business_status": "OPERATIONAL",
      "geometry": {
        "location": {
          "lat": 40.7057154,
          "lng": -73.9556113
        },
        "viewport": {
          "northeast": {
            "lat": 40.70709908029149,
            "lng": -73.9543586197085
          },
          "southwest": {
            "lat": 40.70440111970849,
            "lng": -73.9570565802915
          }
        }
      },
      "icon": "https://maps.gstatic.com/mapfiles/place_api/icons/v1/png_71/school-71.png",
      "icon_background_color": "#7B9EB0",
      "icon_mask_base_uri": "https://maps.gstatic.com/mapfiles/place_api/icons/v2/school_pinlet",
      "name": "El Puente Academy for Peace and Justice",
      "place_id": "ChIJI1-FxOZbwokRJaOAYdAQJ0g",
      "plus_code": {
        "compound_code": "P24V+7Q New York, NY, USA",
        "global_code": "87G8P24V+7Q"
      },
      "rating": 4.2,
      "reference": "ChIJI1-FxOZbwokRJaOAYdAQJ0g",
      "scope": "GOOGLE",
      "types": [
        "school",
        "point_of_interest",
        "establishment"
      ],
      "user_ratings_total": 17,
      "vicinity": "250 Hooper Street, Brooklyn"
    },
    {
      "business_status": "OPERATIONAL",
      "geometry": {
        "location": {
          "lat": 40.7079671,
          "lng": -73.95365
        },
        "viewport": {
          "northeast": {
            "lat": 40.7092337802915,
            "lng": -73.9523501197085
          },
          "southwest": {
            "lat": 40.7065358197085,
            "lng": -73.9550480802915
          }
        }
      },
      "icon": "https://maps.gstatic.com/mapfiles/place_api/icons/v1/png_71/generic_business-71.png",
      "icon_background_color": "#7B9EB0",
      "icon_mask_base_uri": "https://maps.gstatic.com/mapfiles/place_api/icons/v2/generic_pinlet",
      "name": "R & G Henry Limo",
      "opening_hours": {
        "open_now": true
      },
      "place_id": "ChIJj7fxYOFbwokREUGzzML39fs",
      "plus_code": {
        "compound_code": "P25W+5G Brooklyn, NY, USA",
        "global_code": "87G8P25W+5G"
      },
      "reference": "ChIJj7fxYOFbwokREUGzzML39fs",
      "scope": "GOOGLE",
      "types": [
        "point_of_interest",
        "establishment"
      ],
      "vicinity": "371 South 5th Street, Brooklyn"
    },
    {
      "business_status": "OPERATIONAL",
      "geometry": {
        "location": {
          "lat": 40.70800409999999,
          "lng": -73.95134759999999
        },
        "viewport": {
          "northeast": {
            "lat": 40.7093045802915,
            "lng": -73.9498822697085
          },
          "southwest": {
            "lat": 40.7066066197085,
            "lng": -73.9525802302915
          }
        }
      },
      "icon": "https://maps.gstatic.com/mapfiles/place_api/icons/v1/png_71/civic_building-71.png",
      "icon_background_color": "#7B9EB0",
      "icon_mask_base_uri": "https://maps.gstatic.com/mapfiles/place_api/icons/v2/civic-bldg_pinlet",
      "name": "Southside United Housing",
      "place_id": "ChIJgWTXr-NbwokRKRU5IpYseNw",
      "plus_code": {
        "compound_code": "P25X+6F New York, NY, USA",
        "global_code": "87G8P25X+6F"
      },
      "reference": "ChIJgWTXr-NbwokRKRU5IpYseNw",
      "scope": "GOOGLE",
      "types": [
        "local_government_office",
        "point_of_interest",
        "establishment"
      ],
      "vicinity": "366 Hewes Street, Brooklyn"
    },
    {
      "business_status": "OPERATIONAL",
      "geometry": {
        "location": {
          "lat": 40.7094573,
          "lng": -73.9545576
        },
        "viewport": {
          "northeast": {
            "lat": 40.7107845802915,
            "lng": -73.95312746970849
          },
          "southwest": {
            "lat": 40.7080866197085,
            "lng": -73.9558254302915
          }
        }
      },
      "icon": "https://maps.gstatic.com/mapfiles/place_api/icons/v1/png_71/generic_business-71.png",
      "icon_background_color": "#7B9EB0",
      "icon_mask_base_uri": "https://maps.gstatic.com/mapfiles/place_api/icons/v2/generic_pinlet",
      "name": "Green City Painters",
      "opening_hours": {
        "open_now": true
      },
      "photos": [
        {
          "height": 2048,
          "html_attributions": [
            "<a href=\"https://maps.google.com/maps/contrib/117064954915115715073\">Green City Painters, LLC</a>"
          ],
          "photo_reference": "AeJbb3ffc98bx2hwf25w1ahpT0K96nD-Vlsp5Cx-TxLGHtKE7g1scZS2rEe7Fv-jM0lT5cuWgtgr77ZyAT3eHDJywWTzkYPGRFCQeM3DM51iTtEFRyq9RlTn20_YP3O5rbKI-s9k3g_p2zGB1eXNixo9VQHnTSJLYQ3rpZUIYjU8_x_Sn01N",
          "width": 3648
        }
      ],
      "place_id": "ChIJby4bm-FbwokRetHCiMEHOnY",
      "plus_code": {
        "compound_code": "P25W+Q5 Brooklyn, NY, USA",
        "global_code": "87G8P25W+Q5"
      },
      "rating": 4.7,
      "reference": "ChIJby4bm-FbwokRetHCiMEHOnY",
      "scope": "GOOGLE",
      "types": [
        "painter",
        "general_contractor",
        "point_of_interest",
        "establishment"
      ],
      "user_ratings_total": 13,
      "vicinity": "357 Keap Street, Brooklyn"
    },
    {
      "business_status": "OPERATIONAL",
      "geometry": {
        "location": {
          "lat": 40.70930699999999,
          "lng": -73.9528788
        },
        "viewport": {
          "northeast": {
            "lat": 40.71061843029149,
            "lng": -73.95142556970849
          },
          "southwest": {
            "lat": 40.7079204697085,
            "lng": -73.9541235302915
          }
        }
      },
      "icon": "https://maps.gstatic.com/mapfiles/place_api/icons/v1/png_71/generic_business-71.png",
      "icon_background_color": "#7B9EB0",
      "icon_mask_base_uri": "https://maps.gstatic.com/mapfiles/place_api/icons/v2/generic_pinlet",
      "name": "Dirno Hood Cleaning and Range Hood Installation",
      "opening_hours": {
        "open_now": false
      },
      "photos": [
        {
          "height": 320,
          "html_attributions": [
            "<a href=\"https://maps.google.com/maps/contrib/109688582500245326708\">Dirno Hood Cleaning and Range Hood Installation</a>"
          ],
          "photo_reference": "AeJbb3ehogw9PJIFQB0gwzfXsRaITp5-7Qg7iW38-JLCSy-ZTIYfVZmHVetnjUyIEQvWTEHpSd3G67QPmDF0OW496Q_cMKqDYQViIoMEkSGfj1SV_Dt3LApbJWQ7fcsvZmUTuSBumXCjPNLRWx5QPMjd97Br9xUbOBBfeBvEuXXM9W3GbaJe",
          "width": 500
        }
      ],
      "place_id": "ChIJLXa1L-JbwokR6wDSPx7Vi6s",
      "plus_code": {
        "compound_code": "P25W+PR Brooklyn, NY, USA",
        "global_code": "87G8P25W+PR"
      },
      "rating": 4.3,
      "reference": "ChIJLXa1L-JbwokR6wDSPx7Vi6s",
      "scope": "GOOGLE",
      "types": [
        "point_of_interest",
        "establishment"
      ],
      "user_ratings_total": 7,
      "vicinity": "Brooklyn"
    },
    {
      "business_status": "OPERATIONAL",
      "geometry": {
        "location": {
          "lat": 40.706049,
          "lng": -73.94899099999999
        },
        "viewport": {
          "northeast": {
            "lat": 40.7074165802915,
            "lng": -73.9474471197085
          },
          "southwest": {
            "lat": 40.7047186197085,
            "lng": -73.9501450802915
          }
        }
      },
      "icon": "https://maps.gstatic.com/mapfiles/place_api/icons/v1/png_71/civic_building-71.png",
      "icon_background_color": "#7B9EB0",
      "icon_mask_base_uri": "https://maps.gstatic.com/mapfiles/place_api/icons/v2/civic-bldg_pinlet",
      "name": "America's Judgement Recovery Services inc.",
      "place_id": "ChIJHf6OXuNbwokR4EL3BBWiJYo",
      "plus_code": {
        "compound_code": "P342+CC Brooklyn, NY, USA",
        "global_code": "87G8P342+CC"
      },
      "rating": 3.7,
      "reference": "ChIJHf6OXuNbwokR4EL3BBWiJYo",
      "scope": "GOOGLE",
      "types": [
        "local_government_office",
        "point_of_interest",
        "establishment"
      ],
      "user_ratings_total": 3,
      "vicinity": "30 Montrose Avenue #12t, Brooklyn"
    },
    {
      "business_status": "OPERATIONAL",
      "geometry": {
        "location": {
          "lat": 40.7060366,
          "lng": -73.9501391
        },
        "viewport": {
          "northeast": {
            "lat": 40.7073962302915,
            "lng": -73.9488718197085
          },
          "southwest": {
            "lat": 40.7046982697085,
            "lng": -73.9515697802915
          }
        }
      },
      "icon": "https://maps.gstatic.com/mapfiles/place_api/icons/v1/png_71/civic_building-71.png",
      "icon_background_color": "#7B9EB0",
      "icon_mask_base_uri": "https://maps.gstatic.com/mapfiles/place_api/icons/v2/civic-bldg_pinlet",
      "name": "Brooklyn Police-Patrol Boro",
      "place_id": "ChIJVa1ZfONbwokRQmoFPXU0GGI",
      "plus_code": {
        "compound_code": "P24X+CW Brooklyn, NY, USA",
        "global_code": "87G8P24X+CW"
      },
      "reference": "ChIJVa1ZfONbwokRQmoFPXU0GGI",
      "scope": "GOOGLE",
      "types": [
        "police",
        "point_of_interest",
        "establishment"
      ],
      "vicinity": "211 Union Avenue # 210, Brooklyn"
    },
    {
      "business_status": "OPERATIONAL",
      "geometry": {
        "location": {
          "lat": 40.70722609999999,
          "lng": -73.956001
        },
        "viewport": {
          "northeast": {
            "lat": 40.70849803029149,
            "lng": -73.9546619697085
          },
          "southwest": {
            "lat": 40.70580006970849,
            "lng": -73.9573599302915
          }
        }
      },
      "icon": "https://maps.gstatic.com/mapfiles/place_api/icons/v1/png_71/generic_business-71.png",
      "icon_background_color": "#7B9EB0",
      "icon_mask_base_uri": "https://maps.gstatic.com/mapfiles/place_api/icons/v2/generic_pinlet",
      "name": "Hamaspik",
      "opening_hours": {
        "open_now": false
      },
      "place_id": "ChIJ3w2mQ9lbwokRNujGnqQfYwA",
      "plus_code": {
        "compound_code": "P24V+VH Brooklyn, NY, USA",
        "global_code": "87G8P24V+VH"
      },
      "rating": 4.6,
      "reference": "ChIJ3w2mQ9lbwokRNujGnqQfYwA",
      "scope": "GOOGLE",
      "types": [
        "point_of_interest",
        "establishment"
      ],
      "user_ratings_total": 11,
      "vicinity": "295 Division Avenue, Brooklyn"
    },
    {
      "business_status": "OPERATIONAL",
      "geometry": {
        "location": {
          "lat": 40.70874349999999,
          "lng": -73.9559846
        },
        "viewport": {
          "northeast": {
            "lat": 40.71001823029149,
            "lng": -73.95467941970848
          },
          "southwest": {
            "lat": 40.70732026970849,
            "lng": -73.95737738029149
          }
        }
      },
      "icon": "https://maps.gstatic.com/mapfiles/place_api/icons/v1/png_71/shopping-71.png",
      "icon_background_color": "#4B96F3",
      "icon_mask_base_uri": "https://maps.gstatic.com/mapfiles/place_api/icons/v2/shopping_pinlet",
      "name": "Eliasound",
      "place_id": "ChIJeQIuG-FbwokRk74zV6QyhwE",
      "plus_code": {
        "compound_code": "P25V+FJ New York, NY, USA",
        "global_code": "87G8P25V+FJ"
      },
      "reference": "ChIJeQIuG-FbwokRk74zV6QyhwE",
      "scope": "GOOGLE",
      "types": [
        "electronics_store",
        "home_goods_store",
        "store",
        "point_of_interest",
        "establishment"
      ],
      "vicinity": "317 South 5th Street, Brooklyn"
    },
    {
      "business_status": "OPERATIONAL",
      "geometry": {
        "location": {
          "lat": 40.70505559999999,
          "lng": -73.955738
        },
        "viewport": {
          "northeast": {
            "lat": 40.7063467802915,
            "lng": -73.95432316970849
          },
          "southwest": {
            "lat": 40.7036488197085,
            "lng": -73.95702113029151
          }
        }
      },
      "icon": "https://maps.gstatic.com/mapfiles/place_api/icons/v1/png_71/generic_business-71.png",
      "icon_background_color": "#7B9EB0",
      "icon_mask_base_uri": "https://maps.gstatic.com/mapfiles/place_api/icons/v2/generic_pinlet",
      "name": "Sisters of St Joseph",
      "place_id": "ChIJRYx17-ZbwokRf26wiGzLkHE",
      "plus_code": {
        "compound_code": "P24V+2P New York, NY, USA",
        "global_code": "87G8P24V+2P"
      },
      "reference": "ChIJRYx17-ZbwokRf26wiGzLkHE",
      "scope": "GOOGLE",
      "types": [
        "point_of_interest",
        "establishment"
      ],
      "vicinity": "249 Hewes Street, Brooklyn"
    },
    {
      "business_status": "OPERATIONAL",
      "geometry": {
        "location": {
          "lat": 40.7058237,
          "lng": -73.9538742
        },
        "viewport": {
          "northeast": {
            "lat": 40.7072451302915,
            "lng": -73.9526080697085
          },
          "southwest": {
            "lat": 40.7045471697085,
            "lng": -73.95530603029151
          }
        }
      },
      "icon": "https://maps.gstatic.com/mapfiles/place_api/icons/v1/png_71/generic_business-71.png",
      "icon_background_color": "#7B9EB0",
      "icon_mask_base_uri": "https://maps.gstatic.com/mapfiles/place_api/icons/v2/generic_pinlet",
      "name": "Big Apple Media",
      "opening_hours": {
        "open_now": false
      },
      "photos": [
        {
          "height": 315,
          "html_attributions": [
            "<a href=\"https://maps.google.com/maps/contrib/117201872327595141734\">Big Apple Media</a>"
          ],
          "photo_reference": "AeJbb3f0lnIs-eexZbP40I3dF3bXFAthWHAPdT17tso1b9irfz2SOg8b-CX6jtpjffL-BM9iDM6c1jHwpiGMEjMJFXBUA4lWTgk_NB9XTaPkoNpYOKa269-ay1yr-PbvUUbp4iMCq4P0A0zajTb4adUdkEsDAoPjB_w-yCv9v34qj7RH4MI",
          "width": 828
        }
      ],
      "place_id": "ChIJ44ZrpuZbwokRgijJb211xRw",
      "plus_code": {
        "compound_code": "P24W+8F New York, NY, USA",
        "global_code": "87G8P24W+8F"
      },
      "rating": 5,
      "reference": "ChIJ44ZrpuZbwokRgijJb211xRw",
      "scope": "GOOGLE",
      "types": [
        "point_of_interest",
        "establishment"
      ],
      "user_ratings_total": 12,
      "vicinity": "286 Hewes Street, Brooklyn"
    },
    {
      "business_status": "OPERATIONAL",
      "geometry": {
        "location": {
          "lat": 40.7094573,
          "lng": -73.9545576
        },
        "viewport": {
          "northeast": {
            "lat": 40.7107845802915,
            "lng": -73.95312746970849
          },
          "southwest": {
            "lat": 40.7080866197085,
            "lng": -73.9558254302915
          }
        }
      },
      "icon": "https://maps.gstatic.com/mapfiles/place_api/icons/v1/png_71/shopping-71.png",
      "icon_background_color": "#4B96F3",
      "icon_mask_base_uri": "https://maps.gstatic.com/mapfiles/place_api/icons/v2/shoppingcart_pinlet",
      "name": "La Bamba Deli Grocery",
      "opening_hours": {
        "open_now": true
      },
      "photos": [
        {
          "height": 1200,
          "html_attributions": [
            "<a href=\"https://maps.google.com/maps/contrib/108153770258622662034\">Endy Torres</a>"
          ],
          "photo_reference": "AeJbb3dUubhsy8L840WmaEyo0oGDN2YDaYwSTu_HIqWEcfsmsw6C1jwdKMJl5nTAg7HpBN7iHFeE5MC9K2FYBwHUOwa6zqA5EVcy2DRsAZk_uNgFER332uk77srLlNmoK5G6qj1lSjn35oFY44zRmqoYHDc0gE35gAm5kpYpF89_MT-HvgU3",
          "width": 1200
        }
      ],
      "place_id": "ChIJby4bm-FbwokRDwj9dJ9v0G0",
      "plus_code": {
        "compound_code": "P25W+Q5 Brooklyn, NY, USA",
        "global_code": "87G8P25W+Q5"
      },
      "rating": 4.7,
      "reference": "ChIJby4bm-FbwokRDwj9dJ9v0G0",
      "scope": "GOOGLE",
      "types": [
        "grocery_or_supermarket",
        "store",
        "food",
        "point_of_interest",
        "establishment"
      ],
      "user_ratings_total": 49,
      "vicinity": "357 Keap Street, Brooklyn"
    },
    {
      "business_status": "OPERATIONAL",
      "geometry": {
        "location": {
          "lat": 40.70541399999999,
          "lng": -73.955196
        },
        "viewport": {
          "northeast": {
            "lat": 40.70670433029149,
            "lng": -73.95377996970849
          },
          "southwest": {
            "lat": 40.70400636970849,
            "lng": -73.9564779302915
          }
        }
      },
      "icon": "https://maps.gstatic.com/mapfiles/place_api/icons/v1/png_71/lodging-71.png",
      "icon_background_color": "#909CE1",
      "icon_mask_base_uri": "https://maps.gstatic.com/mapfiles/place_api/icons/v2/hotel_pinlet",
      "name": "Casa Betsaida",
      "place_id": "ChIJOUmZ6uZbwokRVxXI1ydywkU",
      "plus_code": {
        "compound_code": "P24V+5W Brooklyn, NY, USA",
        "global_code": "87G8P24V+5W"
      },
      "rating": 4,
      "reference": "ChIJOUmZ6uZbwokRVxXI1ydywkU",
      "scope": "GOOGLE",
      "types": [
        "lodging",
        "point_of_interest",
        "establishment"
      ],
      "user_ratings_total": 12,
      "vicinity": "267 Hewes Street, Brooklyn"
    },
    {
      "business_status": "OPERATIONAL",
      "geometry": {
        "location": {
          "lat": 40.7075605,
          "lng": -73.9558033
        },
        "viewport": {
          "northeast": {
            "lat": 40.7089617302915,
            "lng": -73.9544244697085
          },
          "southwest": {
            "lat": 40.7062637697085,
            "lng": -73.9571224302915
          }
        }
      },
      "icon": "https://maps.gstatic.com/mapfiles/place_api/icons/v1/png_71/generic_business-71.png",
      "icon_background_color": "#7B9EB0",
      "icon_mask_base_uri": "https://maps.gstatic.com/mapfiles/place_api/icons/v2/generic_pinlet",
      "name": "Dial A Super",
      "opening_hours": {
        "open_now": false
      },
      "place_id": "ChIJq0-SuOBbwokRg271PGfn9t4",
      "plus_code": {
        "compound_code": "P25V+2M Brooklyn, NY, USA",
        "global_code": "87G8P25V+2M"
      },
      "reference": "ChIJq0-SuOBbwokRg271PGfn9t4",
      "scope": "GOOGLE",
      "types": [
        "point_of_interest",
        "establishment"
      ],
      "vicinity": "185 Marcy Avenue, Brooklyn"
    },
    {
      "business_status": "OPERATIONAL",
      "geometry": {
        "location": {
          "lat": 40.7057221,
          "lng": -73.9568956
        },
        "viewport": {
          "northeast": {
            "lat": 40.7071163802915,
            "lng": -73.95547601970848
          },
          "southwest": {
            "lat": 40.7044184197085,
            "lng": -73.9581739802915
          }
        }
      },
      "icon": "https://maps.gstatic.com/mapfiles/place_api/icons/v1/png_71/generic_business-71.png",
      "icon_background_color": "#7B9EB0",
      "icon_mask_base_uri": "https://maps.gstatic.com/mapfiles/place_api/icons/v2/generic_pinlet",
      "name": "Quick Transfer Inc",
      "place_id": "ChIJB7hNIOdbwokRwj1g6O_Ca-4",
      "plus_code": {
        "compound_code": "P24V+76 New York, NY, USA",
        "global_code": "87G8P24V+76"
      },
      "rating": 4.7,
      "reference": "ChIJB7hNIOdbwokRwj1g6O_Ca-4",
      "scope": "GOOGLE",
      "types": [
        "real_estate_agency",
        "point_of_interest",
        "establishment"
      ],
      "user_ratings_total": 7,
      "vicinity": "256 Marcy Avenue, Brooklyn"
    },
    {
      "business_status": "OPERATIONAL",
      "geometry": {
        "location": {
          "lat": 40.7065953,
          "lng": -73.95327569999999
        },
        "viewport": {
          "northeast": {
            "lat": 40.7079442302915,
            "lng": -73.95185091970849
          },
          "southwest": {
            "lat": 40.7052462697085,
            "lng": -73.95454888029151
          }
        }
      },
      "icon": "https://maps.gstatic.com/mapfiles/place_api/icons/v1/png_71/generic_business-71.png",
      "icon_background_color": "#7B9EB0",
      "icon_mask_base_uri": "https://maps.gstatic.com/mapfiles/place_api/icons/v2/generic_pinlet",
      "name": "Kerenstar Management",
      "place_id": "ChIJMZox-eNbwokRBMJ4zwIYsYg",
      "plus_code": {
        "compound_code": "P24W+JM New York, NY, USA",
        "global_code": "87G8P24W+JM"
      },
      "rating": 2.6,
      "reference": "ChIJMZox-eNbwokRBMJ4zwIYsYg",
      "scope": "GOOGLE",
      "types": [
        "point_of_interest",
        "establishment"
      ],
      "user_ratings_total": 5,
      "vicinity": "329 Hewes Street, Brooklyn"
    },
    {
      "business_status": "OPERATIONAL",
      "geometry": {
        "location": {
          "lat": 40.7059459,
          "lng": -73.95295039999999
        },
        "viewport": {
          "northeast": {
            "lat": 40.7072336302915,
            "lng": -73.9514963697085
          },
          "southwest": {
            "lat": 40.70453566970851,
            "lng": -73.9541943302915
          }
        }
      },
      "icon": "https://maps.gstatic.com/mapfiles/place_api/icons/v1/png_71/generic_business-71.png",
      "icon_background_color": "#7B9EB0",
      "icon_mask_base_uri": "https://maps.gstatic.com/mapfiles/place_api/icons/v2/generic_pinlet",
      "name": "Mason's Finishing Touch, LLC",
      "place_id": "ChIJR0eTBeRbwokRGT5VT2mfNKk",
      "plus_code": {
        "compound_code": "P24W+9R Brooklyn, NY, USA",
        "global_code": "87G8P24W+9R"
      },
      "reference": "ChIJR0eTBeRbwokRGT5VT2mfNKk",
      "scope": "GOOGLE",
      "types": [
        "general_contractor",
        "point_of_interest",
        "establishment"
      ],
      "vicinity": "283 Penn Street, Brooklyn"
    },
    {
      "business_status": "OPERATIONAL",
      "geometry": {
        "location": {
          "lat": 40.707163,
          "lng": -73.9548319
        },
        "viewport": {
          "northeast": {
            "lat": 40.7084255802915,
            "lng": -73.9534923697085
          },
          "southwest": {
            "lat": 40.7057276197085,
            "lng": -73.9561903302915
          }
        }
      },
      "icon": "https://maps.gstatic.com/mapfiles/place_api/icons/v1/png_71/generic_business-71.png",
      "icon_background_color": "#7B9EB0",
      "icon_mask_base_uri": "https://maps.gstatic.com/mapfiles/place_api/icons/v2/generic_pinlet",
      "name": "USACORP Inc.",
      "opening_hours": {
        "open_now": false
      },
      "photos": [
        {
          "height": 270,
          "html_attributions": [
            "<a href=\"https://maps.google.com/maps/contrib/112719430432002028507\">USACORP Inc.</a>"
          ],
          "photo_reference": "AeJbb3doXijcjwUE7ZI4GqPhVdDK9fXFNPlSpZbjPe7Je_0ZcEuPJejfVYdTfl1DNkqWQkQUOLJ8sXleLEMYf-V3qe-qntJttD66aM2dNHm3MAZJLeYyd1Bw-Ln-PBDWV-aRSjCXimpAcIh-1sbOPs_QNwNgGs-STLFduA-fVgMbaxCH4Nog",
          "width": 480
        }
      ],
      "place_id": "ChIJlRwoT-FbwokRPSli7qWTUfQ",
      "plus_code": {
        "compound_code": "P24W+V3 Brooklyn, NY, USA",
        "global_code": "87G8P24W+V3"
      },
      "rating": 4.8,
      "reference": "ChIJlRwoT-FbwokRPSli7qWTUfQ",
      "scope": "GOOGLE",
      "types": [
        "point_of_interest",
        "establishment"
      ],
      "user_ratings_total": 57,
      "vicinity": "325 Division Avenue Suite 201, Brooklyn"
    },
    {
      "business_status": "OPERATIONAL",
      "geometry": {
        "location": {
          "lat": 40.70735910000001,
          "lng": -73.9544487
        },
        "viewport": {
          "northeast": {
            "lat": 40.7086562302915,
            "lng": -73.9531297197085
          },
          "southwest": {
            "lat": 40.7059582697085,
            "lng": -73.9558276802915
          }
        }
      },
      "icon": "https://maps.gstatic.com/mapfiles/place_api/icons/v1/png_71/worship_general-71.png",
      "icon_background_color": "#7B9EB0",
      "icon_mask_base_uri": "https://maps.gstatic.com/mapfiles/place_api/icons/v2/worship_christian_pinlet",
      "name": "Onward Ministries Inc",
      "photos": [
        {
          "height": 2560,
          "html_attributions": [
            "<a href=\"https://maps.google.com/maps/contrib/105395391420785448619\">Earma Morgan</a>"
          ],
          "photo_reference": "AeJbb3d8xrWIJbZu8xSLuNhOW2p7GvnzWdTcguYfYTKTq2wydlTiYlTrk2FZ0KV7GUnouyEgF-oi8vx5CgSEOD_O9LtGPsFdWalBjTNALZq4hMznXXxhv7sPaCtmAgKBgdYp5cZkUQno7YsehFag0mddwmD5Qf8GnFTk2gy2WRrzcSY00zqy",
          "width": 1440
        }
      ],
      "place_id": "ChIJ9SCtROFbwokRAhVpCXxzft4",
      "plus_code": {
        "compound_code": "P24W+W6 Brooklyn, NY, USA",
        "global_code": "87G8P24W+W6"
      },
      "rating": 4.8,
      "reference": "ChIJ9SCtROFbwokRAhVpCXxzft4",
      "scope": "GOOGLE",
      "types": [
        "church",
        "place_of_worship",
        "point_of_interest",
        "establishment"
      ],
      "user_ratings_total": 6,
      "vicinity": "385 Broadway, Brooklyn"
    },
    {
      "business_status": "OPERATIONAL",
      "geometry": {
        "location": {
          "lat": 40.7090041,
          "lng": -73.95327189999999
        },
        "viewport": {
          "northeast": {
            "lat": 40.7104064302915,
            "lng": -73.9518889197085
          },
          "southwest": {
            "lat": 40.7077084697085,
            "lng": -73.9545868802915
          }
        }
      },
      "icon": "https://maps.gstatic.com/mapfiles/place_api/icons/v1/png_71/generic_business-71.png",
      "icon_background_color": "#13B5C7",
      "icon_mask_base_uri": "https://maps.gstatic.com/mapfiles/place_api/icons/v2/generic_pinlet",
      "name": "Joe Pacheco Magician",
      "opening_hours": {
        "open_now": true
      },
      "photos": [
        {
          "height": 638,
          "html_attributions": [
            "<a href=\"https://maps.google.com/maps/contrib/104255079339608263642\">Joe Pacheco Magician</a>"
          ],
          "photo_reference": "AeJbb3fx6wxJlvPTQqcs0cEnUDm-m3TzS9D4fx-0h8Yo1iD--fE3qrbi1xVLeqDpSf8np2PI2L5HSeARjTcIX94FtFX_SV3HhpwmjsIPKVYTStMLFqPQuWJKmR-GeQvWyFNgkojad_redXkEi3sS9NvwvgECPs2AquNWFSjblDnjHinNfOYO",
          "width": 960
        }
      ],
      "place_id": "ChIJR9GIK-JbwokR5DzjYFn_-5M",
      "plus_code": {
        "compound_code": "P25W+JM New York, NY, USA",
        "global_code": "87G8P25W+JM"
      },
      "rating": 4.9,
      "reference": "ChIJR9GIK-JbwokR5DzjYFn_-5M",
      "scope": "GOOGLE",
      "types": [
        "point_of_interest",
        "establishment"
      ],
      "user_ratings_total": 7,
      "vicinity": "354 South 3rd Street, Brooklyn"
    },
    {
      "business_status": "OPERATIONAL",
      "geometry": {
        "location": {
          "lat": 40.70565200000001,
          "lng": -73.9517082
        },
        "viewport": {
          "northeast": {
            "lat": 40.7070094802915,
            "lng": -73.9502755197085
          },
          "southwest": {
            "lat": 40.7043115197085,
            "lng": -73.9529734802915
          }
        }
      },
      "icon": "https://maps.gstatic.com/mapfiles/place_api/icons/v1/png_71/generic_business-71.png",
      "icon_background_color": "#7B9EB0",
      "icon_mask_base_uri": "https://maps.gstatic.com/mapfiles/place_api/icons/v2/generic_pinlet",
      "name": "The Bakery Brooklyn Coworking",
      "opening_hours": {
        "open_now": false
      },
      "place_id": "ChIJd6xgcORbwokRHELtuJtmHT8",
      "plus_code": {
        "compound_code": "P24X+78 New York, NY, USA",
        "global_code": "87G8P24X+78"
      },
      "rating": 5,
      "reference": "ChIJd6xgcORbwokRHELtuJtmHT8",
      "scope": "GOOGLE",
      "types": [
        "point_of_interest",
        "establishment"
      ],
      "user_ratings_total": 1,
      "vicinity": "325 Rutledge Street, Brooklyn"
    },
    {
      "business_status": "CLOSED_TEMPORARILY",
      "geometry": {
        "location": {
          "lat": 40.7079669,
          "lng": -73.9560271
        },
        "viewport": {
          "northeast": {
            "lat": 40.70922793029149,
            "lng": -73.9547283197085
          },
          "southwest": {
            "lat": 40.70652996970849,
            "lng": -73.9574262802915
          }
        }
      },
      "icon": "https://maps.gstatic.com/mapfiles/place_api/icons/v1/png_71/generic_business-71.png",
      "icon_background_color": "#7B9EB0",
      "icon_mask_base_uri": "https://maps.gstatic.com/mapfiles/place_api/icons/v2/generic_pinlet",
      "name": "TERMINAL Art & Event Space",
      "permanently_closed": true,
      "place_id": "ChIJMfYSGOFbwokRENO3L-JTeGQ",
      "plus_code": {
        "compound_code": "P25V+5H New York, NY, USA",
        "global_code": "87G8P25V+5H"
      },
      "rating": 3,
      "reference": "ChIJMfYSGOFbwokRENO3L-JTeGQ",
      "scope": "GOOGLE",
      "types": [
        "point_of_interest",
        "establishment"
      ],
      "user_ratings_total": 2,
      "vicinity": "343 Broadway, Brooklyn"
    },
    {
      "business_status": "OPERATIONAL",
      "geometry": {
        "location": {
          "lat": 40.7041638,
          "lng": -73.9547437
        },
        "viewport": {
          "northeast": {
            "lat": 40.7054820302915,
            "lng": -73.95344256970849
          },
          "southwest": {
            "lat": 40.7027840697085,
            "lng": -73.9561405302915
          }
        }
      },
      "icon": "https://maps.gstatic.com/mapfiles/place_api/icons/v1/png_71/generic_business-71.png",
      "icon_background_color": "#7B9EB0",
      "icon_mask_base_uri": "https://maps.gstatic.com/mapfiles/place_api/icons/v2/generic_pinlet",
      "name": "Innovative Carrier Inc",
      "opening_hours": {
        "open_now": false
      },
      "place_id": "ChIJm-OXwNtbwokR22nlHbDCvVU",
      "plus_code": {
        "compound_code": "P23W+M4 Brooklyn, NY, USA",
        "global_code": "87G8P23W+M4"
      },
      "rating": 4.3,
      "reference": "ChIJm-OXwNtbwokR22nlHbDCvVU",
      "scope": "GOOGLE",
      "types": [
        "moving_company",
        "point_of_interest",
        "establishment"
      ],
      "user_ratings_total": 31,
      "vicinity": "297 Marcy Avenue, Brooklyn"
    },
    {
      "business_status": "OPERATIONAL",
      "geometry": {
        "location": {
          "lat": 40.7072953,
          "lng": -73.9560743
        },
        "viewport": {
          "northeast": {
            "lat": 40.7085356802915,
            "lng": -73.95473936970848
          },
          "southwest": {
            "lat": 40.7058377197085,
            "lng": -73.9574373302915
          }
        }
      },
      "icon": "https://maps.gstatic.com/mapfiles/place_api/icons/v1/png_71/generic_business-71.png",
      "icon_background_color": "#7B9EB0",
      "icon_mask_base_uri": "https://maps.gstatic.com/mapfiles/place_api/icons/v2/generic_pinlet",
      "name": "Rosenberg Orthodontics: Dr. Philip Rosenberg",
      "opening_hours": {
        "open_now": false
      },
      "photos": [
        {
          "height": 317,
          "html_attributions": [
            "<a href=\"https://maps.google.com/maps/contrib/118429284862912152071\">Rosenberg Orthodontics: Dr. Philip Rosenberg</a>"
          ],
          "photo_reference": "AeJbb3fs-9KdtVjTdpoAqKmuJhOu4IsqKYwA4_FxfDcrvo7e8kjFCf8qRd-Xb6GBv1ZSFtOh4B32IQSIqmpGmu64T6iPsNG5f6UbBXYBnlyosne16OJPBweoTzFtCZ8-WRT8l1af8jjozgRGEh8EXkb20GBgkTp0tsYhSuIVMPf42v0gtqCC",
          "width": 851
        }
      ],
      "place_id": "ChIJF4XsLuFbwokRNIBBOSFJcgc",
      "plus_code": {
        "compound_code": "P24V+WH New York, NY, USA",
        "global_code": "87G8P24V+WH"
      },
      "rating": 4,
      "reference": "ChIJF4XsLuFbwokRNIBBOSFJcgc",
      "scope": "GOOGLE",
      "types": [
        "dentist",
        "health",
        "point_of_interest",
        "establishment"
      ],
      "user_ratings_total": 5,
      "vicinity": "295 Division Avenue, Brooklyn"
    },
    {
      "business_status": "OPERATIONAL",
      "geometry": {
        "location": {
          "lat": 40.7055075,
          "lng": -73.9564139
        },
        "viewport": {
          "northeast": {
            "lat": 40.70682078029149,
            "lng": -73.9550289697085
          },
          "southwest": {
            "lat": 40.70412281970849,
            "lng": -73.9577269302915
          }
        }
      },
      "icon": "https://maps.gstatic.com/mapfiles/place_api/icons/v1/png_71/generic_business-71.png",
      "icon_background_color": "#7B9EB0",
      "icon_mask_base_uri": "https://maps.gstatic.com/mapfiles/place_api/icons/v2/generic_pinlet",
      "name": "Christopher Bush - Photographer",
      "place_id": "ChIJ_4kC4eZbwokRJFYEB8PY0sI",
      "plus_code": {
        "compound_code": "P24V+6C Brooklyn, NY, USA",
        "global_code": "87G8P24V+6C"
      },
      "reference": "ChIJ_4kC4eZbwokRJFYEB8PY0sI",
      "scope": "GOOGLE",
      "types": [
        "point_of_interest",
        "establishment"
      ],
      "vicinity": "Hooper Street, Brooklyn"
    }
  ],
  "status": "OK"
}