{
  "html_attributions": [],
  "results": [
    {
      "geometry": {
        "location": {
          "lat": 40.7127753,
          "lng": -74.0059728
        },
        "viewport": {
          "northeast": {
            "lat": 40.91757705070789,
            "lng": -73.70027206817629
          },
          "southwest": {
            "lat": 40.47739906045452,
            "lng": -74.25908991427882
          }
        }
      },
      "icon": "https://maps.gstatic.com/mapfiles/place_api/icons/v1/png_71/geocode-71.png",
      "icon_background_color": "#7B9EB0",
      "icon_mask_base_uri": "https://maps.gstatic.com/mapfiles/place_api/icons/v2/generic_pinlet",
      "name": "\u7d10\u7d04",
      "photos": [
        {
          "height": 600,
          "html_attributions": [
            "<a href=\"https://maps.google.com/maps/contrib/102389334567210814614\">Bukurie</a>"
          ],
          "photo_reference": "AeJbb3cSYQHI6qMGvF35EcrvY3t_9RX3QGTNcKBBTHeaeyaPHWMldmFBAIEl5iNw8V6UADmb2Invp3eeY92HlwliHmwUgAMsIhD-m1-th4XD2aD69ldK7m7xrkU__g4F_PiKYBbR0xU6jW0WA2_OgwJaxO-1oEsqqD1_SOKgFG51lHw-3drp",
          "width": 480
        }
      ],
      "place_id": "ChIJOwg_06VPwokRYv534QaPC8g",
      "reference": "ChIJOwg_06VPwokRYv534QaPC8g",
      "scope": "GOOGLE",
      "types": [
        "locality",
        "political"
      ],
      "vicinity": "\u7d10\u7d04"
    },
    {
      "business_status": "OPERATIONAL",
      "geometry": {
        "location": {
          "lat": 40.6974735,
          "lng": -73.9588784
        },
        "viewport": {
          "northeast": {
            "lat": 40.6988511802915,
            "lng": -73.95740171970849
          },
          "southwest": {
            "lat": 40.6961532197085,
            "lng": -73.9600996802915
          }
        }
      },
      "icon": "https://maps.gstatic.com/mapfiles/place_api/icons/v1/png_71/lodging-71.png",
      "icon_background_color": "#909CE1",
      "icon_mask_base_uri": "https://maps.gstatic.com/mapfiles/place_api/icons/v2/hotel_pinlet",
      "name": "Condor Hotel",
      "opening_hours": {
        "open_now": true
      },
      "photos": [
        {
          "height": 1152,
          "html_attributions": [
            "<a href=\"https://maps.google.com/maps/contrib/115571154246187839898\">Condor Hotel - Williamsburg, Brooklyn</a>"
          ],
          "photo_reference": "AeJbb3dqG-8tebuaFQuBGxh-p-h0poP0_7Khr_Ofo034gfR9BOgbRXTfYiSF_EE1oKI9FwtqselZ22RQo4chMFqKWilvoiJ_EH4zCXm2yxXlqkhymPSTe8F3pi2iLNhio6ZuXezX0igwFX3wJVmXTvYS9kuDjHGsA3LGRluB4poYCxOExl24",
          "width": 2048
        }
      ],
      "place_id": "ChIJW_Ff9-lbwokR4wSluIZLi4c",
      "plus_code": {
        "compound_code": "M2WR+XC \u7f8e\u570b\u7d10\u7d04\u5e03\u9c81\u514b\u6797",
        "global_code": "87G8M2WR+XC"
      },
      "rating": 4.1,
      "reference": "ChIJW_Ff9-lbwokR4wSluIZLi4c",
      "scope": "GOOGLE",
      "types": [
        "lodging",
        "park",
        "point_of_interest",
        "establishment"
      ],
      "user_ratings_total": 427,
      "vicinity": "56 Franklin Avenue, Brooklyn"
    },
    {
      "business_status": "OPERATIONAL",
      "geometry": {
        "location": {
          "lat": 40.6919762,
          "lng": -73.9532447
        },
        "viewport": {
          "northeast": {
            "lat": 40.69436700000001,
            "lng": -73.95067695
          },
          "southwest": {
            "lat": 40.69006419999999,
            "lng": -73.95508355
          }
        }
      },
      "icon": "https://maps.gstatic.com/mapfiles/place_api/icons/v1/png_71/shopping-71.png",
      "icon_background_color": "#4B96F3",
      "icon_mask_base_uri": "https://maps.gstatic.com/mapfiles/place_api/icons/v2/shopping_pinlet",
      "name": "The Home Depot",
      "opening_hours": {
        "open_now": true
      },
      "photos": [
        {
          "height": 768,
          "html_attributions": [
            "<a href=\"https://maps.google.com/maps/contrib/115815892796061066586\">The Home Depot</a>"
          ],
          "photo_reference": "AeJbb3faTM_Tm_--wGlptjjBbLkAThzZcFbMfxVKmJ2Y1oIh96QVoqdHwxXrAEWVWQR-4qmn2wDBCSwMRkXbm9RhrzwJdGMXDNnxruKcyTjSrSzEQPbSKCC2kFguoHCdcbY0LanazgCuzDQ4mE334NYaB2TRa7Mam9lK2Us3ZkZN3x1THMFO",
          "width": 1024
        }
      ],
      "place_id": "ChIJWefgTJNbwokRi1Q7KHmWNhs",
      "plus_code": {
        "compound_code": "M2RW+QP \u7f8e\u570b\u7d10\u7d04",
        "global_code": "87G8M2RW+QP"
      },
      "price_level": 2,
      "rating": 3.8,
      "reference": "ChIJWefgTJNbwokRi1Q7KHmWNhs",
      "scope": "GOOGLE",
      "types": [
        "hardware_store",
        "furniture_store",
        "home_goods_store",
        "store",
        "point_of_interest",
        "establishment"
      ],
      "user_ratings_total": 4016,
      "vicinity": "230 Nostrand Avenue, Brooklyn"
    },
    {
      "business_status": "OPERATIONAL",
      "geometry": {
        "location": {
          "lat": 40.6907519,
          "lng": -73.9582747
        },
        "viewport": {
          "northeast": {
            "lat": 40.6920224302915,
            "lng": -73.9569087197085
          },
          "southwest": {
            "lat": 40.6893244697085,
            "lng": -73.95960668029151
          }
        }
      },
      "icon": "https://maps.gstatic.com/mapfiles/place_api/icons/v1/png_71/restaurant-71.png",
      "icon_background_color": "#FF9E67",
      "icon_mask_base_uri": "https://maps.gstatic.com/mapfiles/place_api/icons/v2/restaurant_pinlet",
      "name": "Rustik Tavern",
      "opening_hours": {
        "open_now": true
      },
      "photos": [
        {
          "height": 3024,
          "html_attributions": [
            "<a href=\"https://maps.google.com/maps/contrib/111107507993520293074\">Fatma B</a>"
          ],
          "photo_reference": "AeJbb3d3Q86sLRCFyKQ3GAE6_5A9Hb5ZBabBTbK2jxjFzMFJBM53jDnMGr4EaUBivbJbbRZlUw0nJxm9O2vZcItYQ6aLZVmP3CQpoxfvaQrO65A4E-sMFbMzM_twaWKzjoQhbP9HVU3i4tfmu_F6N_q_-g6IzLneoLuVliNf5AZHlcIkGCXL",
          "width": 4032
        }
      ],
      "place_id": "ChIJd9qVa5VbwokRJ7q_7M3XbIQ",
      "plus_code": {
        "compound_code": "M2RR+8M \u7f8e\u570b\u7d10\u7d04",
        "global_code": "87G8M2RR+8M"
      },
      "price_level": 2,
      "rating": 4.5,
      "reference": "ChIJd9qVa5VbwokRJ7q_7M3XbIQ",
      "scope": "GOOGLE",
      "types": [
        "restaurant",
        "food",
        "point_of_interest",
        "establishment"
      ],
      "user_ratings_total": 1115,
      "vicinity": "471 DeKalb Avenue, Brooklyn"
    },
    {
      "business_status": "OPERATIONAL",
      "geometry": {
        "location": {
          "lat": 40.69477990000001,
          "lng": -73.9530652
        },
        "viewport": {
          "northeast": {
            "lat": 40.6961996302915,
            "lng": -73.9517430697085
          },
          "southwest": {
            "lat": 40.6935016697085,
            "lng": -73.9544410302915
          }
        }
      },
      "icon": "https://maps.gstatic.com/mapfiles/place_api/icons/v1/png_71/bar-71.png",
      "icon_background_color": "#FF9E67",
      "icon_mask_base_uri": "https://maps.gstatic.com/mapfiles/place_api/icons/v2/bar_pinlet",
      "name": "Project Parlor - Outdoor Bar with Live DJs, Open late & Dog-Friendly Bar",
      "opening_hours": {
        "open_now": true
      },
      "photos": [
        {
          "height": 700,
          "html_attributions": [
            "<a href=\"https://maps.google.com/maps/contrib/105425703740494771516\">Project Parlor - Outdoor Bar with Live DJs, Open late &amp; Dog-Friendly Bar</a>"
          ],
          "photo_reference": "AeJbb3c0n7Pu468dmJKJZ2W58duI8B_X6xOVuRnATV3TSgHdCMzXL14q8thXmRH9J5FJceM2yE1M-nQMsv56FutMy_w-5036C7f4WDOpY8ARMHxZio6DeLeR5ZRCcMrWasKDO1MenpWqbKihav9uzhyupVghrbZfnjOzZetv0l-TB-azCWNV",
          "width": 1050
        }
      ],
      "place_id": "ChIJnYljcOxbwokRYWwlO0P983U",
      "plus_code": {
        "compound_code": "M2VW+WQ \u7f8e\u570b\u7d10\u7d04",
        "global_code": "87G8M2VW+WQ"
      },
      "price_level": 1,
      "rating": 4.5,
      "reference": "ChIJnYljcOxbwokRYWwlO0P983U",
      "scope": "GOOGLE",
      "types": [
        "bar",
        "point_of_interest",
        "establishment"
      ],
      "user_ratings_total": 260,
      "vicinity": "742 Myrtle Avenue, Brooklyn"
    },
    {
      "business_status": "OPERATIONAL",
      "geometry": {
        "location": {
          "lat": 40.6927416,
          "lng": -73.95920559999999
        },
        "viewport": {
          "northeast": {
            "lat": 40.6940426302915,
            "lng": -73.95818611970849
          },
          "southwest": {
            "lat": 40.6913446697085,
            "lng": -73.9608840802915
          }
        }
      },
      "icon": "https://maps.gstatic.com/mapfiles/place_api/icons/v1/png_71/worship_general-71.png",
      "icon_background_color": "#7B9EB0",
      "icon_mask_base_uri": "https://maps.gstatic.com/mapfiles/place_api/icons/v2/worship_christian_pinlet",
      "name": "St Lucy- St Patrick's Roman Catholic Church",
      "place_id": "ChIJ1c18AcBbwokRzyPheJW81kI",
      "plus_code": {
        "compound_code": "M2VR+38 \u7f8e\u570b\u7d10\u7d04",
        "global_code": "87G8M2VR+38"
      },
      "rating": 4.6,
      "reference": "ChIJ1c18AcBbwokRzyPheJW81kI",
      "scope": "GOOGLE",
      "types": [
        "church",
        "place_of_worship",
        "point_of_interest",
        "establishment"
      ],
      "user_ratings_total": 10,
      "vicinity": "285 Willoughby Avenue, Brooklyn"
    },
    {
      "business_status": "OPERATIONAL",
      "geometry": {
        "location": {
          "lat": 40.6934448,
          "lng": -73.9637226
        },
        "viewport": {
          "northeast": {
            "lat": 40.6949216802915,
            "lng": -73.96242426970849
          },
          "southwest": {
            "lat": 40.6922237197085,
            "lng": -73.9651222302915
          }
        }
      },
      "icon": "https://maps.gstatic.com/mapfiles/place_api/icons/v1/png_71/shopping-71.png",
      "icon_background_color": "#4B96F3",
      "icon_mask_base_uri": "https://maps.gstatic.com/mapfiles/place_api/icons/v2/shopping_pinlet",
      "name": "Blick Art Materials",
      "opening_hours": {
        "open_now": true
      },
      "photos": [
        {
          "height": 3024,
          "html_attributions": [
            "<a href=\"https://maps.google.com/maps/contrib/115446831749564010577\">Corey Ashley</a>"
          ],
          "photo_reference": "AeJbb3fcNA2B5-q8zjo_mrt55lIfb6gPGosf53iMQ7Fjuk7r3QbO2mDdfGCwld90AY2Id5nKkcbXqwLITsLvPP8NzhHaFMYGyqWbitXP933IG0dOnMXUWfuW-bn7Sza89B3_U5sZlq-VErdY9txznsyUFFNnW67uzznA1BE1xhvK2a9dHaoJ",
          "width": 4032
        }
      ],
      "place_id": "ChIJ3VdBl8BbwokRXjI4x33wkF0",
      "plus_code": {
        "compound_code": "M2VP+9G \u7f8e\u570b\u7d10\u7d04",
        "global_code": "87G8M2VP+9G"
      },
      "price_level": 2,
      "rating": 4.6,
      "reference": "ChIJ3VdBl8BbwokRXjI4x33wkF0",
      "scope": "GOOGLE",
      "types": [
        "store",
        "point_of_interest",
        "establishment"
      ],
      "user_ratings_total": 569,
      "vicinity": "536 Myrtle Avenue, Brooklyn"
    },
    {
      "business_status": "OPERATIONAL",
      "geometry": {
        "location": {
          "lat": 40.698615,
          "lng": -73.957678
        },
        "viewport": {
          "northeast": {
            "lat": 40.70010603029149,
            "lng": -73.95628336970849
          },
          "southwest": {
            "lat": 40.69740806970849,
            "lng": -73.95898133029151
          }
        }
      },
      "icon": "https://maps.gstatic.com/mapfiles/place_api/icons/v1/png_71/generic_business-71.png",
      "icon_background_color": "#7B9EB0",
      "icon_mask_base_uri": "https://maps.gstatic.com/mapfiles/place_api/icons/v2/generic_pinlet",
      "name": "Eden Palace",
      "opening_hours": {
        "open_now": true
      },
      "photos": [
        {
          "height": 888,
          "html_attributions": [
            "<a href=\"https://maps.google.com/maps/contrib/102140183366984330662\">Eden Palace Inc.</a>"
          ],
          "photo_reference": "AeJbb3ckuw7KLeYbPTz1_VBb2XZJUBAWJ3cUrd-pv4SkAEXWH645Txea-eiAXCOuUZNUGaFaBgkSP4qloThCPwlyOEb6Gzli75U3U59ng_0E0XjEJy9pNlScTDGlP7WbgW_EqL3pSoxIDTgxvU7MfxELeBLWeoUInJv0KtmqlBeN5uMU_vl9",
          "width": 1328
        }
      ],
      "place_id": "ChIJXZ0GuelbwokRgOQh6ta_ezE",
      "plus_code": {
        "compound_code": "M2XR+CW \u7f8e\u570b\u7d10\u7d04",
        "global_code": "87G8M2XR+CW"
      },
      "rating": 4.3,
      "reference": "ChIJXZ0GuelbwokRgOQh6ta_ezE",
      "scope": "GOOGLE",
      "types": [
        "point_of_interest",
        "establishment"
      ],
      "user_ratings_total": 389,
      "vicinity": "420 Flushing Avenue, Brooklyn"
    },
    {
      "business_status": "OPERATIONAL",
      "geometry": {
        "location": {
          "lat": 40.69481710000001,
          "lng": -73.95228139999999
        },
        "viewport": {
          "northeast": {
            "lat": 40.6962641302915,
            "lng": -73.95096506970849
          },
          "southwest": {
            "lat": 40.6935661697085,
            "lng": -73.9536630302915
          }
        }
      },
      "icon": "https://maps.gstatic.com/mapfiles/place_api/icons/v1/png_71/shopping-71.png",
      "icon_background_color": "#4B96F3",
      "icon_mask_base_uri": "https://maps.gstatic.com/mapfiles/place_api/icons/v2/convenience_pinlet",
      "name": "Duane Reade",
      "opening_hours": {
        "open_now": true
      },
      "photos": [
        {
          "height": 3024,
          "html_attributions": [
            "<a href=\"https://maps.google.com/maps/contrib/110559847819731410625\">Ari Hershkowitz</a>"
          ],
          "photo_reference": "AeJbb3etyzo74dbRoLKCXpy_W67QUbrQP--XnwCGWCwe8_DNdS6d6AHdSKf3GbHF-e0liMnazSLcJm-MyUqWCpMWe4WPK4zGcqHS2bzFr11fFir_L5E1g_DM0E-zEnWFjcRYICKqe6pUwywygGOIUBumVAIDLaOdkCmqDsqzyQfk5w0qez28",
          "width": 4032
        }
      ],
      "place_id": "ChIJ6xNPauxbwokRKV-Z84hvxio",
      "plus_code": {
        "compound_code": "M2VX+W3 \u7f8e\u570b\u7d10\u7d04",
        "global_code": "87G8M2VX+W3"
      },
      "price_level": 2,
      "rating": 3.2,
      "reference": "ChIJ6xNPauxbwokRKV-Z84hvxio",
      "scope": "GOOGLE",
      "types": [
        "convenience_store",
        "clothing_store",
        "store",
        "food",
        "point_of_interest",
        "establishment"
      ],
      "user_ratings_total": 76,
      "vicinity": "756 Myrtle Avenue, Brooklyn"
    },
    {
      "business_status": "OPERATIONAL",
      "geometry": {
        "location": {
          "lat": 40.69590139999999,
          "lng": -73.9628634
        },
        "viewport": {
          "northeast": {
            "lat": 40.69727613029149,
            "lng": -73.9613918197085
          },
          "southwest": {
            "lat": 40.69457816970849,
            "lng": -73.9640897802915
          }
        }
      },
      "icon": "https://maps.gstatic.com/mapfiles/place_api/icons/v1/png_71/generic_business-71.png",
      "icon_background_color": "#7B9EB0",
      "icon_mask_base_uri": "https://maps.gstatic.com/mapfiles/place_api/icons/v2/generic_pinlet",
      "name": "Public Storage",
      "opening_hours": {
        "open_now": true
      },
      "photos": [
        {
          "height": 1080,
          "html_attributions": [
            "<a href=\"https://maps.google.com/maps/contrib/114648741085423471019\">Public Storage</a>"
          ],
          "photo_reference": "AeJbb3e0whD-40ze6ZIXtj3SqkY4ZjBYaQEZh34N_jwV6LqGaQxY47uH_NzSUb3h0BRgsnto5kuRNXOPZqmbWkqAyuI7hZj1ZDNsac_w2Yvncg1SnOgYpgW07xRZgsr_l_u9VeG4WUKdQG_emZPRu86og2cuUcOmmMkmX3Kkt182ZJZZOxey",
          "width": 1920
        }
      ],
      "place_id": "ChIJvRnvAMFbwokRMH0SgOOeXjI",
      "plus_code": {
        "compound_code": "M2WP+9V \u7f8e\u570b\u7d10\u7d04\u5e03\u9c81\u514b\u6797",
        "global_code": "87G8M2WP+9V"
      },
      "rating": 4.7,
      "reference": "ChIJvRnvAMFbwokRMH0SgOOeXjI",
      "scope": "GOOGLE",
      "types": [
        "storage",
        "store",
        "point_of_interest",
        "establishment"
      ],
      "user_ratings_total": 381,
      "vicinity": "72 Emerson Place, Brooklyn"
    },
    {
      "business_status": "CLOSED_TEMPORARILY",
      "geometry": {
        "location": {
          "lat": 40.6967237,
          "lng": -73.9532481
        },
        "viewport": {
          "northeast": {
            "lat": 40.6982931302915,
            "lng": -73.9519740697085
          },
          "southwest": {
            "lat": 40.6955951697085,
            "lng": -73.9546720302915
          }
        }
      },
      "icon": "https://maps.gstatic.com/mapfiles/place_api/icons/v1/png_71/generic_business-71.png",
      "icon_background_color": "#7B9EB0",
      "icon_mask_base_uri": "https://maps.gstatic.com/mapfiles/place_api/icons/v2/generic_pinlet",
      "name": "Furniture Co Ny Inc",
      "permanently_closed": true,
      "place_id": "ChIJteu-re5bwokRX3mxYjmwFTQ",
      "plus_code": {
        "compound_code": "M2WW+MP \u7f8e\u570b\u7d10\u7d04\u5e03\u9c81\u514b\u6797",
        "global_code": "87G8M2WW+MP"
      },
      "reference": "ChIJteu-re5bwokRX3mxYjmwFTQ",
      "scope": "GOOGLE",
      "types": [
        "point_of_interest",
        "establishment"
      ],
      "vicinity": "544 Park Avenue, Brooklyn"
    },
    {
      "business_status": "OPERATIONAL",
      "geometry": {
        "location": {
          "lat": 40.697733,
          "lng": -73.959553
        },
        "viewport": {
          "northeast": {
            "lat": 40.69914163029149,
            "lng": -73.9584095697085
          },
          "southwest": {
            "lat": 40.69644366970849,
            "lng": -73.96110753029151
          }
        }
      },
      "icon": "https://maps.gstatic.com/mapfiles/place_api/icons/v1/png_71/generic_business-71.png",
      "icon_background_color": "#7B9EB0",
      "icon_mask_base_uri": "https://maps.gstatic.com/mapfiles/place_api/icons/v2/generic_pinlet",
      "name": "Gruenhut Simcha",
      "place_id": "ChIJR49OB8JbwokRqr-k_OElNz8",
      "plus_code": {
        "compound_code": "M2XR+35 \u7f8e\u570b\u7d10\u7d04\u5e03\u9c81\u514b\u6797",
        "global_code": "87G8M2XR+35"
      },
      "reference": "ChIJR49OB8JbwokRqr-k_OElNz8",
      "scope": "GOOGLE",
      "types": [
        "point_of_interest",
        "establishment"
      ],
      "vicinity": "777 Kent Avenue, Brooklyn"
    },
    {
      "business_status": "OPERATIONAL",
      "geometry": {
        "location": {
          "lat": 40.696762,
          "lng": -73.9531883
        },
        "viewport": {
          "northeast": {
            "lat": 40.69831603029149,
            "lng": -73.95194416970848
          },
          "southwest": {
            "lat": 40.6956180697085,
            "lng": -73.9546421302915
          }
        }
      },
      "icon": "https://maps.gstatic.com/mapfiles/place_api/icons/v1/png_71/generic_business-71.png",
      "icon_background_color": "#7B9EB0",
      "icon_mask_base_uri": "https://maps.gstatic.com/mapfiles/place_api/icons/v2/generic_pinlet",
      "name": "EndlessWellness.com",
      "opening_hours": {
        "open_now": false
      },
      "place_id": "ChIJnXozqu5bwokRXLkRMwCJ7pg",
      "plus_code": {
        "compound_code": "M2WW+PP \u7f8e\u570b\u7d10\u7d04\u5e03\u9c81\u514b\u6797",
        "global_code": "87G8M2WW+PP"
      },
      "reference": "ChIJnXozqu5bwokRXLkRMwCJ7pg",
      "scope": "GOOGLE",
      "types": [
        "grocery_or_supermarket",
        "store",
        "food",
        "point_of_interest",
        "establishment"
      ],
      "vicinity": "544 Park Avenue, Brooklyn"
    },
    {
      "business_status": "CLOSED_TEMPORARILY",
      "geometry": {
        "location": {
          "lat": 40.6954226,
          "lng": -73.9537785
        },
        "viewport": {
          "northeast": {
            "lat": 40.6967913802915,
            "lng": -73.9523077697085
          },
          "southwest": {
            "lat": 40.6940934197085,
            "lng": -73.95500573029152
          }
        }
      },
      "icon": "https://maps.gstatic.com/mapfiles/place_api/icons/v1/png_71/shopping-71.png",
      "icon_background_color": "#4B96F3",
      "icon_mask_base_uri": "https://maps.gstatic.com/mapfiles/place_api/icons/v2/shopping_pinlet",
      "name": "E Custom Wear Inc",
      "permanently_closed": true,
      "photos": [
        {
          "height": 4032,
          "html_attributions": [
            "<a href=\"https://maps.google.com/maps/contrib/108795807677422200987\">2wheel Ferrari</a>"
          ],
          "photo_reference": "AeJbb3ep2PSApc7MEqzwepQZID2yOOkog2Okdgi0INDwu66NAEODb9Hi9CtHJ2iqnkIrZ__iaer4MRnp_f6MwJvHKb6B03TR6AExHNhXjJ-eEVMo6mvstXPGvD8TgKe3FbZjHdaKLQISjFbdMYekj4Q-UfU1ozGLclj4vnxysFn31On9Ab7P",
          "width": 2268
        }
      ],
      "place_id": "ChIJd1Yf9etbwokR79BDLHyQD7Q",
      "plus_code": {
        "compound_code": "M2WW+5F \u7f8e\u570b\u7d10\u7d04",
        "global_code": "87G8M2WW+5F"
      },
      "reference": "ChIJd1Yf9etbwokR79BDLHyQD7Q",
      "scope": "GOOGLE",
      "types": [
        "clothing_store",
        "store",
        "point_of_interest",
        "establishment"
      ],
      "vicinity": "114 Sanford Street, Brooklyn"
    },
    {
      "business_status": "CLOSED_TEMPORARILY",
      "geometry": {
        "location": {
          "lat": 40.6925304,
          "lng": -73.9586246
        },
        "viewport": {
          "northeast": {
            "lat": 40.6939476302915,
            "lng": -73.9572890697085
          },
          "southwest": {
            "lat": 40.6912496697085,
            "lng": -73.9599870302915
          }
        }
      },
      "icon": "https://maps.gstatic.com/mapfiles/place_api/icons/v1/png_71/school-71.png",
      "icon_background_color": "#7B9EB0",
      "icon_mask_base_uri": "https://maps.gstatic.com/mapfiles/place_api/icons/v2/school_pinlet",
      "name": "Kappa Vii",
      "permanently_closed": true,
      "photos": [
        {
          "height": 3024,
          "html_attributions": [
            "<a href=\"https://maps.google.com/maps/contrib/113151506387623700108\">\u05d9\u05d5\u05d3\u05d9 \u05de\u05e2\u05dc\u05d1\u05e2\u05e8</a>"
          ],
          "photo_reference": "AeJbb3eLXgR99VENNsd8Dq5plcBAJ5lf2HKvbYBYqtE4yZoz9JHAyDw7WCf13AuaLgeq9ceMEmotxoxWHzkj_ywLO0ueAyB16YzALGXgRnHsXuc429Cs2oJcED7FYuBBiXiDWyzYJouy3sR-kgHtqTixnhPxqN8ZQNRy9CeB7ETjrP9eUmT-",
          "width": 4032
        }
      ],
      "place_id": "ChIJu5pFsupbwokRzAJCEZDShN4",
      "plus_code": {
        "compound_code": "M2VR+2H \u7f8e\u570b\u7d10\u7d04\u5e03\u9c81\u514b\u6797",
        "global_code": "87G8M2VR+2H"
      },
      "reference": "ChIJu5pFsupbwokRzAJCEZDShN4",
      "scope": "GOOGLE",
      "types": [
        "school",
        "point_of_interest",
        "establishment"
      ],
      "vicinity": "300 Willoughby Avenue, Brooklyn"
    },
    {
      "business_status": "OPERATIONAL",
      "geometry": {
        "location": {
          "lat": 40.69549200000001,
          "lng": -73.961124
        },
        "viewport": {
          "northeast": {
            "lat": 40.6968531302915,
            "lng": -73.95992581970849
          },
          "southwest": {
            "lat": 40.69415516970851,
            "lng": -73.96262378029151
          }
        }
      },
      "icon": "https://maps.gstatic.com/mapfiles/place_api/icons/v1/png_71/shopping-71.png",
      "icon_background_color": "#4B96F3",
      "icon_mask_base_uri": "https://maps.gstatic.com/mapfiles/place_api/icons/v2/shopping_pinlet",
      "name": "Classon Ave Plumbing Contractors",
      "opening_hours": {
        "open_now": false
      },
      "place_id": "ChIJF4KytsFbwokRU79H_Wzqj4I",
      "plus_code": {
        "compound_code": "M2WQ+5H \u7f8e\u570b\u7d10\u7d04\u5e03\u9c81\u514b\u6797",
        "global_code": "87G8M2WQ+5H"
      },
      "reference": "ChIJF4KytsFbwokRU79H_Wzqj4I",
      "scope": "GOOGLE",
      "types": [
        "store",
        "point_of_interest",
        "establishment"
      ],
      "vicinity": "163 Classon Avenue, Brooklyn"
    },
    {
      "business_status": "OPERATIONAL",
      "geometry": {
        "location": {
          "lat": 40.69546879999999,
          "lng": -73.95363789999999
        },
        "viewport": {
          "northeast": {
            "lat": 40.6968092802915,
            "lng": -73.95223746970848
          },
          "southwest": {
            "lat": 40.6941113197085,
            "lng": -73.9549354302915
          }
        }
      },
      "icon": "https://maps.gstatic.com/mapfiles/place_api/icons/v1/png_71/generic_business-71.png",
      "icon_background_color": "#7B9EB0",
      "icon_mask_base_uri": "https://maps.gstatic.com/mapfiles/place_api/icons/v2/generic_pinlet",
      "name": "Hi Tech Merchants",
      "opening_hours": {
        "open_now": false
      },
      "place_id": "ChIJ9xgk9etbwokRu51wPsGxEYw",
      "plus_code": {
        "compound_code": "M2WW+5G \u7f8e\u570b\u7d10\u7d04\u5e03\u9c81\u514b\u6797",
        "global_code": "87G8M2WW+5G"
      },
      "rating": 5,
      "reference": "ChIJ9xgk9etbwokRu51wPsGxEYw",
      "scope": "GOOGLE",
      "types": [
        "point_of_interest",
        "establishment"
      ],
      "user_ratings_total": 22,
      "vicinity": "114 Sanford Street, Brooklyn"
    },
    {
      "business_status": "OPERATIONAL",
      "geometry": {
        "location": {
          "lat": 40.6953058,
          "lng": -73.9619276
        },
        "viewport": {
          "northeast": {
            "lat": 40.6967129302915,
            "lng": -73.96031856970849
          },
          "southwest": {
            "lat": 40.6940149697085,
            "lng": -73.9630165302915
          }
        }
      },
      "icon": "https://maps.gstatic.com/mapfiles/place_api/icons/v1/png_71/shopping-71.png",
      "icon_background_color": "#4B96F3",
      "icon_mask_base_uri": "https://maps.gstatic.com/mapfiles/place_api/icons/v2/shopping_pinlet",
      "name": "Certified Lumber of Williamsburg",
      "opening_hours": {
        "open_now": false
      },
      "photos": [
        {
          "height": 561,
          "html_attributions": [
            "<a href=\"https://maps.google.com/maps/contrib/112185531446748368769\">Certified Lumber of Williamsburg</a>"
          ],
          "photo_reference": "AeJbb3d9aX3g2pk3ZKpl3x5isbryoxApjTKlGJP4fsSlnZ1sS8pCN_RojeaxcXG7c7eTuIWdiLQOagq9P6PjtVgCDbfXyy6qbKmR1MPPx8fo-HRDhhVd157jDfIvFYuHsOGFCJKH1AmBAL5kfPdhBbMRnsZWe5fnND-sAsRZypO68FVIkSTg",
          "width": 996
        }
      ],
      "place_id": "ChIJfyS9NdpbwokR_N_-7APr0Sc",
      "plus_code": {
        "compound_code": "M2WQ+46 \u7f8e\u570b\u7d10\u7d04",
        "global_code": "87G8M2WQ+46"
      },
      "rating": 4.3,
      "reference": "ChIJfyS9NdpbwokR_N_-7APr0Sc",
      "scope": "GOOGLE",
      "types": [
        "home_goods_store",
        "store",
        "point_of_interest",
        "establishment"
      ],
      "user_ratings_total": 150,
      "vicinity": "148 Classon Avenue, Brooklyn"
    },
    {
      "business_status": "OPERATIONAL",
      "geometry": {
        "location": {
          "lat": 40.69491490000001,
          "lng": -73.96228359999999
        },
        "viewport": {
          "northeast": {
            "lat": 40.69625138029151,
            "lng": -73.9609996197085
          },
          "southwest": {
            "lat": 40.69355341970851,
            "lng": -73.96369758029151
          }
        }
      },
      "icon": "https://maps.gstatic.com/mapfiles/place_api/icons/v1/png_71/shopping-71.png",
      "icon_background_color": "#4B96F3",
      "icon_mask_base_uri": "https://maps.gstatic.com/mapfiles/place_api/icons/v2/shopping_pinlet",
      "name": "Print on Broadway",
      "opening_hours": {
        "open_now": false
      },
      "photos": [
        {
          "height": 4032,
          "html_attributions": [
            "<a href=\"https://maps.google.com/maps/contrib/113565206009013889762\">Shia h glick</a>"
          ],
          "photo_reference": "AeJbb3dLcGSjYKCGGdyybLJaNLdol6WXtcFuLqqxlkrq4nst6-Vs-JzEkRI4bh28rlQHhU8gDROgc2-CMBQXpA93D7xCDckn4Opz5XS31neeeEktqRGSgHqEhlUjdIaf9In_NpTfXOF63FVWoyIClQ-sg2SpYTSg6VavCJ0H3Xfmn44nqMYs",
          "width": 3024
        }
      ],
      "place_id": "ChIJMZeCLdlbwokRxNuuvRGcb2o",
      "plus_code": {
        "compound_code": "M2VQ+X3 \u7f8e\u570b\u7d10\u7d04",
        "global_code": "87G8M2VQ+X3"
      },
      "rating": 4.5,
      "reference": "ChIJMZeCLdlbwokRxNuuvRGcb2o",
      "scope": "GOOGLE",
      "types": [
        "store",
        "point_of_interest",
        "establishment"
      ],
      "user_ratings_total": 82,
      "vicinity": "91 Emerson Place, Brooklyn"
    },
    {
      "geometry": {
        "location": {
          "lat": 40.6781784,
          "lng": -73.9441579
        },
        "viewport": {
          "northeast": {
            "lat": 40.73944597129348,
            "lng": -73.83336505117123
          },
          "southwest": {
            "lat": 40.55104197967331,
            "lng": -74.05662998413648
          }
        }
      },
      "icon": "https://maps.gstatic.com/mapfiles/place_api/icons/v1/png_71/geocode-71.png",
      "icon_background_color": "#7B9EB0",
      "icon_mask_base_uri": "https://maps.gstatic.com/mapfiles/place_api/icons/v2/generic_pinlet",
      "name": "\u5e03\u9c81\u514b\u6797",
      "photos": [
        {
          "height": 3024,
          "html_attributions": [
            "<a href=\"https://maps.google.com/maps/contrib/114417859579881743500\">Chengxiang Yuan</a>"
          ],
          "photo_reference": "AeJbb3dBZehEhBcE1M43OPPDyY73RKivp844V-ym3fz3Mdxb5pT_FaW-vganOuT3d03kJ50u8TElKQQ3jQ2YjslvLHvy0G1qt8WaGI-QlWW8k5oowpkvm2gWgguY0peOybtLSkGCiCBvZ3B2vU4CILiCqEFDv6ozf2J1mBIby-LNRW7JoV4Y",
          "width": 4032
        }
      ],
      "place_id": "ChIJCSF8lBZEwokRhngABHRcdoI",
      "reference": "ChIJCSF8lBZEwokRhngABHRcdoI",
      "scope": "GOOGLE",
      "types": [
        "sublocality_level_1",
        "sublocality",
        "political"
      ],
      "vicinity": "\u5e03\u9c81\u514b\u6797"
    },
    {
      "business_status": "OPERATIONAL",
      "geometry": {
        "location": {
          "lat": 40.697195,
          "lng": -73.956104
        },
        "viewport": {
          "northeast": {
            "lat": 40.69836638029151,
            "lng": -73.95467546970848
          },
          "southwest": {
            "lat": 40.69566841970851,
            "lng": -73.9573734302915
          }
        }
      },
      "icon": "https://maps.gstatic.com/mapfiles/place_api/icons/v1/png_71/generic_business-71.png",
      "icon_background_color": "#7B9EB0",
      "icon_mask_base_uri": "https://maps.gstatic.com/mapfiles/place_api/icons/v2/generic_pinlet",
      "name": "Dr. David A. Landerer, MD",
      "opening_hours": {
        "open_now": false
      },
      "place_id": "ChIJ1zhmLehbwokR4kmQkayFonw",
      "plus_code": {
        "compound_code": "M2WV+VH Brooklyn, NY, USA",
        "global_code": "87G8M2WV+VH"
      },
      "rating": 4.6,
      "reference": "ChIJ1zhmLehbwokR4kmQkayFonw",
      "scope": "GOOGLE",
      "types": [
        "doctor",
        "health",
        "point_of_interest",
        "establishment"
      ],
      "user_ratings_total": 10,
      "vicinity": "517 Park Avenue, Brooklyn"
    },
    {
      "business_status": "CLOSED_TEMPORARILY",
      "geometry": {
        "location": {
          "lat": 40.6967015,
          "lng": -73.9592961
        },
        "viewport": {
          "northeast": {
            "lat": 40.6979385802915,
            "lng": -73.9579246697085
          },
          "southwest": {
            "lat": 40.6952406197085,
            "lng": -73.96062263029151
          }
        }
      },
      "icon": "https://maps.gstatic.com/mapfiles/place_api/icons/v1/png_71/shopping-71.png",
      "icon_background_color": "#4B96F3",
      "icon_mask_base_uri": "https://maps.gstatic.com/mapfiles/place_api/icons/v2/shopping_pinlet",
      "name": "Blue Heaven Hosiery Co Inc",
      "permanently_closed": true,
      "place_id": "ChIJDcUcCepbwokRlTh9jUWxQ_w",
      "plus_code": {
        "compound_code": "M2WR+M7 Brooklyn, NY, USA",
        "global_code": "87G8M2WR+M7"
      },
      "reference": "ChIJDcUcCepbwokRlTh9jUWxQ_w",
      "scope": "GOOGLE",
      "types": [
        "clothing_store",
        "store",
        "point_of_interest",
        "establishment"
      ],
      "vicinity": "445 Park Avenue, Brooklyn"
    },
    {
      "business_status": "OPERATIONAL",
      "geometry": {
        "location": {
          "lat": 40.69467349999999,
          "lng": -73.9544341
        },
        "viewport": {
          "northeast": {
            "lat": 40.6959330802915,
            "lng": -73.9530109697085
          },
          "southwest": {
            "lat": 40.6932351197085,
            "lng": -73.95570893029151
          }
        }
      },
      "icon": "https://maps.gstatic.com/mapfiles/place_api/icons/v1/png_71/generic_business-71.png",
      "icon_background_color": "#7B9EB0",
      "icon_mask_base_uri": "https://maps.gstatic.com/mapfiles/place_api/icons/v2/generic_pinlet",
      "name": "Bedford Stuyvesant Alcoholism",
      "opening_hours": {
        "open_now": true
      },
      "photos": [
        {
          "height": 2268,
          "html_attributions": [
            "<a href=\"https://maps.google.com/maps/contrib/108795807677422200987\">2wheel Ferrari</a>"
          ],
          "photo_reference": "AeJbb3dRG7q3uxXj8xE3drsIpawrTCcHXYz0sW1hUEW_YN8_T28yI48mlVEu6Rx7WDK2AsBfkqrd3b3pCy1LVK9oByR1Nf09dCOZ2UwGhJCKwFmVF7svzgftxirMF9vE3V_G9X0n2Nh_hPctQjS8IEwrdDP-s8pKFYfz-zEB3juvkq1RJ4Dy",
          "width": 4032
        }
      ],
      "place_id": "ChIJ3ezdmutbwokRjB0KSTKoxWo",
      "plus_code": {
        "compound_code": "M2VW+V6 New York, NY, USA",
        "global_code": "87G8M2VW+V6"
      },
      "rating": 3,
      "reference": "ChIJ3ezdmutbwokRjB0KSTKoxWo",
      "scope": "GOOGLE",
      "types": [
        "health",
        "point_of_interest",
        "establishment"
      ],
      "user_ratings_total": 2,
      "vicinity": "722 Myrtle Avenue, Brooklyn"
    },
    {
      "business_status": "OPERATIONAL",
      "geometry": {
        "location": {
          "lat": 40.6926596,
          "lng": -73.960329
        },
        "viewport": {
          "northeast": {
            "lat": 40.69391708029149,
            "lng": -73.9589593197085
          },
          "southwest": {
            "lat": 40.69121911970849,
            "lng": -73.96165728029152
          }
        }
      },
      "icon": "https://maps.gstatic.com/mapfiles/place_api/icons/v1/png_71/generic_business-71.png",
      "icon_background_color": "#7B9EB0",
      "icon_mask_base_uri": "https://maps.gstatic.com/mapfiles/place_api/icons/v2/generic_pinlet",
      "name": "Mercy Home for Children",
      "opening_hours": {
        "open_now": true
      },
      "photos": [
        {
          "height": 3000,
          "html_attributions": [
            "<a href=\"https://maps.google.com/maps/contrib/112572461551852069945\">Marc Mendez</a>"
          ],
          "photo_reference": "AeJbb3d6uh0h3le8f8mCcsiwMy9jdJBeFKKVgl7ZmsEyC7Go-y3DWmEeNDrp0WK9Cq769i7TqmvjfoHPz7_htRoh-frrYHW51VZCJQMsOh5vr6VIjB35X7fDUK7TkkhzBsk435nJbq-uCrWbEwbvlxrYXGe6yQ1FA8K4iX0ZK09pewalwXpi",
          "width": 4000
        }
      ],
      "place_id": "ChIJLY_7RR5bwokRXdv4NjUnY-o",
      "plus_code": {
        "compound_code": "M2VQ+3V Brooklyn, NY, USA",
        "global_code": "87G8M2VQ+3V"
      },
      "rating": 3.7,
      "reference": "ChIJLY_7RR5bwokRXdv4NjUnY-o",
      "scope": "GOOGLE",
      "types": [
        "health",
        "point_of_interest",
        "establishment"
      ],
      "user_ratings_total": 6,
      "vicinity": "273 Willoughby Avenue, Brooklyn"
    },
    {
      "business_status": "OPERATIONAL",
      "geometry": {
        "location": {
          "lat": 40.6914315,
          "lng": -73.959848
        },
        "viewport": {
          "northeast": {
            "lat": 40.6927309802915,
            "lng": -73.9583770197085
          },
          "southwest": {
            "lat": 40.6900330197085,
            "lng": -73.96107498029151
          }
        }
      },
      "icon": "https://maps.gstatic.com/mapfiles/place_api/icons/v1/png_71/generic_business-71.png",
      "icon_background_color": "#7B9EB0",
      "icon_mask_base_uri": "https://maps.gstatic.com/mapfiles/place_api/icons/v2/generic_pinlet",
      "name": "Taaffe Lofts",
      "place_id": "ChIJ22xo4L9bwokRKUoZaXI-d9s",
      "plus_code": {
        "compound_code": "M2RR+H3 Brooklyn, NY, USA",
        "global_code": "87G8M2RR+H3"
      },
      "rating": 3.2,
      "reference": "ChIJ22xo4L9bwokRKUoZaXI-d9s",
      "scope": "GOOGLE",
      "types": [
        "point_of_interest",
        "establishment"
      ],
      "user_ratings_total": 5,
      "vicinity": "226-262 Taaffe Place, Brooklyn"
    },
    {
      "business_status": "OPERATIONAL",
      "geometry": {
        "location": {
          "lat": 40.6945365,
          "lng": -73.9613927
        },
        "viewport": {
          "northeast": {
            "lat": 40.6960206302915,
            "lng": -73.9599825697085
          },
          "southwest": {
            "lat": 40.6933226697085,
            "lng": -73.96268053029151
          }
        }
      },
      "icon": "https://maps.gstatic.com/mapfiles/place_api/icons/v1/png_71/generic_business-71.png",
      "icon_background_color": "#7B9EB0",
      "icon_mask_base_uri": "https://maps.gstatic.com/mapfiles/place_api/icons/v2/generic_pinlet",
      "name": "Tristate Low Voltage Supply (Williamsburg)",
      "opening_hours": {
        "open_now": false
      },
      "photos": [
        {
          "height": 3024,
          "html_attributions": [
            "<a href=\"https://maps.google.com/maps/contrib/116199565715458018371\">Yoel Goldstein</a>"
          ],
          "photo_reference": "AeJbb3dx6eZHcNvd8X3J81VxTUhBuIWSyDPOa2yNSSSxOwKjhAVszNrLMmQknOsKwQQHu83lMuR6R5XWf_0_Agjlq8RKWLxuSab6DomCxqZT_xt1xtF0KjFV9CIrIiG1AgPF9M3lf3C17I51PXUNchoAlK1cJ4OAkpM556Y5c0XJB34AfZK2",
          "width": 4032
        }
      ],
      "place_id": "ChIJKe7TTsBbwokRWXikRzOpmUI",
      "plus_code": {
        "compound_code": "M2VQ+RC New York, NY, USA",
        "global_code": "87G8M2VQ+RC"
      },
      "rating": 5,
      "reference": "ChIJKe7TTsBbwokRWXikRzOpmUI",
      "scope": "GOOGLE",
      "types": [
        "point_of_interest",
        "establishment"
      ],
      "user_ratings_total": 116,
      "vicinity": "172 Classon Avenue, Brooklyn"
    },
    {
      "business_status": "OPERATIONAL",
      "geometry": {
        "location": {
          "lat": 40.6942587,
          "lng": -73.96259870000002
        },
        "viewport": {
          "northeast": {
            "lat": 40.6956254802915,
            "lng": -73.96109941970852
          },
          "southwest": {
            "lat": 40.6929275197085,
            "lng": -73.96379738029152
          }
        }
      },
      "icon": "https://maps.gstatic.com/mapfiles/place_api/icons/v1/png_71/generic_business-71.png",
      "icon_background_color": "#7B9EB0",
      "icon_mask_base_uri": "https://maps.gstatic.com/mapfiles/place_api/icons/v2/generic_pinlet",
      "name": "S&F Supplies Inc",
      "opening_hours": {
        "open_now": false
      },
      "photos": [
        {
          "height": 3024,
          "html_attributions": [
            "<a href=\"https://maps.google.com/maps/contrib/103967061093453033505\">Richard Rogers</a>"
          ],
          "photo_reference": "AeJbb3cs4zuZ2TyUFfPj8YdcDL4gaPJkYsnQnmhiBS41VU3BQ7MbhQHN2xSJap8MQIokiT2nwjLEIjdSGSpNEwZH661svOPHXFubqtuB3Pp8fQemBw4Gnd32bhrEN1DnFvFosxjQaSvntL_v5b8bboSAWso8oXMT1CTs4LMidZBkPct36Lna",
          "width": 4032
        }
      ],
      "place_id": "ChIJBeUxUcBbwokRjy_8kRoJKV4",
      "plus_code": {
        "compound_code": "M2VP+PX New York, NY, USA",
        "global_code": "87G8M2VP+PX"
      },
      "rating": 4.3,
      "reference": "ChIJBeUxUcBbwokRjy_8kRoJKV4",
      "scope": "GOOGLE",
      "types": [
        "store",
        "point_of_interest",
        "establishment"
      ],
      "user_ratings_total": 122,
      "vicinity": "110 Emerson Place, Brooklyn"
    },
    {
      "business_status": "OPERATIONAL",
      "geometry": {
        "location": {
          "lat": 40.69073289999999,
          "lng": -73.9557725
        },
        "viewport": {
          "northeast": {
            "lat": 40.6921563302915,
            "lng": -73.95443876970849
          },
          "southwest": {
            "lat": 40.6894583697085,
            "lng": -73.95713673029151
          }
        }
      },
      "icon": "https://maps.gstatic.com/mapfiles/place_api/icons/v1/png_71/cafe-71.png",
      "icon_background_color": "#FF9E67",
      "icon_mask_base_uri": "https://maps.gstatic.com/mapfiles/place_api/icons/v2/cafe_pinlet",
      "name": "Brooklyn Kolache",
      "opening_hours": {
        "open_now": true
      },
      "photos": [
        {
          "height": 4032,
          "html_attributions": [
            "<a href=\"https://maps.google.com/maps/contrib/114255643620616149924\">Brooklyn Kolache</a>"
          ],
          "photo_reference": "AeJbb3ezgbH7Ky8U_g7q6_MgSchdaCm56lKHdELNMt-wWDHuH9zETuF6NFiIHFZPHQ0TLgH1axqXr67MihRmKim4oK57DO3hSP7RCA19MslXAViU-s3TIDVpRmxHeldoVlTeLDA9JTYbBQzacHlyT56I6imWBwXOZZi0wY6jbXXRoU8eWNcP",
          "width": 3024
        }
      ],
      "place_id": "ChIJe1O4wpRbwokRu8RmeM2Xji4",
      "plus_code": {
        "compound_code": "M2RV+7M New York, NY, USA",
        "global_code": "87G8M2RV+7M"
      },
      "price_level": 1,
      "rating": 4.6,
      "reference": "ChIJe1O4wpRbwokRu8RmeM2Xji4",
      "scope": "GOOGLE",
      "types": [
        "cafe",
        "bakery",
        "store",
        "food",
        "point_of_interest",
        "establishment"
      ],
      "user_ratings_total": 414,
      "vicinity": "520 DeKalb Avenue, Brooklyn"
    },
    {
      "business_status": "OPERATIONAL",
      "geometry": {
        "location": {
          "lat": 40.6906175,
          "lng": -73.9567883
        },
        "viewport": {
          "northeast": {
            "lat": 40.6920402302915,
            "lng": -73.95546321970849
          },
          "southwest": {
            "lat": 40.6893422697085,
            "lng": -73.9581611802915
          }
        }
      },
      "icon": "https://maps.gstatic.com/mapfiles/place_api/icons/v1/png_71/civic_building-71.png",
      "icon_background_color": "#7B9EB0",
      "icon_mask_base_uri": "https://maps.gstatic.com/mapfiles/place_api/icons/v2/civic-bldg_pinlet",
      "name": "New York City Income Support",
      "place_id": "ChIJKyH7HpVbwokR0o-jXpJJKu4",
      "plus_code": {
        "compound_code": "M2RV+67 Brooklyn, NY, USA",
        "global_code": "87G8M2RV+67"
      },
      "rating": 3,
      "reference": "ChIJKyH7HpVbwokR0o-jXpJJKu4",
      "scope": "GOOGLE",
      "types": [
        "local_government_office",
        "point_of_interest",
        "establishment"
      ],
      "user_ratings_total": 1,
      "vicinity": "500 DeKalb Avenue, Brooklyn"
    },
    {
      "business_status": "OPERATIONAL",
      "geometry": {
        "location": {
          "lat": 40.69685200000001,
          "lng": -73.9531932
        },
        "viewport": {
          "northeast": {
            "lat": 40.69836178029151,
            "lng": -73.9519466197085
          },
          "southwest": {
            "lat": 40.69566381970851,
            "lng": -73.95464458029151
          }
        }
      },
      "icon": "https://maps.gstatic.com/mapfiles/place_api/icons/v1/png_71/shopping-71.png",
      "icon_background_color": "#4B96F3",
      "icon_mask_base_uri": "https://maps.gstatic.com/mapfiles/place_api/icons/v2/shopping_pinlet",
      "name": "Zomax Inc",
      "opening_hours": {
        "open_now": false
      },
      "photos": [
        {
          "height": 750,
          "html_attributions": [
            "<a href=\"https://maps.google.com/maps/contrib/117454062213313992616\">Zomax Inc</a>"
          ],
          "photo_reference": "AeJbb3c11frIsy4ezjRaqaIJcbQzZ5rqJCo8sVwoWgOQIwg_bKrmL-ljxdm5Eo2nm45oRiSzuEfUnABsQJQqvqElneC-F8jR2YsWw-9D1B5odfWpYKZwMO2OvI3csRnORXzCl1ebFIHs2p0QNiWpsQZZN84r2_2wjh7P565xe-ok8XGuTUlZ",
          "width": 750
        }
      ],
      "place_id": "ChIJGwyhre5bwokRLL8gN-mSMgU",
      "plus_code": {
        "compound_code": "M2WW+PP Brooklyn, NY, USA",
        "global_code": "87G8M2WW+PP"
      },
      "reference": "ChIJGwyhre5bwokRLL8gN-mSMgU",
      "scope": "GOOGLE",
      "types": [
        "hardware_store",
        "store",
        "point_of_interest",
        "establishment"
      ],
      "vicinity": "544 Park Avenue, Brooklyn"
    },
    {
      "business_status": "OPERATIONAL",
      "geometry": {
        "location": {
          "lat": 40.6914766,
          "lng": -73.959448
        },
        "viewport": {
          "northeast": {
            "lat": 40.6928151802915,
            "lng": -73.9581883697085
          },
          "southwest": {
            "lat": 40.6901172197085,
            "lng": -73.9608863302915
          }
        }
      },
      "icon": "https://maps.gstatic.com/mapfiles/place_api/icons/v1/png_71/school-71.png",
      "icon_background_color": "#7B9EB0",
      "icon_mask_base_uri": "https://maps.gstatic.com/mapfiles/place_api/icons/v2/school_pinlet",
      "name": "Brooklyn Doula -- Megan Davidson, PhD",
      "opening_hours": {
        "open_now": true
      },
      "photos": [
        {
          "height": 5220,
          "html_attributions": [
            "<a href=\"https://maps.google.com/maps/contrib/112662164459937212769\">Brooklyn Doula -- Megan Davidson, PhD</a>"
          ],
          "photo_reference": "AeJbb3doYXt0Ph8xE-9xGKk6y93HeXZpSwfQzTAwX_HMuvOX6HTeDyamhS-zWHyMZSRXsP8UduJlCbLr02vxqCQuPcYyqch-StXqu733UpFn6jN3Vdi_ZVkmqOrUCgYO0kAAl5nJmQrQe0Yy6w75j6nwupr5MSFMv6Z6wwITopaaCqum3G8J",
          "width": 3480
        }
      ],
      "place_id": "ChIJH3Y94r9bwokRDJYNECtoSK0",
      "plus_code": {
        "compound_code": "M2RR+H6 Brooklyn, NY, USA",
        "global_code": "87G8M2RR+H6"
      },
      "reference": "ChIJH3Y94r9bwokRDJYNECtoSK0",
      "scope": "GOOGLE",
      "types": [
        "point_of_interest",
        "establishment"
      ],
      "vicinity": "213 Taaffe Place, Brooklyn"
    },
    {
      "business_status": "OPERATIONAL",
      "geometry": {
        "location": {
          "lat": 40.69677149999999,
          "lng": -73.9588658
        },
        "viewport": {
          "northeast": {
            "lat": 40.69799858029149,
            "lng": -73.95742466970849
          },
          "southwest": {
            "lat": 40.6953006197085,
            "lng": -73.96012263029151
          }
        }
      },
      "icon": "https://maps.gstatic.com/mapfiles/place_api/icons/v1/png_71/generic_business-71.png",
      "icon_background_color": "#7B9EB0",
      "icon_mask_base_uri": "https://maps.gstatic.com/mapfiles/place_api/icons/v2/generic_pinlet",
      "name": "Artek Sewing Supplies",
      "place_id": "ChIJ59E4EOpbwokRNbPBiINrX1M",
      "plus_code": {
        "compound_code": "M2WR+PF Brooklyn, NY, USA",
        "global_code": "87G8M2WR+PF"
      },
      "rating": 4,
      "reference": "ChIJ59E4EOpbwokRNbPBiINrX1M",
      "scope": "GOOGLE",
      "types": [
        "point_of_interest",
        "establishment"
      ],
      "user_ratings_total": 4,
      "vicinity": "455 Park Avenue, Brooklyn"
    },
    {
      "business_status": "OPERATIONAL",
      "geometry": {
        "location": {
          "lat": 40.6974914,
          "lng": -73.9617585
        },
        "viewport": {
          "northeast": {
            "lat": 40.6989261302915,
            "lng": -73.9604506697085
          },
          "southwest": {
            "lat": 40.6962281697085,
            "lng": -73.9631486302915
          }
        }
      },
      "icon": "https://maps.gstatic.com/mapfiles/place_api/icons/v1/png_71/generic_business-71.png",
      "icon_background_color": "#7B9EB0",
      "icon_mask_base_uri": "https://maps.gstatic.com/mapfiles/place_api/icons/v2/generic_pinlet",
      "name": "All United Window & Glass",
      "opening_hours": {
        "open_now": false
      },
      "photos": [
        {
          "height": 1360,
          "html_attributions": [
            "<a href=\"https://maps.google.com/maps/contrib/110256769695153125462\">All United Window &amp; Glass</a>"
          ],
          "photo_reference": "AeJbb3eme2rZYamlShqNBpdnXAN-tVVgEDT11Qn8_gjG7kpAevtGe4LhQUrihl30qnYBrn1aFpiaRqDsAZ_JPeCfe5_b1lxmAGGmcRzp8XQiB1bBzoeV4hIHRrBI1ox4cXJgOFr200M0Bn8bK2RCoV8IJi1XxYoHJbIsvyagR5R3podHD04",
          "width": 2048
        }
      ],
      "place_id": "ChIJOeoiKMJbwokRdquCp1DN72Q",
      "plus_code": {
        "compound_code": "M2WQ+X7 New York, NY, USA",
        "global_code": "87G8M2WQ+X7"
      },
      "rating": 4.5,
      "reference": "ChIJOeoiKMJbwokRdquCp1DN72Q",
      "scope": "GOOGLE",
      "types": [
        "point_of_interest",
        "establishment"
      ],
      "user_ratings_total": 112,
      "vicinity": "97 Classon Avenue, Brooklyn"
    },
    {
      "business_status": "OPERATIONAL",
      "geometry": {
        "location": {
          "lat": 40.6961136,
          "lng": -73.952865
        },
        "viewport": {
          "northeast": {
            "lat": 40.6974711302915,
            "lng": -73.95144161970849
          },
          "southwest": {
            "lat": 40.6947731697085,
            "lng": -73.9541395802915
          }
        }
      },
      "icon": "https://maps.gstatic.com/mapfiles/place_api/icons/v1/png_71/shopping-71.png",
      "icon_background_color": "#4B96F3",
      "icon_mask_base_uri": "https://maps.gstatic.com/mapfiles/place_api/icons/v2/shopping_pinlet",
      "name": "Family Dollar",
      "opening_hours": {
        "open_now": true
      },
      "photos": [
        {
          "height": 2268,
          "html_attributions": [
            "<a href=\"https://maps.google.com/maps/contrib/108795807677422200987\">2wheel Ferrari</a>"
          ],
          "photo_reference": "AeJbb3dpQP51fFLcDqwUOJy_RSWvQFvsJfmjakmS0q0Pc8SQjwH5JVmu_2RDnuZbrZxrwIJ3AD1q1WjSty47MlyFNFHpwtaLzg1fnZUoiM4Agl-XCwla7ZzfjAQ-bZW6fk5ozU_QNQgCumxaNjee5hy42s1TPwrsWdFtXm-bLv2oMy41Bb1g",
          "width": 4032
        }
      ],
      "place_id": "ChIJwYV6A-xbwokRJfuEWKfgMnw",
      "plus_code": {
        "compound_code": "M2WW+CV New York, NY, USA",
        "global_code": "87G8M2WW+CV"
      },
      "price_level": 1,
      "rating": 4,
      "reference": "ChIJwYV6A-xbwokRJfuEWKfgMnw",
      "scope": "GOOGLE",
      "types": [
        "supermarket",
        "clothing_store",
        "grocery_or_supermarket",
        "store",
        "food",
        "point_of_interest",
        "establishment"
      ],
      "user_ratings_total": 151,
      "vicinity": "116 Nostrand Avenue, Brooklyn"
    },
    {
      "business_status": "OPERATIONAL",
      "geometry": {
        "location": {
          "lat": 40.69194689999999,
          "lng": -73.9586747
        },
        "viewport": {
          "northeast": {
            "lat": 40.6936060302915,
            "lng": -73.9574393197085
          },
          "southwest": {
            "lat": 40.6909080697085,
            "lng": -73.9601372802915
          }
        }
      },
      "icon": "https://maps.gstatic.com/mapfiles/place_api/icons/v1/png_71/school-71.png",
      "icon_background_color": "#7B9EB0",
      "icon_mask_base_uri": "https://maps.gstatic.com/mapfiles/place_api/icons/v2/school_pinlet",
      "name": "Brooklyn Community Arts & Media High School (BCAM)",
      "photos": [
        {
          "height": 4032,
          "html_attributions": [
            "<a href=\"https://maps.google.com/maps/contrib/102327376685987955309\">teresa</a>"
          ],
          "photo_reference": "AeJbb3c_Nv9Cx8y-bXlw-3CubRLAR-jNhwxNv74pziR5RKgcoT1L2B3bXCoDkBW8-kGJZW-Gz1y1y5H8sO4hiFdkJNuc61KT1Gm7BczZPIwfZIfrhV1Z2IfiskatPzOJh4ng0-oq5GGyoan6vWTQ4XVCpxevJa8_T2Pe-8EiCoCKrMxTsRk5",
          "width": 3024
        }
      ],
      "place_id": "ChIJu5pFsupbwokRrs3rxeL1Ano",
      "plus_code": {
        "compound_code": "M2RR+QG New York, NY, USA",
        "global_code": "87G8M2RR+QG"
      },
      "rating": 4.1,
      "reference": "ChIJu5pFsupbwokRrs3rxeL1Ano",
      "scope": "GOOGLE",
      "types": [
        "secondary_school",
        "school",
        "point_of_interest",
        "establishment"
      ],
      "user_ratings_total": 23,
      "vicinity": "300 Willoughby Avenue, Brooklyn"
    },
    {
      "business_status": "OPERATIONAL",
      "geometry": {
        "location": {
          "lat": 40.6970584,
          "lng": -73.95522439999999
        },
        "viewport": {
          "northeast": {
            "lat": 40.6983505802915,
            "lng": -73.9538528197085
          },
          "southwest": {
            "lat": 40.6956526197085,
            "lng": -73.95655078029151
          }
        }
      },
      "icon": "https://maps.gstatic.com/mapfiles/place_api/icons/v1/png_71/shopping-71.png",
      "icon_background_color": "#4B96F3",
      "icon_mask_base_uri": "https://maps.gstatic.com/mapfiles/place_api/icons/v2/shopping_pinlet",
      "name": "Kevin & Richard Plumbing & Heating Supplies",
      "opening_hours": {
        "open_now": true
      },
      "photos": [
        {
          "height": 3024,
          "html_attributions": [
            "<a href=\"https://maps.google.com/maps/contrib/114695723417596519913\">Flako3_30 Paredes</a>"
          ],
          "photo_reference": "AeJbb3dToMlcwwgTsiccToLtpfkG9xFLVQ0EJ31p48zM__5-Sm2eMDgf8tyDxKtVQjCmwnB4hn_uE6VHGZ5YyhzpQqLidTULhTjaX7PKGDWNcJTjT82YLd78LtMHhSyg3mGpRghQARZ2Su-hY6Uca_wTKytqiCvvuUN0A_O2fRxAsSE1oxIm",
          "width": 4032
        }
      ],
      "place_id": "ChIJhYHZX-lbwokR05V9zR7eLJs",
      "plus_code": {
        "compound_code": "M2WV+RW Brooklyn, NY, USA",
        "global_code": "87G8M2WV+RW"
      },
      "rating": 4.3,
      "reference": "ChIJhYHZX-lbwokR05V9zR7eLJs",
      "scope": "GOOGLE",
      "types": [
        "car_repair",
        "furniture_store",
        "home_goods_store",
        "store",
        "point_of_interest",
        "establishment"
      ],
      "user_ratings_total": 212,
      "vicinity": "525 Park Avenue, Brooklyn"
    },
    {
      "business_status": "OPERATIONAL",
      "geometry": {
        "location": {
          "lat": 40.6911434,
          "lng": -73.95967519999999
        },
        "viewport": {
          "northeast": {
            "lat": 40.6925036302915,
            "lng": -73.95827261970848
          },
          "southwest": {
            "lat": 40.68980566970851,
            "lng": -73.96097058029149
          }
        }
      },
      "icon": "https://maps.gstatic.com/mapfiles/place_api/icons/v1/png_71/generic_business-71.png",
      "icon_background_color": "#7B9EB0",
      "icon_mask_base_uri": "https://maps.gstatic.com/mapfiles/place_api/icons/v2/generic_pinlet",
      "name": "Alma Realty Co",
      "place_id": "ChIJ22xo4L9bwokR91y6lPn2-qg",
      "plus_code": {
        "compound_code": "M2RR+F4 New York, NY, USA",
        "global_code": "87G8M2RR+F4"
      },
      "rating": 2.3,
      "reference": "ChIJ22xo4L9bwokR91y6lPn2-qg",
      "scope": "GOOGLE",
      "types": [
        "real_estate_agency",
        "point_of_interest",
        "establishment"
      ],
      "user_ratings_total": 3,
      "vicinity": "262 Taaffe Place, Brooklyn"
    },
    {
      "business_status": "OPERATIONAL",
      "geometry": {
        "location": {
          "lat": 40.6935111,
          "lng": -73.96357499999999
        },
        "viewport": {
          "northeast": {
            "lat": 40.69496598029149,
            "lng": -73.96224001970847
          },
          "southwest": {
            "lat": 40.6922680197085,
            "lng": -73.9649379802915
          }
        }
      },
      "icon": "https://maps.gstatic.com/mapfiles/place_api/icons/v1/png_71/restaurant-71.png",
      "icon_background_color": "#FF9E67",
      "icon_mask_base_uri": "https://maps.gstatic.com/mapfiles/place_api/icons/v2/restaurant_pinlet",
      "name": "Bergen Bagels on Myrtle",
      "opening_hours": {
        "open_now": true
      },
      "photos": [
        {
          "height": 1960,
          "html_attributions": [
            "<a href=\"https://maps.google.com/maps/contrib/101800518386822062927\">Shady Mickhail</a>"
          ],
          "photo_reference": "AeJbb3eD7kXAUn0HfoEi0HA9CsCGydalszKtfldaCFgv5OUeKa4aXcA-Ws4Y5eed00HALHMNI0_EebCko4lMiLE_wblUy6wcFctLEVdoj7QiA2jVDe150zIgG4epN2e_g-S4juy5js2-8Q97_rKj_IWN4jCTkxgLyfl7Ax6i9dOcnKWSicWz",
          "width": 4032
        }
      ],
      "place_id": "ChIJubB2qrhbwokRjY4VmpPPkbM",
      "plus_code": {
        "compound_code": "M2VP+CH Brooklyn, NY, USA",
        "global_code": "87G8M2VP+CH"
      },
      "price_level": 1,
      "rating": 4,
      "reference": "ChIJubB2qrhbwokRjY4VmpPPkbM",
      "scope": "GOOGLE",
      "types": [
        "meal_takeaway",
        "bakery",
        "store",
        "restaurant",
        "food",
        "point_of_interest",
        "establishment"
      ],
      "user_ratings_total": 278,
      "vicinity": "536 Myrtle Avenue, Brooklyn"
    },
    {
      "business_status": "OPERATIONAL",
      "geometry": {
        "location": {
          "lat": 40.69471660000001,
          "lng": -73.9563675
        },
        "viewport": {
          "northeast": {
            "lat": 40.69598008029151,
            "lng": -73.9550013197085
          },
          "southwest": {
            "lat": 40.69328211970851,
            "lng": -73.95769928029151
          }
        }
      },
      "icon": "https://maps.gstatic.com/mapfiles/place_api/icons/v1/png_71/shopping-71.png",
      "icon_background_color": "#4B96F3",
      "icon_mask_base_uri": "https://maps.gstatic.com/mapfiles/place_api/icons/v2/shopping_pinlet",
      "name": "Gateway Pest Management",
      "opening_hours": {
        "open_now": true
      },
      "place_id": "ChIJMYuoq-tbwokRVgoeZeWlQzg",
      "plus_code": {
        "compound_code": "M2VV+VF Brooklyn, NY, USA",
        "global_code": "87G8M2VV+VF"
      },
      "rating": 4,
      "reference": "ChIJMYuoq-tbwokRVgoeZeWlQzg",
      "scope": "GOOGLE",
      "types": [
        "home_goods_store",
        "store",
        "point_of_interest",
        "establishment"
      ],
      "user_ratings_total": 1,
      "vicinity": "679 Myrtle Avenue, Brooklyn"
    },
    {
      "business_status": "OPERATIONAL",
      "geometry": {
        "location": {
          "lat": 40.6924651,
          "lng": -73.9582495
        },
        "viewport": {
          "northeast": {
            "lat": 40.69393503029149,
            "lng": -73.95692431970849
          },
          "southwest": {
            "lat": 40.6912370697085,
            "lng": -73.95962228029151
          }
        }
      },
      "icon": "https://maps.gstatic.com/mapfiles/place_api/icons/v1/png_71/school-71.png",
      "icon_background_color": "#7B9EB0",
      "icon_mask_base_uri": "https://maps.gstatic.com/mapfiles/place_api/icons/v2/school_pinlet",
      "name": "P369K - The Coy L. Cox School",
      "place_id": "ChIJu5pFsupbwokRw8M6uO9i-_0",
      "plus_code": {
        "compound_code": "M2RR+XP New York, NY, USA",
        "global_code": "87G8M2RR+XP"
      },
      "reference": "ChIJu5pFsupbwokRw8M6uO9i-_0",
      "scope": "GOOGLE",
      "types": [
        "school",
        "point_of_interest",
        "establishment"
      ],
      "vicinity": "300 Willoughby Avenue, Brooklyn"
    },
    {
      "business_status": "OPERATIONAL",
      "geometry": {
        "location": {
          "lat": 40.6966848,
          "lng": -73.9593187
        },
        "viewport": {
          "northeast": {
            "lat": 40.6979287302915,
            "lng": -73.9579451697085
          },
          "southwest": {
            "lat": 40.6952307697085,
            "lng": -73.9606431302915
          }
        }
      },
      "icon": "https://maps.gstatic.com/mapfiles/place_api/icons/v1/png_71/generic_business-71.png",
      "icon_background_color": "#7B9EB0",
      "icon_mask_base_uri": "https://maps.gstatic.com/mapfiles/place_api/icons/v2/generic_pinlet",
      "name": "Patel Brimal B MD",
      "place_id": "ChIJDcUcCepbwokR_0aKRvrLYCw",
      "plus_code": {
        "compound_code": "M2WR+M7 Brooklyn, NY, USA",
        "global_code": "87G8M2WR+M7"
      },
      "reference": "ChIJDcUcCepbwokR_0aKRvrLYCw",
      "scope": "GOOGLE",
      "types": [
        "doctor",
        "health",
        "point_of_interest",
        "establishment"
      ],
      "vicinity": "445 Park Avenue #2, Brooklyn"
    },
    {
      "business_status": "OPERATIONAL",
      "geometry": {
        "location": {
          "lat": 40.697816,
          "lng": -73.95694449999999
        },
        "viewport": {
          "northeast": {
            "lat": 40.6991930302915,
            "lng": -73.95551351970849
          },
          "southwest": {
            "lat": 40.6964950697085,
            "lng": -73.9582114802915
          }
        }
      },
      "icon": "https://maps.gstatic.com/mapfiles/place_api/icons/v1/png_71/generic_business-71.png",
      "icon_background_color": "#7B9EB0",
      "icon_mask_base_uri": "https://maps.gstatic.com/mapfiles/place_api/icons/v2/generic_pinlet",
      "name": "Rofeh Cholim Cancer Society",
      "opening_hours": {
        "open_now": false
      },
      "photos": [
        {
          "height": 4000,
          "html_attributions": [
            "<a href=\"https://maps.google.com/maps/contrib/106461231281235122068\">Aron Steier</a>"
          ],
          "photo_reference": "AeJbb3fKFwqrQ79KwRRsXpfkXtuG6oApbuRdHmEAoHXCMbzQqR2BpOdGw8TKfFxCj2y2x693lw6Tmo3UMrtyEdDQk6y0QLOXrTgb9uYKFeTHnWwrtkDa9vKLWKcdmjlPbFEEyX7rfbQhV4YLJACQn4RA0IDD510G7TVMO2JJnK6p6LFna5Vh",
          "width": 3000
        }
      ],
      "place_id": "ChIJadVTmelbwokRPBlP8tb2Tdw",
      "plus_code": {
        "compound_code": "M2XV+46 New York, NY, USA",
        "global_code": "87G8M2XV+46"
      },
      "rating": 4.9,
      "reference": "ChIJadVTmelbwokRPBlP8tb2Tdw",
      "scope": "GOOGLE",
      "types": [
        "point_of_interest",
        "establishment"
      ],
      "user_ratings_total": 21,
      "vicinity": "803 Bedford Avenue, Brooklyn"
    },
    {
      "business_status": "OPERATIONAL",
      "geometry": {
        "location": {
          "lat": 40.6943982,
          "lng": -73.9595886
        },
        "viewport": {
          "northeast": {
            "lat": 40.6957471802915,
            "lng": -73.9582396197085
          },
          "southwest": {
            "lat": 40.6930492197085,
            "lng": -73.96093758029151
          }
        }
      },
      "icon": "https://maps.gstatic.com/mapfiles/place_api/icons/v1/png_71/generic_business-71.png",
      "icon_background_color": "#7B9EB0",
      "icon_mask_base_uri": "https://maps.gstatic.com/mapfiles/place_api/icons/v2/generic_pinlet",
      "name": "CHRISTMAS REAL ESTATE TEAM",
      "opening_hours": {
        "open_now": true
      },
      "photos": [
        {
          "height": 538,
          "html_attributions": [
            "<a href=\"https://maps.google.com/maps/contrib/110877485553837928151\">CHRISTMAS REAL ESTATE TEAM</a>"
          ],
          "photo_reference": "AeJbb3dmoGI3495k1C0iZLbIcaR8Q0dXJQ53nI7NcRsAl-mHaTHVr4jQfqP7FY7SEp2nWr_cP3V__ERqdTHy4eA0DhwIwRBN8Jlw5dwhVMV-9U3DRbQFLN-Jr1vlbe7_UPNc47XbiS7K8cQgvW753kYmLL4Ued97pKJca5fQy2QMDreonfEa",
          "width": 958
        }
      ],
      "place_id": "ChIJDx5sJ7pbwokRuSSRvnPx6A8",
      "plus_code": {
        "compound_code": "M2VR+Q5 New York, NY, USA",
        "global_code": "87G8M2VR+Q5"
      },
      "rating": 4,
      "reference": "ChIJDx5sJ7pbwokRuSSRvnPx6A8",
      "scope": "GOOGLE",
      "types": [
        "real_estate_agency",
        "lodging",
        "point_of_interest",
        "finance",
        "establishment"
      ],
      "user_ratings_total": 1,
      "vicinity": "609 Myrtle Avenue Suite 50034, Brooklyn"
    },
    {
      "business_status": "OPERATIONAL",
      "geometry": {
        "location": {
          "lat": 40.6940611,
          "lng": -73.96195279999999
        },
        "viewport": {
          "northeast": {
            "lat": 40.6953335802915,
            "lng": -73.9606382197085
          },
          "southwest": {
            "lat": 40.6926356197085,
            "lng": -73.9633361802915
          }
        }
      },
      "icon": "https://maps.gstatic.com/mapfiles/place_api/icons/v1/png_71/cafe-71.png",
      "icon_background_color": "#FF9E67",
      "icon_mask_base_uri": "https://maps.gstatic.com/mapfiles/place_api/icons/v2/cafe_pinlet",
      "name": "BKG Coffee Roasters",
      "opening_hours": {
        "open_now": false
      },
      "photos": [
        {
          "height": 1602,
          "html_attributions": [
            "<a href=\"https://maps.google.com/maps/contrib/111594821105956972002\">BKG Coffee Roasters</a>"
          ],
          "photo_reference": "AeJbb3dxZT8rbc4GjLr6THRuVstozFL9DuCixhH_PJ1eDEOVEYCce_QOG-Gq8tFML16N7xC7WK9aS5vgXjupYn0Rwse86WLnH3Fk91qSRh2WbNlNpiKVxRwZ8_HiEf-f4kloAumUNaIATLJ6Bb0zUzuoLNXQsw5G1yNC7HAg227wIGZr2YzV",
          "width": 2400
        }
      ],
      "place_id": "ChIJBWhhqo5awokRSVjm8pyfBrg",
      "plus_code": {
        "compound_code": "M2VQ+J6 Brooklyn, NY, USA",
        "global_code": "87G8M2VQ+J6"
      },
      "price_level": 2,
      "rating": 4.8,
      "reference": "ChIJBWhhqo5awokRSVjm8pyfBrg",
      "scope": "GOOGLE",
      "types": [
        "cafe",
        "bakery",
        "food",
        "point_of_interest",
        "store",
        "establishment"
      ],
      "user_ratings_total": 208,
      "vicinity": "557 Myrtle Avenue, Brooklyn"
    },
    {
      "business_status": "OPERATIONAL",
      "geometry": {
        "location": {
          "lat": 40.6960819,
          "lng": -73.957669
        },
        "viewport": {
          "northeast": {
            "lat": 40.6974446802915,
            "lng": -73.95620116970849
          },
          "southwest": {
            "lat": 40.6947467197085,
            "lng": -73.9588991302915
          }
        }
      },
      "icon": "https://maps.gstatic.com/mapfiles/place_api/icons/v1/png_71/generic_business-71.png",
      "icon_background_color": "#7B9EB0",
      "icon_mask_base_uri": "https://maps.gstatic.com/mapfiles/place_api/icons/v2/generic_pinlet",
      "name": "Compu Solutions USA",
      "opening_hours": {
        "open_now": false
      },
      "photos": [
        {
          "height": 1000,
          "html_attributions": [
            "<a href=\"https://maps.google.com/maps/contrib/117767977079455436138\">Compu Solutions USA</a>"
          ],
          "photo_reference": "AeJbb3eL5TCuHpKa123vXkGLn9RHcGYbj0PwjbEqCgM63eCckrBiC9YUzU6qvOAhyR-zje-iyOtQdxOoYjPFwGn7cVQ8xM3B3nxOx5I9DfxfeEN4pDiPzu-BSSiLvLGk_QaVVBklv7N5-g3ia_5h1MxPU-xDK7TgL68gj5HpzoehnjyZkjLf",
          "width": 1000
        }
      ],
      "place_id": "ChIJqSVdyTNawokRuNCs-AUavNc",
      "plus_code": {
        "compound_code": "M2WR+CW Brooklyn, NY, USA",
        "global_code": "87G8M2WR+CW"
      },
      "reference": "ChIJqSVdyTNawokRuNCs-AUavNc",
      "scope": "GOOGLE",
      "types": [
        "point_of_interest",
        "establishment"
      ],
      "vicinity": "72 Skillman Street, Brooklyn"
    },
    {
      "business_status": "OPERATIONAL",
      "geometry": {
        "location": {
          "lat": 40.697568,
          "lng": -73.95987269999999
        },
        "viewport": {
          "northeast": {
            "lat": 40.6989090302915,
            "lng": -73.95859001970848
          },
          "southwest": {
            "lat": 40.6962110697085,
            "lng": -73.9612879802915
          }
        }
      },
      "icon": "https://maps.gstatic.com/mapfiles/place_api/icons/v1/png_71/generic_business-71.png",
      "icon_background_color": "#7B9EB0",
      "icon_mask_base_uri": "https://maps.gstatic.com/mapfiles/place_api/icons/v2/generic_pinlet",
      "name": "Draftex",
      "place_id": "ChIJYf9tBMJbwokRwhvqaweM4i8",
      "plus_code": {
        "compound_code": "M2XR+23 New York, NY, USA",
        "global_code": "87G8M2XR+23"
      },
      "rating": 5,
      "reference": "ChIJYf9tBMJbwokRwhvqaweM4i8",
      "scope": "GOOGLE",
      "types": [
        "point_of_interest",
        "establishment"
      ],
      "user_ratings_total": 3,
      "vicinity": "777 Kent Avenue, Brooklyn"
    },
    {
      "business_status": "OPERATIONAL",
      "geometry": {
        "location": {
          "lat": 40.6967977,
          "lng": -73.9557488
        },
        "viewport": {
          "northeast": {
            "lat": 40.69818183029149,
            "lng": -73.95440861970849
          },
          "southwest": {
            "lat": 40.6954838697085,
            "lng": -73.9571065802915
          }
        }
      },
      "icon": "https://maps.gstatic.com/mapfiles/place_api/icons/v1/png_71/shopping-71.png",
      "icon_background_color": "#4B96F3",
      "icon_mask_base_uri": "https://maps.gstatic.com/mapfiles/place_api/icons/v2/shopping_pinlet",
      "name": "Kitchen Expo USA",
      "opening_hours": {
        "open_now": false
      },
      "photos": [
        {
          "height": 4032,
          "html_attributions": [
            "<a href=\"https://maps.google.com/maps/contrib/113565206009013889762\">Shia h glick</a>"
          ],
          "photo_reference": "AeJbb3fl_N3hUsRLcE9Q7HAamMAo3hRWL5zdPPGHj_mHf89DC6HhFMyXP7lrcVCvJRxX5j35cVqA7W46FrlFYst0eS1VEy5VD3CzbzhIBqMzoTP5CdJkpfHv2f_QwHEhu8VdDdKgc0Chukb142m7_ivCwlphjJaPQmwT7gWTZk5lFSKZeD-0",
          "width": 3024
        }
      ],
      "place_id": "ChIJQ1oU2OtbwokRxE_Wz_LfsLQ",
      "plus_code": {
        "compound_code": "M2WV+PP Brooklyn, NY, USA",
        "global_code": "87G8M2WV+PP"
      },
      "rating": 4.7,
      "reference": "ChIJQ1oU2OtbwokRxE_Wz_LfsLQ",
      "scope": "GOOGLE",
      "types": [
        "furniture_store",
        "home_goods_store",
        "point_of_interest",
        "store",
        "establishment"
      ],
      "user_ratings_total": 15,
      "vicinity": "510 Park Avenue, Brooklyn"
    },
    {
      "business_status": "OPERATIONAL",
      "geometry": {
        "location": {
          "lat": 40.695063,
          "lng": -73.95915099999999
        },
        "viewport": {
          "northeast": {
            "lat": 40.6964106302915,
            "lng": -73.95797431970848
          },
          "southwest": {
            "lat": 40.6937126697085,
            "lng": -73.9606722802915
          }
        }
      },
      "icon": "https://maps.gstatic.com/mapfiles/place_api/icons/v1/png_71/shopping-71.png",
      "icon_background_color": "#4B96F3",
      "icon_mask_base_uri": "https://maps.gstatic.com/mapfiles/place_api/icons/v2/shopping_pinlet",
      "name": "CDF Floors Inc",
      "opening_hours": {
        "open_now": true
      },
      "place_id": "ChIJNQkLf-pbwokRK7-kOyqJiaw",
      "plus_code": {
        "compound_code": "M2WR+28 New York, NY, USA",
        "global_code": "87G8M2WR+28"
      },
      "reference": "ChIJNQkLf-pbwokRK7-kOyqJiaw",
      "scope": "GOOGLE",
      "types": [
        "home_goods_store",
        "point_of_interest",
        "store",
        "establishment"
      ],
      "vicinity": "851 Kent Avenue, Brooklyn"
    },
    {
      "business_status": "OPERATIONAL",
      "geometry": {
        "location": {
          "lat": 40.695063,
          "lng": -73.95915099999999
        },
        "viewport": {
          "northeast": {
            "lat": 40.6964106302915,
            "lng": -73.95797431970848
          },
          "southwest": {
            "lat": 40.6937126697085,
            "lng": -73.9606722802915
          }
        }
      },
      "icon": "https://maps.gstatic.com/mapfiles/place_api/icons/v1/png_71/shopping-71.png",
      "icon_background_color": "#4B96F3",
      "icon_mask_base_uri": "https://maps.gstatic.com/mapfiles/place_api/icons/v2/shopping_pinlet",
      "name": "Baron Lighting",
      "opening_hours": {
        "open_now": false
      },
      "photos": [
        {
          "height": 347,
          "html_attributions": [
            "<a href=\"https://maps.google.com/maps/contrib/111597180382979391512\">Baron Lighting</a>"
          ],
          "photo_reference": "AeJbb3fyTRIKSATSryaLL4csemUjZ18YLQhW-K4V3YeDWoHwmbnylJ4cIGOb9FOApR3FHde70w0-EB6gZpJWSug5EwhR5TNCpoOKy-KkiuE6uE1sYF_xIxztk8XmS77VRyozylHJ2_ETKzTjEW-_w0FgafYm4mH8gwgZRq33qkjAp1vBlPRf",
          "width": 387
        }
      ],
      "place_id": "ChIJNQkLf-pbwokR7dkCtm3EcMk",
      "plus_code": {
        "compound_code": "M2WR+28 New York, NY, USA",
        "global_code": "87G8M2WR+28"
      },
      "rating": 5,
      "reference": "ChIJNQkLf-pbwokR7dkCtm3EcMk",
      "scope": "GOOGLE",
      "types": [
        "home_goods_store",
        "point_of_interest",
        "store",
        "establishment"
      ],
      "user_ratings_total": 1,
      "vicinity": "851 Kent Avenue, Brooklyn"
    },
    {
      "business_status": "CLOSED_TEMPORARILY",
      "geometry": {
        "location": {
          "lat": 40.69645929999999,
          "lng": -73.9608624
        },
        "viewport": {
          "northeast": {
            "lat": 40.69772023029149,
            "lng": -73.9595244197085
          },
          "southwest": {
            "lat": 40.6950222697085,
            "lng": -73.96222238029151
          }
        }
      },
      "icon": "https://maps.gstatic.com/mapfiles/place_api/icons/v1/png_71/shopping-71.png",
      "icon_background_color": "#4B96F3",
      "icon_mask_base_uri": "https://maps.gstatic.com/mapfiles/place_api/icons/v2/shopping_pinlet",
      "name": "Sweater Brand Inc",
      "permanently_closed": true,
      "photos": [
        {
          "height": 2048,
          "html_attributions": [
            "<a href=\"https://maps.google.com/maps/contrib/115246117979849181666\">Mizanur Rahman</a>"
          ],
          "photo_reference": "AeJbb3eGNTpU2X7bcGwQrvZolKEwM7m0haRlvq1riWaxwB9k2g47iFlOBoeqaWb6nN_sTnPqiOWQCLewAsJ3Teu0rsF47LZXL3EHdkLgxboqw0UbaoqXZMqyJu01k37ZS2m7Bd8-yigDz-7Oe-rH7foKcr4nOhjUz2hWhwdYpk7ArWosqaVR",
          "width": 1400
        }
      ],
      "place_id": "ChIJM0vDksFbwokR5A5OW0lMlGE",
      "plus_code": {
        "compound_code": "M2WQ+HM New York, NY, USA",
        "global_code": "87G8M2WQ+HM"
      },
      "rating": 4,
      "reference": "ChIJM0vDksFbwokR5A5OW0lMlGE",
      "scope": "GOOGLE",
      "types": [
        "clothing_store",
        "point_of_interest",
        "store",
        "establishment"
      ],
      "user_ratings_total": 3,
      "vicinity": "401 Park Avenue, Brooklyn"
    },
    {
      "business_status": "OPERATIONAL",
      "geometry": {
        "location": {
          "lat": 40.6946277,
          "lng": -73.95485579999999
        },
        "viewport": {
          "northeast": {
            "lat": 40.69602518029149,
            "lng": -73.95346761970849
          },
          "southwest": {
            "lat": 40.69332721970849,
            "lng": -73.95616558029151
          }
        }
      },
      "icon": "https://maps.gstatic.com/mapfiles/place_api/icons/v1/png_71/generic_business-71.png",
      "icon_background_color": "#7B9EB0",
      "icon_mask_base_uri": "https://maps.gstatic.com/mapfiles/place_api/icons/v2/generic_pinlet",
      "name": "Classic Image",
      "opening_hours": {
        "open_now": false
      },
      "photos": [
        {
          "height": 3024,
          "html_attributions": [
            "<a href=\"https://maps.google.com/maps/contrib/117302891142381239827\">Jeff Daza</a>"
          ],
          "photo_reference": "AeJbb3eJ5aApOi-OcpvHnKU9Q6h5Ekd1L_50I1ysGg8KyLUG_od9YZQkD-pWpycsed4UckPS5g6UPzsfdSypWUTEU0WuiSwgSAA2hC9W1f5SwHtuP3cBP_cZDpCiG5WSOuVgo74Eu_ShCXHI_9FSoqUIyREH-_oW2R7IdGESdQVAbHU1opw3",
          "width": 4032
        }
      ],
      "place_id": "ChIJh2nRCutbwokRGDZx4hnWc-E",
      "plus_code": {
        "compound_code": "M2VW+V3 New York, NY, USA",
        "global_code": "87G8M2VW+V3"
      },
      "rating": 4.2,
      "reference": "ChIJh2nRCutbwokRGDZx4hnWc-E",
      "scope": "GOOGLE",
      "types": [
        "point_of_interest",
        "general_contractor",
        "establishment"
      ],
      "user_ratings_total": 5,
      "vicinity": "712 Myrtle Avenue, Brooklyn"
    },
    {
      "business_status": "OPERATIONAL",
      "geometry": {
        "location": {
          "lat": 40.69425659999999,
          "lng": -73.9553612
        },
        "viewport": {
          "northeast": {
            "lat": 40.6955812302915,
            "lng": -73.9538969197085
          },
          "southwest": {
            "lat": 40.6928832697085,
            "lng": -73.9565948802915
          }
        }
      },
      "icon": "https://maps.gstatic.com/mapfiles/place_api/icons/v1/png_71/generic_business-71.png",
      "icon_background_color": "#7B9EB0",
      "icon_mask_base_uri": "https://maps.gstatic.com/mapfiles/place_api/icons/v2/generic_pinlet",
      "name": "Liberty Dental Supply AKA DC Dental",
      "place_id": "ChIJGbzpputbwokRqMtKqZzV0G4",
      "plus_code": {
        "compound_code": "M2VV+PV New York, NY, USA",
        "global_code": "87G8M2VV+PV"
      },
      "reference": "ChIJGbzpputbwokRqMtKqZzV0G4",
      "scope": "GOOGLE",
      "types": [
        "dentist",
        "health",
        "point_of_interest",
        "establishment"
      ],
      "vicinity": "694 Myrtle Avenue, Brooklyn"
    },
    {
      "business_status": "OPERATIONAL",
      "geometry": {
        "location": {
          "lat": 40.6941498,
          "lng": -73.96156739999999
        },
        "viewport": {
          "northeast": {
            "lat": 40.69540458029149,
            "lng": -73.96019986970849
          },
          "southwest": {
            "lat": 40.6927066197085,
            "lng": -73.9628978302915
          }
        }
      },
      "icon": "https://maps.gstatic.com/mapfiles/place_api/icons/v1/png_71/restaurant-71.png",
      "icon_background_color": "#FF9E67",
      "icon_mask_base_uri": "https://maps.gstatic.com/mapfiles/place_api/icons/v2/restaurant_pinlet",
      "name": "Carvel Express",
      "photos": [
        {
          "height": 1000,
          "html_attributions": [
            "<a href=\"https://maps.google.com/maps/contrib/106812607252164917765\">Carvel Express</a>"
          ],
          "photo_reference": "AeJbb3e9anRJyr9kFqkE6TzxrNobT13UMPU6kbas-WKKCsqFD8aV75d-XA5ULvZ-5skiEs9VkNGYZGBzbw66Ps8lm0NpqRITV-YTdtMDJ4bcui1IljhpbNhXoMTXe-QtZZ_aE5iplsiP-m6s4O40R3WX2-cTIKVKVJ-JpprxW-ZThNdoVzJV",
          "width": 1000
        }
      ],
      "place_id": "ChIJ_XPgacBbwokRDxdcySdSYgM",
      "plus_code": {
        "compound_code": "M2VQ+M9 New York, NY, USA",
        "global_code": "87G8M2VQ+M9"
      },
      "price_level": 1,
      "rating": 3,
      "reference": "ChIJ_XPgacBbwokRDxdcySdSYgM",
      "scope": "GOOGLE",
      "types": [
        "food",
        "point_of_interest",
        "store",
        "establishment"
      ],
      "user_ratings_total": 22,
      "vicinity": "569 Myrtle Avenue, Brooklyn"
    },
    {
      "business_status": "OPERATIONAL",
      "geometry": {
        "location": {
          "lat": 40.69410279999999,
          "lng": -73.9554088
        },
        "viewport": {
          "northeast": {
            "lat": 40.69549623029149,
            "lng": -73.95391171970849
          },
          "southwest": {
            "lat": 40.6927982697085,
            "lng": -73.95660968029149
          }
        }
      },
      "icon": "https://maps.gstatic.com/mapfiles/place_api/icons/v1/png_71/shopping-71.png",
      "icon_background_color": "#4B96F3",
      "icon_mask_base_uri": "https://maps.gstatic.com/mapfiles/place_api/icons/v2/shopping_pinlet",
      "name": "Accurate Sales INC",
      "place_id": "ChIJiU0dF-RbwokRnl2TSHCVPRg",
      "plus_code": {
        "compound_code": "M2VV+JR New York, NY, USA",
        "global_code": "87G8M2VV+JR"
      },
      "reference": "ChIJiU0dF-RbwokRnl2TSHCVPRg",
      "scope": "GOOGLE",
      "types": [
        "electronics_store",
        "home_goods_store",
        "point_of_interest",
        "store",
        "establishment"
      ],
      "vicinity": "146 Spencer Street, Brooklyn"
    },
    {
      "business_status": "OPERATIONAL",
      "geometry": {
        "location": {
          "lat": 40.6954922,
          "lng": -73.9542031
        },
        "viewport": {
          "northeast": {
            "lat": 40.6968276302915,
            "lng": -73.9529726197085
          },
          "southwest": {
            "lat": 40.6941296697085,
            "lng": -73.95567058029151
          }
        }
      },
      "icon": "https://maps.gstatic.com/mapfiles/place_api/icons/v1/png_71/generic_business-71.png",
      "icon_background_color": "#7B9EB0",
      "icon_mask_base_uri": "https://maps.gstatic.com/mapfiles/place_api/icons/v2/generic_pinlet",
      "name": "Control Electropolishing Corporation.",
      "opening_hours": {
        "open_now": false
      },
      "photos": [
        {
          "height": 1520,
          "html_attributions": [
            "<a href=\"https://maps.google.com/maps/contrib/110542178383169918345\">Control Electropolishing Corporation.</a>"
          ],
          "photo_reference": "AeJbb3dDnVQ2u56lD4WHkrhdujV2HPBiikJDrbd3c9k5SSm3AaIIV8KgG6msHi-tMYSe9O_dJvSIXIxLDq5HZQpsw4in5ZE5cNWt3jgRd97K_LEsAbjFj2w9zkIyF2u1uZ0XCICoiOi8LUu5bDIFPpyLvghCbeOeVyxQNY04sbFtElf92lC4",
          "width": 2048
        }
      ],
      "place_id": "ChIJg3Sf8utbwokRgqjTAoZNXW4",
      "plus_code": {
        "compound_code": "M2WW+58 Brooklyn, NY, USA",
        "global_code": "87G8M2WW+58"
      },
      "rating": 4,
      "reference": "ChIJg3Sf8utbwokRgqjTAoZNXW4",
      "scope": "GOOGLE",
      "types": [
        "point_of_interest",
        "establishment"
      ],
      "user_ratings_total": 4,
      "vicinity": "109 Walworth Street, Brooklyn"
    },
    {
      "business_status": "OPERATIONAL",
      "geometry": {
        "location": {
          "lat": 40.69565749999999,
          "lng": -73.9594917
        },
        "viewport": {
          "northeast": {
            "lat": 40.6969987302915,
            "lng": -73.9582065197085
          },
          "southwest": {
            "lat": 40.6943007697085,
            "lng": -73.9609044802915
          }
        }
      },
      "icon": "https://maps.gstatic.com/mapfiles/place_api/icons/v1/png_71/generic_business-71.png",
      "icon_background_color": "#7B9EB0",
      "icon_mask_base_uri": "https://maps.gstatic.com/mapfiles/place_api/icons/v2/generic_pinlet",
      "name": "Angel Rodriguez Law Office",
      "opening_hours": {
        "open_now": false
      },
      "place_id": "ChIJp6l-2MFbwokR4U8dT1mw178",
      "plus_code": {
        "compound_code": "M2WR+76 New York, NY, USA",
        "global_code": "87G8M2WR+76"
      },
      "rating": 3,
      "reference": "ChIJp6l-2MFbwokR4U8dT1mw178",
      "scope": "GOOGLE",
      "types": [
        "lawyer",
        "point_of_interest",
        "establishment"
      ],
      "user_ratings_total": 2,
      "vicinity": "833 Kent Avenue, Brooklyn"
    },
    {
      "business_status": "OPERATIONAL",
      "geometry": {
        "location": {
          "lat": 40.6939916,
          "lng": -73.9548561
        },
        "viewport": {
          "northeast": {
            "lat": 40.6953285302915,
            "lng": -73.9536132197085
          },
          "southwest": {
            "lat": 40.69263056970851,
            "lng": -73.95631118029151
          }
        }
      },
      "icon": "https://maps.gstatic.com/mapfiles/place_api/icons/v1/png_71/generic_business-71.png",
      "icon_background_color": "#7B9EB0",
      "icon_mask_base_uri": "https://maps.gstatic.com/mapfiles/place_api/icons/v2/generic_pinlet",
      "name": "Paper Moon Photography",
      "photos": [
        {
          "height": 288,
          "html_attributions": [
            "<a href=\"https://maps.google.com/maps/contrib/109554280971035662292\">Paper Moon Photography</a>"
          ],
          "photo_reference": "AeJbb3ejkRh8b6mYqsoti4DwYiw5cyFYb7jg8Pz8Ufr-ine8ttpUcFX72vNV4dvXKbqDEyXvI0h0455_6LMaVj6LJEm53BeLWeF-v-EvoAXrvikLNgGCau6Fpr3aMRJ-CFOtqQjq8BTdl-g6sh1JbJoznd7JhN0749R4sUrONA9VpI6CHo0",
          "width": 288
        }
      ],
      "place_id": "ChIJu0c8dOtbwokR2zoEqlpyGEE",
      "plus_code": {
        "compound_code": "M2VW+H3 Brooklyn, NY, USA",
        "global_code": "87G8M2VW+H3"
      },
      "rating": 3,
      "reference": "ChIJu0c8dOtbwokR2zoEqlpyGEE",
      "scope": "GOOGLE",
      "types": [
        "point_of_interest",
        "establishment"
      ],
      "user_ratings_total": 2,
      "vicinity": "141 Spencer Street, Brooklyn"
    },
    {
      "business_status": "CLOSED_TEMPORARILY",
      "geometry": {
        "location": {
          "lat": 40.6942032,
          "lng": -73.9553804
        },
        "viewport": {
          "northeast": {
            "lat": 40.69557363029151,
            "lng": -73.9539028697085
          },
          "southwest": {
            "lat": 40.69287566970851,
            "lng": -73.9566008302915
          }
        }
      },
      "icon": "https://maps.gstatic.com/mapfiles/place_api/icons/v1/png_71/generic_business-71.png",
      "icon_background_color": "#7B9EB0",
      "icon_mask_base_uri": "https://maps.gstatic.com/mapfiles/place_api/icons/v2/generic_pinlet",
      "name": "First Class Computer",
      "permanently_closed": true,
      "place_id": "ChIJh2q3CutbwokRqFjNODwJCBc",
      "plus_code": {
        "compound_code": "M2VV+MR Brooklyn, NY, USA",
        "global_code": "87G8M2VV+MR"
      },
      "reference": "ChIJh2q3CutbwokRqFjNODwJCBc",
      "scope": "GOOGLE",
      "types": [
        "point_of_interest",
        "establishment"
      ],
      "vicinity": "144 Spencer Street, Brooklyn"
    },
    {
      "business_status": "OPERATIONAL",
      "geometry": {
        "location": {
          "lat": 40.6944367,
          "lng": -73.9593792
        },
        "viewport": {
          "northeast": {
            "lat": 40.6957910302915,
            "lng": -73.95798546970849
          },
          "southwest": {
            "lat": 40.6930930697085,
            "lng": -73.9606834302915
          }
        }
      },
      "icon": "https://maps.gstatic.com/mapfiles/place_api/icons/v1/png_71/shopping-71.png",
      "icon_background_color": "#4B96F3",
      "icon_mask_base_uri": "https://maps.gstatic.com/mapfiles/place_api/icons/v2/shopping_pinlet",
      "name": "Five Star Corrugated & Display",
      "opening_hours": {
        "open_now": false
      },
      "place_id": "ChIJk01I8sFbwokRckriQKm1kbM",
      "plus_code": {
        "compound_code": "M2VR+Q6 Brooklyn, NY, USA",
        "global_code": "87G8M2VR+Q6"
      },
      "rating": 3.9,
      "reference": "ChIJk01I8sFbwokRckriQKm1kbM",
      "scope": "GOOGLE",
      "types": [
        "point_of_interest",
        "store",
        "establishment"
      ],
      "user_ratings_total": 7,
      "vicinity": "65 Taaffe Place #1, Brooklyn"
    },
    {
      "business_status": "CLOSED_TEMPORARILY",
      "geometry": {
        "location": {
          "lat": 40.6941309,
          "lng": -73.9553259
        },
        "viewport": {
          "northeast": {
            "lat": 40.69551028029149,
            "lng": -73.95387026970849
          },
          "southwest": {
            "lat": 40.69281231970849,
            "lng": -73.95656823029151
          }
        }
      },
      "icon": "https://maps.gstatic.com/mapfiles/place_api/icons/v1/png_71/shopping-71.png",
      "icon_background_color": "#4B96F3",
      "icon_mask_base_uri": "https://maps.gstatic.com/mapfiles/place_api/icons/v2/shopping_pinlet",
      "name": "Modern Leather Beds",
      "permanently_closed": true,
      "place_id": "ChIJ_2jRCutbwokRFplsujP6hJw",
      "plus_code": {
        "compound_code": "M2VV+MV New York, NY, USA",
        "global_code": "87G8M2VV+MV"
      },
      "reference": "ChIJ_2jRCutbwokRFplsujP6hJw",
      "scope": "GOOGLE",
      "types": [
        "furniture_store",
        "home_goods_store",
        "point_of_interest",
        "store",
        "establishment"
      ],
      "vicinity": "146 Spencer Street, Brooklyn"
    }
  ],
  "status": "OK"
}