{
  "html_attributions": [],
  "results": [
    {
      "geometry": {
        "location": {
          "lat": 40.7127753,
          "lng": -74.0059728
        },
        "viewport": {
          "northeast": {
            "lat": 40.91757705070789,
            "lng": -73.70027206817629
          },
          "southwest": {
            "lat": 40.47739906045452,
            "lng": -74.25908991427882
          }
        }
      },
      "icon": "https://maps.gstatic.com/mapfiles/place_api/icons/v1/png_71/geocode-71.png",
      "icon_background_color": "#7B9EB0",
      "icon_mask_base_uri": "https://maps.gstatic.com/mapfiles/place_api/icons/v2/generic_pinlet",
      "name": "\u7d10\u7d04",
      "photos": [
        {
          "height": 600,
          "html_attributions": [
            "<a href=\"https://maps.google.com/maps/contrib/102389334567210814614\">Bukurie</a>"
          ],
          "photo_reference": "AeJbb3eP-Q3u0ZNaAOKhFYLPChmtrUqNLlAZSQm6gcvQN3z2nAHa8PXS8_yV2r9wRHq6z9b3Z2m5aRx2YrU2TxK8JK50ocX5MMGyzm_1drwGNXNMSamEQzQPRQtEy_j-PZS12oqsHulwsr9sTIqLhoLJx56eGDEVgzeX44QD0yVldQIa5riv",
          "width": 480
        }
      ],
      "place_id": "ChIJOwg_06VPwokRYv534QaPC8g",
      "reference": "ChIJOwg_06VPwokRYv534QaPC8g",
      "scope": "GOOGLE",
      "types": [
        "locality",
        "political"
      ],
      "vicinity": "\u7d10\u7d04"
    },
    {
      "business_status": "OPERATIONAL",
      "geometry": {
        "location": {
          "lat": 40.7552013,
          "lng": -73.9366656
        },
        "viewport": {
          "northeast": {
            "lat": 40.75650023029149,
            "lng": -73.93520966970848
          },
          "southwest": {
            "lat": 40.7538022697085,
            "lng": -73.9379076302915
          }
        }
      },
      "icon": "https://maps.gstatic.com/mapfiles/place_api/icons/v1/png_71/lodging-71.png",
      "icon_background_color": "#909CE1",
      "icon_mask_base_uri": "https://maps.gstatic.com/mapfiles/place_api/icons/v2/hotel_pinlet",
      "name": "Ramada by Wyndham Long Island City",
      "opening_hours": {
        "open_now": true
      },
      "photos": [
        {
          "height": 3024,
          "html_attributions": [
            "<a href=\"https://maps.google.com/maps/contrib/113825067771225993502\">Brian Shackelton</a>"
          ],
          "photo_reference": "AeJbb3fel6ox7tH8wnnpOnLMW3058SJW7OBtBllHsb_PRONx5bTwlcn2GX181I_LXMp5YYp9CQf89xxzNG6kuX_F8fCV2u0Ya1YUfvF1lmXhr4GPZ8ITfzqXsZx4p-ME3GC038pvyCYs1ag-4FM3JIpBJTtW-jFhV8DmxnzYAzBN-vmciZNt",
          "width": 5376
        }
      ],
      "place_id": "ChIJU1pzMNNYwokRrILJL1NqAhU",
      "plus_code": {
        "compound_code": "Q347+38 \u7f8e\u570b\u7d10\u7d04",
        "global_code": "87G8Q347+38"
      },
      "rating": 3,
      "reference": "ChIJU1pzMNNYwokRrILJL1NqAhU",
      "scope": "GOOGLE",
      "types": [
        "lodging",
        "point_of_interest",
        "establishment"
      ],
      "user_ratings_total": 766,
      "vicinity": "38-30 Crescent Street, Queens"
    },
    {
      "business_status": "OPERATIONAL",
      "geometry": {
        "location": {
          "lat": 40.7543994,
          "lng": -73.9356128
        },
        "viewport": {
          "northeast": {
            "lat": 40.7557356302915,
            "lng": -73.93444316970849
          },
          "southwest": {
            "lat": 40.7530376697085,
            "lng": -73.9371411302915
          }
        }
      },
      "icon": "https://maps.gstatic.com/mapfiles/place_api/icons/v1/png_71/lodging-71.png",
      "icon_background_color": "#909CE1",
      "icon_mask_base_uri": "https://maps.gstatic.com/mapfiles/place_api/icons/v2/hotel_pinlet",
      "name": "Vista LIC Hotel, Premier Collection by Best Western",
      "opening_hours": {
        "open_now": true
      },
      "photos": [
        {
          "height": 2268,
          "html_attributions": [
            "<a href=\"https://maps.google.com/maps/contrib/105259078555368601698\">Thomas Gaillard</a>"
          ],
          "photo_reference": "AeJbb3eZiYwVQKD4AMddUspD33d3xLeUFifBwvXqH_6PLpdKN_yjSLenedEogj0sNoCUzWSqHLokCEC3LLbby_8o8AGC3M0DpkkiqBoWfb3xh6OsJrw5N8lZgHyKxOyQhz4NfvMCBAkP0fqD2yQoysLoGNbsCgBFztHmUpxtQO_GaPmDL91U",
          "width": 4032
        }
      ],
      "place_id": "ChIJL6qKtCxfwokRmTHEIBQgqKM",
      "plus_code": {
        "compound_code": "Q337+QQ \u7f8e\u570b\u7d10\u7d04",
        "global_code": "87G8Q337+QQ"
      },
      "rating": 4,
      "reference": "ChIJL6qKtCxfwokRmTHEIBQgqKM",
      "scope": "GOOGLE",
      "types": [
        "lodging",
        "point_of_interest",
        "establishment"
      ],
      "user_ratings_total": 775,
      "vicinity": "27-05 39th Avenue, Queens"
    },
    {
      "business_status": "OPERATIONAL",
      "geometry": {
        "location": {
          "lat": 40.752011,
          "lng": -73.93448
        },
        "viewport": {
          "northeast": {
            "lat": 40.75330228029149,
            "lng": -73.93316216970848
          },
          "southwest": {
            "lat": 40.7506043197085,
            "lng": -73.9358601302915
          }
        }
      },
      "icon": "https://maps.gstatic.com/mapfiles/place_api/icons/v1/png_71/lodging-71.png",
      "icon_background_color": "#909CE1",
      "icon_mask_base_uri": "https://maps.gstatic.com/mapfiles/place_api/icons/v2/hotel_pinlet",
      "name": "\u95ca\u5229\u8482\u5370",
      "photos": [
        {
          "height": 1463,
          "html_attributions": [
            "<a href=\"https://maps.google.com/maps/contrib/106132428789409969049\">Quality Inn Long Island City - Queensboro Bridge</a>"
          ],
          "photo_reference": "AeJbb3c0fv2EzWGwX5kVW8dLZ_9UqK-Ebtr1HAPUZy04b1kp0kHiciVrtaaaZhh-icc7EZkJ34RnusEtaKhRnHBam8wRSOwG9TdvloYRjvO0mCIT23QptJbMbs9NzlDcO8Ba4O6t1dTqmWg2TkUMeiVPphSq_BFIuvj4OW-l8bPUOlpEJNzd",
          "width": 2048
        }
      ],
      "place_id": "ChIJ6Z7FQStfwokRiV4PZCJuKUc",
      "plus_code": {
        "compound_code": "Q328+R6 \u7f8e\u570b\u7d10\u7d04",
        "global_code": "87G8Q328+R6"
      },
      "rating": 3.8,
      "reference": "ChIJ6Z7FQStfwokRiV4PZCJuKUc",
      "scope": "GOOGLE",
      "types": [
        "lodging",
        "point_of_interest",
        "establishment"
      ],
      "user_ratings_total": 255,
      "vicinity": "30-03 40th Avenue, Queens"
    },
    {
      "business_status": "OPERATIONAL",
      "geometry": {
        "location": {
          "lat": 40.755829,
          "lng": -73.941065
        },
        "viewport": {
          "northeast": {
            "lat": 40.75710928029149,
            "lng": -73.93958741970849
          },
          "southwest": {
            "lat": 40.7544113197085,
            "lng": -73.94228538029151
          }
        }
      },
      "icon": "https://maps.gstatic.com/mapfiles/place_api/icons/v1/png_71/lodging-71.png",
      "icon_background_color": "#909CE1",
      "icon_mask_base_uri": "https://maps.gstatic.com/mapfiles/place_api/icons/v2/hotel_pinlet",
      "name": "\u8c9d\u65af\u7279\u897f\u666e\u76e7\u65af\u666e\u62c9\u624e\u5967\u6cf0\u723e",
      "opening_hours": {
        "open_now": true
      },
      "photos": [
        {
          "height": 1080,
          "html_attributions": [
            "<a href=\"https://maps.google.com/maps/contrib/118261854336420111092\">George Naranjo</a>"
          ],
          "photo_reference": "AeJbb3fqG0B_g8cXrwCkTtY3pgW64AXrmL7tK5MINBxRyLk7_iq4eQ2sDjuCUiotWRGLsOGgvi_02lhhKP3eRlutFFCN5KnQMO8v83W7JN03aMzTEDPQX1ZUroadwD3cSlbdCQSsKmtEtwTcO5EaBB7hrRLPjGV3ORV1FRGFVv14u79AkPK-",
          "width": 1620
        }
      ],
      "place_id": "ChIJh0W82tNYwokRk-pWEkG3qYQ",
      "plus_code": {
        "compound_code": "Q345+8H \u7f8e\u570b\u7d10\u7d04",
        "global_code": "87G8Q345+8H"
      },
      "rating": 4.2,
      "reference": "ChIJh0W82tNYwokRk-pWEkG3qYQ",
      "scope": "GOOGLE",
      "types": [
        "lodging",
        "point_of_interest",
        "establishment"
      ],
      "user_ratings_total": 1807,
      "vicinity": "3934 21st Street, Queens"
    },
    {
      "business_status": "OPERATIONAL",
      "geometry": {
        "location": {
          "lat": 40.7513393,
          "lng": -73.93510069999999
        },
        "viewport": {
          "northeast": {
            "lat": 40.75265193029151,
            "lng": -73.93384556970848
          },
          "southwest": {
            "lat": 40.74995396970851,
            "lng": -73.93654353029149
          }
        }
      },
      "icon": "https://maps.gstatic.com/mapfiles/place_api/icons/v1/png_71/lodging-71.png",
      "icon_background_color": "#909CE1",
      "icon_mask_base_uri": "https://maps.gstatic.com/mapfiles/place_api/icons/v2/hotel_pinlet",
      "name": "Fairfield Inn & Suites by Marriott New York Queens/Queensboro Bridge",
      "photos": [
        {
          "height": 1366,
          "html_attributions": [
            "<a href=\"https://maps.google.com/maps/contrib/102230496070769405253\">Fairfield Inn &amp; Suites by Marriott New York Queens/Queensboro Bridge</a>"
          ],
          "photo_reference": "AeJbb3cFS3JH9e05zd1mYZhme1ScCXxlt3oRIaHJcsEKrWj58ClwFcmMkw6z0fd2xzgz-qgFNK7Vz0Agkkgsc_PMVUjQ42eX11BDpSrgeMYWJkbpuSYzj6itWxzc1G_s7k-dhBOkbYyz4c3L1Btl9_0GRhTcvCpiyHa4XkbYsGVUwcFdZ6E8",
          "width": 2048
        }
      ],
      "place_id": "ChIJoQEYMitfwokRlum3uRghW9E",
      "plus_code": {
        "compound_code": "Q327+GX \u7f8e\u570b\u7d10\u7d04",
        "global_code": "87G8Q327+GX"
      },
      "rating": 4.1,
      "reference": "ChIJoQEYMitfwokRlum3uRghW9E",
      "scope": "GOOGLE",
      "types": [
        "lodging",
        "point_of_interest",
        "establishment"
      ],
      "user_ratings_total": 940,
      "vicinity": "29-27 40th Road, Queens"
    },
    {
      "business_status": "OPERATIONAL",
      "geometry": {
        "location": {
          "lat": 40.756041,
          "lng": -73.941357
        },
        "viewport": {
          "northeast": {
            "lat": 40.7573581802915,
            "lng": -73.9401074697085
          },
          "southwest": {
            "lat": 40.75466021970851,
            "lng": -73.94280543029151
          }
        }
      },
      "icon": "https://maps.gstatic.com/mapfiles/place_api/icons/v1/png_71/lodging-71.png",
      "icon_background_color": "#909CE1",
      "icon_mask_base_uri": "https://maps.gstatic.com/mapfiles/place_api/icons/v2/hotel_pinlet",
      "name": "\u65af\u5229\u666e\u5370",
      "photos": [
        {
          "height": 720,
          "html_attributions": [
            "<a href=\"https://maps.google.com/maps/contrib/108723384259221934179\">Sleep Inn Long Island City - Manhattan View</a>"
          ],
          "photo_reference": "AeJbb3eVzNkYIRCbLdc1Sx_CtFajhS21J-k4KHcR7EaAlJmIyCcFGCYROKDyXBVxcKKK8L0-WdNyn3tRM8m-RryJuL6CdlBpHRY7pw82bOU1WT3K1AKnD-H6TJaPcpGBeP3jkjZ3SvI3pfVZph3RUCan3tzQ3x9ir_4XkdWrTIa33ttbn2E",
          "width": 1280
        }
      ],
      "place_id": "ChIJP3NE19NYwokR_rbtO1DMppQ",
      "plus_code": {
        "compound_code": "Q345+CF \u7f8e\u570b\u7d10\u7d04",
        "global_code": "87G8Q345+CF"
      },
      "rating": 4,
      "reference": "ChIJP3NE19NYwokR_rbtO1DMppQ",
      "scope": "GOOGLE",
      "types": [
        "lodging",
        "point_of_interest",
        "establishment"
      ],
      "user_ratings_total": 370,
      "vicinity": "38-71 13th Street, Queens"
    },
    {
      "business_status": "OPERATIONAL",
      "geometry": {
        "location": {
          "lat": 40.7499046,
          "lng": -73.9374619
        },
        "viewport": {
          "northeast": {
            "lat": 40.7512000802915,
            "lng": -73.9362077197085
          },
          "southwest": {
            "lat": 40.7485021197085,
            "lng": -73.93890568029151
          }
        }
      },
      "icon": "https://maps.gstatic.com/mapfiles/place_api/icons/v1/png_71/lodging-71.png",
      "icon_background_color": "#909CE1",
      "icon_mask_base_uri": "https://maps.gstatic.com/mapfiles/place_api/icons/v2/hotel_pinlet",
      "name": "Q4 Hotel New York City",
      "photos": [
        {
          "height": 4032,
          "html_attributions": [
            "<a href=\"https://maps.google.com/maps/contrib/100484175137073755982\">Diego Cruz</a>"
          ],
          "photo_reference": "AeJbb3d7TZBQL1AsR4DjzKrK7-1H5LTEE5nPODAIKdC-pESRxlIhwO9zpRrGyY17-ULzyNpMKqeoq_24mq0du_MsTgTOJ3apEra4NX3J8BUFbqQOBRNP1udKvqS5ncRR-avp2KlIes2nFtCs863pfN2rEzA-YkSxYqEnn1WgqpRYEDFQi0Nz",
          "width": 3024
        }
      ],
      "place_id": "ChIJFd1mFdVYwokRa2H13ptXTQk",
      "plus_code": {
        "compound_code": "P3X7+X2 \u7f8e\u570b\u7d10\u7d04\u9577\u5cf6\u5e02",
        "global_code": "87G8P3X7+X2"
      },
      "rating": 3.8,
      "reference": "ChIJFd1mFdVYwokRa2H13ptXTQk",
      "scope": "GOOGLE",
      "types": [
        "lodging",
        "point_of_interest",
        "establishment"
      ],
      "user_ratings_total": 649,
      "vicinity": "29-09 Queens Plaza North, Long Island City"
    },
    {
      "business_status": "OPERATIONAL",
      "geometry": {
        "location": {
          "lat": 40.7533333,
          "lng": -73.935
        },
        "viewport": {
          "northeast": {
            "lat": 40.7546149802915,
            "lng": -73.9335349197085
          },
          "southwest": {
            "lat": 40.75191701970851,
            "lng": -73.93623288029151
          }
        }
      },
      "icon": "https://maps.gstatic.com/mapfiles/place_api/icons/v1/png_71/lodging-71.png",
      "icon_background_color": "#909CE1",
      "icon_mask_base_uri": "https://maps.gstatic.com/mapfiles/place_api/icons/v2/hotel_pinlet",
      "name": "Nesva Hotel",
      "opening_hours": {
        "open_now": true
      },
      "photos": [
        {
          "height": 1371,
          "html_attributions": [
            "<a href=\"https://maps.google.com/maps/contrib/109844792890137406104\">Nesva Hotel</a>"
          ],
          "photo_reference": "AeJbb3er97q-ipn31rxD4UsaK5xKvbsysmduxWz3UQeth2m_9R49pMCOildYdx1Ux6wyrcblk7E4ycu92FPgB8U_rNV4MhvvLgxGeVHymEmdKIywFEQA-hI2Jc4F8H6IeOx80o4wxMTaVz0GhSqpJNwDo0okN7A31taMrVk_t8EMoX02AF8H",
          "width": 2048
        }
      ],
      "place_id": "ChIJLZEQpyxfwokRvWi6_2rcWOw",
      "plus_code": {
        "compound_code": "Q337+8X \u7f8e\u570b\u7d10\u7d04\u9577\u5cf6\u5e02",
        "global_code": "87G8Q337+8X"
      },
      "rating": 4,
      "reference": "ChIJLZEQpyxfwokRvWi6_2rcWOw",
      "scope": "GOOGLE",
      "types": [
        "lodging",
        "point_of_interest",
        "establishment"
      ],
      "user_ratings_total": 334,
      "vicinity": "39-12 29th Street, Long Island City"
    },
    {
      "business_status": "OPERATIONAL",
      "geometry": {
        "location": {
          "lat": 40.75005179999999,
          "lng": -73.9414371
        },
        "viewport": {
          "northeast": {
            "lat": 40.75131388029149,
            "lng": -73.9399865697085
          },
          "southwest": {
            "lat": 40.7486159197085,
            "lng": -73.9426845302915
          }
        }
      },
      "icon": "https://maps.gstatic.com/mapfiles/place_api/icons/v1/png_71/lodging-71.png",
      "icon_background_color": "#909CE1",
      "icon_mask_base_uri": "https://maps.gstatic.com/mapfiles/place_api/icons/v2/hotel_pinlet",
      "name": "Red Lion Inn & Suites Long Island City",
      "opening_hours": {
        "open_now": true
      },
      "photos": [
        {
          "height": 2304,
          "html_attributions": [
            "<a href=\"https://maps.google.com/maps/contrib/115487449521871682187\">Red Lion Inn &amp; Suites Long Island City</a>"
          ],
          "photo_reference": "AeJbb3ek-1Xyn8hV6CWf7q3bkkCofzres9ETWgo_YNTzqbJdxR5jEOMeSLrKDp0mzG69LA9rrnyalqk_Rh87rlqzsP3LHYkEkIPzYXHDeL5MKeOq2M4Ft6CbQU3YpNpTC2oQgmZAsBNwo1bZwi9lGnNdeRnVwAO9rAuU6uZf0WWxTFk7eQmh",
          "width": 2880
        }
      ],
      "place_id": "ChIJc44U5NVYwokR_CRas-JQdhY",
      "plus_code": {
        "compound_code": "Q325+2C \u7f8e\u570b\u7d10\u7d04",
        "global_code": "87G8Q325+2C"
      },
      "rating": 3.6,
      "reference": "ChIJc44U5NVYwokR_CRas-JQdhY",
      "scope": "GOOGLE",
      "types": [
        "lodging",
        "point_of_interest",
        "establishment"
      ],
      "user_ratings_total": 754,
      "vicinity": "42-24 Crescent Street, Queens"
    },
    {
      "business_status": "OPERATIONAL",
      "geometry": {
        "location": {
          "lat": 40.7568998,
          "lng": -73.93905079999999
        },
        "viewport": {
          "northeast": {
            "lat": 40.75812078029151,
            "lng": -73.9377395697085
          },
          "southwest": {
            "lat": 40.75542281970851,
            "lng": -73.9404375302915
          }
        }
      },
      "icon": "https://maps.gstatic.com/mapfiles/place_api/icons/v1/png_71/shopping-71.png",
      "icon_background_color": "#4B96F3",
      "icon_mask_base_uri": "https://maps.gstatic.com/mapfiles/place_api/icons/v2/shopping_pinlet",
      "name": "Pep Boys Auto Parts & Service",
      "opening_hours": {
        "open_now": true
      },
      "photos": [
        {
          "height": 4896,
          "html_attributions": [
            "<a href=\"https://maps.google.com/maps/contrib/117979751334919367476\">Alexander Mejia</a>"
          ],
          "photo_reference": "AeJbb3dnPkuRbm_nIWTqKbYrsDHt-U4pNi_zH7_mAJ6ugbH_kZVB5WSF2k9DQTNVbMlhDuvIHRkBgOEE5e2HGSgxO8Ck1j3NQMxPG8AnFELnLbVQMFdszYIXKvMkjsrriqn3EQGLyiOb7BWVAAajS75fv2gp8CTH4wR5RIPpxPAl8xGYDtCW",
          "width": 3672
        }
      ],
      "place_id": "ChIJaTFitdNYwokRycFx3b5zRUw",
      "plus_code": {
        "compound_code": "Q346+Q9 \u7f8e\u570b\u7d10\u7d04",
        "global_code": "87G8Q346+Q9"
      },
      "rating": 3.5,
      "reference": "ChIJaTFitdNYwokRycFx3b5zRUw",
      "scope": "GOOGLE",
      "types": [
        "point_of_interest",
        "store",
        "car_repair",
        "establishment"
      ],
      "user_ratings_total": 1058,
      "vicinity": "38-19 21st Street, Queens"
    },
    {
      "business_status": "OPERATIONAL",
      "geometry": {
        "location": {
          "lat": 40.7508354,
          "lng": -73.93840780000001
        },
        "viewport": {
          "northeast": {
            "lat": 40.7519862802915,
            "lng": -73.9373679697085
          },
          "southwest": {
            "lat": 40.7492883197085,
            "lng": -73.94006593029151
          }
        }
      },
      "icon": "https://maps.gstatic.com/mapfiles/place_api/icons/v1/png_71/generic_business-71.png",
      "icon_background_color": "#7B9EB0",
      "icon_mask_base_uri": "https://maps.gstatic.com/mapfiles/place_api/icons/v2/generic_pinlet",
      "name": "JetBlue Airways Corporation",
      "opening_hours": {
        "open_now": true
      },
      "photos": [
        {
          "height": 2988,
          "html_attributions": [
            "<a href=\"https://maps.google.com/maps/contrib/104842433142609722240\">Rob Cooke</a>"
          ],
          "photo_reference": "AeJbb3f1YiHVKnKfu-7jH2usf7snAVCGzRdFkKXV0EXaMUNm0AuyyPrQxLZHyEbDDVlRzm-4Fk8z89GHFNOi5lsSgyHcwvJxOgTllCpHjYKoU0ibEm6TRTU4_tbRM04x8X2ZwzIU1pJH4iJCRGtd25C9R6ydqusjw8zjPGFX8ZSKLIi2LSsr",
          "width": 5312
        }
      ],
      "place_id": "ChIJXV6oFphgwokRl1xEaZ9WNk0",
      "plus_code": {
        "compound_code": "Q326+8J \u7f8e\u570b\u7d10\u7d04",
        "global_code": "87G8Q326+8J"
      },
      "rating": 3.5,
      "reference": "ChIJXV6oFphgwokRl1xEaZ9WNk0",
      "scope": "GOOGLE",
      "types": [
        "point_of_interest",
        "establishment"
      ],
      "user_ratings_total": 311,
      "vicinity": "27-01 Queens Plaza North, Queens"
    },
    {
      "business_status": "OPERATIONAL",
      "geometry": {
        "location": {
          "lat": 40.7529749,
          "lng": -73.9340816
        },
        "viewport": {
          "northeast": {
            "lat": 40.7543512302915,
            "lng": -73.93260071970849
          },
          "southwest": {
            "lat": 40.7516532697085,
            "lng": -73.9352986802915
          }
        }
      },
      "icon": "https://maps.gstatic.com/mapfiles/place_api/icons/v1/png_71/lodging-71.png",
      "icon_background_color": "#909CE1",
      "icon_mask_base_uri": "https://maps.gstatic.com/mapfiles/place_api/icons/v2/hotel_pinlet",
      "name": "Home2 Suites by Hilton New York Long Island City/ Manhattan View, NY",
      "photos": [
        {
          "height": 3024,
          "html_attributions": [
            "<a href=\"https://maps.google.com/maps/contrib/115007520490640168407\">Miriam Cuadra</a>"
          ],
          "photo_reference": "AeJbb3eTEYAiIgCqFRF-A9d9aciR95txxF2PxmatUtPz9JDIxnxkxkj7foiqFXt4-P-9PvEpMfCIWD0IjZm1pk1ArHqZI7B3OB2Ur6kpUFPY0L_ScgtiAZrsETNKPEoAmccO6TwDKECEPDPxUIVM-O0NtQ4dSYcljBs9tbR45jOhVmkpT2yH",
          "width": 4032
        }
      ],
      "place_id": "ChIJGV2R4ixZwokRfAlvKcOUO3U",
      "plus_code": {
        "compound_code": "Q338+59 \u7f8e\u570b\u7d10\u7d04",
        "global_code": "87G8Q338+59"
      },
      "rating": 4.4,
      "reference": "ChIJGV2R4ixZwokRfAlvKcOUO3U",
      "scope": "GOOGLE",
      "types": [
        "lodging",
        "point_of_interest",
        "establishment"
      ],
      "user_ratings_total": 832,
      "vicinity": "39-06 30th Street, Queens"
    },
    {
      "business_status": "OPERATIONAL",
      "geometry": {
        "location": {
          "lat": 40.7558343,
          "lng": -73.9410686
        },
        "viewport": {
          "northeast": {
            "lat": 40.75711208029149,
            "lng": -73.93958911970849
          },
          "southwest": {
            "lat": 40.75441411970849,
            "lng": -73.9422870802915
          }
        }
      },
      "icon": "https://maps.gstatic.com/mapfiles/place_api/icons/v1/png_71/generic_business-71.png",
      "icon_background_color": "#7B9EB0",
      "icon_mask_base_uri": "https://maps.gstatic.com/mapfiles/place_api/icons/v2/generic_pinlet",
      "name": "Apple Commuter Inc",
      "place_id": "ChIJh0W82tNYwokR4LxIwcFkthc",
      "plus_code": {
        "compound_code": "Q345+8H \u7f8e\u570b\u7d10\u7d04",
        "global_code": "87G8Q345+8H"
      },
      "reference": "ChIJh0W82tNYwokR4LxIwcFkthc",
      "scope": "GOOGLE",
      "types": [
        "point_of_interest",
        "establishment"
      ],
      "vicinity": "228 West 47th Street"
    },
    {
      "business_status": "OPERATIONAL",
      "geometry": {
        "location": {
          "lat": 40.7526585,
          "lng": -73.93667359999999
        },
        "viewport": {
          "northeast": {
            "lat": 40.75406128029149,
            "lng": -73.9352758197085
          },
          "southwest": {
            "lat": 40.7513633197085,
            "lng": -73.9379737802915
          }
        }
      },
      "icon": "https://maps.gstatic.com/mapfiles/place_api/icons/v1/png_71/restaurant-71.png",
      "icon_background_color": "#FF9E67",
      "icon_mask_base_uri": "https://maps.gstatic.com/mapfiles/place_api/icons/v2/restaurant_pinlet",
      "name": "John Brown BBQ",
      "opening_hours": {
        "open_now": true
      },
      "photos": [
        {
          "height": 3024,
          "html_attributions": [
            "<a href=\"https://maps.google.com/maps/contrib/107368686195539378488\">Kelly M. Mueller</a>"
          ],
          "photo_reference": "AeJbb3d1zOGbhA-xzSJp1aUwPdGbE13rbuERRM6YI46PpiVxHc9M-RguhP-ZAPfsl36NGdfbE8VZ8u4MCF7Kngri3UQirI1gSleY0fjgrOpHBPNXu4kDhfF8mWR4W3dEZ_2RKsD-sLqRUk5ydU5yBUSgRYh3vWxPBB8E74sfA0JepNbE-Zuu",
          "width": 4032
        }
      ],
      "place_id": "ChIJfSp0FS1fwokR8PYGmnV6vYs",
      "plus_code": {
        "compound_code": "Q337+38 \u7f8e\u570b\u7d10\u7d04",
        "global_code": "87G8Q337+38"
      },
      "price_level": 2,
      "rating": 4.5,
      "reference": "ChIJfSp0FS1fwokR8PYGmnV6vYs",
      "scope": "GOOGLE",
      "types": [
        "restaurant",
        "food",
        "point_of_interest",
        "establishment"
      ],
      "user_ratings_total": 2483,
      "vicinity": "27-20 40th Avenue, Queens"
    },
    {
      "business_status": "CLOSED_TEMPORARILY",
      "geometry": {
        "location": {
          "lat": 40.75139739999999,
          "lng": -73.9352006
        },
        "viewport": {
          "northeast": {
            "lat": 40.7526867302915,
            "lng": -73.93390766970849
          },
          "southwest": {
            "lat": 40.7499887697085,
            "lng": -73.93660563029151
          }
        }
      },
      "icon": "https://maps.gstatic.com/mapfiles/place_api/icons/v1/png_71/generic_business-71.png",
      "icon_background_color": "#7B9EB0",
      "icon_mask_base_uri": "https://maps.gstatic.com/mapfiles/place_api/icons/v2/generic_pinlet",
      "name": "Wilshire Hospitality Llc",
      "permanently_closed": true,
      "place_id": "ChIJ-6V-JStfwokRl4nYmCKLO_g",
      "plus_code": {
        "compound_code": "Q327+HW \u7f8e\u570b\u7d10\u7d04\u9577\u5cf6\u5e02",
        "global_code": "87G8Q327+HW"
      },
      "reference": "ChIJ-6V-JStfwokRl4nYmCKLO_g",
      "scope": "GOOGLE",
      "types": [
        "point_of_interest",
        "establishment"
      ],
      "vicinity": "29 27 40 Rd L I C, Long Island City"
    },
    {
      "business_status": "OPERATIONAL",
      "geometry": {
        "location": {
          "lat": 40.7566266,
          "lng": -73.9364873
        },
        "viewport": {
          "northeast": {
            "lat": 40.7580771302915,
            "lng": -73.9349161697085
          },
          "southwest": {
            "lat": 40.7553791697085,
            "lng": -73.93761413029151
          }
        }
      },
      "icon": "https://maps.gstatic.com/mapfiles/place_api/icons/v1/png_71/generic_business-71.png",
      "icon_background_color": "#7B9EB0",
      "icon_mask_base_uri": "https://maps.gstatic.com/mapfiles/place_api/icons/v2/generic_pinlet",
      "name": "Alexandros Giannakis Photography",
      "place_id": "ChIJ746Cy9JYwokRNKdjUkJjejA",
      "plus_code": {
        "compound_code": "Q347+MC \u7f8e\u570b\u7d10\u7d04\u963f\u65af\u6258\u5229\u4e9e",
        "global_code": "87G8Q347+MC"
      },
      "reference": "ChIJ746Cy9JYwokRNKdjUkJjejA",
      "scope": "GOOGLE",
      "types": [
        "point_of_interest",
        "establishment"
      ],
      "vicinity": "37-24 24th Street, Astoria"
    },
    {
      "business_status": "OPERATIONAL",
      "geometry": {
        "location": {
          "lat": 40.756625,
          "lng": -73.936421
        },
        "viewport": {
          "northeast": {
            "lat": 40.7580574302915,
            "lng": -73.9349009197085
          },
          "southwest": {
            "lat": 40.7553594697085,
            "lng": -73.9375988802915
          }
        }
      },
      "icon": "https://maps.gstatic.com/mapfiles/place_api/icons/v1/png_71/generic_business-71.png",
      "icon_background_color": "#7B9EB0",
      "icon_mask_base_uri": "https://maps.gstatic.com/mapfiles/place_api/icons/v2/generic_pinlet",
      "name": "Little New York Photography",
      "opening_hours": {
        "open_now": true
      },
      "photos": [
        {
          "height": 534,
          "html_attributions": [
            "<a href=\"https://maps.google.com/maps/contrib/109789095216311442239\">Little New York Photography</a>"
          ],
          "photo_reference": "AeJbb3eQSFzrhbXEgnNdp8PsV8lbx3MTB_JxR0HLN3-pxYyryI5Y8boXcRi9SdHCyzooPj_QXzklAoszCg6xSIY1-iHXZy-vb_iYrCJIjpeRQi8FIvhwR_08fSNQucGy4Nl22V5DXWQZNbcLaqErg4PWva0Gt02pbmcw3-O7iegTQxTf4l2a",
          "width": 800
        }
      ],
      "place_id": "ChIJwyfx4NRhwokRJkK8l_BvrpA",
      "plus_code": {
        "compound_code": "Q347+JC \u7f8e\u570b\u7d10\u7d04\u9577\u5cf6\u5e02",
        "global_code": "87G8Q347+JC"
      },
      "rating": 4.9,
      "reference": "ChIJwyfx4NRhwokRJkK8l_BvrpA",
      "scope": "GOOGLE",
      "types": [
        "point_of_interest",
        "establishment"
      ],
      "user_ratings_total": 76,
      "vicinity": "37-24 24th Street #209, Long Island City"
    },
    {
      "business_status": "OPERATIONAL",
      "geometry": {
        "location": {
          "lat": 40.7566266,
          "lng": -73.9364873
        },
        "viewport": {
          "northeast": {
            "lat": 40.7580006802915,
            "lng": -73.93499936970849
          },
          "southwest": {
            "lat": 40.7553027197085,
            "lng": -73.9376973302915
          }
        }
      },
      "icon": "https://maps.gstatic.com/mapfiles/place_api/icons/v1/png_71/shopping-71.png",
      "icon_background_color": "#4B96F3",
      "icon_mask_base_uri": "https://maps.gstatic.com/mapfiles/place_api/icons/v2/shopping_pinlet",
      "name": "Baring Industries",
      "opening_hours": {
        "open_now": false
      },
      "place_id": "ChIJ746Cy9JYwokRzvMyMMjO90c",
      "plus_code": {
        "compound_code": "Q347+MC \u7f8e\u570b\u7d10\u7d04\u9577\u5cf6\u5e02",
        "global_code": "87G8Q347+MC"
      },
      "reference": "ChIJ746Cy9JYwokRzvMyMMjO90c",
      "scope": "GOOGLE",
      "types": [
        "point_of_interest",
        "store",
        "establishment"
      ],
      "vicinity": "3724 24th Street # 217A, Long Island City"
    },
    {
      "geometry": {
        "location": {
          "lat": 40.744679,
          "lng": -73.9485424
        },
        "viewport": {
          "northeast": {
            "lat": 40.76305627050633,
            "lng": -73.90948293911667
          },
          "southwest": {
            "lat": 40.727849032336,
            "lng": -73.96285774645361
          }
        }
      },
      "icon": "https://maps.gstatic.com/mapfiles/place_api/icons/v1/png_71/geocode-71.png",
      "icon_background_color": "#7B9EB0",
      "icon_mask_base_uri": "https://maps.gstatic.com/mapfiles/place_api/icons/v2/generic_pinlet",
      "name": "\u9577\u5cf6\u5e02",
      "photos": [
        {
          "height": 3000,
          "html_attributions": [
            "<a href=\"https://maps.google.com/maps/contrib/106309005578646235768\">love alter</a>"
          ],
          "photo_reference": "AeJbb3dguEnnuEjXNeq-mXzRL0ihrLYwH-du4jkvskt50aTrFGHgc323MVwiZ5GNHgiX26pxy7-1p5fRXI3qIdXf3wlNaPLW8dQb4qK8yP4Jg4RRAfLBHT27RnYGxpTq9f-8SZjNSAHNFP_ZWqGovin0zpppvmGwrvcfoPp6sZCCjlCSdm9Q",
          "width": 4000
        }
      ],
      "place_id": "ChIJWbG6xytZwokRMY7uxcRsFVY",
      "reference": "ChIJWbG6xytZwokRMY7uxcRsFVY",
      "scope": "GOOGLE",
      "types": [
        "neighborhood",
        "political"
      ],
      "vicinity": "\u7687\u540e\u5340"
    },
    {
      "business_status": "OPERATIONAL",
      "geometry": {
        "location": {
          "lat": 40.756651,
          "lng": -73.9364914
        },
        "viewport": {
          "northeast": {
            "lat": 40.7580893302915,
            "lng": -73.93491821970848
          },
          "southwest": {
            "lat": 40.7553913697085,
            "lng": -73.93761618029149
          }
        }
      },
      "icon": "https://maps.gstatic.com/mapfiles/place_api/icons/v1/png_71/generic_business-71.png",
      "icon_background_color": "#7B9EB0",
      "icon_mask_base_uri": "https://maps.gstatic.com/mapfiles/place_api/icons/v2/generic_pinlet",
      "name": "Silks Building",
      "opening_hours": {
        "open_now": false
      },
      "photos": [
        {
          "height": 1365,
          "html_attributions": [
            "<a href=\"https://maps.google.com/maps/contrib/102611326287929453884\">Silks Building</a>"
          ],
          "photo_reference": "AeJbb3eBIXXz982FSgy5EUi1i23PPUjMzZgYhYrQgvTKb3KkpYLqstOiMtQTgxIX_l0tctpMuUIJCzpN_TCqnejNoMLJAdkgLTjl8RpEkJy_vbVPp9GRfrbUCqhFMfSkB5u3zUpWQHIpUhXstT94bjmljRLxv2GvUzl1fv6lAwx9x-Kow6ws",
          "width": 2048
        }
      ],
      "place_id": "ChIJ746Cy9JYwokRUA2bWnSWATA",
      "plus_code": {
        "compound_code": "Q347+MC New York, NY, USA",
        "global_code": "87G8Q347+MC"
      },
      "rating": 4.2,
      "reference": "ChIJ746Cy9JYwokRUA2bWnSWATA",
      "scope": "GOOGLE",
      "types": [
        "real_estate_agency",
        "point_of_interest",
        "establishment"
      ],
      "user_ratings_total": 11,
      "vicinity": "37-24 24th Street, Queens"
    },
    {
      "business_status": "OPERATIONAL",
      "geometry": {
        "location": {
          "lat": 40.7566266,
          "lng": -73.9364873
        },
        "viewport": {
          "northeast": {
            "lat": 40.7580006802915,
            "lng": -73.93499936970849
          },
          "southwest": {
            "lat": 40.7553027197085,
            "lng": -73.9376973302915
          }
        }
      },
      "icon": "https://maps.gstatic.com/mapfiles/place_api/icons/v1/png_71/generic_business-71.png",
      "icon_background_color": "#7B9EB0",
      "icon_mask_base_uri": "https://maps.gstatic.com/mapfiles/place_api/icons/v2/generic_pinlet",
      "name": "Bura Construction",
      "place_id": "ChIJyykjz9JYwokRe2pUqbO5wfU",
      "plus_code": {
        "compound_code": "Q347+MC Long Island City, Queens, NY, USA",
        "global_code": "87G8Q347+MC"
      },
      "rating": 5,
      "reference": "ChIJyykjz9JYwokRe2pUqbO5wfU",
      "scope": "GOOGLE",
      "types": [
        "general_contractor",
        "point_of_interest",
        "establishment"
      ],
      "user_ratings_total": 2,
      "vicinity": "3724 24th Street #107, Long Island City"
    },
    {
      "business_status": "OPERATIONAL",
      "geometry": {
        "location": {
          "lat": 40.756651,
          "lng": -73.9364914
        },
        "viewport": {
          "northeast": {
            "lat": 40.7580076302915,
            "lng": -73.93500141970848
          },
          "southwest": {
            "lat": 40.7553096697085,
            "lng": -73.93769938029149
          }
        }
      },
      "icon": "https://maps.gstatic.com/mapfiles/place_api/icons/v1/png_71/shopping-71.png",
      "icon_background_color": "#4B96F3",
      "icon_mask_base_uri": "https://maps.gstatic.com/mapfiles/place_api/icons/v2/shopping_pinlet",
      "name": "Tuscan Fine Wood Floors",
      "opening_hours": {
        "open_now": true
      },
      "place_id": "ChIJyykjz9JYwokRxQU8VK_dS94",
      "plus_code": {
        "compound_code": "Q347+MC Long Island City, Queens, NY, USA",
        "global_code": "87G8Q347+MC"
      },
      "reference": "ChIJyykjz9JYwokRxQU8VK_dS94",
      "scope": "GOOGLE",
      "types": [
        "home_goods_store",
        "store",
        "point_of_interest",
        "establishment"
      ],
      "vicinity": "3718 24th Street suite 300, Long Island City"
    },
    {
      "business_status": "OPERATIONAL",
      "geometry": {
        "location": {
          "lat": 40.7527704,
          "lng": -73.93897559999999
        },
        "viewport": {
          "northeast": {
            "lat": 40.75405413029149,
            "lng": -73.9375032697085
          },
          "southwest": {
            "lat": 40.75135616970849,
            "lng": -73.9402012302915
          }
        }
      },
      "icon": "https://maps.gstatic.com/mapfiles/place_api/icons/v1/png_71/lodging-71.png",
      "icon_background_color": "#909CE1",
      "icon_mask_base_uri": "https://maps.gstatic.com/mapfiles/place_api/icons/v2/hotel_pinlet",
      "name": "Queens County Inn and Suites",
      "opening_hours": {
        "open_now": true
      },
      "photos": [
        {
          "height": 2048,
          "html_attributions": [
            "<a href=\"https://maps.google.com/maps/contrib/111492040449804884850\">Connie Dejesus</a>"
          ],
          "photo_reference": "AeJbb3dfaXdp9cFhbk__6SJSOI3_u5Xvr2NwIblKKN6_kJNquhrvkOwtU8LyzU0pU69HlrsE58L-XpDonUpswaa3NQd9Okt3Qcu4OonbgzNs8Qf6SH3s_ctqqBvGW6TJekuArxl7GBC9_C9agjD0Qw7xmHusWZ_E_1OW9Qn7eFLmCF2GM2Lq",
          "width": 1536
        }
      ],
      "place_id": "ChIJv8nQJSVfwokRR6iGY36yI34",
      "plus_code": {
        "compound_code": "Q336+4C New York, NY, USA",
        "global_code": "87G8Q336+4C"
      },
      "rating": 3,
      "reference": "ChIJv8nQJSVfwokRR6iGY36yI34",
      "scope": "GOOGLE",
      "types": [
        "lodging",
        "point_of_interest",
        "establishment"
      ],
      "user_ratings_total": 1153,
      "vicinity": "4034 Crescent Street"
    },
    {
      "business_status": "CLOSED_TEMPORARILY",
      "geometry": {
        "location": {
          "lat": 40.7533153,
          "lng": -73.9408935
        },
        "viewport": {
          "northeast": {
            "lat": 40.75462038029151,
            "lng": -73.9395857697085
          },
          "southwest": {
            "lat": 40.75192241970851,
            "lng": -73.9422837302915
          }
        }
      },
      "icon": "https://maps.gstatic.com/mapfiles/place_api/icons/v1/png_71/generic_business-71.png",
      "icon_background_color": "#7B9EB0",
      "icon_mask_base_uri": "https://maps.gstatic.com/mapfiles/place_api/icons/v2/generic_pinlet",
      "name": "Peachtree Enterprises Inc",
      "permanently_closed": true,
      "place_id": "ChIJF_WcFNRYwokRfekZh7uc77g",
      "plus_code": {
        "compound_code": "Q335+8J Long Island City, Queens, NY, USA",
        "global_code": "87G8Q335+8J"
      },
      "reference": "ChIJF_WcFNRYwokRfekZh7uc77g",
      "scope": "GOOGLE",
      "types": [
        "point_of_interest",
        "establishment"
      ],
      "vicinity": "2219 41st Avenue UNIT 4A, Long Island City"
    },
    {
      "business_status": "OPERATIONAL",
      "geometry": {
        "location": {
          "lat": 40.7511498,
          "lng": -73.937572
        },
        "viewport": {
          "northeast": {
            "lat": 40.75258383029151,
            "lng": -73.9361370197085
          },
          "southwest": {
            "lat": 40.74988586970851,
            "lng": -73.9388349802915
          }
        }
      },
      "icon": "https://maps.gstatic.com/mapfiles/place_api/icons/v1/png_71/school-71.png",
      "icon_background_color": "#7B9EB0",
      "icon_mask_base_uri": "https://maps.gstatic.com/mapfiles/place_api/icons/v2/school_pinlet",
      "name": "Q575 Academy of American Studies",
      "opening_hours": {
        "open_now": false
      },
      "photos": [
        {
          "height": 2988,
          "html_attributions": [
            "<a href=\"https://maps.google.com/maps/contrib/117979751334919367476\">Alexander Mejia</a>"
          ],
          "photo_reference": "AeJbb3ezQvegGRx_PMNwBznMImuKRvF_LkI1F1WJZpQZrenDC3OGthLRpim31thX2xG23kDIeFSKquB4ReeNKluOLKUpMIlQ-kJrxjuRLDNl1EhsFSyvMr8c3xLjMs7zBiJ12PH2RRNSEJYDpfVOcKekG34RDnFixcxgdPvTnBecB1OOq6VV",
          "width": 5312
        }
      ],
      "place_id": "ChIJWdcp3tRYwokRvOBPcsxm4n0",
      "plus_code": {
        "compound_code": "Q326+FX New York, NY, USA",
        "global_code": "87G8Q326+FX"
      },
      "rating": 3,
      "reference": "ChIJWdcp3tRYwokRvOBPcsxm4n0",
      "scope": "GOOGLE",
      "types": [
        "secondary_school",
        "school",
        "point_of_interest",
        "establishment"
      ],
      "user_ratings_total": 29,
      "vicinity": "28-01 41st Avenue, Queens"
    },
    {
      "business_status": "OPERATIONAL",
      "geometry": {
        "location": {
          "lat": 40.7533153,
          "lng": -73.9408935
        },
        "viewport": {
          "northeast": {
            "lat": 40.75462038029151,
            "lng": -73.9395857697085
          },
          "southwest": {
            "lat": 40.75192241970851,
            "lng": -73.9422837302915
          }
        }
      },
      "icon": "https://maps.gstatic.com/mapfiles/place_api/icons/v1/png_71/generic_business-71.png",
      "icon_background_color": "#7B9EB0",
      "icon_mask_base_uri": "https://maps.gstatic.com/mapfiles/place_api/icons/v2/generic_pinlet",
      "name": "Applause Printing & Graphics,Ltd",
      "opening_hours": {
        "open_now": true
      },
      "place_id": "ChIJtcZWtgJZwokR7q5_G4O-ftA",
      "plus_code": {
        "compound_code": "Q335+8J New York, NY, USA",
        "global_code": "87G8Q335+8J"
      },
      "rating": 5,
      "reference": "ChIJtcZWtgJZwokR7q5_G4O-ftA",
      "scope": "GOOGLE",
      "types": [
        "point_of_interest",
        "establishment"
      ],
      "user_ratings_total": 1,
      "vicinity": "2219 41st Avenue # 4f, Queens"
    },
    {
      "business_status": "OPERATIONAL",
      "geometry": {
        "location": {
          "lat": 40.7565994,
          "lng": -73.9353118
        },
        "viewport": {
          "northeast": {
            "lat": 40.7578885302915,
            "lng": -73.9338600697085
          },
          "southwest": {
            "lat": 40.7551905697085,
            "lng": -73.93655803029151
          }
        }
      },
      "icon": "https://maps.gstatic.com/mapfiles/place_api/icons/v1/png_71/generic_business-71.png",
      "icon_background_color": "#7B9EB0",
      "icon_mask_base_uri": "https://maps.gstatic.com/mapfiles/place_api/icons/v2/generic_pinlet",
      "name": "Time Equities Inc",
      "place_id": "ChIJ746Cy9JYwokRb42qzP8wUKE",
      "plus_code": {
        "compound_code": "Q347+JV New York, NY, USA",
        "global_code": "87G8Q347+JV"
      },
      "reference": "ChIJ746Cy9JYwokRb42qzP8wUKE",
      "scope": "GOOGLE",
      "types": [
        "real_estate_agency",
        "point_of_interest",
        "establishment"
      ],
      "vicinity": "3724 24th Street #100, Queens"
    },
    {
      "business_status": "OPERATIONAL",
      "geometry": {
        "location": {
          "lat": 40.7571698,
          "lng": -73.9370228
        },
        "viewport": {
          "northeast": {
            "lat": 40.75848058029149,
            "lng": -73.9356008697085
          },
          "southwest": {
            "lat": 40.7557826197085,
            "lng": -73.9382988302915
          }
        }
      },
      "icon": "https://maps.gstatic.com/mapfiles/place_api/icons/v1/png_71/shopping-71.png",
      "icon_background_color": "#4B96F3",
      "icon_mask_base_uri": "https://maps.gstatic.com/mapfiles/place_api/icons/v2/shopping_pinlet",
      "name": "Myradiostore Inc",
      "opening_hours": {
        "open_now": true
      },
      "place_id": "ChIJ746Cy9JYwokRNqpe1-qhhOU",
      "plus_code": {
        "compound_code": "Q347+V5 New York, NY, USA",
        "global_code": "87G8Q347+V5"
      },
      "rating": 5,
      "reference": "ChIJ746Cy9JYwokRNqpe1-qhhOU",
      "scope": "GOOGLE",
      "types": [
        "electronics_store",
        "store",
        "point_of_interest",
        "establishment"
      ],
      "user_ratings_total": 1,
      "vicinity": "3724 24th Street, Queens"
    },
    {
      "business_status": "OPERATIONAL",
      "geometry": {
        "location": {
          "lat": 40.7513042,
          "lng": -73.939082
        },
        "viewport": {
          "northeast": {
            "lat": 40.7526085302915,
            "lng": -73.93764921970849
          },
          "southwest": {
            "lat": 40.7499105697085,
            "lng": -73.9403471802915
          }
        }
      },
      "icon": "https://maps.gstatic.com/mapfiles/place_api/icons/v1/png_71/generic_business-71.png",
      "icon_background_color": "#7B9EB0",
      "icon_mask_base_uri": "https://maps.gstatic.com/mapfiles/place_api/icons/v2/generic_pinlet",
      "name": "Amnet Data Solutions",
      "opening_hours": {
        "open_now": true
      },
      "photos": [
        {
          "height": 341,
          "html_attributions": [
            "<a href=\"https://maps.google.com/maps/contrib/114601046649225747870\">Amnet Data Solutions</a>"
          ],
          "photo_reference": "AeJbb3c4C1eXKBcOSxMQU2iRbpcQnmVxHFcH6l1NLHf3Mz5Brc59S4gUx0ir760tIYEG4aTQu47_GVAbCJOp5wxsVnyssZNvKpKW9Znaceu64dgtav7bPA-MfN_D10yxGz6rI1fkZ8nZdVmobspROSWKin3b7qewba_EJuYiLgzI02920YOp",
          "width": 500
        }
      ],
      "place_id": "ChIJYetWhuNYwokR0Op_wi32oe8",
      "plus_code": {
        "compound_code": "Q326+G9 Long Island City, Queens, NY, USA",
        "global_code": "87G8Q326+G9"
      },
      "rating": 4.9,
      "reference": "ChIJYetWhuNYwokR0Op_wi32oe8",
      "scope": "GOOGLE",
      "types": [
        "point_of_interest",
        "establishment"
      ],
      "user_ratings_total": 12,
      "vicinity": "4126 27th Street, Long Island City"
    },
    {
      "business_status": "OPERATIONAL",
      "geometry": {
        "location": {
          "lat": 40.7515957,
          "lng": -73.93953139999999
        },
        "viewport": {
          "northeast": {
            "lat": 40.7529387302915,
            "lng": -73.93826166970848
          },
          "southwest": {
            "lat": 40.7502407697085,
            "lng": -73.9409596302915
          }
        }
      },
      "icon": "https://maps.gstatic.com/mapfiles/place_api/icons/v1/png_71/generic_business-71.png",
      "icon_background_color": "#7B9EB0",
      "icon_mask_base_uri": "https://maps.gstatic.com/mapfiles/place_api/icons/v2/generic_pinlet",
      "name": "Crescent Club",
      "opening_hours": {
        "open_now": true
      },
      "photos": [
        {
          "height": 3946,
          "html_attributions": [
            "<a href=\"https://maps.google.com/maps/contrib/105792639134224894431\">Paul Feshchenko</a>"
          ],
          "photo_reference": "AeJbb3fS54u1p-VK3pZv9gm7jdbqQy6A-2oT6tdK3wPbyvL0Z0rBVN3cw04euuuFPhiDrQMqLiayfMT2bUhsuPdEnK9y2rEdHlmUm4OtYgiCWF4Wbonmx2eKap4tqtBdJ-Tde708VpX0aHedu3d-cxEgTk2dOPUzS0Q__Gw6SEJfECJT1lYq",
          "width": 8828
        }
      ],
      "place_id": "ChIJgfw7TdRYwokRstixxJKIJGA",
      "plus_code": {
        "compound_code": "Q326+J5 New York, NY, USA",
        "global_code": "87G8Q326+J5"
      },
      "rating": 4,
      "reference": "ChIJgfw7TdRYwokRstixxJKIJGA",
      "scope": "GOOGLE",
      "types": [
        "real_estate_agency",
        "point_of_interest",
        "establishment"
      ],
      "user_ratings_total": 8,
      "vicinity": "41-17 Crescent Street, Queens"
    },
    {
      "business_status": "OPERATIONAL",
      "geometry": {
        "location": {
          "lat": 40.7568686,
          "lng": -73.936235
        },
        "viewport": {
          "northeast": {
            "lat": 40.7581636302915,
            "lng": -73.9347882197085
          },
          "southwest": {
            "lat": 40.7554656697085,
            "lng": -73.9374861802915
          }
        }
      },
      "icon": "https://maps.gstatic.com/mapfiles/place_api/icons/v1/png_71/generic_business-71.png",
      "icon_background_color": "#7B9EB0",
      "icon_mask_base_uri": "https://maps.gstatic.com/mapfiles/place_api/icons/v2/generic_pinlet",
      "name": "Abby Suckle Architect",
      "opening_hours": {
        "open_now": false
      },
      "place_id": "ChIJ4brFmLdZwokRmsPOjG6E4ds",
      "plus_code": {
        "compound_code": "Q347+PG Long Island City, Queens, NY, USA",
        "global_code": "87G8Q347+PG"
      },
      "reference": "ChIJ4brFmLdZwokRmsPOjG6E4ds",
      "scope": "GOOGLE",
      "types": [
        "point_of_interest",
        "establishment"
      ],
      "vicinity": "37-24 24th Street, Long Island City"
    },
    {
      "business_status": "OPERATIONAL",
      "geometry": {
        "location": {
          "lat": 40.756981,
          "lng": -73.9362065
        },
        "viewport": {
          "northeast": {
            "lat": 40.7582616802915,
            "lng": -73.93473376970849
          },
          "southwest": {
            "lat": 40.7555637197085,
            "lng": -73.9374317302915
          }
        }
      },
      "icon": "https://maps.gstatic.com/mapfiles/place_api/icons/v1/png_71/generic_business-71.png",
      "icon_background_color": "#7B9EB0",
      "icon_mask_base_uri": "https://maps.gstatic.com/mapfiles/place_api/icons/v2/generic_pinlet",
      "name": "Retail Aid Business Solutions",
      "opening_hours": {
        "open_now": false
      },
      "place_id": "ChIJn_IW4h-B5IkRzR_BoxKaEKA",
      "plus_code": {
        "compound_code": "Q347+QG New York, NY, USA",
        "global_code": "87G8Q347+QG"
      },
      "reference": "ChIJn_IW4h-B5IkRzR_BoxKaEKA",
      "scope": "GOOGLE",
      "types": [
        "store",
        "point_of_interest",
        "establishment"
      ],
      "vicinity": "37-24 24th Street Suite #103, Queens"
    },
    {
      "business_status": "OPERATIONAL",
      "geometry": {
        "location": {
          "lat": 40.7551717,
          "lng": -73.93724499999999
        },
        "viewport": {
          "northeast": {
            "lat": 40.7565881302915,
            "lng": -73.9359818697085
          },
          "southwest": {
            "lat": 40.7538901697085,
            "lng": -73.9386798302915
          }
        }
      },
      "icon": "https://maps.gstatic.com/mapfiles/place_api/icons/v1/png_71/generic_business-71.png",
      "icon_background_color": "#13B5C7",
      "icon_mask_base_uri": "https://maps.gstatic.com/mapfiles/place_api/icons/v2/generic_pinlet",
      "name": "The Chocolate Factory Theater",
      "photos": [
        {
          "height": 1365,
          "html_attributions": [
            "<a href=\"https://maps.google.com/maps/contrib/103607432432694207980\">Chocolate Factory Theater</a>"
          ],
          "photo_reference": "AeJbb3eMojiTQFRJnXFa6-yyxHO8INUy5hRA0ELNQOIiVlbAp5T2WloFYCTufbvdhVD_XTfikglUcXBLJlrNgxLT7ipx0Oc0wL-J0aYjiOBjE6I-T0BYYv3g5zUJLGpiV-wbBsFLc3-9vl5dIeBi8XPmQ84XxH4diwDYp59-Sq2r50P81fJ5",
          "width": 2048
        }
      ],
      "place_id": "ChIJ_2CHnSNZwokRSZLWlWbUO5g",
      "plus_code": {
        "compound_code": "Q347+34 New York, NY, USA",
        "global_code": "87G8Q347+34"
      },
      "rating": 4.6,
      "reference": "ChIJ_2CHnSNZwokRSZLWlWbUO5g",
      "scope": "GOOGLE",
      "types": [
        "point_of_interest",
        "establishment"
      ],
      "user_ratings_total": 16,
      "vicinity": "3833 24th Street, Queens"
    },
    {
      "business_status": "OPERATIONAL",
      "geometry": {
        "location": {
          "lat": 40.75139310000001,
          "lng": -73.93368389999999
        },
        "viewport": {
          "northeast": {
            "lat": 40.7528115802915,
            "lng": -73.93239786970848
          },
          "southwest": {
            "lat": 40.7501136197085,
            "lng": -73.9350958302915
          }
        }
      },
      "icon": "https://maps.gstatic.com/mapfiles/place_api/icons/v1/png_71/generic_business-71.png",
      "icon_background_color": "#7B9EB0",
      "icon_mask_base_uri": "https://maps.gstatic.com/mapfiles/place_api/icons/v2/generic_pinlet",
      "name": "ACE Programs for the Homeless",
      "opening_hours": {
        "open_now": false
      },
      "place_id": "ChIJ7-ohpo9ZwokRQnzEItjp8gg",
      "plus_code": {
        "compound_code": "Q328+HG New York, NY, USA",
        "global_code": "87G8Q328+HG"
      },
      "rating": 4.6,
      "reference": "ChIJ7-ohpo9ZwokRQnzEItjp8gg",
      "scope": "GOOGLE",
      "types": [
        "point_of_interest",
        "establishment"
      ],
      "user_ratings_total": 13,
      "vicinity": "30-30 Northern Boulevard b100, Queens"
    },
    {
      "business_status": "OPERATIONAL",
      "geometry": {
        "location": {
          "lat": 40.7538093,
          "lng": -73.9412783
        },
        "viewport": {
          "northeast": {
            "lat": 40.7552195802915,
            "lng": -73.93982126970847
          },
          "southwest": {
            "lat": 40.7525216197085,
            "lng": -73.9425192302915
          }
        }
      },
      "icon": "https://maps.gstatic.com/mapfiles/place_api/icons/v1/png_71/generic_business-71.png",
      "icon_background_color": "#7B9EB0",
      "icon_mask_base_uri": "https://maps.gstatic.com/mapfiles/place_api/icons/v2/generic_pinlet",
      "name": "Logan Business Concepts Inc",
      "opening_hours": {
        "open_now": false
      },
      "photos": [
        {
          "height": 450,
          "html_attributions": [
            "<a href=\"https://maps.google.com/maps/contrib/113785383526891276555\">Logan Business Concepts Inc</a>"
          ],
          "photo_reference": "AeJbb3eSy0PLNE_qzqgticMLBiC3JS5U7XoOYZ-NTqwtLH2emHwvd6rHiQ-TYoqe9iBbUPjObk7cHp8P4lKU6_UImZuWV_zQL0aX7HB8UGcefe9_4auBi9Xwrd-6w8Xz-7JTjpW4l4tJw_CF7BqSWfkZ4swixmCFS5sAa_xmI5-bmPj0K_Us",
          "width": 800
        }
      ],
      "place_id": "ChIJUxklSi9fwokRyKK6Ow294ek",
      "plus_code": {
        "compound_code": "Q335+GF Long Island City, Queens, NY, USA",
        "global_code": "87G8Q335+GF"
      },
      "rating": 3,
      "reference": "ChIJUxklSi9fwokRyKK6Ow294ek",
      "scope": "GOOGLE",
      "types": [
        "point_of_interest",
        "establishment"
      ],
      "user_ratings_total": 2,
      "vicinity": "21-21 41st Avenue fl 4 unit 4f, Long Island City"
    },
    {
      "business_status": "CLOSED_TEMPORARILY",
      "geometry": {
        "location": {
          "lat": 40.7493572,
          "lng": -73.9390619
        },
        "viewport": {
          "northeast": {
            "lat": 40.75077093029149,
            "lng": -73.93783536970848
          },
          "southwest": {
            "lat": 40.7480729697085,
            "lng": -73.9405333302915
          }
        }
      },
      "icon": "https://maps.gstatic.com/mapfiles/place_api/icons/v1/png_71/restaurant-71.png",
      "icon_background_color": "#FF9E67",
      "icon_mask_base_uri": "https://maps.gstatic.com/mapfiles/place_api/icons/v2/restaurant_pinlet",
      "name": "Subway",
      "permanently_closed": true,
      "photos": [
        {
          "height": 3024,
          "html_attributions": [
            "<a href=\"https://maps.google.com/maps/contrib/109212626794179187661\">Ha Pham</a>"
          ],
          "photo_reference": "AeJbb3dLUiIdlDDPslmDuEm87HYo7w07SjiuhSUJNiaa3AmSUaOgkefOQcdJykWnE5ZMxwVIsCeXeecb0GukBKi4I5n7EUntuJ3a9unCArSEG91XqG4IfuLBkQaDva7DEGEPhy_IzKsKtHUPiIPI31VTnydhZA2XrdpI6iFCx9gubKXqhHpI",
          "width": 4032
        }
      ],
      "place_id": "ChIJyR0vmdVYwokRkveV7B1g1WQ",
      "plus_code": {
        "compound_code": "P3X6+P9 New York, NY, USA",
        "global_code": "87G8P3X6+P9"
      },
      "price_level": 1,
      "rating": 3.8,
      "reference": "ChIJyR0vmdVYwokRkveV7B1g1WQ",
      "scope": "GOOGLE",
      "types": [
        "meal_takeaway",
        "restaurant",
        "food",
        "point_of_interest",
        "establishment"
      ],
      "user_ratings_total": 105,
      "vicinity": "42-09 28th Street, Queens"
    },
    {
      "business_status": "OPERATIONAL",
      "geometry": {
        "location": {
          "lat": 40.7538436,
          "lng": -73.941913
        },
        "viewport": {
          "northeast": {
            "lat": 40.7551548802915,
            "lng": -73.9405991197085
          },
          "southwest": {
            "lat": 40.7524569197085,
            "lng": -73.9432970802915
          }
        }
      },
      "icon": "https://maps.gstatic.com/mapfiles/place_api/icons/v1/png_71/generic_business-71.png",
      "icon_background_color": "#7B9EB0",
      "icon_mask_base_uri": "https://maps.gstatic.com/mapfiles/place_api/icons/v2/generic_pinlet",
      "name": "Parsons-Meares, Ltd",
      "place_id": "ChIJOd06pa1ZwokR_Ce73F8TC8Q",
      "plus_code": {
        "compound_code": "Q335+G6 Long Island City, Queens, NY, USA",
        "global_code": "87G8Q335+G6"
      },
      "reference": "ChIJOd06pa1ZwokR_Ce73F8TC8Q",
      "scope": "GOOGLE",
      "types": [
        "point_of_interest",
        "establishment"
      ],
      "vicinity": "21-07 41st Avenue, Long Island City"
    },
    {
      "business_status": "OPERATIONAL",
      "geometry": {
        "location": {
          "lat": 40.7495018,
          "lng": -73.93907530000001
        },
        "viewport": {
          "northeast": {
            "lat": 40.75089903029151,
            "lng": -73.93779081970851
          },
          "southwest": {
            "lat": 40.74820106970851,
            "lng": -73.94048878029153
          }
        }
      },
      "icon": "https://maps.gstatic.com/mapfiles/place_api/icons/v1/png_71/civic_building-71.png",
      "icon_background_color": "#7B9EB0",
      "icon_mask_base_uri": "https://maps.gstatic.com/mapfiles/place_api/icons/v2/civic-bldg_pinlet",
      "name": "New York City Department of Health & Mental Hygiene",
      "opening_hours": {
        "open_now": false
      },
      "photos": [
        {
          "height": 3072,
          "html_attributions": [
            "<a href=\"https://maps.google.com/maps/contrib/110615938955787736330\">Patrick Lien</a>"
          ],
          "photo_reference": "AeJbb3eF6AUZaLFwqanWZJT1AkKThkK7PQ7nEpDiQF0KeHDQwvPuSZEkJgRvZtvrAkGrbgjdkPRAu1yG99P5AehRWeGc9ywmpKh2sKHBsis7sIH0LOmPaGnmRoLxb-MCf7z-7SNbSZs-ZmxCJBjzEbeo2VtjER4iqQGOyABsRL4IL0N5yos2",
          "width": 4080
        }
      ],
      "place_id": "ChIJ2bqVnNVYwokR1lCIl6Kza0A",
      "plus_code": {
        "compound_code": "P3X6+R9 New York, NY, USA",
        "global_code": "87G8P3X6+R9"
      },
      "rating": 3.7,
      "reference": "ChIJ2bqVnNVYwokR1lCIl6Kza0A",
      "scope": "GOOGLE",
      "types": [
        "local_government_office",
        "health",
        "point_of_interest",
        "establishment"
      ],
      "user_ratings_total": 43,
      "vicinity": "42-09 28th Street, Queens"
    },
    {
      "business_status": "OPERATIONAL",
      "geometry": {
        "location": {
          "lat": 40.7567151,
          "lng": -73.9364229
        },
        "viewport": {
          "northeast": {
            "lat": 40.7580404802915,
            "lng": -73.93496611970849
          },
          "southwest": {
            "lat": 40.7553425197085,
            "lng": -73.93766408029151
          }
        }
      },
      "icon": "https://maps.gstatic.com/mapfiles/place_api/icons/v1/png_71/generic_business-71.png",
      "icon_background_color": "#7B9EB0",
      "icon_mask_base_uri": "https://maps.gstatic.com/mapfiles/place_api/icons/v2/generic_pinlet",
      "name": "Computer Services Group",
      "opening_hours": {
        "open_now": false
      },
      "place_id": "ChIJ39nlE6pZwokRG1Mjvn_AlNc",
      "plus_code": {
        "compound_code": "Q347+MC Long Island City, Queens, NY, USA",
        "global_code": "87G8Q347+MC"
      },
      "rating": 5,
      "reference": "ChIJ39nlE6pZwokRG1Mjvn_AlNc",
      "scope": "GOOGLE",
      "types": [
        "point_of_interest",
        "establishment"
      ],
      "user_ratings_total": 2,
      "vicinity": "37-24 24th Street Suite 340, Long Island City"
    },
    {
      "business_status": "OPERATIONAL",
      "geometry": {
        "location": {
          "lat": 40.7566266,
          "lng": -73.9364873
        },
        "viewport": {
          "northeast": {
            "lat": 40.7580006802915,
            "lng": -73.93499936970849
          },
          "southwest": {
            "lat": 40.7553027197085,
            "lng": -73.9376973302915
          }
        }
      },
      "icon": "https://maps.gstatic.com/mapfiles/place_api/icons/v1/png_71/shopping-71.png",
      "icon_background_color": "#4B96F3",
      "icon_mask_base_uri": "https://maps.gstatic.com/mapfiles/place_api/icons/v2/shopping_pinlet",
      "name": "Parts To Go",
      "opening_hours": {
        "open_now": true
      },
      "place_id": "ChIJyykjz9JYwokRQQ2Nw3BFwS4",
      "plus_code": {
        "compound_code": "Q347+MC Long Island City, Queens, NY, USA",
        "global_code": "87G8Q347+MC"
      },
      "reference": "ChIJyykjz9JYwokRQQ2Nw3BFwS4",
      "scope": "GOOGLE",
      "types": [
        "car_repair",
        "store",
        "point_of_interest",
        "establishment"
      ],
      "vicinity": "3724 24th Street #112, Long Island City"
    },
    {
      "business_status": "OPERATIONAL",
      "geometry": {
        "location": {
          "lat": 40.7567151,
          "lng": -73.9364229
        },
        "viewport": {
          "northeast": {
            "lat": 40.75812138029151,
            "lng": -73.9348839697085
          },
          "southwest": {
            "lat": 40.75542341970851,
            "lng": -73.9375819302915
          }
        }
      },
      "icon": "https://maps.gstatic.com/mapfiles/place_api/icons/v1/png_71/generic_business-71.png",
      "icon_background_color": "#7B9EB0",
      "icon_mask_base_uri": "https://maps.gstatic.com/mapfiles/place_api/icons/v2/generic_pinlet",
      "name": "L S O Orthotics Group",
      "place_id": "ChIJyykjz9JYwokRraWNS5b1WfI",
      "plus_code": {
        "compound_code": "Q347+MC Long Island City, Queens, NY, USA",
        "global_code": "87G8Q347+MC"
      },
      "reference": "ChIJyykjz9JYwokRraWNS5b1WfI",
      "scope": "GOOGLE",
      "types": [
        "health",
        "point_of_interest",
        "establishment"
      ],
      "vicinity": "3724 24th Street, Long Island City"
    },
    {
      "business_status": "OPERATIONAL",
      "geometry": {
        "location": {
          "lat": 40.7495704,
          "lng": -73.93901799999999
        },
        "viewport": {
          "northeast": {
            "lat": 40.7509165302915,
            "lng": -73.9377621697085
          },
          "southwest": {
            "lat": 40.7482185697085,
            "lng": -73.94046013029151
          }
        }
      },
      "icon": "https://maps.gstatic.com/mapfiles/place_api/icons/v1/png_71/generic_business-71.png",
      "icon_background_color": "#7B9EB0",
      "icon_mask_base_uri": "https://maps.gstatic.com/mapfiles/place_api/icons/v2/generic_pinlet",
      "name": "Dr. Farah M. Parvez, MD",
      "place_id": "ChIJl0IGndVYwokR5dO4JqQsIQ8",
      "plus_code": {
        "compound_code": "P3X6+R9 New York, NY, USA",
        "global_code": "87G8P3X6+R9"
      },
      "reference": "ChIJl0IGndVYwokR5dO4JqQsIQ8",
      "scope": "GOOGLE",
      "types": [
        "doctor",
        "health",
        "point_of_interest",
        "establishment"
      ],
      "vicinity": "42-09 28th Street, Queens"
    },
    {
      "business_status": "OPERATIONAL",
      "geometry": {
        "location": {
          "lat": 40.7495704,
          "lng": -73.93901799999999
        },
        "viewport": {
          "northeast": {
            "lat": 40.7509165302915,
            "lng": -73.9377621697085
          },
          "southwest": {
            "lat": 40.7482185697085,
            "lng": -73.94046013029151
          }
        }
      },
      "icon": "https://maps.gstatic.com/mapfiles/place_api/icons/v1/png_71/generic_business-71.png",
      "icon_background_color": "#7B9EB0",
      "icon_mask_base_uri": "https://maps.gstatic.com/mapfiles/place_api/icons/v2/generic_pinlet",
      "name": "Dr. Sharon Balter, MD",
      "place_id": "ChIJl0IGndVYwokR6XRBbbB8X1E",
      "plus_code": {
        "compound_code": "P3X6+R9 New York, NY, USA",
        "global_code": "87G8P3X6+R9"
      },
      "reference": "ChIJl0IGndVYwokR6XRBbbB8X1E",
      "scope": "GOOGLE",
      "types": [
        "doctor",
        "health",
        "point_of_interest",
        "establishment"
      ],
      "vicinity": "42-09 28th Street, Queens"
    },
    {
      "business_status": "OPERATIONAL",
      "geometry": {
        "location": {
          "lat": 40.7495704,
          "lng": -73.93901799999999
        },
        "viewport": {
          "northeast": {
            "lat": 40.7509165302915,
            "lng": -73.9377621697085
          },
          "southwest": {
            "lat": 40.7482185697085,
            "lng": -73.94046013029151
          }
        }
      },
      "icon": "https://maps.gstatic.com/mapfiles/place_api/icons/v1/png_71/generic_business-71.png",
      "icon_background_color": "#7B9EB0",
      "icon_mask_base_uri": "https://maps.gstatic.com/mapfiles/place_api/icons/v2/generic_pinlet",
      "name": "Dr. Venkatarama R. Koppaka, MD",
      "place_id": "ChIJl0IGndVYwokRCdTJ-ih_cio",
      "plus_code": {
        "compound_code": "P3X6+R9 New York, NY, USA",
        "global_code": "87G8P3X6+R9"
      },
      "reference": "ChIJl0IGndVYwokRCdTJ-ih_cio",
      "scope": "GOOGLE",
      "types": [
        "doctor",
        "health",
        "point_of_interest",
        "establishment"
      ],
      "vicinity": "42-09 28th Street, Queens"
    },
    {
      "business_status": "OPERATIONAL",
      "geometry": {
        "location": {
          "lat": 40.7495704,
          "lng": -73.93901799999999
        },
        "viewport": {
          "northeast": {
            "lat": 40.7509165302915,
            "lng": -73.9377621697085
          },
          "southwest": {
            "lat": 40.7482185697085,
            "lng": -73.94046013029151
          }
        }
      },
      "icon": "https://maps.gstatic.com/mapfiles/place_api/icons/v1/png_71/generic_business-71.png",
      "icon_background_color": "#7B9EB0",
      "icon_mask_base_uri": "https://maps.gstatic.com/mapfiles/place_api/icons/v2/generic_pinlet",
      "name": "Dr. Sayone Thihalolipavan, MD",
      "place_id": "ChIJl0IGndVYwokRlIosoPiW9uM",
      "plus_code": {
        "compound_code": "P3X6+R9 New York, NY, USA",
        "global_code": "87G8P3X6+R9"
      },
      "reference": "ChIJl0IGndVYwokRlIosoPiW9uM",
      "scope": "GOOGLE",
      "types": [
        "doctor",
        "health",
        "point_of_interest",
        "establishment"
      ],
      "vicinity": "42-09 28th Street, Queens"
    },
    {
      "business_status": "CLOSED_TEMPORARILY",
      "geometry": {
        "location": {
          "lat": 40.7567151,
          "lng": -73.9364229
        },
        "viewport": {
          "northeast": {
            "lat": 40.75812138029151,
            "lng": -73.9348839697085
          },
          "southwest": {
            "lat": 40.75542341970851,
            "lng": -73.9375819302915
          }
        }
      },
      "icon": "https://maps.gstatic.com/mapfiles/place_api/icons/v1/png_71/generic_business-71.png",
      "icon_background_color": "#7B9EB0",
      "icon_mask_base_uri": "https://maps.gstatic.com/mapfiles/place_api/icons/v2/generic_pinlet",
      "name": "Flagg Whitey",
      "permanently_closed": true,
      "place_id": "ChIJyykjz9JYwokRppd4ApJcayo",
      "plus_code": {
        "compound_code": "Q347+MC Long Island City, Queens, NY, USA",
        "global_code": "87G8Q347+MC"
      },
      "reference": "ChIJyykjz9JYwokRppd4ApJcayo",
      "scope": "GOOGLE",
      "types": [
        "art_gallery",
        "point_of_interest",
        "establishment"
      ],
      "vicinity": "3724 24th Street, Long Island City"
    },
    {
      "business_status": "OPERATIONAL",
      "geometry": {
        "location": {
          "lat": 40.75267700000001,
          "lng": -73.934888
        },
        "viewport": {
          "northeast": {
            "lat": 40.7540935302915,
            "lng": -73.9336635697085
          },
          "southwest": {
            "lat": 40.7513955697085,
            "lng": -73.9363615302915
          }
        }
      },
      "icon": "https://maps.gstatic.com/mapfiles/place_api/icons/v1/png_71/shopping-71.png",
      "icon_background_color": "#4B96F3",
      "icon_mask_base_uri": "https://maps.gstatic.com/mapfiles/place_api/icons/v2/shopping_pinlet",
      "name": "MMPC",
      "opening_hours": {
        "open_now": true
      },
      "photos": [
        {
          "height": 666,
          "html_attributions": [
            "<a href=\"https://maps.google.com/maps/contrib/102493647718367298795\">MMPC</a>"
          ],
          "photo_reference": "AeJbb3e8bg4eNjXihHkua_Ltz5oAU4SrxylRtD9Cl--5DDoxZowNnYKHWnlmCsLqDdRfaO1ZK32vmFrpE5Rnl4WDFaEK4FXLY1J66Fn4_iwxNFxOu1U7l4EpjxMqJgMaEEZ0St-aspEdNnIxfuI2EG2RzwdT_N2HNPYKz5Lka7pOON6U_QQo",
          "width": 1000
        }
      ],
      "place_id": "ChIJW-Z7ySlawokRMEXsedov3u0",
      "plus_code": {
        "compound_code": "Q338+32 New York, NY, USA",
        "global_code": "87G8Q338+32"
      },
      "rating": 4.9,
      "reference": "ChIJW-Z7ySlawokRMEXsedov3u0",
      "scope": "GOOGLE",
      "types": [
        "home_goods_store",
        "store",
        "point_of_interest",
        "establishment"
      ],
      "user_ratings_total": 187,
      "vicinity": "39-27 29th Street, Queens"
    },
    {
      "business_status": "OPERATIONAL",
      "geometry": {
        "location": {
          "lat": 40.7511246,
          "lng": -73.93723779999999
        },
        "viewport": {
          "northeast": {
            "lat": 40.7525040302915,
            "lng": -73.9358447697085
          },
          "southwest": {
            "lat": 40.7498060697085,
            "lng": -73.9385427302915
          }
        }
      },
      "icon": "https://maps.gstatic.com/mapfiles/place_api/icons/v1/png_71/generic_business-71.png",
      "icon_background_color": "#7B9EB0",
      "icon_mask_base_uri": "https://maps.gstatic.com/mapfiles/place_api/icons/v2/generic_pinlet",
      "name": "MBS Graphics Inc",
      "opening_hours": {
        "open_now": false
      },
      "place_id": "ChIJF_WcFNRYwokRJvgnLRhY-K4",
      "plus_code": {
        "compound_code": "Q327+C4 Long Island City, Queens, NY, USA",
        "global_code": "87G8Q327+C4"
      },
      "reference": "ChIJF_WcFNRYwokRJvgnLRhY-K4",
      "scope": "GOOGLE",
      "types": [
        "point_of_interest",
        "establishment"
      ],
      "vicinity": "28-12 41st Avenue, Long Island City"
    },
    {
      "business_status": "OPERATIONAL",
      "geometry": {
        "location": {
          "lat": 40.7514885,
          "lng": -73.9400398
        },
        "viewport": {
          "northeast": {
            "lat": 40.7528179802915,
            "lng": -73.9386142697085
          },
          "southwest": {
            "lat": 40.7501200197085,
            "lng": -73.9413122302915
          }
        }
      },
      "icon": "https://maps.gstatic.com/mapfiles/place_api/icons/v1/png_71/generic_business-71.png",
      "icon_background_color": "#7B9EB0",
      "icon_mask_base_uri": "https://maps.gstatic.com/mapfiles/place_api/icons/v2/generic_pinlet",
      "name": "Packard Square",
      "photos": [
        {
          "height": 3024,
          "html_attributions": [
            "<a href=\"https://maps.google.com/maps/contrib/105570132489882769202\">Zhen QIN</a>"
          ],
          "photo_reference": "AeJbb3cB9OclQdlmloQz1vAKnYclV1GiHd-dxgyAKW8lhdr7Hu1BVYB6DAx89_aUhbu3jf-wWt5vmbZ_Ex9DHcE54tmrJTtxGgj10F4qr6j10hOZR83sV6kQkviI63LyGZquyNv3b5iKkqisIYNt0EOIzkJFYznOs5eyxzzTQzoMN57yMPBg",
          "width": 4032
        }
      ],
      "place_id": "ChIJz-Ost9VYwokRQCkYp_igqGw",
      "plus_code": {
        "compound_code": "Q325+HX New York, NY, USA",
        "global_code": "87G8Q325+HX"
      },
      "rating": 3.5,
      "reference": "ChIJz-Ost9VYwokRQCkYp_igqGw",
      "scope": "GOOGLE",
      "types": [
        "point_of_interest",
        "establishment"
      ],
      "user_ratings_total": 36,
      "vicinity": "41 34th Street, Queens"
    },
    {
      "business_status": "OPERATIONAL",
      "geometry": {
        "location": {
          "lat": 40.7565329,
          "lng": -73.9420299
        },
        "viewport": {
          "northeast": {
            "lat": 40.7579441802915,
            "lng": -73.94079986970848
          },
          "southwest": {
            "lat": 40.7552462197085,
            "lng": -73.9434978302915
          }
        }
      },
      "icon": "https://maps.gstatic.com/mapfiles/place_api/icons/v1/png_71/lodging-71.png",
      "icon_background_color": "#909CE1",
      "icon_mask_base_uri": "https://maps.gstatic.com/mapfiles/place_api/icons/v2/hotel_pinlet",
      "name": "Howard Johnson by Wyndham Long Island City",
      "opening_hours": {
        "open_now": true
      },
      "photos": [
        {
          "height": 400,
          "html_attributions": [
            "<a href=\"https://maps.google.com/maps/contrib/101054149572134764272\">Howard Johnson by Wyndham Long Island City</a>"
          ],
          "photo_reference": "AeJbb3fQCYZTj_6oARGRTrCulmDF-SDqUcSFPwmAYnBmIJ4j6Px01blQYdB8TMunB-Poaa_UcJdQsbO6BRnpHoylQkQoSppBonzapoWb61xk6Q24LTE7elYgetNovZzzGcMyaB9vMqK4t_rCicI52ldp8-_4aK7Y3N7twFHz2TpMxVV9wlJF",
          "width": 711
        }
      ],
      "place_id": "ChIJP3NE19NYwokRLibxb27OCnU",
      "plus_code": {
        "compound_code": "Q345+J5 New York, NY, USA",
        "global_code": "87G8Q345+J5"
      },
      "rating": 3.6,
      "reference": "ChIJP3NE19NYwokRLibxb27OCnU",
      "scope": "GOOGLE",
      "types": [
        "lodging",
        "point_of_interest",
        "establishment"
      ],
      "user_ratings_total": 995,
      "vicinity": "38-61 12th Street, Queens"
    },
    {
      "business_status": "OPERATIONAL",
      "geometry": {
        "location": {
          "lat": 40.7534334,
          "lng": -73.9406204
        },
        "viewport": {
          "northeast": {
            "lat": 40.75471703029149,
            "lng": -73.9391478197085
          },
          "southwest": {
            "lat": 40.7520190697085,
            "lng": -73.94184578029152
          }
        }
      },
      "icon": "https://maps.gstatic.com/mapfiles/place_api/icons/v1/png_71/generic_business-71.png",
      "icon_background_color": "#7B9EB0",
      "icon_mask_base_uri": "https://maps.gstatic.com/mapfiles/place_api/icons/v2/generic_pinlet",
      "name": "Commission on Voluntary Serivce & Action",
      "opening_hours": {
        "open_now": true
      },
      "place_id": "ChIJF_WcFNRYwokRHoob1Vp0Z-Q",
      "plus_code": {
        "compound_code": "Q335+9Q Long Island City, Queens, NY, USA",
        "global_code": "87G8Q335+9Q"
      },
      "reference": "ChIJF_WcFNRYwokRHoob1Vp0Z-Q",
      "scope": "GOOGLE",
      "types": [
        "point_of_interest",
        "establishment"
      ],
      "vicinity": "2219 41st Avenue # 2a, Long Island City"
    },
    {
      "business_status": "OPERATIONAL",
      "geometry": {
        "location": {
          "lat": 40.7515013,
          "lng": -73.93693429999999
        },
        "viewport": {
          "northeast": {
            "lat": 40.7527413802915,
            "lng": -73.9358151197085
          },
          "southwest": {
            "lat": 40.7500434197085,
            "lng": -73.9385130802915
          }
        }
      },
      "icon": "https://maps.gstatic.com/mapfiles/place_api/icons/v1/png_71/school-71.png",
      "icon_background_color": "#7B9EB0",
      "icon_mask_base_uri": "https://maps.gstatic.com/mapfiles/place_api/icons/v2/school_pinlet",
      "name": "Newcomers High School",
      "photos": [
        {
          "height": 2988,
          "html_attributions": [
            "<a href=\"https://maps.google.com/maps/contrib/117979751334919367476\">Alexander Mejia</a>"
          ],
          "photo_reference": "AeJbb3d8lF1Zyix1AIcF5X_DE-B0eKgEBYnpZ9g0Zisuj4R0d0RMNd6_YsWqVlefqIDjazNMSHTgAtTVIeaynDns4DjH_TJ7qCVm6B3_VGPr1w9OucsCE2-x49TfEzn6h4z4pHRc2ikzHTQHFMvpv7dswbJ_ZXCQllFOiDVMe-4vinObjFQR",
          "width": 5312
        }
      ],
      "place_id": "ChIJT3763tRYwokR2J9e-eYbke4",
      "plus_code": {
        "compound_code": "Q327+J6 New York, NY, USA",
        "global_code": "87G8Q327+J6"
      },
      "rating": 4.8,
      "reference": "ChIJT3763tRYwokR2J9e-eYbke4",
      "scope": "GOOGLE",
      "types": [
        "secondary_school",
        "school",
        "point_of_interest",
        "establishment"
      ],
      "user_ratings_total": 41,
      "vicinity": "28-01 41st Avenue, Queens"
    },
    {
      "business_status": "OPERATIONAL",
      "geometry": {
        "location": {
          "lat": 40.7512268,
          "lng": -73.93875249999999
        },
        "viewport": {
          "northeast": {
            "lat": 40.7526059802915,
            "lng": -73.9374509197085
          },
          "southwest": {
            "lat": 40.7499080197085,
            "lng": -73.9401488802915
          }
        }
      },
      "icon": "https://maps.gstatic.com/mapfiles/place_api/icons/v1/png_71/generic_business-71.png",
      "icon_background_color": "#7B9EB0",
      "icon_mask_base_uri": "https://maps.gstatic.com/mapfiles/place_api/icons/v2/generic_pinlet",
      "name": "MetLife",
      "place_id": "ChIJWX_WCdVYwokRfJKQt_UVin4",
      "plus_code": {
        "compound_code": "Q326+FF Long Island City, Queens, NY, USA",
        "global_code": "87G8Q326+FF"
      },
      "rating": 3.2,
      "reference": "ChIJWX_WCdVYwokRfJKQt_UVin4",
      "scope": "GOOGLE",
      "types": [
        "insurance_agency",
        "point_of_interest",
        "establishment"
      ],
      "user_ratings_total": 6,
      "vicinity": "27-01 Queens Plaza North, Long Island City"
    },
    {
      "business_status": "OPERATIONAL",
      "geometry": {
        "location": {
          "lat": 40.7551249,
          "lng": -73.937865
        },
        "viewport": {
          "northeast": {
            "lat": 40.75654068029149,
            "lng": -73.9364742197085
          },
          "southwest": {
            "lat": 40.75384271970849,
            "lng": -73.93917218029151
          }
        }
      },
      "icon": "https://maps.gstatic.com/mapfiles/place_api/icons/v1/png_71/generic_business-71.png",
      "icon_background_color": "#7B9EB0",
      "icon_mask_base_uri": "https://maps.gstatic.com/mapfiles/place_api/icons/v2/generic_pinlet",
      "name": "DentalSave",
      "opening_hours": {
        "open_now": false
      },
      "photos": [
        {
          "height": 1067,
          "html_attributions": [
            "<a href=\"https://maps.google.com/maps/contrib/111318812572949194381\">DentalSave</a>"
          ],
          "photo_reference": "AeJbb3cduTrf8V63-Bol2JHcdJqm1qq7VK5tmNSDdeoZxQwJQe1eFf3C-uNEzmv-A4A6oHHa8UOLZYXz8lnjmuRER1ZQumA0ElcbCdoOMaj9elitq4f3xZwf8yaCnUw7wdfW8MQwn5oIeL3V_VQg7Lqew2_K_BYiKNbEUwy_kf0DC9MZ1hh4",
          "width": 1600
        }
      ],
      "place_id": "ChIJl5NDPuNYwokR2u7g_kvj8VM",
      "plus_code": {
        "compound_code": "Q346+2V Long Island City, Queens, NY, USA",
        "global_code": "87G8Q346+2V"
      },
      "rating": 4.7,
      "reference": "ChIJl5NDPuNYwokR2u7g_kvj8VM",
      "scope": "GOOGLE",
      "types": [
        "insurance_agency",
        "health",
        "point_of_interest",
        "establishment"
      ],
      "user_ratings_total": 59,
      "vicinity": "3908 24th Street Ste 5, Long Island City"
    },
    {
      "business_status": "OPERATIONAL",
      "geometry": {
        "location": {
          "lat": 40.754405,
          "lng": -73.934051
        },
        "viewport": {
          "northeast": {
            "lat": 40.75572748029149,
            "lng": -73.9325687697085
          },
          "southwest": {
            "lat": 40.7530295197085,
            "lng": -73.9352667302915
          }
        }
      },
      "icon": "https://maps.gstatic.com/mapfiles/place_api/icons/v1/png_71/generic_business-71.png",
      "icon_background_color": "#7B9EB0",
      "icon_mask_base_uri": "https://maps.gstatic.com/mapfiles/place_api/icons/v2/generic_pinlet",
      "name": "GV Art Conservation LLC",
      "opening_hours": {
        "open_now": false
      },
      "place_id": "ChIJWZioMSb2wokRHFCrQDO4kFk",
      "plus_code": {
        "compound_code": "Q338+Q9 Long Island City, Queens, NY, USA",
        "global_code": "87G8Q338+Q9"
      },
      "reference": "ChIJWZioMSb2wokRHFCrQDO4kFk",
      "scope": "GOOGLE",
      "types": [
        "point_of_interest",
        "establishment"
      ],
      "vicinity": "38-10 29th Street, Long Island City"
    },
    {
      "business_status": "OPERATIONAL",
      "geometry": {
        "location": {
          "lat": 40.749352,
          "lng": -73.939059
        },
        "viewport": {
          "northeast": {
            "lat": 40.75076268029151,
            "lng": -73.93783911970849
          },
          "southwest": {
            "lat": 40.74806471970851,
            "lng": -73.94053708029149
          }
        }
      },
      "icon": "https://maps.gstatic.com/mapfiles/place_api/icons/v1/png_71/generic_business-71.png",
      "icon_background_color": "#7B9EB0",
      "icon_mask_base_uri": "https://maps.gstatic.com/mapfiles/place_api/icons/v2/generic_pinlet",
      "name": "Catherine Travers, RN",
      "place_id": "ChIJl0IGndVYwokRj4ys9_QE5hY",
      "plus_code": {
        "compound_code": "P3X6+P9 New York, NY, USA",
        "global_code": "87G8P3X6+P9"
      },
      "reference": "ChIJl0IGndVYwokRj4ys9_QE5hY",
      "scope": "GOOGLE",
      "types": [
        "health",
        "point_of_interest",
        "establishment"
      ],
      "vicinity": "42-09 28th Street, Queens"
    },
    {
      "business_status": "OPERATIONAL",
      "geometry": {
        "location": {
          "lat": 40.7513042,
          "lng": -73.939082
        },
        "viewport": {
          "northeast": {
            "lat": 40.7526085302915,
            "lng": -73.93764921970849
          },
          "southwest": {
            "lat": 40.7499105697085,
            "lng": -73.9403471802915
          }
        }
      },
      "icon": "https://maps.gstatic.com/mapfiles/place_api/icons/v1/png_71/generic_business-71.png",
      "icon_background_color": "#7B9EB0",
      "icon_mask_base_uri": "https://maps.gstatic.com/mapfiles/place_api/icons/v2/generic_pinlet",
      "name": "The Ultimate Fan - A World Events Group Company",
      "opening_hours": {
        "open_now": true
      },
      "place_id": "ChIJIT7QFqtZwokRmzdy8Q26DhQ",
      "plus_code": {
        "compound_code": "Q326+G9 New York, NY, USA",
        "global_code": "87G8Q326+G9"
      },
      "reference": "ChIJIT7QFqtZwokRmzdy8Q26DhQ",
      "scope": "GOOGLE",
      "types": [
        "store",
        "point_of_interest",
        "establishment"
      ],
      "vicinity": "41-26 27th Street, Queens"
    },
    {
      "business_status": "OPERATIONAL",
      "geometry": {
        "location": {
          "lat": 40.7504308,
          "lng": -73.9344988
        },
        "viewport": {
          "northeast": {
            "lat": 40.75176438029149,
            "lng": -73.93310151970849
          },
          "southwest": {
            "lat": 40.7490664197085,
            "lng": -73.93579948029151
          }
        }
      },
      "icon": "https://maps.gstatic.com/mapfiles/place_api/icons/v1/png_71/generic_business-71.png",
      "icon_background_color": "#7B9EB0",
      "icon_mask_base_uri": "https://maps.gstatic.com/mapfiles/place_api/icons/v2/generic_pinlet",
      "name": "Fortune Society",
      "opening_hours": {
        "open_now": false
      },
      "photos": [
        {
          "height": 1920,
          "html_attributions": [
            "<a href=\"https://maps.google.com/maps/contrib/101544776413031810132\">Ernesto Galv\u00e1n</a>"
          ],
          "photo_reference": "AeJbb3db8GMkwUAsEdF6wW66xsaK0G9rwjax4Gfzhs9lf_VWz7MBGqo-EbpZgtFXiO6EFLNAjntU-SIm9dorlgryPXylgToOE8ZWe7j_VDrfonr0Talrs-pdPsQaUXWl59K0qjNQD7mCTji0w1axFVi5ZAHcAedpejJ9IV0VpJl7mKUOljgf",
          "width": 2560
        }
      ],
      "place_id": "ChIJDTph0yBawokRVKlUJeWouCk",
      "plus_code": {
        "compound_code": "Q328+56 Long Island City, Queens, NY, USA",
        "global_code": "87G8Q328+56"
      },
      "rating": 4.4,
      "reference": "ChIJDTph0yBawokRVKlUJeWouCk",
      "scope": "GOOGLE",
      "types": [
        "point_of_interest",
        "establishment"
      ],
      "user_ratings_total": 324,
      "vicinity": "2976 Northern Boulevard, Long Island City"
    },
    {
      "business_status": "OPERATIONAL",
      "geometry": {
        "location": {
          "lat": 40.7543771,
          "lng": -73.9356908
        },
        "viewport": {
          "northeast": {
            "lat": 40.75566283029151,
            "lng": -73.9344028197085
          },
          "southwest": {
            "lat": 40.75296486970851,
            "lng": -73.9371007802915
          }
        }
      },
      "icon": "https://maps.gstatic.com/mapfiles/place_api/icons/v1/png_71/bar-71.png",
      "icon_background_color": "#FF9E67",
      "icon_mask_base_uri": "https://maps.gstatic.com/mapfiles/place_api/icons/v2/bar_pinlet",
      "name": "Vista Penthouse Ballroom",
      "opening_hours": {
        "open_now": true
      },
      "photos": [
        {
          "height": 608,
          "html_attributions": [
            "<a href=\"https://maps.google.com/maps/contrib/112920984717991545364\">Stamatis Pelardis</a>"
          ],
          "photo_reference": "AeJbb3dw5Ur4-P4-tiiYXs6eqfYg2AOmaQxgesSuEzm5GuePzJUbK8YZHnxOCOUq_1GZ3s_2PClDgCzPMm42k-IVED1sHnwcSGLF5mQte3-oOlEa4lRFLXwQjO4IMxNnQ8E2rM_uw0tEYfxY-1gR9GOm0TtjxT1EG-ctv0DEmU6WJ_UK78ue",
          "width": 1080
        }
      ],
      "place_id": "ChIJdZUxtCxfwokR9yU43m-x2a4",
      "plus_code": {
        "compound_code": "Q337+QP Long Island City, Queens, NY, USA",
        "global_code": "87G8Q337+QP"
      },
      "rating": 4.4,
      "reference": "ChIJdZUxtCxfwokR9yU43m-x2a4",
      "scope": "GOOGLE",
      "types": [
        "night_club",
        "bar",
        "food",
        "point_of_interest",
        "establishment"
      ],
      "user_ratings_total": 61,
      "vicinity": "27-05 39th Avenue 11th Floor, Long Island City"
    }
  ],
  "status": "OK"
}