{
  "html_attributions": [],
  "results": [
    {
      "geometry": {
        "location": {
          "lat": 40.7127753,
          "lng": -74.0059728
        },
        "viewport": {
          "northeast": {
            "lat": 40.91757705070789,
            "lng": -73.70027206817629
          },
          "southwest": {
            "lat": 40.47739906045452,
            "lng": -74.25908991427882
          }
        }
      },
      "icon": "https://maps.gstatic.com/mapfiles/place_api/icons/v1/png_71/geocode-71.png",
      "icon_background_color": "#7B9EB0",
      "icon_mask_base_uri": "https://maps.gstatic.com/mapfiles/place_api/icons/v2/generic_pinlet",
      "name": "\u7d10\u7d04",
      "photos": [
        {
          "height": 600,
          "html_attributions": [
            "<a href=\"https://maps.google.com/maps/contrib/102389334567210814614\">Bukurie</a>"
          ],
          "photo_reference": "AeJbb3exB-KU4qCTT_K7zv21PE1z46jH8h6rvjnks_tYwYnuW55PJInXTtoCKhOK-lxvP35bp3XjqC2pOH8ohpv56EWwuNUdF4QBJZOnu4HYiogVPBQ5KmmIaoompTpuTaTsAQsG1UFjdn58GDEacLQbzNFY_ayE_pBZnE1iwWMIF4dOfa7x",
          "width": 480
        }
      ],
      "place_id": "ChIJOwg_06VPwokRYv534QaPC8g",
      "reference": "ChIJOwg_06VPwokRYv534QaPC8g",
      "scope": "GOOGLE",
      "types": [
        "locality",
        "political"
      ],
      "vicinity": "\u7d10\u7d04"
    },
    {
      "business_status": "OPERATIONAL",
      "geometry": {
        "location": {
          "lat": 40.7294629,
          "lng": -73.9786985
        },
        "viewport": {
          "northeast": {
            "lat": 40.7309194802915,
            "lng": -73.97726541970849
          },
          "southwest": {
            "lat": 40.7282215197085,
            "lng": -73.97996338029151
          }
        }
      },
      "icon": "https://maps.gstatic.com/mapfiles/place_api/icons/v1/png_71/bar-71.png",
      "icon_background_color": "#FF9E67",
      "icon_mask_base_uri": "https://maps.gstatic.com/mapfiles/place_api/icons/v2/bar_pinlet",
      "name": "Otto's Shrunken Head",
      "opening_hours": {
        "open_now": false
      },
      "photos": [
        {
          "height": 3468,
          "html_attributions": [
            "<a href=\"https://maps.google.com/maps/contrib/106066662228594770342\">lori erlitz</a>"
          ],
          "photo_reference": "AeJbb3dHBaSV7qgvq9Jwu_uywGp61BVwS8xiuyOz8z7e0y0DsKrD4mx5IHOIbE1c6YtZx9xal_VCkm6zPZOu4VFuDo8P-S_29je5iFEXGHP7pU88x0WhrD_wZc6iIVdQmht1Bkfw-Vn9dhdf809c3c0yCkWaN9rOqsyQRXhueO2M-uvZZlP5",
          "width": 4624
        }
      ],
      "place_id": "ChIJR4DCmHZZwokRabhwmFJnhnE",
      "plus_code": {
        "compound_code": "P2HC+QG \u7f8e\u570b\u7d10\u7d04",
        "global_code": "87G8P2HC+QG"
      },
      "price_level": 1,
      "rating": 4.4,
      "reference": "ChIJR4DCmHZZwokRabhwmFJnhnE",
      "scope": "GOOGLE",
      "types": [
        "bar",
        "point_of_interest",
        "establishment"
      ],
      "user_ratings_total": 691,
      "vicinity": "538 East 14th Street, New York"
    },
    {
      "business_status": "OPERATIONAL",
      "geometry": {
        "location": {
          "lat": 40.72870759999999,
          "lng": -73.9788255
        },
        "viewport": {
          "northeast": {
            "lat": 40.73001353029149,
            "lng": -73.97737456970849
          },
          "southwest": {
            "lat": 40.72731556970849,
            "lng": -73.9800725302915
          }
        }
      },
      "icon": "https://maps.gstatic.com/mapfiles/place_api/icons/v1/png_71/cafe-71.png",
      "icon_background_color": "#FF9E67",
      "icon_mask_base_uri": "https://maps.gstatic.com/mapfiles/place_api/icons/v2/cafe_pinlet",
      "name": "B Cup Cafe",
      "opening_hours": {
        "open_now": true
      },
      "photos": [
        {
          "height": 502,
          "html_attributions": [
            "<a href=\"https://maps.google.com/maps/contrib/110795484722321227837\">B Cup Cafe</a>"
          ],
          "photo_reference": "AeJbb3elURf4iaXDvdMPafVo4bLd6WtSVr4uhigQNsOSQwVF5lDRHfcYE8-VnbWywegCSxu7i9TDFnOtdR-usJkhaV-ikwkb_-OGmLh03Tf3o-2_g5LkhweHGXvOOhwltB2PGU-vJVJfvkkMALvi2QzB0txEsHfyxjP9Lt7moKgvEhJB40XF",
          "width": 891
        }
      ],
      "place_id": "ChIJ3eHXlHZZwokRuzME-28niVI",
      "plus_code": {
        "compound_code": "P2HC+FF \u7f8e\u570b\u7d10\u7d04",
        "global_code": "87G8P2HC+FF"
      },
      "price_level": 2,
      "rating": 4.4,
      "reference": "ChIJ3eHXlHZZwokRuzME-28niVI",
      "scope": "GOOGLE",
      "types": [
        "cafe",
        "store",
        "restaurant",
        "food",
        "point_of_interest",
        "establishment"
      ],
      "user_ratings_total": 346,
      "vicinity": "212 Avenue B, New York"
    },
    {
      "business_status": "OPERATIONAL",
      "geometry": {
        "location": {
          "lat": 40.73360400000001,
          "lng": -73.97749999999999
        },
        "viewport": {
          "northeast": {
            "lat": 40.7350408302915,
            "lng": -73.97605371970847
          },
          "southwest": {
            "lat": 40.7323428697085,
            "lng": -73.9787516802915
          }
        }
      },
      "icon": "https://maps.gstatic.com/mapfiles/place_api/icons/v1/png_71/shopping-71.png",
      "icon_background_color": "#4B96F3",
      "icon_mask_base_uri": "https://maps.gstatic.com/mapfiles/place_api/icons/v2/shopping_pinlet",
      "name": "Lenz's Delicatessen",
      "opening_hours": {
        "open_now": true
      },
      "photos": [
        {
          "height": 2988,
          "html_attributions": [
            "<a href=\"https://maps.google.com/maps/contrib/114787239470053032113\">Marie Parsons</a>"
          ],
          "photo_reference": "AeJbb3c3MpO5FChVJhWnYdfIezBNjrfOWwpcjOtHfIAvUewd_NhTAcakcLo0suft0_jgSXNwCC9-Bb1F_REh4JGEIvNOcq07GYI2xNF_3SUA6-mu2uEZt7mrOTpwpNgVGERRdi57Ps5qNUHtsvXsBYmZVXlH5l84wV9Fy6saR67Nix8tyONU",
          "width": 5312
        }
      ],
      "place_id": "ChIJhRHWp3RZwokRm22BCp04Cxw",
      "plus_code": {
        "compound_code": "P2MF+C2 \u7f8e\u570b\u7d10\u7d04",
        "global_code": "87G8P2MF+C2"
      },
      "price_level": 1,
      "rating": 4.3,
      "reference": "ChIJhRHWp3RZwokRm22BCp04Cxw",
      "scope": "GOOGLE",
      "types": [
        "store",
        "food",
        "point_of_interest",
        "establishment"
      ],
      "user_ratings_total": 104,
      "vicinity": "514 East 20th Street, New York"
    },
    {
      "business_status": "OPERATIONAL",
      "geometry": {
        "location": {
          "lat": 40.72917959999999,
          "lng": -73.978372
        },
        "viewport": {
          "northeast": {
            "lat": 40.7304984302915,
            "lng": -73.97696436970848
          },
          "southwest": {
            "lat": 40.72780046970851,
            "lng": -73.9796623302915
          }
        }
      },
      "icon": "https://maps.gstatic.com/mapfiles/place_api/icons/v1/png_71/bar-71.png",
      "icon_background_color": "#FF9E67",
      "icon_mask_base_uri": "https://maps.gstatic.com/mapfiles/place_api/icons/v2/bar_pinlet",
      "name": "Mona's",
      "opening_hours": {
        "open_now": false
      },
      "photos": [
        {
          "height": 4080,
          "html_attributions": [
            "<a href=\"https://maps.google.com/maps/contrib/115738259722091286566\">Patrick Steele</a>"
          ],
          "photo_reference": "AeJbb3elJiVH9hmwHVEkXkUfPDegIuPGO6i-H8ACN58L6VQ-OdH0sTSpqiQrlq4IRfkNU3wgYHPW9ndiw4LkmUALLQqg227__jpiGPGshhIzPydiJT_zFEhSrGhePCc_AEs2-FkbD9D9UIRMm8IfqcDNJ2u5ukwF5URQ4AooEnSEO3At_Vgg",
          "width": 3072
        }
      ],
      "place_id": "ChIJjZDVonZZwokRoZPvylQfyFY",
      "plus_code": {
        "compound_code": "P2HC+MM \u7f8e\u570b\u7d10\u7d04",
        "global_code": "87G8P2HC+MM"
      },
      "price_level": 1,
      "rating": 4.5,
      "reference": "ChIJjZDVonZZwokRoZPvylQfyFY",
      "scope": "GOOGLE",
      "types": [
        "bar",
        "point_of_interest",
        "establishment"
      ],
      "user_ratings_total": 234,
      "vicinity": "224 Avenue B, New York"
    },
    {
      "business_status": "OPERATIONAL",
      "geometry": {
        "location": {
          "lat": 40.7318381,
          "lng": -73.9778726
        },
        "viewport": {
          "northeast": {
            "lat": 40.73571445,
            "lng": -73.97199554999999
          },
          "southwest": {
            "lat": 40.72790785,
            "lng": -73.98345695
          }
        }
      },
      "icon": "https://maps.gstatic.com/mapfiles/place_api/icons/v1/png_71/generic_business-71.png",
      "icon_background_color": "#7B9EB0",
      "icon_mask_base_uri": "https://maps.gstatic.com/mapfiles/place_api/icons/v2/generic_pinlet",
      "name": "StuyTown",
      "opening_hours": {
        "open_now": true
      },
      "photos": [
        {
          "height": 3546,
          "html_attributions": [
            "<a href=\"https://maps.google.com/maps/contrib/108866303431930871278\">StuyTown</a>"
          ],
          "photo_reference": "AeJbb3fYENrWpvcUGbdUEnf1QBrBICdwayPsHZTOv0-6CqwAReFNLXFJsQ3Us0g3SmzfUxh2aeM4xEZhc7yLMiDddhhiQv83tb6bGtNfFqKHOQ41rK-FUTH1-yityPvh3psXsc1FirvO2rMrxdPt3fIUgpjRrUxhSn4hIvAlul25U7swVd1n",
          "width": 5364
        }
      ],
      "place_id": "ChIJAWLGeHRZwokRV4Dojw9TEHA",
      "plus_code": {
        "compound_code": "P2JC+PV \u7f8e\u570b\u7d10\u7d04",
        "global_code": "87G8P2JC+PV"
      },
      "rating": 4.3,
      "reference": "ChIJAWLGeHRZwokRV4Dojw9TEHA",
      "scope": "GOOGLE",
      "types": [
        "point_of_interest",
        "establishment"
      ],
      "user_ratings_total": 334,
      "vicinity": "252 1st Avenue, New York"
    },
    {
      "business_status": "OPERATIONAL",
      "geometry": {
        "location": {
          "lat": 40.7289216,
          "lng": -73.9782711
        },
        "viewport": {
          "northeast": {
            "lat": 40.7302909802915,
            "lng": -73.9769718197085
          },
          "southwest": {
            "lat": 40.7275930197085,
            "lng": -73.9796697802915
          }
        }
      },
      "icon": "https://maps.gstatic.com/mapfiles/place_api/icons/v1/png_71/bar-71.png",
      "icon_background_color": "#FF9E67",
      "icon_mask_base_uri": "https://maps.gstatic.com/mapfiles/place_api/icons/v2/bar_pinlet",
      "name": "ReVision Lounge and Gallery",
      "opening_hours": {
        "open_now": false
      },
      "photos": [
        {
          "height": 765,
          "html_attributions": [
            "<a href=\"https://maps.google.com/maps/contrib/117782110610400398720\">ReVision Lounge and Gallery</a>"
          ],
          "photo_reference": "AeJbb3dnwh5BEiu6Nzl8CZvQLcmd9fUZRm_ID_quW_v-hH9TpDVRRxXLRf-lq6tH6OGl9VzKKadY9DCC46N-xcEm7tBtkMzYtMjghr36Zr19cqEGP3LmRiuzpTSr4RZQwqTIPmKtlsVcWHYDhtadYUed-IbW4FAbzaUiqeeG81c4MYjKUS3s",
          "width": 1000
        }
      ],
      "place_id": "ChIJw-GPvHZZwokRa99m2ncuhhY",
      "plus_code": {
        "compound_code": "P2HC+HM \u7f8e\u570b\u7d10\u7d04",
        "global_code": "87G8P2HC+HM"
      },
      "price_level": 1,
      "rating": 3.8,
      "reference": "ChIJw-GPvHZZwokRa99m2ncuhhY",
      "scope": "GOOGLE",
      "types": [
        "bar",
        "night_club",
        "art_gallery",
        "point_of_interest",
        "establishment"
      ],
      "user_ratings_total": 81,
      "vicinity": "219 Avenue B, New York"
    },
    {
      "business_status": "OPERATIONAL",
      "geometry": {
        "location": {
          "lat": 40.7306593,
          "lng": -73.9775392
        },
        "viewport": {
          "northeast": {
            "lat": 40.7318727302915,
            "lng": -73.9761817697085
          },
          "southwest": {
            "lat": 40.7291747697085,
            "lng": -73.97887973029151
          }
        }
      },
      "icon": "https://maps.gstatic.com/mapfiles/place_api/icons/v1/png_71/generic_business-71.png",
      "icon_background_color": "#7B9EB0",
      "icon_mask_base_uri": "https://maps.gstatic.com/mapfiles/place_api/icons/v2/generic_pinlet",
      "name": "Bianca Alfonso MD",
      "place_id": "ChIJG8fHDXRZwokRVLqalC9w8aM",
      "plus_code": {
        "compound_code": "P2JC+7X \u7f8e\u570b\u7d10\u7d04",
        "global_code": "87G8P2JC+7X"
      },
      "reference": "ChIJG8fHDXRZwokRVLqalC9w8aM",
      "scope": "GOOGLE",
      "types": [
        "doctor",
        "health",
        "point_of_interest",
        "establishment"
      ],
      "vicinity": "4 Stuyvesant Oval # 11A, New York"
    },
    {
      "business_status": "OPERATIONAL",
      "geometry": {
        "location": {
          "lat": 40.7306593,
          "lng": -73.9775392
        },
        "viewport": {
          "northeast": {
            "lat": 40.7320680802915,
            "lng": -73.97640506970848
          },
          "southwest": {
            "lat": 40.7293701197085,
            "lng": -73.9791030302915
          }
        }
      },
      "icon": "https://maps.gstatic.com/mapfiles/place_api/icons/v1/png_71/generic_business-71.png",
      "icon_background_color": "#7B9EB0",
      "icon_mask_base_uri": "https://maps.gstatic.com/mapfiles/place_api/icons/v2/generic_pinlet",
      "name": "Dr. Nikolas Wanahita, MD",
      "opening_hours": {
        "open_now": false
      },
      "place_id": "ChIJG8fHDXRZwokRoJKI-5ugp-s",
      "plus_code": {
        "compound_code": "P2JC+7X \u7f8e\u570b\u7d10\u7d04",
        "global_code": "87G8P2JC+7X"
      },
      "reference": "ChIJG8fHDXRZwokRoJKI-5ugp-s",
      "scope": "GOOGLE",
      "types": [
        "doctor",
        "health",
        "point_of_interest",
        "establishment"
      ],
      "vicinity": "4 Stuyvesant Oval, New York"
    },
    {
      "business_status": "OPERATIONAL",
      "geometry": {
        "location": {
          "lat": 40.72940319999999,
          "lng": -73.9786182
        },
        "viewport": {
          "northeast": {
            "lat": 40.7308607302915,
            "lng": -73.9771871697085
          },
          "southwest": {
            "lat": 40.7281627697085,
            "lng": -73.9798851302915
          }
        }
      },
      "icon": "https://maps.gstatic.com/mapfiles/place_api/icons/v1/png_71/generic_business-71.png",
      "icon_background_color": "#7B9EB0",
      "icon_mask_base_uri": "https://maps.gstatic.com/mapfiles/place_api/icons/v2/generic_pinlet",
      "name": "Wash 'N Clean On 14",
      "opening_hours": {
        "open_now": true
      },
      "photos": [
        {
          "height": 466,
          "html_attributions": [
            "<a href=\"https://maps.google.com/maps/contrib/111705566225016546630\">Wash &#39;N Clean On 14</a>"
          ],
          "photo_reference": "AeJbb3cVs037iTSslUVNoRKfljGqRUxsYigGr2mnpgPnwDDYJXYYhtyUALRH21rh6bxal7W-wcbRb0ZJf6UtDj010ydsAc_mYj5vmgIyltjbLs8x5Qxpag5rTHAe15mzbVpIz5_wCeXCCClXZ4aOhL6ZaZ2jpGJJldSJgzkvhEoSsFYry_1f",
          "width": 828
        }
      ],
      "place_id": "ChIJwZTtKXRZwokRQS3n3M4Rrso",
      "plus_code": {
        "compound_code": "P2HC+QH \u7f8e\u570b\u7d10\u7d04",
        "global_code": "87G8P2HC+QH"
      },
      "rating": 4.1,
      "reference": "ChIJwZTtKXRZwokRQS3n3M4Rrso",
      "scope": "GOOGLE",
      "types": [
        "laundry",
        "point_of_interest",
        "establishment"
      ],
      "user_ratings_total": 48,
      "vicinity": "540 East 14th Street, New York"
    },
    {
      "business_status": "OPERATIONAL",
      "geometry": {
        "location": {
          "lat": 40.7291059,
          "lng": -73.97788349999999
        },
        "viewport": {
          "northeast": {
            "lat": 40.73055698029151,
            "lng": -73.97645826970849
          },
          "southwest": {
            "lat": 40.72785901970851,
            "lng": -73.9791562302915
          }
        }
      },
      "icon": "https://maps.gstatic.com/mapfiles/place_api/icons/v1/png_71/shopping-71.png",
      "icon_background_color": "#4B96F3",
      "icon_mask_base_uri": "https://maps.gstatic.com/mapfiles/place_api/icons/v2/shopping_pinlet",
      "name": "Mercy Sound",
      "photos": [
        {
          "height": 1199,
          "html_attributions": [
            "<a href=\"https://maps.google.com/maps/contrib/101746562575310108034\">Mercy Sound</a>"
          ],
          "photo_reference": "AeJbb3czg-qX8E8bNAmciercPL9k1h2i0d-RKQAjMfJo92bhUYDYGMykepKDbRDhyzoKmHz8erHlO89oAxHl-dg6tTH35U91IoPFKqetGERzK9Jm_p_9pQ6fi97SsH4CKgD80cqwEvujcywm5t3Aig4j61nup-1taR5XRnzOAbxUS7Dbf5bi",
          "width": 1600
        }
      ],
      "place_id": "ChIJeQV1r3ZZwokREqF7tYvlB74",
      "plus_code": {
        "compound_code": "P2HC+JR \u7f8e\u570b\u7d10\u7d04",
        "global_code": "87G8P2HC+JR"
      },
      "rating": 4.9,
      "reference": "ChIJeQV1r3ZZwokREqF7tYvlB74",
      "scope": "GOOGLE",
      "types": [
        "electronics_store",
        "home_goods_store",
        "store",
        "point_of_interest",
        "establishment"
      ],
      "user_ratings_total": 40,
      "vicinity": "602 East 14th Street, New York"
    },
    {
      "business_status": "OPERATIONAL",
      "geometry": {
        "location": {
          "lat": 40.73460230000001,
          "lng": -73.9743946
        },
        "viewport": {
          "northeast": {
            "lat": 40.73593948029151,
            "lng": -73.97314421970849
          },
          "southwest": {
            "lat": 40.73324151970851,
            "lng": -73.9758421802915
          }
        }
      },
      "icon": "https://maps.gstatic.com/mapfiles/place_api/icons/v1/png_71/school-71.png",
      "icon_background_color": "#7B9EB0",
      "icon_mask_base_uri": "https://maps.gstatic.com/mapfiles/place_api/icons/v2/school_pinlet",
      "name": "Solar 1",
      "photos": [
        {
          "height": 3024,
          "html_attributions": [
            "<a href=\"https://maps.google.com/maps/contrib/113479544267203829032\">Google user</a>"
          ],
          "photo_reference": "AeJbb3e_V5QFub0KRDDbmK60xqeH7zrCvaFZgz8v07G7D0suS99XXiQvcCyiwd7pPc4hbjEkohtKuMrdMIhW2EjJXE8oxltRYGFrMQwwmYsCdL7RDWMTGu84_xyqF1IhqoPeXdW8OAZVo2zHbQGhlr6zfITZa04Fmj_gJxM_4tTENcZQhL5v",
          "width": 4032
        }
      ],
      "place_id": "ChIJd7VN2QxZwokRKPCs7rE98sc",
      "plus_code": {
        "compound_code": "P2MG+R6 \u7f8e\u570b\u7d10\u7d04",
        "global_code": "87G8P2MG+R6"
      },
      "rating": 4.9,
      "reference": "ChIJd7VN2QxZwokRKPCs7rE98sc",
      "scope": "GOOGLE",
      "types": [
        "point_of_interest",
        "establishment"
      ],
      "user_ratings_total": 9,
      "vicinity": "24-20 Fdr Drive Service Road East, New York"
    },
    {
      "business_status": "OPERATIONAL",
      "geometry": {
        "location": {
          "lat": 40.7332767,
          "lng": -73.9749564
        },
        "viewport": {
          "northeast": {
            "lat": 40.7344993302915,
            "lng": -73.97370291970849
          },
          "southwest": {
            "lat": 40.7318013697085,
            "lng": -73.97640088029151
          }
        }
      },
      "icon": "https://maps.gstatic.com/mapfiles/place_api/icons/v1/png_71/generic_business-71.png",
      "icon_background_color": "#7B9EB0",
      "icon_mask_base_uri": "https://maps.gstatic.com/mapfiles/place_api/icons/v2/generic_pinlet",
      "name": "Top Hat Photo Booths",
      "place_id": "ChIJnXxvPHNZwokRJH_S0SgqWn4",
      "plus_code": {
        "compound_code": "P2MG+82 \u7f8e\u570b\u7d10\u7d04",
        "global_code": "87G8P2MG+82"
      },
      "rating": 5,
      "reference": "ChIJnXxvPHNZwokRJH_S0SgqWn4",
      "scope": "GOOGLE",
      "types": [
        "point_of_interest",
        "establishment"
      ],
      "user_ratings_total": 1,
      "vicinity": "601 East 20th Street, New York"
    },
    {
      "business_status": "OPERATIONAL",
      "geometry": {
        "location": {
          "lat": 40.7282559,
          "lng": -73.9786886
        },
        "viewport": {
          "northeast": {
            "lat": 40.7296843302915,
            "lng": -73.9773820697085
          },
          "southwest": {
            "lat": 40.7269863697085,
            "lng": -73.9800800302915
          }
        }
      },
      "icon": "https://maps.gstatic.com/mapfiles/place_api/icons/v1/png_71/shopping-71.png",
      "icon_background_color": "#4B96F3",
      "icon_mask_base_uri": "https://maps.gstatic.com/mapfiles/place_api/icons/v2/shopping_pinlet",
      "name": "Michael George Flowers",
      "opening_hours": {
        "open_now": false
      },
      "photos": [
        {
          "height": 715,
          "html_attributions": [
            "<a href=\"https://maps.google.com/maps/contrib/112917308089123749054\">Michael George Flowers</a>"
          ],
          "photo_reference": "AeJbb3c7_29vKCvr7e81-GL-sHI5XmWDh0_rsAcgH80JO3OWidXPjd8cQZODx7yiuowYxkhMzHzAMVkEUlELJ2eQPoMRYNQgl8Qafcg5aFk0Y6xFivW6m5Kvx_0H4GBZXcSJvZoTkyOE8iOce2R0m7_g2IMkFvfdhx2fFELbzZjFflCHIwhx",
          "width": 1000
        }
      ],
      "place_id": "ChIJwXpxUxtZwokRXS1WZaDUY98",
      "plus_code": {
        "compound_code": "P2HC+8G \u7f8e\u570b\u7d10\u7d04",
        "global_code": "87G8P2HC+8G"
      },
      "rating": 3.9,
      "reference": "ChIJwXpxUxtZwokRXS1WZaDUY98",
      "scope": "GOOGLE",
      "types": [
        "florist",
        "store",
        "point_of_interest",
        "establishment"
      ],
      "user_ratings_total": 8,
      "vicinity": "199 Avenue B, New York"
    },
    {
      "business_status": "OPERATIONAL",
      "geometry": {
        "location": {
          "lat": 40.7309942,
          "lng": -73.9777228
        },
        "viewport": {
          "northeast": {
            "lat": 40.7323701802915,
            "lng": -73.97653866970849
          },
          "southwest": {
            "lat": 40.7296722197085,
            "lng": -73.9792366302915
          }
        }
      },
      "icon": "https://maps.gstatic.com/mapfiles/place_api/icons/v1/png_71/generic_business-71.png",
      "icon_background_color": "#7B9EB0",
      "icon_mask_base_uri": "https://maps.gstatic.com/mapfiles/place_api/icons/v2/generic_pinlet",
      "name": "De Los Reyes Kenneth MD",
      "place_id": "ChIJezDAcnRZwokRntLvVUy_lkA",
      "plus_code": {
        "compound_code": "P2JC+9W \u7f8e\u570b\u7d10\u7d04",
        "global_code": "87G8P2JC+9W"
      },
      "reference": "ChIJezDAcnRZwokRntLvVUy_lkA",
      "scope": "GOOGLE",
      "types": [
        "doctor",
        "health",
        "point_of_interest",
        "establishment"
      ],
      "vicinity": "2 Stuyvesant Walk, New York"
    },
    {
      "business_status": "OPERATIONAL",
      "geometry": {
        "location": {
          "lat": 40.72772569999999,
          "lng": -73.9783818
        },
        "viewport": {
          "northeast": {
            "lat": 40.7291215802915,
            "lng": -73.9769988197085
          },
          "southwest": {
            "lat": 40.7264236197085,
            "lng": -73.9796967802915
          }
        }
      },
      "icon": "https://maps.gstatic.com/mapfiles/place_api/icons/v1/png_71/school-71.png",
      "icon_background_color": "#7B9EB0",
      "icon_mask_base_uri": "https://maps.gstatic.com/mapfiles/place_api/icons/v2/school_pinlet",
      "name": "The East Village Community School",
      "place_id": "ChIJW3xW2nZZwokR9kFynhiST5I",
      "plus_code": {
        "compound_code": "P2HC+3J \u7f8e\u570b\u7d10\u7d04",
        "global_code": "87G8P2HC+3J"
      },
      "rating": 4.1,
      "reference": "ChIJW3xW2nZZwokR9kFynhiST5I",
      "scope": "GOOGLE",
      "types": [
        "primary_school",
        "school",
        "point_of_interest",
        "establishment"
      ],
      "user_ratings_total": 12,
      "vicinity": "610 East 12th Street, New York"
    },
    {
      "business_status": "OPERATIONAL",
      "geometry": {
        "location": {
          "lat": 40.731487,
          "lng": -73.976719
        },
        "viewport": {
          "northeast": {
            "lat": 40.7326452302915,
            "lng": -73.9750252197085
          },
          "southwest": {
            "lat": 40.7299472697085,
            "lng": -73.9777231802915
          }
        }
      },
      "icon": "https://maps.gstatic.com/mapfiles/place_api/icons/v1/png_71/generic_business-71.png",
      "icon_background_color": "#7B9EB0",
      "icon_mask_base_uri": "https://maps.gstatic.com/mapfiles/place_api/icons/v2/generic_pinlet",
      "name": "Macdara O' Sullivan, LMSW",
      "place_id": "ChIJ5YzRhXNZwokR7YnLrqGqqVc",
      "plus_code": {
        "compound_code": "P2JF+H8 \u7f8e\u570b\u7d10\u7d04",
        "global_code": "87G8P2JF+H8"
      },
      "reference": "ChIJ5YzRhXNZwokR7YnLrqGqqVc",
      "scope": "GOOGLE",
      "types": [
        "point_of_interest",
        "establishment"
      ],
      "vicinity": "12 Stuyvesant Oval, New York"
    },
    {
      "business_status": "CLOSED_TEMPORARILY",
      "geometry": {
        "location": {
          "lat": 40.73312359999999,
          "lng": -73.9784483
        },
        "viewport": {
          "northeast": {
            "lat": 40.73457518029149,
            "lng": -73.97765796970849
          },
          "southwest": {
            "lat": 40.73187721970849,
            "lng": -73.98035593029151
          }
        }
      },
      "icon": "https://maps.gstatic.com/mapfiles/place_api/icons/v1/png_71/generic_business-71.png",
      "icon_background_color": "#7B9EB0",
      "icon_mask_base_uri": "https://maps.gstatic.com/mapfiles/place_api/icons/v2/generic_pinlet",
      "name": "Wysong Co Inc",
      "permanently_closed": true,
      "place_id": "ChIJLSFfk3RZwokRDb1ESOdXuG4",
      "plus_code": {
        "compound_code": "P2MC+6J \u7f8e\u570b\u7d10\u7d04",
        "global_code": "87G8P2MC+6J"
      },
      "reference": "ChIJLSFfk3RZwokRDb1ESOdXuG4",
      "scope": "GOOGLE",
      "types": [
        "point_of_interest",
        "establishment"
      ],
      "vicinity": "448 East 20th Street # 7A, New York"
    },
    {
      "business_status": "OPERATIONAL",
      "geometry": {
        "location": {
          "lat": 40.7306593,
          "lng": -73.9775392
        },
        "viewport": {
          "northeast": {
            "lat": 40.7318774802915,
            "lng": -73.97614826970849
          },
          "southwest": {
            "lat": 40.7291795197085,
            "lng": -73.97884623029151
          }
        }
      },
      "icon": "https://maps.gstatic.com/mapfiles/place_api/icons/v1/png_71/generic_business-71.png",
      "icon_background_color": "#7B9EB0",
      "icon_mask_base_uri": "https://maps.gstatic.com/mapfiles/place_api/icons/v2/generic_pinlet",
      "name": "Paul Schneck Photographer",
      "place_id": "ChIJG8fHDXRZwokRTZnxPyw29Jk",
      "plus_code": {
        "compound_code": "P2JC+7X \u7f8e\u570b\u7d10\u7d04",
        "global_code": "87G8P2JC+7X"
      },
      "reference": "ChIJG8fHDXRZwokRTZnxPyw29Jk",
      "scope": "GOOGLE",
      "types": [
        "point_of_interest",
        "establishment"
      ],
      "vicinity": "4 Stuyvesant Oval # 3G, New York"
    },
    {
      "geometry": {
        "location": {
          "lat": 40.7208595,
          "lng": -74.0006686
        },
        "viewport": {
          "northeast": {
            "lat": 40.74252626980653,
            "lng": -73.97164456012949
          },
          "southwest": {
            "lat": 40.7004631483133,
            "lng": -74.01933501070937
          }
        }
      },
      "icon": "https://maps.gstatic.com/mapfiles/place_api/icons/v1/png_71/geocode-71.png",
      "icon_background_color": "#7B9EB0",
      "icon_mask_base_uri": "https://maps.gstatic.com/mapfiles/place_api/icons/v2/generic_pinlet",
      "name": "\u66fc\u54c8\u9813\u4e0b\u57ce",
      "photos": [
        {
          "height": 2250,
          "html_attributions": [
            "<a href=\"https://maps.google.com/maps/contrib/112269732478250326030\">Lorri Smalls</a>"
          ],
          "photo_reference": "AeJbb3cWB-AHHmqjwyNGVHJciiQhF-pNXgOT-uFmHGrp0m-zpV8jU9cLp7oGynFycgjclcYfjHhS6fw_ZAnzEk4CGjvM55PfYYE9FstTvW6Q_QG8nazwPDvN3wcoL7vfyORGjOW_LyODb7NgolY6YXO8mN0KYSbY9c4bmHwFa668wkmj0B2G",
          "width": 4000
        }
      ],
      "place_id": "ChIJi4MZVIhZwokRPNvWbi-c0wI",
      "reference": "ChIJi4MZVIhZwokRPNvWbi-c0wI",
      "scope": "GOOGLE",
      "types": [
        "neighborhood",
        "political"
      ],
      "vicinity": "\u66fc\u54c8\u9813"
    },
    {
      "business_status": "OPERATIONAL",
      "geometry": {
        "location": {
          "lat": 40.7277719,
          "lng": -73.9728317
        },
        "viewport": {
          "northeast": {
            "lat": 40.7292642302915,
            "lng": -73.97137766970849
          },
          "southwest": {
            "lat": 40.7265662697085,
            "lng": -73.9740756302915
          }
        }
      },
      "icon": "https://maps.gstatic.com/mapfiles/place_api/icons/v1/png_71/generic_business-71.png",
      "icon_background_color": "#7B9EB0",
      "icon_mask_base_uri": "https://maps.gstatic.com/mapfiles/place_api/icons/v2/generic_pinlet",
      "name": "Consolidated Edison Inc",
      "opening_hours": {
        "open_now": true
      },
      "photos": [
        {
          "height": 4032,
          "html_attributions": [
            "<a href=\"https://maps.google.com/maps/contrib/104709671504768057870\">Anisul Tony</a>"
          ],
          "photo_reference": "AeJbb3freyuiycyHokO6Qr3q6l8Eu26CD-6s6tjD5WIxe_Cor-6AiYVWSyDguPCv80hoKvbrGG_Jn07eG7LjwiAS2tgZ471X63GVV-p9Kcvankxh4jC39EHoPfLURwWSWl3ktQ0_rI2A54LET2YXP9BEKIuZKWOjO3JSMNv80h6hlaCffQ5q",
          "width": 3024
        }
      ],
      "place_id": "ChIJl3Wl0XNZwokR2f3A8booM6w",
      "plus_code": {
        "compound_code": "P2HG+4V New York, NY, USA",
        "global_code": "87G8P2HG+4V"
      },
      "rating": 3.9,
      "reference": "ChIJl3Wl0XNZwokR2f3A8booM6w",
      "scope": "GOOGLE",
      "types": [
        "point_of_interest",
        "establishment"
      ],
      "user_ratings_total": 24,
      "vicinity": "700 East 16th Street, New York"
    },
    {
      "business_status": "OPERATIONAL",
      "geometry": {
        "location": {
          "lat": 40.73145520000001,
          "lng": -73.9762451
        },
        "viewport": {
          "northeast": {
            "lat": 40.7326809302915,
            "lng": -73.97498996970849
          },
          "southwest": {
            "lat": 40.7299829697085,
            "lng": -73.9776879302915
          }
        }
      },
      "icon": "https://maps.gstatic.com/mapfiles/place_api/icons/v1/png_71/generic_business-71.png",
      "icon_background_color": "#7B9EB0",
      "icon_mask_base_uri": "https://maps.gstatic.com/mapfiles/place_api/icons/v2/generic_pinlet",
      "name": "Rooney Wallace C MD",
      "place_id": "ChIJXxzDmnNZwokR0X_JS2Ip0bo",
      "plus_code": {
        "compound_code": "P2JF+HG New York, NY, USA",
        "global_code": "87G8P2JF+HG"
      },
      "reference": "ChIJXxzDmnNZwokR0X_JS2Ip0bo",
      "scope": "GOOGLE",
      "types": [
        "doctor",
        "health",
        "point_of_interest",
        "establishment"
      ],
      "vicinity": "14 Stuyvesant Oval, New York"
    },
    {
      "business_status": "OPERATIONAL",
      "geometry": {
        "location": {
          "lat": 40.7302876,
          "lng": -73.9735053
        },
        "viewport": {
          "northeast": {
            "lat": 40.73159303029149,
            "lng": -73.97179329999999
          },
          "southwest": {
            "lat": 40.72889506970849,
            "lng": -73.9748609
          }
        }
      },
      "icon": "https://maps.gstatic.com/mapfiles/place_api/icons/v1/png_71/generic_business-71.png",
      "icon_background_color": "#7B9EB0",
      "icon_mask_base_uri": "https://maps.gstatic.com/mapfiles/place_api/icons/v2/generic_pinlet",
      "name": "Murphy Brothers Playground",
      "opening_hours": {
        "open_now": true
      },
      "photos": [
        {
          "height": 9072,
          "html_attributions": [
            "<a href=\"https://maps.google.com/maps/contrib/105399512096979567438\">Sunny Mahajan</a>"
          ],
          "photo_reference": "AeJbb3cIMTtGhz9MtJLWk8LsT_8w2r3OyzRrt52f1iTUi6GHM6QpKEfWatH4nFdaIutSL-dFLtanWyGSozFiyLcdd9SPwkvUZyrW4iodoFxXyagqo6daQOFlFT7wuPvUQuB1CRmmIGZWXj9HI6BhT5r12tOOPJIrUBSqoBpmHW_uBzJ2OwAw",
          "width": 12096
        }
      ],
      "place_id": "ChIJ50ZVaHBZwokRfb-hPG_ZH9E",
      "plus_code": {
        "compound_code": "P2JG+4H New York, NY, USA",
        "global_code": "87G8P2JG+4H"
      },
      "rating": 3.3,
      "reference": "ChIJ50ZVaHBZwokRfb-hPG_ZH9E",
      "scope": "GOOGLE",
      "types": [
        "park",
        "point_of_interest",
        "establishment"
      ],
      "user_ratings_total": 18,
      "vicinity": "Ave C &, FDR Drive, New York"
    },
    {
      "business_status": "OPERATIONAL",
      "geometry": {
        "location": {
          "lat": 40.7332767,
          "lng": -73.9749564
        },
        "viewport": {
          "northeast": {
            "lat": 40.7344993302915,
            "lng": -73.97370291970849
          },
          "southwest": {
            "lat": 40.7318013697085,
            "lng": -73.97640088029151
          }
        }
      },
      "icon": "https://maps.gstatic.com/mapfiles/place_api/icons/v1/png_71/generic_business-71.png",
      "icon_background_color": "#7B9EB0",
      "icon_mask_base_uri": "https://maps.gstatic.com/mapfiles/place_api/icons/v2/generic_pinlet",
      "name": "Friedman Edward E OD",
      "place_id": "ChIJnXxvPHNZwokR5wv7WVAQdpI",
      "plus_code": {
        "compound_code": "P2MG+82 New York, NY, USA",
        "global_code": "87G8P2MG+82"
      },
      "reference": "ChIJnXxvPHNZwokR5wv7WVAQdpI",
      "scope": "GOOGLE",
      "types": [
        "health",
        "point_of_interest",
        "establishment"
      ],
      "vicinity": "601 East 20th Street # 14C, New York"
    },
    {
      "business_status": "OPERATIONAL",
      "geometry": {
        "location": {
          "lat": 40.73121009999999,
          "lng": -73.9750158
        },
        "viewport": {
          "northeast": {
            "lat": 40.73263283029149,
            "lng": -73.97362141970848
          },
          "southwest": {
            "lat": 40.72993486970849,
            "lng": -73.9763193802915
          }
        }
      },
      "icon": "https://maps.gstatic.com/mapfiles/place_api/icons/v1/png_71/generic_business-71.png",
      "icon_background_color": "#7B9EB0",
      "icon_mask_base_uri": "https://maps.gstatic.com/mapfiles/place_api/icons/v2/generic_pinlet",
      "name": "Inspired By Luna",
      "opening_hours": {
        "open_now": false
      },
      "place_id": "ChIJp1ETpXNZwokRh8QkBOC6wMo",
      "plus_code": {
        "compound_code": "P2JF+FX New York, NY, USA",
        "global_code": "87G8P2JF+FX"
      },
      "rating": 4,
      "reference": "ChIJp1ETpXNZwokRh8QkBOC6wMo",
      "scope": "GOOGLE",
      "types": [
        "point_of_interest",
        "establishment"
      ],
      "user_ratings_total": 1,
      "vicinity": "287 Avenue C, New York"
    },
    {
      "business_status": "OPERATIONAL",
      "geometry": {
        "location": {
          "lat": 40.730878,
          "lng": -73.9754257
        },
        "viewport": {
          "northeast": {
            "lat": 40.73230493029149,
            "lng": -73.97426676970849
          },
          "southwest": {
            "lat": 40.7296069697085,
            "lng": -73.97696473029151
          }
        }
      },
      "icon": "https://maps.gstatic.com/mapfiles/place_api/icons/v1/png_71/generic_business-71.png",
      "icon_background_color": "#7B9EB0",
      "icon_mask_base_uri": "https://maps.gstatic.com/mapfiles/place_api/icons/v2/generic_pinlet",
      "name": "Williamson Art & Design",
      "place_id": "ChIJVQMmvHNZwokR5qGKgtr5kYw",
      "plus_code": {
        "compound_code": "P2JF+9R New York, NY, USA",
        "global_code": "87G8P2JF+9R"
      },
      "reference": "ChIJVQMmvHNZwokR5qGKgtr5kYw",
      "scope": "GOOGLE",
      "types": [
        "point_of_interest",
        "establishment"
      ],
      "vicinity": "285 Avenue C, New York"
    },
    {
      "business_status": "OPERATIONAL",
      "geometry": {
        "location": {
          "lat": 40.7313529,
          "lng": -73.9758815
        },
        "viewport": {
          "northeast": {
            "lat": 40.7327072802915,
            "lng": -73.9749592697085
          },
          "southwest": {
            "lat": 40.7300093197085,
            "lng": -73.97765723029151
          }
        }
      },
      "icon": "https://maps.gstatic.com/mapfiles/place_api/icons/v1/png_71/generic_business-71.png",
      "icon_background_color": "#7B9EB0",
      "icon_mask_base_uri": "https://maps.gstatic.com/mapfiles/place_api/icons/v2/generic_pinlet",
      "name": "Neuronic Game Studio",
      "place_id": "ChIJtyKQ-ApZwokRsFhLvhkqoh0",
      "plus_code": {
        "compound_code": "P2JF+GJ New York, NY, USA",
        "global_code": "87G8P2JF+GJ"
      },
      "reference": "ChIJtyKQ-ApZwokRsFhLvhkqoh0",
      "scope": "GOOGLE",
      "types": [
        "point_of_interest",
        "establishment"
      ],
      "vicinity": "16 Stuyvesant Oval #7G, New York"
    },
    {
      "business_status": "OPERATIONAL",
      "geometry": {
        "location": {
          "lat": 40.7320205,
          "lng": -73.97582969999999
        },
        "viewport": {
          "northeast": {
            "lat": 40.7338013302915,
            "lng": -73.9741656197085
          },
          "southwest": {
            "lat": 40.7311033697085,
            "lng": -73.9768635802915
          }
        }
      },
      "icon": "https://maps.gstatic.com/mapfiles/place_api/icons/v1/png_71/generic_business-71.png",
      "icon_background_color": "#7B9EB0",
      "icon_mask_base_uri": "https://maps.gstatic.com/mapfiles/place_api/icons/v2/generic_pinlet",
      "name": "Visage Systems",
      "photos": [
        {
          "height": 270,
          "html_attributions": [
            "<a href=\"https://maps.google.com/maps/contrib/111478578898763192788\">Visage Systems</a>"
          ],
          "photo_reference": "AeJbb3f69T373QCvtmXvIvt7-D9LBo43sPoqyHeZtY4SBgFF9G93XirGLLiVPY9onsrErTMto7UYLvoAYNla5rHI8KpkjeG6CWBVL0TpyC71Bg5BdkCu3mfaXPRd8qgrP78OA744zg3n6RmD749z41gHDKBRl7cmiBwjQGyhO232Co05IU_2",
          "width": 600
        }
      ],
      "place_id": "ChIJ-9b4dHNZwokRRP2xbYn_38s",
      "plus_code": {
        "compound_code": "P2JF+RM New York, NY, USA",
        "global_code": "87G8P2JF+RM"
      },
      "reference": "ChIJ-9b4dHNZwokRRP2xbYn_38s",
      "scope": "GOOGLE",
      "types": [
        "point_of_interest",
        "establishment"
      ],
      "vicinity": "624 East 20th Street, New York"
    },
    {
      "business_status": "CLOSED_TEMPORARILY",
      "geometry": {
        "location": {
          "lat": 40.7320205,
          "lng": -73.97582969999999
        },
        "viewport": {
          "northeast": {
            "lat": 40.7338013302915,
            "lng": -73.9741656197085
          },
          "southwest": {
            "lat": 40.7311033697085,
            "lng": -73.9768635802915
          }
        }
      },
      "icon": "https://maps.gstatic.com/mapfiles/place_api/icons/v1/png_71/generic_business-71.png",
      "icon_background_color": "#7B9EB0",
      "icon_mask_base_uri": "https://maps.gstatic.com/mapfiles/place_api/icons/v2/generic_pinlet",
      "name": "Dash Haus",
      "permanently_closed": true,
      "place_id": "ChIJ-9b4dHNZwokRo1blFbsliwk",
      "plus_code": {
        "compound_code": "P2JF+RM New York, NY, USA",
        "global_code": "87G8P2JF+RM"
      },
      "reference": "ChIJ-9b4dHNZwokRo1blFbsliwk",
      "scope": "GOOGLE",
      "types": [
        "point_of_interest",
        "establishment"
      ],
      "vicinity": "624 East 20th Street, New York"
    },
    {
      "business_status": "OPERATIONAL",
      "geometry": {
        "location": {
          "lat": 40.7332767,
          "lng": -73.9749564
        },
        "viewport": {
          "northeast": {
            "lat": 40.7344993302915,
            "lng": -73.97370291970849
          },
          "southwest": {
            "lat": 40.7318013697085,
            "lng": -73.97640088029151
          }
        }
      },
      "icon": "https://maps.gstatic.com/mapfiles/place_api/icons/v1/png_71/generic_business-71.png",
      "icon_background_color": "#7B9EB0",
      "icon_mask_base_uri": "https://maps.gstatic.com/mapfiles/place_api/icons/v2/generic_pinlet",
      "name": "Laval Photography",
      "photos": [
        {
          "height": 495,
          "html_attributions": [
            "<a href=\"https://maps.google.com/maps/contrib/114317937122970108407\">Laval Photography</a>"
          ],
          "photo_reference": "AeJbb3df7yIQSXSa9KoiOaRZom9Mkm0QTgTI7jr-PHin1e2cUPCjjmEUKUWU0rlFca-TDwfXJ47bywzg171Duzi_9bpkn0BZH-eRHGc1ahR98yDOwaQWm49M5IZD4HXT0TGrPZdW5V4lAwdSBFDL206kRFmXDmJFLJdnrPJy6AvBdVceScew",
          "width": 1033
        }
      ],
      "place_id": "ChIJnXxvPHNZwokRwA81cXN5s-Y",
      "plus_code": {
        "compound_code": "P2MG+82 New York, NY, USA",
        "global_code": "87G8P2MG+82"
      },
      "reference": "ChIJnXxvPHNZwokRwA81cXN5s-Y",
      "scope": "GOOGLE",
      "types": [
        "point_of_interest",
        "establishment"
      ],
      "vicinity": "601 East 20th Street, New York"
    },
    {
      "business_status": "OPERATIONAL",
      "geometry": {
        "location": {
          "lat": 40.7325562,
          "lng": -73.9748925
        },
        "viewport": {
          "northeast": {
            "lat": 40.7339815302915,
            "lng": -73.9734878197085
          },
          "southwest": {
            "lat": 40.7312835697085,
            "lng": -73.9761857802915
          }
        }
      },
      "icon": "https://maps.gstatic.com/mapfiles/place_api/icons/v1/png_71/generic_business-71.png",
      "icon_background_color": "#7B9EB0",
      "icon_mask_base_uri": "https://maps.gstatic.com/mapfiles/place_api/icons/v2/generic_pinlet",
      "name": "Rising Star Enterprises For Well-Being - NYC Personal Training",
      "opening_hours": {
        "open_now": true
      },
      "photos": [
        {
          "height": 412,
          "html_attributions": [
            "<a href=\"https://maps.google.com/maps/contrib/109786156076638269072\">Rising Star Enterprises For Well-Being - NYC Personal Training</a>"
          ],
          "photo_reference": "AeJbb3dhsB98n5EbWccN0bwriU24XLSh1iTKH2E4ac7sDwZMQPsuRVO5I3uGeewtcaopE_Ix0cIDtrstIZZhg-2wmCmp8wI9tzOaDZ9iYzV-Q6rIb3Y0M4jMaOPM3kTN_SnhHYQv1PfqOn8ZH9zw1jLtCWIjcdWVw1rOs6M0ulSSzfcwnRkT",
          "width": 731
        }
      ],
      "place_id": "ChIJmRVzGnNZwokRs49h4SJu65Y",
      "plus_code": {
        "compound_code": "P2MG+22 New York, NY, USA",
        "global_code": "87G8P2MG+22"
      },
      "rating": 5,
      "reference": "ChIJmRVzGnNZwokRs49h4SJu65Y",
      "scope": "GOOGLE",
      "types": [
        "health",
        "point_of_interest",
        "establishment"
      ],
      "user_ratings_total": 3,
      "vicinity": "620 East 20th Street #10f, New York"
    },
    {
      "business_status": "OPERATIONAL",
      "geometry": {
        "location": {
          "lat": 40.731487,
          "lng": -73.976719
        },
        "viewport": {
          "northeast": {
            "lat": 40.7326452302915,
            "lng": -73.9750252197085
          },
          "southwest": {
            "lat": 40.7299472697085,
            "lng": -73.9777231802915
          }
        }
      },
      "icon": "https://maps.gstatic.com/mapfiles/place_api/icons/v1/png_71/school-71.png",
      "icon_background_color": "#7B9EB0",
      "icon_mask_base_uri": "https://maps.gstatic.com/mapfiles/place_api/icons/v2/school_pinlet",
      "name": "William Lombardy",
      "place_id": "ChIJ5YzRhXNZwokRe9pB2UgtteM",
      "plus_code": {
        "compound_code": "P2JF+H8 New York, NY, USA",
        "global_code": "87G8P2JF+H8"
      },
      "reference": "ChIJ5YzRhXNZwokRe9pB2UgtteM",
      "scope": "GOOGLE",
      "types": [
        "school",
        "point_of_interest",
        "establishment"
      ],
      "vicinity": "12 Stuyvesant Oval, New York"
    },
    {
      "business_status": "OPERATIONAL",
      "geometry": {
        "location": {
          "lat": 40.7281379,
          "lng": -73.97382999999999
        },
        "viewport": {
          "northeast": {
            "lat": 40.7293008802915,
            "lng": -73.97262196970848
          },
          "southwest": {
            "lat": 40.7266029197085,
            "lng": -73.9753199302915
          }
        }
      },
      "icon": "https://maps.gstatic.com/mapfiles/place_api/icons/v1/png_71/generic_business-71.png",
      "icon_background_color": "#7B9EB0",
      "icon_mask_base_uri": "https://maps.gstatic.com/mapfiles/place_api/icons/v2/generic_pinlet",
      "name": "Con Edison",
      "photos": [
        {
          "height": 3456,
          "html_attributions": [
            "<a href=\"https://maps.google.com/maps/contrib/112277157820165191857\">Sunny Simantov</a>"
          ],
          "photo_reference": "AeJbb3euSAyA2pXI_QVjSt3RJE2aaZQWpsR5XHH5uU8Cs8xf1PrP4EbCP1Oz67dnX7cEkOQkFgebcLH6pn2gabaChcrYFij1ZKThs-DbqkZvYvobgymFI0ABs3E4_YGFUiGteethR_6O6FpdcvvtkiL6dPDCuFMCKI2W5tZO09N6yaGlAneS",
          "width": 5184
        }
      ],
      "place_id": "ChIJHfbbnnFZwokRqWKoW1ANU8M",
      "plus_code": {
        "compound_code": "P2HG+7F New York, NY, USA",
        "global_code": "87G8P2HG+7F"
      },
      "rating": 3.8,
      "reference": "ChIJHfbbnnFZwokRqWKoW1ANU8M",
      "scope": "GOOGLE",
      "types": [
        "point_of_interest",
        "establishment"
      ],
      "user_ratings_total": 16,
      "vicinity": "801 East 14th Street, New York"
    },
    {
      "business_status": "OPERATIONAL",
      "geometry": {
        "location": {
          "lat": 40.7294228,
          "lng": -73.9769882
        },
        "viewport": {
          "northeast": {
            "lat": 40.7306141802915,
            "lng": -73.97552806970849
          },
          "southwest": {
            "lat": 40.7279162197085,
            "lng": -73.9782260302915
          }
        }
      },
      "icon": "https://maps.gstatic.com/mapfiles/place_api/icons/v1/png_71/generic_business-71.png",
      "icon_background_color": "#7B9EB0",
      "icon_mask_base_uri": "https://maps.gstatic.com/mapfiles/place_api/icons/v2/generic_pinlet",
      "name": "Regina Walker, LCSW",
      "place_id": "ChIJFQiRqXZZwokRya1K4Mnt0as",
      "plus_code": {
        "compound_code": "P2HF+Q6 New York, NY, USA",
        "global_code": "87G8P2HF+Q6"
      },
      "reference": "ChIJFQiRqXZZwokRya1K4Mnt0as",
      "scope": "GOOGLE",
      "types": [
        "health",
        "point_of_interest",
        "establishment"
      ],
      "vicinity": "New York"
    },
    {
      "business_status": "OPERATIONAL",
      "geometry": {
        "location": {
          "lat": 40.729259,
          "lng": -73.976891
        },
        "viewport": {
          "northeast": {
            "lat": 40.7305549302915,
            "lng": -73.97558106970848
          },
          "southwest": {
            "lat": 40.7278569697085,
            "lng": -73.97827903029149
          }
        }
      },
      "icon": "https://maps.gstatic.com/mapfiles/place_api/icons/v1/png_71/generic_business-71.png",
      "icon_background_color": "#7B9EB0",
      "icon_mask_base_uri": "https://maps.gstatic.com/mapfiles/place_api/icons/v2/generic_pinlet",
      "name": "beth dixson photography",
      "place_id": "ChIJlepvVHFZwokRukHj_g4vUWQ",
      "plus_code": {
        "compound_code": "P2HF+P6 New York, NY, USA",
        "global_code": "87G8P2HF+P6"
      },
      "reference": "ChIJlepvVHFZwokRukHj_g4vUWQ",
      "scope": "GOOGLE",
      "types": [
        "point_of_interest",
        "establishment"
      ],
      "vicinity": "625 East 14th Street #4d, New York"
    },
    {
      "business_status": "OPERATIONAL",
      "geometry": {
        "location": {
          "lat": 40.7322279,
          "lng": -73.9765517
        },
        "viewport": {
          "northeast": {
            "lat": 40.7336804302915,
            "lng": -73.9753756197085
          },
          "southwest": {
            "lat": 40.7309824697085,
            "lng": -73.97807358029151
          }
        }
      },
      "icon": "https://maps.gstatic.com/mapfiles/place_api/icons/v1/png_71/generic_business-71.png",
      "icon_background_color": "#7B9EB0",
      "icon_mask_base_uri": "https://maps.gstatic.com/mapfiles/place_api/icons/v2/generic_pinlet",
      "name": "HBM Associates, Inc.",
      "place_id": "ChIJl3-EeXNZwokR1QFzCaAFLwc",
      "plus_code": {
        "compound_code": "P2JF+V9 New York, NY, USA",
        "global_code": "87G8P2JF+V9"
      },
      "reference": "ChIJl3-EeXNZwokR1QFzCaAFLwc",
      "scope": "GOOGLE",
      "types": [
        "point_of_interest",
        "establishment"
      ],
      "vicinity": "20 Stuyvesant Oval, New York"
    },
    {
      "business_status": "OPERATIONAL",
      "geometry": {
        "location": {
          "lat": 40.7284723,
          "lng": -73.97646270000001
        },
        "viewport": {
          "northeast": {
            "lat": 40.7299441802915,
            "lng": -73.9750431697085
          },
          "southwest": {
            "lat": 40.7272462197085,
            "lng": -73.97774113029152
          }
        }
      },
      "icon": "https://maps.gstatic.com/mapfiles/place_api/icons/v1/png_71/generic_business-71.png",
      "icon_background_color": "#7B9EB0",
      "icon_mask_base_uri": "https://maps.gstatic.com/mapfiles/place_api/icons/v2/generic_pinlet",
      "name": "Matin Zad",
      "place_id": "ChIJyZq-SHFZwokRxf57L83InC8",
      "plus_code": {
        "compound_code": "P2HF+9C New York, NY, USA",
        "global_code": "87G8P2HF+9C"
      },
      "reference": "ChIJyZq-SHFZwokRxf57L83InC8",
      "scope": "GOOGLE",
      "types": [
        "point_of_interest",
        "establishment"
      ],
      "vicinity": "638 East 14th Street #9, New York"
    },
    {
      "business_status": "OPERATIONAL",
      "geometry": {
        "location": {
          "lat": 40.72853070000001,
          "lng": -73.976552
        },
        "viewport": {
          "northeast": {
            "lat": 40.7299862802915,
            "lng": -73.9751229697085
          },
          "southwest": {
            "lat": 40.72728831970851,
            "lng": -73.9778209302915
          }
        }
      },
      "icon": "https://maps.gstatic.com/mapfiles/place_api/icons/v1/png_71/generic_business-71.png",
      "icon_background_color": "#7B9EB0",
      "icon_mask_base_uri": "https://maps.gstatic.com/mapfiles/place_api/icons/v2/generic_pinlet",
      "name": "Lineup Security NYC",
      "opening_hours": {
        "open_now": false
      },
      "place_id": "ChIJZekfr3ZZwokRDY4VvHEk-V8",
      "plus_code": {
        "compound_code": "P2HF+C9 New York, NY, USA",
        "global_code": "87G8P2HF+C9"
      },
      "rating": 4,
      "reference": "ChIJZekfr3ZZwokRDY4VvHEk-V8",
      "scope": "GOOGLE",
      "types": [
        "point_of_interest",
        "establishment"
      ],
      "user_ratings_total": 1,
      "vicinity": "636 East 14th Street, New York"
    },
    {
      "business_status": "OPERATIONAL",
      "geometry": {
        "location": {
          "lat": 40.73327700000001,
          "lng": -73.97495599999999
        },
        "viewport": {
          "northeast": {
            "lat": 40.73449943029151,
            "lng": -73.9737026697085
          },
          "southwest": {
            "lat": 40.73180146970851,
            "lng": -73.97640063029151
          }
        }
      },
      "icon": "https://maps.gstatic.com/mapfiles/place_api/icons/v1/png_71/generic_business-71.png",
      "icon_background_color": "#7B9EB0",
      "icon_mask_base_uri": "https://maps.gstatic.com/mapfiles/place_api/icons/v2/generic_pinlet",
      "name": "Travelbook",
      "opening_hours": {
        "open_now": true
      },
      "photos": [
        {
          "height": 720,
          "html_attributions": [
            "<a href=\"https://maps.google.com/maps/contrib/109546360927134326696\">Travelbook</a>"
          ],
          "photo_reference": "AeJbb3ccXeDRj87vlupDqdFBdO1nitlqHqQ5tKY44Bd7RLOtCyROr0Mc8_b8MzMAWiBK5BMVxKpsSFM6K4vjzY7byPM16TniA6tzcuLsZ2t5r9-CzuZ3Rm8x5sZsOekluiv9KsjKpra1QEPTbnmLLdOtC_yjX2UTVA_kvznlxbNSG6LFmFRj",
          "width": 1280
        }
      ],
      "place_id": "ChIJn0u0mQ25uIkRVfuN_e0gPWw",
      "plus_code": {
        "compound_code": "P2MG+82 New York, NY, USA",
        "global_code": "87G8P2MG+82"
      },
      "reference": "ChIJn0u0mQ25uIkRVfuN_e0gPWw",
      "scope": "GOOGLE",
      "types": [
        "travel_agency",
        "point_of_interest",
        "establishment"
      ],
      "vicinity": "601 East 20th Street, New York"
    },
    {
      "business_status": "OPERATIONAL",
      "geometry": {
        "location": {
          "lat": 40.7305319,
          "lng": -73.9782738
        },
        "viewport": {
          "northeast": {
            "lat": 40.73162713029149,
            "lng": -73.97733811970849
          },
          "southwest": {
            "lat": 40.72892916970849,
            "lng": -73.98003608029151
          }
        }
      },
      "icon": "https://maps.gstatic.com/mapfiles/place_api/icons/v1/png_71/school-71.png",
      "icon_background_color": "#7B9EB0",
      "icon_mask_base_uri": "https://maps.gstatic.com/mapfiles/place_api/icons/v2/school_pinlet",
      "name": "Get Storied",
      "place_id": "ChIJW_pXEXRZwokRsACTIkBpeLU",
      "plus_code": {
        "compound_code": "P2JC+6M New York, NY, USA",
        "global_code": "87G8P2JC+6M"
      },
      "reference": "ChIJW_pXEXRZwokRsACTIkBpeLU",
      "scope": "GOOGLE",
      "types": [
        "point_of_interest",
        "establishment"
      ],
      "vicinity": "525 East 14th Street, New York"
    },
    {
      "business_status": "OPERATIONAL",
      "geometry": {
        "location": {
          "lat": 40.733584,
          "lng": -73.9771791
        },
        "viewport": {
          "northeast": {
            "lat": 40.7349855802915,
            "lng": -73.97579066970849
          },
          "southwest": {
            "lat": 40.7322876197085,
            "lng": -73.97848863029151
          }
        }
      },
      "icon": "https://maps.gstatic.com/mapfiles/place_api/icons/v1/png_71/generic_business-71.png",
      "icon_background_color": "#7B9EB0",
      "icon_mask_base_uri": "https://maps.gstatic.com/mapfiles/place_api/icons/v2/generic_pinlet",
      "name": "John C. Keery, MS",
      "place_id": "ChIJF9y4oHRZwokRdYCD63tobXA",
      "plus_code": {
        "compound_code": "P2MF+C4 New York, NY, USA",
        "global_code": "87G8P2MF+C4"
      },
      "reference": "ChIJF9y4oHRZwokRdYCD63tobXA",
      "scope": "GOOGLE",
      "types": [
        "point_of_interest",
        "establishment"
      ],
      "vicinity": "520 East 20th Street, New York"
    },
    {
      "business_status": "OPERATIONAL",
      "geometry": {
        "location": {
          "lat": 40.7294879,
          "lng": -73.97797059999999
        },
        "viewport": {
          "northeast": {
            "lat": 40.73086208029149,
            "lng": -73.9766034197085
          },
          "southwest": {
            "lat": 40.7281641197085,
            "lng": -73.9793013802915
          }
        }
      },
      "icon": "https://maps.gstatic.com/mapfiles/place_api/icons/v1/png_71/generic_business-71.png",
      "icon_background_color": "#7B9EB0",
      "icon_mask_base_uri": "https://maps.gstatic.com/mapfiles/place_api/icons/v2/generic_pinlet",
      "name": "Kelly Sheehan Photography",
      "place_id": "ChIJyftmpnZZwokRmsqtk3RpZPU",
      "plus_code": {
        "compound_code": "P2HC+QR New York, NY, USA",
        "global_code": "87G8P2HC+QR"
      },
      "reference": "ChIJyftmpnZZwokRmsqtk3RpZPU",
      "scope": "GOOGLE",
      "types": [
        "point_of_interest",
        "establishment"
      ],
      "vicinity": "East 14th Street, New York"
    },
    {
      "business_status": "CLOSED_TEMPORARILY",
      "geometry": {
        "location": {
          "lat": 40.7305227,
          "lng": -73.9782747
        },
        "viewport": {
          "northeast": {
            "lat": 40.73206418029149,
            "lng": -73.97718951970849
          },
          "southwest": {
            "lat": 40.7293662197085,
            "lng": -73.97988748029151
          }
        }
      },
      "icon": "https://maps.gstatic.com/mapfiles/place_api/icons/v1/png_71/generic_business-71.png",
      "icon_background_color": "#7B9EB0",
      "icon_mask_base_uri": "https://maps.gstatic.com/mapfiles/place_api/icons/v2/generic_pinlet",
      "name": "H V Consulting",
      "permanently_closed": true,
      "place_id": "ChIJW_pXEXRZwokRcq5UmU6SbPc",
      "plus_code": {
        "compound_code": "P2JC+6M New York, NY, USA",
        "global_code": "87G8P2JC+6M"
      },
      "reference": "ChIJW_pXEXRZwokRcq5UmU6SbPc",
      "scope": "GOOGLE",
      "types": [
        "point_of_interest",
        "establishment"
      ],
      "vicinity": "525 East 14th Street # 9f, New York"
    },
    {
      "business_status": "OPERATIONAL",
      "geometry": {
        "location": {
          "lat": 40.731996,
          "lng": -73.9776875
        },
        "viewport": {
          "northeast": {
            "lat": 40.7336313302915,
            "lng": -73.9761163697085
          },
          "southwest": {
            "lat": 40.7309333697085,
            "lng": -73.97881433029151
          }
        }
      },
      "icon": "https://maps.gstatic.com/mapfiles/place_api/icons/v1/png_71/generic_business-71.png",
      "icon_background_color": "#13B5C7",
      "icon_mask_base_uri": "https://maps.gstatic.com/mapfiles/place_api/icons/v2/generic_pinlet",
      "name": "Stuyvesant Town Fountain",
      "opening_hours": {
        "open_now": true
      },
      "photos": [
        {
          "height": 3024,
          "html_attributions": [
            "<a href=\"https://maps.google.com/maps/contrib/118351254511376142683\">Bob Barzyk</a>"
          ],
          "photo_reference": "AeJbb3exNfUt-vuIDLKtnPUL7pIBfO7BO2-iBX-HDx3Q5fUQgYpIcpQtjbmAHNyQymcD5pDwcgSfpLfyMqNYJFhSHPnWZbXxQZbELPiMa-sfGrBisXCBZOHfa2cfmB5IO6ERXPW-qct_PgTocraiYomYjzVOzYxyacEfeq8mqFMwLsYkVLFj",
          "width": 4032
        }
      ],
      "place_id": "ChIJCWMIfXRZwokRaDwHV18wpd0",
      "plus_code": {
        "compound_code": "P2JC+QW New York, NY, USA",
        "global_code": "87G8P2JC+QW"
      },
      "rating": 4.6,
      "reference": "ChIJCWMIfXRZwokRaDwHV18wpd0",
      "scope": "GOOGLE",
      "types": [
        "point_of_interest",
        "establishment"
      ],
      "user_ratings_total": 286,
      "vicinity": "66 Stuyvesant Oval, New York"
    },
    {
      "business_status": "OPERATIONAL",
      "geometry": {
        "location": {
          "lat": 40.7291,
          "lng": -73.9778784
        },
        "viewport": {
          "northeast": {
            "lat": 40.7305524802915,
            "lng": -73.9764521197085
          },
          "southwest": {
            "lat": 40.7278545197085,
            "lng": -73.9791500802915
          }
        }
      },
      "icon": "https://maps.gstatic.com/mapfiles/place_api/icons/v1/png_71/generic_business-71.png",
      "icon_background_color": "#7B9EB0",
      "icon_mask_base_uri": "https://maps.gstatic.com/mapfiles/place_api/icons/v2/generic_pinlet",
      "name": "Students for a Free Tibet",
      "opening_hours": {
        "open_now": false
      },
      "place_id": "ChIJD754r3ZZwokRG0frmMRp90g",
      "plus_code": {
        "compound_code": "P2HC+JR New York, NY, USA",
        "global_code": "87G8P2HC+JR"
      },
      "rating": 3.6,
      "reference": "ChIJD754r3ZZwokRG0frmMRp90g",
      "scope": "GOOGLE",
      "types": [
        "point_of_interest",
        "establishment"
      ],
      "user_ratings_total": 8,
      "vicinity": "602 East 14th Street 2nd floor, New York"
    },
    {
      "business_status": "CLOSED_TEMPORARILY",
      "geometry": {
        "location": {
          "lat": 40.729087,
          "lng": -73.97786099999999
        },
        "viewport": {
          "northeast": {
            "lat": 40.7305415802915,
            "lng": -73.97643316970849
          },
          "southwest": {
            "lat": 40.7278436197085,
            "lng": -73.9791311302915
          }
        }
      },
      "icon": "https://maps.gstatic.com/mapfiles/place_api/icons/v1/png_71/shopping-71.png",
      "icon_background_color": "#4B96F3",
      "icon_mask_base_uri": "https://maps.gstatic.com/mapfiles/place_api/icons/v2/shopping_pinlet",
      "name": "Sonatic Music",
      "permanently_closed": true,
      "place_id": "ChIJIQpYpXZZwokRoPMHoPc4jwc",
      "plus_code": {
        "compound_code": "P2HC+JV New York, NY, USA",
        "global_code": "87G8P2HC+JV"
      },
      "reference": "ChIJIQpYpXZZwokRoPMHoPc4jwc",
      "scope": "GOOGLE",
      "types": [
        "electronics_store",
        "home_goods_store",
        "store",
        "point_of_interest",
        "establishment"
      ],
      "vicinity": "602 East 14th Street #4, New York"
    },
    {
      "business_status": "OPERATIONAL",
      "geometry": {
        "location": {
          "lat": 40.73140859999999,
          "lng": -73.97817420000001
        },
        "viewport": {
          "northeast": {
            "lat": 40.73252838029149,
            "lng": -73.9769841697085
          },
          "southwest": {
            "lat": 40.72983041970849,
            "lng": -73.97968213029152
          }
        }
      },
      "icon": "https://maps.gstatic.com/mapfiles/place_api/icons/v1/png_71/shopping-71.png",
      "icon_background_color": "#4B96F3",
      "icon_mask_base_uri": "https://maps.gstatic.com/mapfiles/place_api/icons/v2/shopping_pinlet",
      "name": "Stuyvesant Town Greenmarket",
      "opening_hours": {
        "open_now": false
      },
      "photos": [
        {
          "height": 3000,
          "html_attributions": [
            "<a href=\"https://maps.google.com/maps/contrib/104318228787107812781\">Stuyvesant Town Greenmarket</a>"
          ],
          "photo_reference": "AeJbb3eTqDxsc3SeSl0_4tMi7Jy8LyoGDkF7kRi47J7Gyjl7SRaP8RA1ITiWaiBORUhNUYxFGEMvxaCwQHOrl_Sk6wFWXPwIXMtdrFXpiH8UJJDuA6M1lpnBeuanH9NDxPHQlP27rdt-1XMnxn0BaUvafRrsWygHbxMXhg-aweYQ69IXv4SJ",
          "width": 4000
        }
      ],
      "place_id": "ChIJwRTq03VZwokRg560FXS_444",
      "plus_code": {
        "compound_code": "P2JC+HP New York, NY, USA",
        "global_code": "87G8P2JC+HP"
      },
      "rating": 4.6,
      "reference": "ChIJwRTq03VZwokRg560FXS_444",
      "scope": "GOOGLE",
      "types": [
        "point_of_interest",
        "establishment"
      ],
      "user_ratings_total": 58,
      "vicinity": "Avenue A &, 14th Street Loop, New York"
    },
    {
      "business_status": "OPERATIONAL",
      "geometry": {
        "location": {
          "lat": 40.7291,
          "lng": -73.9778784
        },
        "viewport": {
          "northeast": {
            "lat": 40.7305524802915,
            "lng": -73.9764521197085
          },
          "southwest": {
            "lat": 40.7278545197085,
            "lng": -73.9791500802915
          }
        }
      },
      "icon": "https://maps.gstatic.com/mapfiles/place_api/icons/v1/png_71/shopping-71.png",
      "icon_background_color": "#4B96F3",
      "icon_mask_base_uri": "https://maps.gstatic.com/mapfiles/place_api/icons/v2/shopping_pinlet",
      "name": "The Sound Design Mastering Studio : NYC Mastering Engineer Tim Boyce",
      "opening_hours": {
        "open_now": true
      },
      "photos": [
        {
          "height": 1160,
          "html_attributions": [
            "<a href=\"https://maps.google.com/maps/contrib/101698602163112297314\">The Sound Design Mastering Studio : NYC Mastering Engineer Tim Boyce</a>"
          ],
          "photo_reference": "AeJbb3f28M8cV55gl6ufF5de1-r-_XXg722eHSrWQI1phC9bMlTBvQBxF5So1tpjCwuBcBGo4qiVie9HaVADN-KoD29xN4PZThiLGhllF8ZnLVauf6CzHgxOYXNbYWiqGlRZJu86O8dB3DTZNVJrnJzqvMoLjz9pu4iCuKlAIuHp7p1keQdL",
          "width": 1632
        }
      ],
      "place_id": "ChIJ82pZpXZZwokRXO3nY7irKYY",
      "plus_code": {
        "compound_code": "P2HC+JR New York, NY, USA",
        "global_code": "87G8P2HC+JR"
      },
      "rating": 5,
      "reference": "ChIJ82pZpXZZwokRXO3nY7irKYY",
      "scope": "GOOGLE",
      "types": [
        "electronics_store",
        "home_goods_store",
        "store",
        "point_of_interest",
        "establishment"
      ],
      "user_ratings_total": 16,
      "vicinity": "602 East 14th Street #3399, New York"
    },
    {
      "business_status": "OPERATIONAL",
      "geometry": {
        "location": {
          "lat": 40.7290966,
          "lng": -73.9780516
        },
        "viewport": {
          "northeast": {
            "lat": 40.7304810802915,
            "lng": -73.97678636970849
          },
          "southwest": {
            "lat": 40.7277831197085,
            "lng": -73.97948433029151
          }
        }
      },
      "icon": "https://maps.gstatic.com/mapfiles/place_api/icons/v1/png_71/generic_business-71.png",
      "icon_background_color": "#7B9EB0",
      "icon_mask_base_uri": "https://maps.gstatic.com/mapfiles/place_api/icons/v2/generic_pinlet",
      "name": "MoneyGram",
      "opening_hours": {
        "open_now": true
      },
      "place_id": "ChIJ00PWpHZZwokRpaIPTHjR86s",
      "plus_code": {
        "compound_code": "P2HC+JQ New York, NY, USA",
        "global_code": "87G8P2HC+JQ"
      },
      "rating": 1,
      "reference": "ChIJ00PWpHZZwokRpaIPTHjR86s",
      "scope": "GOOGLE",
      "types": [
        "point_of_interest",
        "finance",
        "establishment"
      ],
      "user_ratings_total": 1,
      "vicinity": "227 Avenue B, New York"
    },
    {
      "business_status": "OPERATIONAL",
      "geometry": {
        "location": {
          "lat": 40.7333269,
          "lng": -73.9766544
        },
        "viewport": {
          "northeast": {
            "lat": 40.7347482302915,
            "lng": -73.9752756197085
          },
          "southwest": {
            "lat": 40.7320502697085,
            "lng": -73.9779735802915
          }
        }
      },
      "icon": "https://maps.gstatic.com/mapfiles/place_api/icons/v1/png_71/parking-71.png",
      "icon_background_color": "#7B9EB0",
      "icon_mask_base_uri": "https://maps.gstatic.com/mapfiles/place_api/icons/v2/parking_pinlet",
      "name": "LAZ Parking Stuytown Garage 2",
      "opening_hours": {
        "open_now": true
      },
      "place_id": "ChIJm3ByW3NZwokR5xTGfoAwCvA",
      "plus_code": {
        "compound_code": "P2MF+88 New York, NY, USA",
        "global_code": "87G8P2MF+88"
      },
      "rating": 3.1,
      "reference": "ChIJm3ByW3NZwokR5xTGfoAwCvA",
      "scope": "GOOGLE",
      "types": [
        "parking",
        "point_of_interest",
        "establishment"
      ],
      "user_ratings_total": 11,
      "vicinity": "528 East 20th Street, New York"
    },
    {
      "business_status": "OPERATIONAL",
      "geometry": {
        "location": {
          "lat": 40.7313529,
          "lng": -73.9758815
        },
        "viewport": {
          "northeast": {
            "lat": 40.7327072802915,
            "lng": -73.9749592697085
          },
          "southwest": {
            "lat": 40.7300093197085,
            "lng": -73.97765723029151
          }
        }
      },
      "icon": "https://maps.gstatic.com/mapfiles/place_api/icons/v1/png_71/generic_business-71.png",
      "icon_background_color": "#7B9EB0",
      "icon_mask_base_uri": "https://maps.gstatic.com/mapfiles/place_api/icons/v2/generic_pinlet",
      "name": "D Media Inc",
      "place_id": "ChIJG2WymHNZwokRKRRZj3Y7ffg",
      "plus_code": {
        "compound_code": "P2JF+GJ New York, NY, USA",
        "global_code": "87G8P2JF+GJ"
      },
      "reference": "ChIJG2WymHNZwokRKRRZj3Y7ffg",
      "scope": "GOOGLE",
      "types": [
        "point_of_interest",
        "establishment"
      ],
      "vicinity": "16 Stuyvesant Oval, New York"
    },
    {
      "business_status": "OPERATIONAL",
      "geometry": {
        "location": {
          "lat": 40.7288952,
          "lng": -73.9782094
        },
        "viewport": {
          "northeast": {
            "lat": 40.73027818029149,
            "lng": -73.97694066970848
          },
          "southwest": {
            "lat": 40.7275802197085,
            "lng": -73.9796386302915
          }
        }
      },
      "icon": "https://maps.gstatic.com/mapfiles/place_api/icons/v1/png_71/generic_business-71.png",
      "icon_background_color": "#13B5C7",
      "icon_mask_base_uri": "https://maps.gstatic.com/mapfiles/place_api/icons/v2/generic_pinlet",
      "name": "Voice Theatre, NYC & Woodstock, NY",
      "opening_hours": {
        "open_now": true
      },
      "photos": [
        {
          "height": 400,
          "html_attributions": [
            "<a href=\"https://maps.google.com/maps/contrib/106201896750453896761\">Voice Theatre, NYC &amp; Woodstock, NY</a>"
          ],
          "photo_reference": "AeJbb3cKu42GItOBqldQffJ02DybGISFZrtbGKogZtTm0-0bk06FR2sxzurrzpLQGMthopaCGezYdxOjzFr1GxW6N_ckWUJ6PLgDelV5iel6XXI9uA85a41Gahdd3M20o1tlCxABe29_hNwu1h-BY2KMil8hI6_HRHXUk5JHoRjJTLo5TNv5",
          "width": 600
        }
      ],
      "place_id": "ChIJw-GPvHZZwokRmdrYEJqca60",
      "plus_code": {
        "compound_code": "P2HC+HP New York, NY, USA",
        "global_code": "87G8P2HC+HP"
      },
      "rating": 5,
      "reference": "ChIJw-GPvHZZwokRmdrYEJqca60",
      "scope": "GOOGLE",
      "types": [
        "point_of_interest",
        "establishment"
      ],
      "user_ratings_total": 20,
      "vicinity": "219 Avenue B #3B, New York"
    },
    {
      "business_status": "OPERATIONAL",
      "geometry": {
        "location": {
          "lat": 40.7293706,
          "lng": -73.9783886
        },
        "viewport": {
          "northeast": {
            "lat": 40.73080283029149,
            "lng": -73.97697931970849
          },
          "southwest": {
            "lat": 40.7281048697085,
            "lng": -73.97967728029151
          }
        }
      },
      "icon": "https://maps.gstatic.com/mapfiles/place_api/icons/v1/png_71/atm-71.png",
      "icon_background_color": "#909CE1",
      "icon_mask_base_uri": "https://maps.gstatic.com/mapfiles/place_api/icons/v2/atm_pinlet",
      "name": "ATM",
      "place_id": "ChIJde2DC3pZwokRvIVKHGzfkDQ",
      "plus_code": {
        "compound_code": "P2HC+PJ New York, NY, USA",
        "global_code": "87G8P2HC+PJ"
      },
      "rating": 4,
      "reference": "ChIJde2DC3pZwokRvIVKHGzfkDQ",
      "scope": "GOOGLE",
      "types": [
        "atm",
        "point_of_interest",
        "finance",
        "establishment"
      ],
      "user_ratings_total": 1,
      "vicinity": "542 East 14th Street, New York"
    },
    {
      "business_status": "CLOSED_TEMPORARILY",
      "geometry": {
        "location": {
          "lat": 40.72907480000001,
          "lng": -73.97848040000001
        },
        "viewport": {
          "northeast": {
            "lat": 40.7303926302915,
            "lng": -73.9770579197085
          },
          "southwest": {
            "lat": 40.7276946697085,
            "lng": -73.9797558802915
          }
        }
      },
      "icon": "https://maps.gstatic.com/mapfiles/place_api/icons/v1/png_71/generic_business-71.png",
      "icon_background_color": "#7B9EB0",
      "icon_mask_base_uri": "https://maps.gstatic.com/mapfiles/place_api/icons/v2/generic_pinlet",
      "name": "Maids of Manhattan",
      "permanently_closed": true,
      "place_id": "ChIJgxIrvXZZwokRlZmEeSoMu0U",
      "plus_code": {
        "compound_code": "P2HC+JJ New York, NY, USA",
        "global_code": "87G8P2HC+JJ"
      },
      "rating": 5,
      "reference": "ChIJgxIrvXZZwokRlZmEeSoMu0U",
      "scope": "GOOGLE",
      "types": [
        "point_of_interest",
        "establishment"
      ],
      "user_ratings_total": 1,
      "vicinity": "222 Avenue B, New York"
    },
    {
      "business_status": "OPERATIONAL",
      "geometry": {
        "location": {
          "lat": 40.72934779999999,
          "lng": -73.9783992
        },
        "viewport": {
          "northeast": {
            "lat": 40.7307904802915,
            "lng": -73.9769823697085
          },
          "southwest": {
            "lat": 40.7280925197085,
            "lng": -73.9796803302915
          }
        }
      },
      "icon": "https://maps.gstatic.com/mapfiles/place_api/icons/v1/png_71/generic_business-71.png",
      "icon_background_color": "#7B9EB0",
      "icon_mask_base_uri": "https://maps.gstatic.com/mapfiles/place_api/icons/v2/generic_pinlet",
      "name": "New York City Photographer Carolyn Schaefer",
      "opening_hours": {
        "open_now": true
      },
      "place_id": "ChIJz6G1o3ZZwokR0scwAiBJiPo",
      "plus_code": {
        "compound_code": "P2HC+PJ New York, NY, USA",
        "global_code": "87G8P2HC+PJ"
      },
      "reference": "ChIJz6G1o3ZZwokR0scwAiBJiPo",
      "scope": "GOOGLE",
      "types": [
        "point_of_interest",
        "establishment"
      ],
      "vicinity": "542 East 14th Street, New York"
    },
    {
      "business_status": "OPERATIONAL",
      "geometry": {
        "location": {
          "lat": 40.72778659999999,
          "lng": -73.9785484
        },
        "viewport": {
          "northeast": {
            "lat": 40.7291857302915,
            "lng": -73.97716306970848
          },
          "southwest": {
            "lat": 40.7264877697085,
            "lng": -73.97986103029149
          }
        }
      },
      "icon": "https://maps.gstatic.com/mapfiles/place_api/icons/v1/png_71/school-71.png",
      "icon_background_color": "#7B9EB0",
      "icon_mask_base_uri": "https://maps.gstatic.com/mapfiles/place_api/icons/v2/school_pinlet",
      "name": "M361 The Children's Workshop School",
      "photos": [
        {
          "height": 1932,
          "html_attributions": [
            "<a href=\"https://maps.google.com/maps/contrib/105216147207111590770\">Willnel G\u00f3mez</a>"
          ],
          "photo_reference": "AeJbb3cMtEopYcJLXtYAIM3V5DjIOew56wYLkC62vzKTC96vsxGomcaaTQ8mkwrT6hqaIOcWerusUKg1ku2V84J8xgpMJW4LDVOLkULOt8jYotdFs05gVP0O2RnE-67kwyvwicK7bn1C-s-UCvD4K7SalpVEfLg5BVXQVckaJNGF6esZvTbv",
          "width": 2576
        }
      ],
      "place_id": "ChIJW3xW2nZZwokRKQTaZUewVKE",
      "plus_code": {
        "compound_code": "P2HC+4H New York, NY, USA",
        "global_code": "87G8P2HC+4H"
      },
      "rating": 4.2,
      "reference": "ChIJW3xW2nZZwokRKQTaZUewVKE",
      "scope": "GOOGLE",
      "types": [
        "primary_school",
        "school",
        "point_of_interest",
        "establishment"
      ],
      "user_ratings_total": 10,
      "vicinity": "610 East 12th Street, New York"
    },
    {
      "business_status": "OPERATIONAL",
      "geometry": {
        "location": {
          "lat": 40.72941549999999,
          "lng": -73.97849409999999
        },
        "viewport": {
          "northeast": {
            "lat": 40.7308470802915,
            "lng": -73.97708261970848
          },
          "southwest": {
            "lat": 40.7281491197085,
            "lng": -73.97978058029149
          }
        }
      },
      "icon": "https://maps.gstatic.com/mapfiles/place_api/icons/v1/png_71/cafe-71.png",
      "icon_background_color": "#FF9E67",
      "icon_mask_base_uri": "https://maps.gstatic.com/mapfiles/place_api/icons/v2/cafe_pinlet",
      "name": "Dunkin'",
      "opening_hours": {
        "open_now": true
      },
      "photos": [
        {
          "height": 3024,
          "html_attributions": [
            "<a href=\"https://maps.google.com/maps/contrib/117808460219123378764\">Ruwan J.</a>"
          ],
          "photo_reference": "AeJbb3cn2I6EqJS1YiQfbwRR9bvdwuTGqKOTJvkU0Qbztw1ZFruRa9I6QEsDKBNCIfOaSme2elSDEowxKfRjdvEU3AbPo3exsm6rlRvcW5IYaCrlWKsRECCookCxvdg-agE96sXHQ_FIuils8i62nibFy3VxJRN_wxFLFXEK8odomlnRbTtl",
          "width": 4032
        }
      ],
      "place_id": "ChIJqZXso3ZZwokRIfI5ZLivPQU",
      "plus_code": {
        "compound_code": "P2HC+QJ New York, NY, USA",
        "global_code": "87G8P2HC+QJ"
      },
      "price_level": 1,
      "rating": 3.7,
      "reference": "ChIJqZXso3ZZwokRIfI5ZLivPQU",
      "scope": "GOOGLE",
      "types": [
        "cafe",
        "meal_takeaway",
        "bakery",
        "restaurant",
        "food",
        "store",
        "point_of_interest",
        "establishment"
      ],
      "user_ratings_total": 121,
      "vicinity": "542 East 14th Street, New York"
    },
    {
      "business_status": "OPERATIONAL",
      "geometry": {
        "location": {
          "lat": 40.72941120000001,
          "lng": -73.97851969999999
        },
        "viewport": {
          "northeast": {
            "lat": 40.7308449302915,
            "lng": -73.97709541970848
          },
          "southwest": {
            "lat": 40.7281469697085,
            "lng": -73.9797933802915
          }
        }
      },
      "icon": "https://maps.gstatic.com/mapfiles/place_api/icons/v1/png_71/restaurant-71.png",
      "icon_background_color": "#FF9E67",
      "icon_mask_base_uri": "https://maps.gstatic.com/mapfiles/place_api/icons/v2/restaurant_pinlet",
      "name": "Baskin-Robbins",
      "opening_hours": {
        "open_now": true
      },
      "photos": [
        {
          "height": 1920,
          "html_attributions": [
            "<a href=\"https://maps.google.com/maps/contrib/102239956371770806694\">Al Benninghoff</a>"
          ],
          "photo_reference": "AeJbb3cyBpcSOvR3b0t5Abh82iXkP8d2uTPXaGhlad4aOq3oOn3qmGEHLC3phQdA4uXp4sCWl29hKiRWRC63kqU73xW8uVnI2G-7hnosnSIHlcVlKjTJ_DmEzSM5f_Oenq-JSJiHeaFcXj-ofUAiSDCbu_Pt5fVpEuRuYhCeSXwgt2-4bBH1",
          "width": 1080
        }
      ],
      "place_id": "ChIJqZXso3ZZwokRn72Oc-s_Cuo",
      "plus_code": {
        "compound_code": "P2HC+QH New York, NY, USA",
        "global_code": "87G8P2HC+QH"
      },
      "price_level": 1,
      "rating": 4,
      "reference": "ChIJqZXso3ZZwokRn72Oc-s_Cuo",
      "scope": "GOOGLE",
      "types": [
        "bakery",
        "food",
        "store",
        "point_of_interest",
        "establishment"
      ],
      "user_ratings_total": 7,
      "vicinity": "542 East 14th Street, New York"
    },
    {
      "business_status": "OPERATIONAL",
      "geometry": {
        "location": {
          "lat": 40.729192,
          "lng": -73.97852100000001
        },
        "viewport": {
          "northeast": {
            "lat": 40.73048933029149,
            "lng": -73.97705011970851
          },
          "southwest": {
            "lat": 40.72779136970849,
            "lng": -73.97974808029151
          }
        }
      },
      "icon": "https://maps.gstatic.com/mapfiles/place_api/icons/v1/png_71/generic_business-71.png",
      "icon_background_color": "#7B9EB0",
      "icon_mask_base_uri": "https://maps.gstatic.com/mapfiles/place_api/icons/v2/generic_pinlet",
      "name": "Sea Beauty Spa",
      "opening_hours": {
        "open_now": true
      },
      "photos": [
        {
          "height": 4000,
          "html_attributions": [
            "<a href=\"https://maps.google.com/maps/contrib/103992732519049111744\">Mark Mayo</a>"
          ],
          "photo_reference": "AeJbb3emTaaKfG5m-r4KQTO4St96mXY6WXaljaRp7ObojaVt1ruG1zBbJ9lw7nee4mYM662Gp3TbJap1wEx9HYaX0gwzIAnocg5zzWPAEiwR4cKpIn1oTubHEtjPcCZYWbbQZ159q7cHZa0ZHMoY6mwyl2Ww9NVD4tq8Epm4EeF-w3LJIy-u",
          "width": 3000
        }
      ],
      "place_id": "ChIJQ0C5onZZwokRavro5l-mgug",
      "plus_code": {
        "compound_code": "P2HC+MH New York, NY, USA",
        "global_code": "87G8P2HC+MH"
      },
      "rating": 2.7,
      "reference": "ChIJQ0C5onZZwokRavro5l-mgug",
      "scope": "GOOGLE",
      "types": [
        "spa",
        "beauty_salon",
        "point_of_interest",
        "establishment"
      ],
      "user_ratings_total": 7,
      "vicinity": "224 Avenue B, New York"
    },
    {
      "business_status": "OPERATIONAL",
      "geometry": {
        "location": {
          "lat": 40.72907480000001,
          "lng": -73.97848040000001
        },
        "viewport": {
          "northeast": {
            "lat": 40.7303926302915,
            "lng": -73.9770579197085
          },
          "southwest": {
            "lat": 40.7276946697085,
            "lng": -73.9797558802915
          }
        }
      },
      "icon": "https://maps.gstatic.com/mapfiles/place_api/icons/v1/png_71/cafe-71.png",
      "icon_background_color": "#FF9E67",
      "icon_mask_base_uri": "https://maps.gstatic.com/mapfiles/place_api/icons/v2/cafe_pinlet",
      "name": "The Roost",
      "opening_hours": {
        "open_now": true
      },
      "photos": [
        {
          "height": 3550,
          "html_attributions": [
            "<a href=\"https://maps.google.com/maps/contrib/109566968335592568092\">The Roost</a>"
          ],
          "photo_reference": "AeJbb3fbK2qvMF_Lc5ZwCjAQ4EfT9MvboeppNVgWIhKSe6nCHvoS0lZRyfviRMos46QemXIksnENjbkOi-Y0CrmIdw02p38h2XKaqPdzXHzCAb-FvPfUTQsW76fcX5EDfiulEL2zx1Hve2THsyjIkJRtaA0DryCe0wL036EebyjJr8AZT92c",
          "width": 5570
        }
      ],
      "place_id": "ChIJTdohvXZZwokRgV1ghRTIvos",
      "plus_code": {
        "compound_code": "P2HC+JJ New York, NY, USA",
        "global_code": "87G8P2HC+JJ"
      },
      "price_level": 2,
      "rating": 4.3,
      "reference": "ChIJTdohvXZZwokRgV1ghRTIvos",
      "scope": "GOOGLE",
      "types": [
        "cafe",
        "bar",
        "restaurant",
        "food",
        "store",
        "point_of_interest",
        "establishment"
      ],
      "user_ratings_total": 342,
      "vicinity": "222 Avenue B, New York"
    }
  ],
  "status": "OK"
}