{
  "html_attributions": [],
  "results": [
    {
      "geometry": {
        "location": {
          "lat": 40.7127753,
          "lng": -74.0059728
        },
        "viewport": {
          "northeast": {
            "lat": 40.91757705070789,
            "lng": -73.70027206817629
          },
          "southwest": {
            "lat": 40.47739906045452,
            "lng": -74.25908991427882
          }
        }
      },
      "icon": "https://maps.gstatic.com/mapfiles/place_api/icons/v1/png_71/geocode-71.png",
      "icon_background_color": "#7B9EB0",
      "icon_mask_base_uri": "https://maps.gstatic.com/mapfiles/place_api/icons/v2/generic_pinlet",
      "name": "\u7d10\u7d04",
      "photos": [
        {
          "height": 600,
          "html_attributions": [
            "<a href=\"https://maps.google.com/maps/contrib/102389334567210814614\">Bukurie</a>"
          ],
          "photo_reference": "AeJbb3c05I1sMzFYs-nfZOA_jfFimDeeEoWOvDMsj5CtMyzo0cyI3gKB7qUL04KW8H_R2Om6sYgfunPbo-b0qkbymnw4myVPMz7JiFoJhP1ix2-r-kqjza2zHUCO9Ll9blrNcqKmgf-Hl4dGBMSKy2xdbn3CpmS7Rh-ACWjFaca7kTHz-xDu",
          "width": 480
        }
      ],
      "place_id": "ChIJOwg_06VPwokRYv534QaPC8g",
      "reference": "ChIJOwg_06VPwokRYv534QaPC8g",
      "scope": "GOOGLE",
      "types": [
        "locality",
        "political"
      ],
      "vicinity": "\u7d10\u7d04"
    },
    {
      "business_status": "OPERATIONAL",
      "geometry": {
        "location": {
          "lat": 40.6919762,
          "lng": -73.9532447
        },
        "viewport": {
          "northeast": {
            "lat": 40.69436700000001,
            "lng": -73.95067695
          },
          "southwest": {
            "lat": 40.69006419999999,
            "lng": -73.95508355
          }
        }
      },
      "icon": "https://maps.gstatic.com/mapfiles/place_api/icons/v1/png_71/shopping-71.png",
      "icon_background_color": "#4B96F3",
      "icon_mask_base_uri": "https://maps.gstatic.com/mapfiles/place_api/icons/v2/shopping_pinlet",
      "name": "The Home Depot",
      "opening_hours": {
        "open_now": true
      },
      "photos": [
        {
          "height": 768,
          "html_attributions": [
            "<a href=\"https://maps.google.com/maps/contrib/115815892796061066586\">The Home Depot</a>"
          ],
          "photo_reference": "AeJbb3dAylSItwRWmPYuSyMExtlVqXOXlyCg_Li9pAchxElaC5AzO-KUkiPZEL0lBcpyZQKLkveBVDbl6D-uWc5sPQZy-W8IVNGdcQB2I7sjPfTFHFGMCW1R82qZKXEtOu-LnXhIWlLiatdldBwzXnE7qkgUFHtiIbThBwSk2Y-gegqqBjbo",
          "width": 1024
        }
      ],
      "place_id": "ChIJWefgTJNbwokRi1Q7KHmWNhs",
      "plus_code": {
        "compound_code": "M2RW+QP \u7f8e\u570b\u7d10\u7d04",
        "global_code": "87G8M2RW+QP"
      },
      "price_level": 2,
      "rating": 3.8,
      "reference": "ChIJWefgTJNbwokRi1Q7KHmWNhs",
      "scope": "GOOGLE",
      "types": [
        "hardware_store",
        "furniture_store",
        "home_goods_store",
        "point_of_interest",
        "store",
        "establishment"
      ],
      "user_ratings_total": 4016,
      "vicinity": "230 Nostrand Avenue, Brooklyn"
    },
    {
      "business_status": "OPERATIONAL",
      "geometry": {
        "location": {
          "lat": 40.6907519,
          "lng": -73.9582747
        },
        "viewport": {
          "northeast": {
            "lat": 40.6920224302915,
            "lng": -73.9569087197085
          },
          "southwest": {
            "lat": 40.6893244697085,
            "lng": -73.95960668029151
          }
        }
      },
      "icon": "https://maps.gstatic.com/mapfiles/place_api/icons/v1/png_71/restaurant-71.png",
      "icon_background_color": "#FF9E67",
      "icon_mask_base_uri": "https://maps.gstatic.com/mapfiles/place_api/icons/v2/restaurant_pinlet",
      "name": "Rustik Tavern",
      "opening_hours": {
        "open_now": true
      },
      "photos": [
        {
          "height": 3024,
          "html_attributions": [
            "<a href=\"https://maps.google.com/maps/contrib/111107507993520293074\">Fatma B</a>"
          ],
          "photo_reference": "AeJbb3fyAwXcpfaqEqJr-vrI6GCMNNjHAdOBn_B5YY4bKfvfV9pLLEortfnFH0aoCFSlww8VXW99rwF-xhsX1t7pjL43nufUPds8c12TiMfxfBa-jGJnD8dhbDLDA-L-A-S_dn-wRbims_xa9TC70DkaR-l-HP95BjSX8sWoTxPzFLtZ5EzD",
          "width": 4032
        }
      ],
      "place_id": "ChIJd9qVa5VbwokRJ7q_7M3XbIQ",
      "plus_code": {
        "compound_code": "M2RR+8M \u7f8e\u570b\u7d10\u7d04",
        "global_code": "87G8M2RR+8M"
      },
      "price_level": 2,
      "rating": 4.5,
      "reference": "ChIJd9qVa5VbwokRJ7q_7M3XbIQ",
      "scope": "GOOGLE",
      "types": [
        "restaurant",
        "food",
        "point_of_interest",
        "establishment"
      ],
      "user_ratings_total": 1115,
      "vicinity": "471 DeKalb Avenue, Brooklyn"
    },
    {
      "business_status": "OPERATIONAL",
      "geometry": {
        "location": {
          "lat": 40.6875,
          "lng": -73.96
        },
        "viewport": {
          "northeast": {
            "lat": 40.68883553029151,
            "lng": -73.95851471970849
          },
          "southwest": {
            "lat": 40.68613756970851,
            "lng": -73.9612126802915
          }
        }
      },
      "icon": "https://maps.gstatic.com/mapfiles/place_api/icons/v1/png_71/restaurant-71.png",
      "icon_background_color": "#FF9E67",
      "icon_mask_base_uri": "https://maps.gstatic.com/mapfiles/place_api/icons/v2/restaurant_pinlet",
      "name": "Speedy Romeo",
      "opening_hours": {
        "open_now": true
      },
      "photos": [
        {
          "height": 4032,
          "html_attributions": [
            "<a href=\"https://maps.google.com/maps/contrib/117977119280282063708\">Ken</a>"
          ],
          "photo_reference": "AeJbb3dLn94dlIAbA4-4euUhSmvWIh_3fdBaf9UiSF2xTRVnY4F4pWrmBg05LHfuYyf4A2hO7bWMWEz5SqdafX7d9rcccqW0db9vOlVa7NvFeUB1Cc1FULsajQdWaIZYDweQvoRsaJSh5Ay_w4n46dLOqWqhMn98ZvPdWTmbd8znU7V9iqqv",
          "width": 3024
        }
      ],
      "place_id": "ChIJOTob_r1bwokRtUoNNbcmw_g",
      "plus_code": {
        "compound_code": "M2PR+X2 \u7f8e\u570b\u7d10\u7d04",
        "global_code": "87G8M2PR+X2"
      },
      "price_level": 2,
      "rating": 4.4,
      "reference": "ChIJOTob_r1bwokRtUoNNbcmw_g",
      "scope": "GOOGLE",
      "types": [
        "restaurant",
        "food",
        "point_of_interest",
        "establishment"
      ],
      "user_ratings_total": 1102,
      "vicinity": "376 Classon Avenue, Brooklyn"
    },
    {
      "business_status": "OPERATIONAL",
      "geometry": {
        "location": {
          "lat": 40.6867791,
          "lng": -73.9548217
        },
        "viewport": {
          "northeast": {
            "lat": 40.6881271302915,
            "lng": -73.95335331970848
          },
          "southwest": {
            "lat": 40.6854291697085,
            "lng": -73.95605128029149
          }
        }
      },
      "icon": "https://maps.gstatic.com/mapfiles/place_api/icons/v1/png_71/bar-71.png",
      "icon_background_color": "#FF9E67",
      "icon_mask_base_uri": "https://maps.gstatic.com/mapfiles/place_api/icons/v2/bar_pinlet",
      "name": "Do or Dive Bar",
      "opening_hours": {
        "open_now": true
      },
      "photos": [
        {
          "height": 1367,
          "html_attributions": [
            "<a href=\"https://maps.google.com/maps/contrib/115439581858196906150\">Do or Dive Bar</a>"
          ],
          "photo_reference": "AeJbb3dc1fWY5A1-rgRXDKCE57FpUrHgolLOBSuRRrrH1vRiCNNEqbVzfj_elG7ALI9oSrdjviosXRG8cXfB3r1zyi3zjwljTp0x6RQ8GhgGzLPdm5CrIinQaJwFHGoH2HXGXkErbQr4gcZKfNxsemZ75qhgQ62qMM9td0AYjVepyWGkkXdX",
          "width": 2048
        }
      ],
      "place_id": "ChIJAQCzoJZbwokReIATs2QEPWQ",
      "plus_code": {
        "compound_code": "M2PW+P3 \u7f8e\u570b\u7d10\u7d04",
        "global_code": "87G8M2PW+P3"
      },
      "price_level": 1,
      "rating": 4.5,
      "reference": "ChIJAQCzoJZbwokReIATs2QEPWQ",
      "scope": "GOOGLE",
      "types": [
        "bar",
        "point_of_interest",
        "establishment"
      ],
      "user_ratings_total": 506,
      "vicinity": "1108 Bedford Avenue, Brooklyn"
    },
    {
      "business_status": "OPERATIONAL",
      "geometry": {
        "location": {
          "lat": 40.6900855,
          "lng": -73.9604962
        },
        "viewport": {
          "northeast": {
            "lat": 40.6914777302915,
            "lng": -73.95902966970849
          },
          "southwest": {
            "lat": 40.6887797697085,
            "lng": -73.9617276302915
          }
        }
      },
      "icon": "https://maps.gstatic.com/mapfiles/place_api/icons/v1/png_71/civic_building-71.png",
      "icon_background_color": "#7B9EB0",
      "icon_mask_base_uri": "https://maps.gstatic.com/mapfiles/place_api/icons/v2/civic-bldg_pinlet",
      "name": "New York City Police Department - 88th Precinct",
      "opening_hours": {
        "open_now": true
      },
      "photos": [
        {
          "height": 1809,
          "html_attributions": [
            "<a href=\"https://maps.google.com/maps/contrib/103599397142767094990\">Henry Woodlock</a>"
          ],
          "photo_reference": "AeJbb3dYzPr_QPzs0rwVN3aGAutpKiTBMTT-mV6a6ZP4sIylX_IBkJdBwHEjYQHemmVmWmxsG46hwlzr9tjPlKbeOveCs6Ez4DV6tHaOh0OGRUp1Fiz0_CklXGO1CKJakM8rdA2blvZBKB8hnwv2UELM0J5cy-qTDM10vABbRKiyYyIvfh6_",
          "width": 1424
        }
      ],
      "place_id": "ChIJ2Sojzb9bwokRD1H7L1FCsRU",
      "plus_code": {
        "compound_code": "M2RQ+2R \u7f8e\u570b\u7d10\u7d04\u5e03\u9c81\u514b\u6797",
        "global_code": "87G8M2RQ+2R"
      },
      "rating": 3.1,
      "reference": "ChIJ2Sojzb9bwokRD1H7L1FCsRU",
      "scope": "GOOGLE",
      "types": [
        "police",
        "local_government_office",
        "point_of_interest",
        "establishment"
      ],
      "user_ratings_total": 30,
      "vicinity": "298 Classon Avenue, Brooklyn"
    },
    {
      "business_status": "OPERATIONAL",
      "geometry": {
        "location": {
          "lat": 40.6927416,
          "lng": -73.95920559999999
        },
        "viewport": {
          "northeast": {
            "lat": 40.6940426302915,
            "lng": -73.95818611970849
          },
          "southwest": {
            "lat": 40.6913446697085,
            "lng": -73.9608840802915
          }
        }
      },
      "icon": "https://maps.gstatic.com/mapfiles/place_api/icons/v1/png_71/worship_general-71.png",
      "icon_background_color": "#7B9EB0",
      "icon_mask_base_uri": "https://maps.gstatic.com/mapfiles/place_api/icons/v2/worship_christian_pinlet",
      "name": "St Lucy- St Patrick's Roman Catholic Church",
      "place_id": "ChIJ1c18AcBbwokRzyPheJW81kI",
      "plus_code": {
        "compound_code": "M2VR+38 \u7f8e\u570b\u7d10\u7d04",
        "global_code": "87G8M2VR+38"
      },
      "rating": 4.6,
      "reference": "ChIJ1c18AcBbwokRzyPheJW81kI",
      "scope": "GOOGLE",
      "types": [
        "church",
        "place_of_worship",
        "point_of_interest",
        "establishment"
      ],
      "user_ratings_total": 10,
      "vicinity": "285 Willoughby Avenue, Brooklyn"
    },
    {
      "business_status": "OPERATIONAL",
      "geometry": {
        "location": {
          "lat": 40.6875733,
          "lng": -73.95956269999999
        },
        "viewport": {
          "northeast": {
            "lat": 40.6888612802915,
            "lng": -73.95829621970849
          },
          "southwest": {
            "lat": 40.6861633197085,
            "lng": -73.96099418029151
          }
        }
      },
      "icon": "https://maps.gstatic.com/mapfiles/place_api/icons/v1/png_71/restaurant-71.png",
      "icon_background_color": "#FF9E67",
      "icon_mask_base_uri": "https://maps.gstatic.com/mapfiles/place_api/icons/v2/restaurant_pinlet",
      "name": "Clementine Bakery",
      "opening_hours": {
        "open_now": true
      },
      "photos": [
        {
          "height": 717,
          "html_attributions": [
            "<a href=\"https://maps.google.com/maps/contrib/112402923107222693726\">Clementine Bakery</a>"
          ],
          "photo_reference": "AeJbb3eVqANkp0kgSZ-U0wyzgMRmhem5QuXEy2bYN-7z_7Oi0ZqqciG1e-d3M7dKwYxfrwN6nRTc_FlNdGY7xpwjlZJFBtp4IH9A2sMK5mxvCVsAuunrHmKRNW0dNyaUIn8-9polDlKCV-tx8SyEYYaPuPexFkuPSf5M9NdnNTjJyJBZI3w7",
          "width": 960
        }
      ],
      "place_id": "ChIJ53fC_5VbwokRaTVVX0NrNZo",
      "plus_code": {
        "compound_code": "M2QR+25 \u7f8e\u570b\u7d10\u7d04",
        "global_code": "87G8M2QR+25"
      },
      "price_level": 2,
      "rating": 4.4,
      "reference": "ChIJ53fC_5VbwokRaTVVX0NrNZo",
      "scope": "GOOGLE",
      "types": [
        "bakery",
        "cafe",
        "restaurant",
        "food",
        "point_of_interest",
        "store",
        "establishment"
      ],
      "user_ratings_total": 748,
      "vicinity": "395 Classon Avenue, Brooklyn"
    },
    {
      "business_status": "OPERATIONAL",
      "geometry": {
        "location": {
          "lat": 40.688819,
          "lng": -73.955951
        },
        "viewport": {
          "northeast": {
            "lat": 40.6900564302915,
            "lng": -73.9546303697085
          },
          "southwest": {
            "lat": 40.6873584697085,
            "lng": -73.9573283302915
          }
        }
      },
      "icon": "https://maps.gstatic.com/mapfiles/place_api/icons/v1/png_71/generic_business-71.png",
      "icon_background_color": "#7B9EB0",
      "icon_mask_base_uri": "https://maps.gstatic.com/mapfiles/place_api/icons/v2/generic_pinlet",
      "name": "Gretel",
      "opening_hours": {
        "open_now": false
      },
      "place_id": "ChIJd8ak_KJZwokRU1LtgEK8g20",
      "plus_code": {
        "compound_code": "M2QV+GJ \u7f8e\u570b\u7d10\u7d04\u5e03\u9c81\u514b\u6797",
        "global_code": "87G8M2QV+GJ"
      },
      "rating": 4.2,
      "reference": "ChIJd8ak_KJZwokRU1LtgEK8g20",
      "scope": "GOOGLE",
      "types": [
        "point_of_interest",
        "establishment"
      ],
      "user_ratings_total": 5,
      "vicinity": "197 Clifton Place, Brooklyn"
    },
    {
      "business_status": "CLOSED_TEMPORARILY",
      "geometry": {
        "location": {
          "lat": 40.6876984,
          "lng": -73.95849609999999
        },
        "viewport": {
          "northeast": {
            "lat": 40.6889798302915,
            "lng": -73.9571333697085
          },
          "southwest": {
            "lat": 40.6862818697085,
            "lng": -73.95983133029151
          }
        }
      },
      "icon": "https://maps.gstatic.com/mapfiles/place_api/icons/v1/png_71/generic_business-71.png",
      "icon_background_color": "#7B9EB0",
      "icon_mask_base_uri": "https://maps.gstatic.com/mapfiles/place_api/icons/v2/generic_pinlet",
      "name": "Palette Architecture PLLC",
      "permanently_closed": true,
      "place_id": "ChIJV5WHtrtbwokRRUj-bpz4NX0",
      "plus_code": {
        "compound_code": "M2QR+3J \u7f8e\u570b\u7d10\u7d04",
        "global_code": "87G8M2QR+3J"
      },
      "reference": "ChIJV5WHtrtbwokRRUj-bpz4NX0",
      "scope": "GOOGLE",
      "types": [
        "point_of_interest",
        "establishment"
      ],
      "vicinity": "323 Greene Avenue, Brooklyn"
    },
    {
      "business_status": "OPERATIONAL",
      "geometry": {
        "location": {
          "lat": 40.688721,
          "lng": -73.9574283
        },
        "viewport": {
          "northeast": {
            "lat": 40.6900519802915,
            "lng": -73.9559508197085
          },
          "southwest": {
            "lat": 40.6873540197085,
            "lng": -73.95864878029151
          }
        }
      },
      "icon": "https://maps.gstatic.com/mapfiles/place_api/icons/v1/png_71/shopping-71.png",
      "icon_background_color": "#4B96F3",
      "icon_mask_base_uri": "https://maps.gstatic.com/mapfiles/place_api/icons/v2/shopping_pinlet",
      "name": "Family Dollar",
      "opening_hours": {
        "open_now": true
      },
      "photos": [
        {
          "height": 4032,
          "html_attributions": [
            "<a href=\"https://maps.google.com/maps/contrib/100977787671095852487\">Bee one</a>"
          ],
          "photo_reference": "AeJbb3eMpSVc11QEwgODnXbf9y9AQ2NINrRDXjdZC1EGUJeC97FoM5A_rU6rKriOdcj6XmjoSeiPiDsuEsQx5UDfEiM_9I_oSBWP_T877ObasVoQ4DSKPHpC0xmiyShUotVK0ai45R7P-MEa66fk4x0dhczKN70VeFOKre-xY2_RAwcF5W3a",
          "width": 3024
        }
      ],
      "place_id": "ChIJh8Nrt5VbwokR9morRM5pGho",
      "plus_code": {
        "compound_code": "M2QV+F2 \u7f8e\u570b\u7d10\u7d04",
        "global_code": "87G8M2QV+F2"
      },
      "price_level": 1,
      "rating": 3.7,
      "reference": "ChIJh8Nrt5VbwokR9morRM5pGho",
      "scope": "GOOGLE",
      "types": [
        "supermarket",
        "grocery_or_supermarket",
        "clothing_store",
        "food",
        "point_of_interest",
        "store",
        "establishment"
      ],
      "user_ratings_total": 178,
      "vicinity": "308-A Franklin Avenue, Brooklyn"
    },
    {
      "business_status": "OPERATIONAL",
      "geometry": {
        "location": {
          "lat": 40.6881834,
          "lng": -73.95512169999999
        },
        "viewport": {
          "northeast": {
            "lat": 40.6895468802915,
            "lng": -73.9536449697085
          },
          "southwest": {
            "lat": 40.6868489197085,
            "lng": -73.95634293029151
          }
        }
      },
      "icon": "https://maps.gstatic.com/mapfiles/place_api/icons/v1/png_71/generic_business-71.png",
      "icon_background_color": "#7B9EB0",
      "icon_mask_base_uri": "https://maps.gstatic.com/mapfiles/place_api/icons/v2/generic_pinlet",
      "name": "The Mailroom Store",
      "opening_hours": {
        "open_now": true
      },
      "place_id": "ChIJgQoda5RbwokRl6_tRdcpOKc",
      "plus_code": {
        "compound_code": "M2QV+7X \u7f8e\u570b\u7d10\u7d04",
        "global_code": "87G8M2QV+7X"
      },
      "rating": 3.5,
      "reference": "ChIJgQoda5RbwokRl6_tRdcpOKc",
      "scope": "GOOGLE",
      "types": [
        "finance",
        "point_of_interest",
        "store",
        "establishment"
      ],
      "user_ratings_total": 48,
      "vicinity": "1072 Bedford Avenue, Brooklyn"
    },
    {
      "business_status": "OPERATIONAL",
      "geometry": {
        "location": {
          "lat": 40.69073289999999,
          "lng": -73.9557725
        },
        "viewport": {
          "northeast": {
            "lat": 40.6921563302915,
            "lng": -73.95443876970849
          },
          "southwest": {
            "lat": 40.6894583697085,
            "lng": -73.95713673029151
          }
        }
      },
      "icon": "https://maps.gstatic.com/mapfiles/place_api/icons/v1/png_71/cafe-71.png",
      "icon_background_color": "#FF9E67",
      "icon_mask_base_uri": "https://maps.gstatic.com/mapfiles/place_api/icons/v2/cafe_pinlet",
      "name": "Brooklyn Kolache",
      "opening_hours": {
        "open_now": true
      },
      "photos": [
        {
          "height": 4032,
          "html_attributions": [
            "<a href=\"https://maps.google.com/maps/contrib/114255643620616149924\">Brooklyn Kolache</a>"
          ],
          "photo_reference": "AeJbb3dlyy2sYI_LErNty04CKPy-bhMrii-PN1j8sJRAuOIGx6cVH6zM2y9g5VJz7wKfRvvOvzAR2Wa4zFhD9Uw1ZWBdPiFmnPemaIyNC4thvD2-J1YwmXSA-quSx03YpCZyCL7pyW1r_V314Hvz-Nzwuk2SiVxG5mpWNjoyfYInqIVcQ6wz",
          "width": 3024
        }
      ],
      "place_id": "ChIJe1O4wpRbwokRu8RmeM2Xji4",
      "plus_code": {
        "compound_code": "M2RV+7M \u7f8e\u570b\u7d10\u7d04",
        "global_code": "87G8M2RV+7M"
      },
      "price_level": 1,
      "rating": 4.6,
      "reference": "ChIJe1O4wpRbwokRu8RmeM2Xji4",
      "scope": "GOOGLE",
      "types": [
        "cafe",
        "bakery",
        "food",
        "point_of_interest",
        "store",
        "establishment"
      ],
      "user_ratings_total": 414,
      "vicinity": "520 DeKalb Avenue, Brooklyn"
    },
    {
      "business_status": "CLOSED_TEMPORARILY",
      "geometry": {
        "location": {
          "lat": 40.6925304,
          "lng": -73.9586246
        },
        "viewport": {
          "northeast": {
            "lat": 40.6939476302915,
            "lng": -73.9572890697085
          },
          "southwest": {
            "lat": 40.6912496697085,
            "lng": -73.9599870302915
          }
        }
      },
      "icon": "https://maps.gstatic.com/mapfiles/place_api/icons/v1/png_71/school-71.png",
      "icon_background_color": "#7B9EB0",
      "icon_mask_base_uri": "https://maps.gstatic.com/mapfiles/place_api/icons/v2/school_pinlet",
      "name": "Kappa Vii",
      "permanently_closed": true,
      "photos": [
        {
          "height": 3024,
          "html_attributions": [
            "<a href=\"https://maps.google.com/maps/contrib/113151506387623700108\">\u05d9\u05d5\u05d3\u05d9 \u05de\u05e2\u05dc\u05d1\u05e2\u05e8</a>"
          ],
          "photo_reference": "AeJbb3e5dFdABAttZ0P0pbAiTM9tmrj-AtUUkDIYvDEUpLnah5L4Dq8l4_dC7dEOsp8wFmyE5cRdK-QI_V6D8pJgZxvl70yFww63WqFRABs4AflK3zhwOo4PAoqEW6cJ0tIPNk40umHnGQrGip2meJv8tGSWU4fLDyO2BtxZHUwFpHaK-VHF",
          "width": 4032
        }
      ],
      "place_id": "ChIJu5pFsupbwokRzAJCEZDShN4",
      "plus_code": {
        "compound_code": "M2VR+2H \u7f8e\u570b\u7d10\u7d04\u5e03\u9c81\u514b\u6797",
        "global_code": "87G8M2VR+2H"
      },
      "reference": "ChIJu5pFsupbwokRzAJCEZDShN4",
      "scope": "GOOGLE",
      "types": [
        "school",
        "point_of_interest",
        "establishment"
      ],
      "vicinity": "300 Willoughby Avenue, Brooklyn"
    },
    {
      "business_status": "OPERATIONAL",
      "geometry": {
        "location": {
          "lat": 40.6914315,
          "lng": -73.959848
        },
        "viewport": {
          "northeast": {
            "lat": 40.6927309802915,
            "lng": -73.9583770197085
          },
          "southwest": {
            "lat": 40.6900330197085,
            "lng": -73.96107498029151
          }
        }
      },
      "icon": "https://maps.gstatic.com/mapfiles/place_api/icons/v1/png_71/generic_business-71.png",
      "icon_background_color": "#7B9EB0",
      "icon_mask_base_uri": "https://maps.gstatic.com/mapfiles/place_api/icons/v2/generic_pinlet",
      "name": "Taaffe Lofts",
      "place_id": "ChIJ22xo4L9bwokRKUoZaXI-d9s",
      "plus_code": {
        "compound_code": "M2RR+H3 \u7f8e\u570b\u7d10\u7d04\u5e03\u9c81\u514b\u6797",
        "global_code": "87G8M2RR+H3"
      },
      "rating": 3.2,
      "reference": "ChIJ22xo4L9bwokRKUoZaXI-d9s",
      "scope": "GOOGLE",
      "types": [
        "point_of_interest",
        "establishment"
      ],
      "user_ratings_total": 5,
      "vicinity": "226-262 Taaffe Place, Brooklyn"
    },
    {
      "business_status": "OPERATIONAL",
      "geometry": {
        "location": {
          "lat": 40.6906175,
          "lng": -73.9567883
        },
        "viewport": {
          "northeast": {
            "lat": 40.6920402302915,
            "lng": -73.95546321970849
          },
          "southwest": {
            "lat": 40.6893422697085,
            "lng": -73.9581611802915
          }
        }
      },
      "icon": "https://maps.gstatic.com/mapfiles/place_api/icons/v1/png_71/civic_building-71.png",
      "icon_background_color": "#7B9EB0",
      "icon_mask_base_uri": "https://maps.gstatic.com/mapfiles/place_api/icons/v2/civic-bldg_pinlet",
      "name": "New York City Income Support",
      "place_id": "ChIJKyH7HpVbwokR0o-jXpJJKu4",
      "plus_code": {
        "compound_code": "M2RV+67 \u7f8e\u570b\u7d10\u7d04\u5e03\u9c81\u514b\u6797",
        "global_code": "87G8M2RV+67"
      },
      "rating": 3,
      "reference": "ChIJKyH7HpVbwokR0o-jXpJJKu4",
      "scope": "GOOGLE",
      "types": [
        "local_government_office",
        "point_of_interest",
        "establishment"
      ],
      "user_ratings_total": 1,
      "vicinity": "500 DeKalb Avenue, Brooklyn"
    },
    {
      "business_status": "OPERATIONAL",
      "geometry": {
        "location": {
          "lat": 40.6926596,
          "lng": -73.960329
        },
        "viewport": {
          "northeast": {
            "lat": 40.69391708029149,
            "lng": -73.9589593197085
          },
          "southwest": {
            "lat": 40.69121911970849,
            "lng": -73.96165728029152
          }
        }
      },
      "icon": "https://maps.gstatic.com/mapfiles/place_api/icons/v1/png_71/generic_business-71.png",
      "icon_background_color": "#7B9EB0",
      "icon_mask_base_uri": "https://maps.gstatic.com/mapfiles/place_api/icons/v2/generic_pinlet",
      "name": "Mercy Home for Children",
      "opening_hours": {
        "open_now": true
      },
      "photos": [
        {
          "height": 3000,
          "html_attributions": [
            "<a href=\"https://maps.google.com/maps/contrib/112572461551852069945\">Marc Mendez</a>"
          ],
          "photo_reference": "AeJbb3cBLNVa2oxLRFMC_0F703WU9KUClfjUXlYwmr1S6vg949h_Ttx5Qm_-89HGTvqJexX70U_8DVtat2ZCyr1zuuKPxNq5edztZSskIAkGWVVfflMwz5V_szO7OHKDi6UwFK41fug0cL_e3YOPQtbVaKl626lLq0ZlNptgqiG1poOGW2Xu",
          "width": 4000
        }
      ],
      "place_id": "ChIJLY_7RR5bwokRXdv4NjUnY-o",
      "plus_code": {
        "compound_code": "M2VQ+3V \u7f8e\u570b\u7d10\u7d04\u5e03\u9c81\u514b\u6797",
        "global_code": "87G8M2VQ+3V"
      },
      "rating": 3.7,
      "reference": "ChIJLY_7RR5bwokRXdv4NjUnY-o",
      "scope": "GOOGLE",
      "types": [
        "health",
        "point_of_interest",
        "establishment"
      ],
      "user_ratings_total": 6,
      "vicinity": "273 Willoughby Avenue, Brooklyn"
    },
    {
      "business_status": "OPERATIONAL",
      "geometry": {
        "location": {
          "lat": 40.6907927,
          "lng": -73.955067
        },
        "viewport": {
          "northeast": {
            "lat": 40.6921237802915,
            "lng": -73.9538717197085
          },
          "southwest": {
            "lat": 40.6894258197085,
            "lng": -73.95656968029151
          }
        }
      },
      "icon": "https://maps.gstatic.com/mapfiles/place_api/icons/v1/png_71/atm-71.png",
      "icon_background_color": "#909CE1",
      "icon_mask_base_uri": "https://maps.gstatic.com/mapfiles/place_api/icons/v2/atm_pinlet",
      "name": "Chase ATM",
      "photos": [
        {
          "height": 3774,
          "html_attributions": [
            "<a href=\"https://maps.google.com/maps/contrib/100977787671095852487\">Bee one</a>"
          ],
          "photo_reference": "AeJbb3eAU3q4uuvsp1hRlpsTNSiUyhJ65RlLRSjbEfurSbyRfdxmlcTWo9NwA06Pky3C59u5vlNBhUolyeEcOK3vn56MK5wGlm-V1uq6mqiA7GPx_plQwXZ7qF-Hg_Eni1gQNgxtOt8BijfPrKISQhkF_ZNkUsukuylnBRA3YgZOT-qAuS8B",
          "width": 2830
        }
      ],
      "place_id": "ChIJ845bwJRbwokRVbffmLPzIxM",
      "plus_code": {
        "compound_code": "M2RV+8X \u7f8e\u570b\u7d10\u7d04",
        "global_code": "87G8M2RV+8X"
      },
      "rating": 4,
      "reference": "ChIJ845bwJRbwokRVbffmLPzIxM",
      "scope": "GOOGLE",
      "types": [
        "atm",
        "finance",
        "point_of_interest",
        "establishment"
      ],
      "user_ratings_total": 5,
      "vicinity": "975 Bedford Avenue, Brooklyn"
    },
    {
      "business_status": "OPERATIONAL",
      "geometry": {
        "location": {
          "lat": 40.687604,
          "lng": -73.95350499999999
        },
        "viewport": {
          "northeast": {
            "lat": 40.6888474802915,
            "lng": -73.9521349697085
          },
          "southwest": {
            "lat": 40.6861495197085,
            "lng": -73.95483293029152
          }
        }
      },
      "icon": "https://maps.gstatic.com/mapfiles/place_api/icons/v1/png_71/generic_business-71.png",
      "icon_background_color": "#7B9EB0",
      "icon_mask_base_uri": "https://maps.gstatic.com/mapfiles/place_api/icons/v2/generic_pinlet",
      "name": "Key + Shade Interior Design",
      "opening_hours": {
        "open_now": false
      },
      "photos": [
        {
          "height": 2048,
          "html_attributions": [
            "<a href=\"https://maps.google.com/maps/contrib/103455925763842723116\">Key + Shade Interior Design</a>"
          ],
          "photo_reference": "AeJbb3dM5muP6LmJAgjEMxSyYUc-urfmbzakZT36vSADHi7I-ImRPW2KzNQaR4njzofAj4oXfaI0L6Rr4CXIQ-x0KupJAjyAeQGJAM2vKF53UmGsaOXfhLfU3tQdTNbKz8opR36Nrae57VZrunATCUpOncWPgWVhopYI48J91hObsBUXchY",
          "width": 2048
        }
      ],
      "place_id": "ChIJaSZJw_JZwokRqNj1dWg3Ljs",
      "plus_code": {
        "compound_code": "M2QW+2H \u7f8e\u570b\u7d10\u7d04\u5e03\u9c81\u514b\u6797",
        "global_code": "87G8M2QW+2H"
      },
      "rating": 4.5,
      "reference": "ChIJaSZJw_JZwokRqNj1dWg3Ljs",
      "scope": "GOOGLE",
      "types": [
        "general_contractor",
        "point_of_interest",
        "establishment"
      ],
      "user_ratings_total": 2,
      "vicinity": "221 Lexington Avenue, Brooklyn"
    },
    {
      "geometry": {
        "location": {
          "lat": 40.6781784,
          "lng": -73.9441579
        },
        "viewport": {
          "northeast": {
            "lat": 40.73944597129348,
            "lng": -73.83336505117123
          },
          "southwest": {
            "lat": 40.55104197967331,
            "lng": -74.05662998413648
          }
        }
      },
      "icon": "https://maps.gstatic.com/mapfiles/place_api/icons/v1/png_71/geocode-71.png",
      "icon_background_color": "#7B9EB0",
      "icon_mask_base_uri": "https://maps.gstatic.com/mapfiles/place_api/icons/v2/generic_pinlet",
      "name": "\u5e03\u9c81\u514b\u6797",
      "photos": [
        {
          "height": 3024,
          "html_attributions": [
            "<a href=\"https://maps.google.com/maps/contrib/114417859579881743500\">Chengxiang Yuan</a>"
          ],
          "photo_reference": "AeJbb3due_RRlsLokNm6DaIitmM6Uud48PuoGqy9eyVPLgUtpQ3Czfdwd3aPKGWxrwYGlm3Ha0LpAKyyzjduC4hOrpglthIxKaF7Zf1neK2kSeQ4EpQXBoGlhm2GaCqanmfSAW2rzbNDw5YZKVplzchb8sIFtK7szSgYrBX0Fe1sc9YO5Q61",
          "width": 4032
        }
      ],
      "place_id": "ChIJCSF8lBZEwokRhngABHRcdoI",
      "reference": "ChIJCSF8lBZEwokRhngABHRcdoI",
      "scope": "GOOGLE",
      "types": [
        "sublocality_level_1",
        "sublocality",
        "political"
      ],
      "vicinity": "\u5e03\u9c81\u514b\u6797"
    },
    {
      "business_status": "OPERATIONAL",
      "geometry": {
        "location": {
          "lat": 40.6914185,
          "lng": -73.952737
        },
        "viewport": {
          "northeast": {
            "lat": 40.6931454302915,
            "lng": -73.9515514197085
          },
          "southwest": {
            "lat": 40.6904474697085,
            "lng": -73.9542493802915
          }
        }
      },
      "icon": "https://maps.gstatic.com/mapfiles/place_api/icons/v1/png_71/school-71.png",
      "icon_background_color": "#7B9EB0",
      "icon_mask_base_uri": "https://maps.gstatic.com/mapfiles/place_api/icons/v2/school_pinlet",
      "name": "Brooklyn Job Corps",
      "opening_hours": {
        "open_now": false
      },
      "photos": [
        {
          "height": 4032,
          "html_attributions": [
            "<a href=\"https://maps.google.com/maps/contrib/108165504371943591443\">Sam Christie</a>"
          ],
          "photo_reference": "AeJbb3d7SPiHTrsATQ9-620SFBTiG8FbaO8xFzTcGlf4fFmcQ1WqF62lYamqgqiMHhhdi3JkgTufUMnukyrawn_2OXX1xi9v52Iw75HmhM58GTXIUbemd-1PuRaAuzh-sJRRwszq8IHt7Mwdf7IkBJKBSATmzyAGU3xpar6LzBNI4VaQq1Gw",
          "width": 3024
        }
      ],
      "place_id": "ChIJWefgTJNbwokR8ckzNswCc_U",
      "plus_code": {
        "compound_code": "M2RW+HW Brooklyn, NY, USA",
        "global_code": "87G8M2RW+HW"
      },
      "rating": 3.8,
      "reference": "ChIJWefgTJNbwokR8ckzNswCc_U",
      "scope": "GOOGLE",
      "types": [
        "point_of_interest",
        "establishment"
      ],
      "user_ratings_total": 29,
      "vicinity": "585 DeKalb Avenue, Brooklyn"
    },
    {
      "business_status": "OPERATIONAL",
      "geometry": {
        "location": {
          "lat": 40.687508,
          "lng": -73.9605507
        },
        "viewport": {
          "northeast": {
            "lat": 40.6887684302915,
            "lng": -73.9591840697085
          },
          "southwest": {
            "lat": 40.6860704697085,
            "lng": -73.9618820302915
          }
        }
      },
      "icon": "https://maps.gstatic.com/mapfiles/place_api/icons/v1/png_71/school-71.png",
      "icon_background_color": "#7B9EB0",
      "icon_mask_base_uri": "https://maps.gstatic.com/mapfiles/place_api/icons/v2/school_pinlet",
      "name": "Dou Yoga",
      "opening_hours": {
        "open_now": true
      },
      "photos": [
        {
          "height": 613,
          "html_attributions": [
            "<a href=\"https://maps.google.com/maps/contrib/110818721339007021801\">Dou Yoga</a>"
          ],
          "photo_reference": "AeJbb3dx1uNgfM-uvYr-saB6cBVORiVbWGnG8iG25Vhln3dfjyFC1iJchJh1lfADV9hcmTsJ_0qjvRMPu_EpZgTYYWSTEbmyWOHz2eBCrSfjnPLG73DQOjtcRywjTPNAxmarYhgQMAApWcFxF33QS0XWn_LQAct2kilelPsvTSJBre_51iQD",
          "width": 922
        }
      ],
      "place_id": "ChIJexGcNrxbwokRR2k3VRVvw0U",
      "plus_code": {
        "compound_code": "M2QQ+2Q Brooklyn, NY, USA",
        "global_code": "87G8M2QQ+2Q"
      },
      "rating": 4.8,
      "reference": "ChIJexGcNrxbwokRR2k3VRVvw0U",
      "scope": "GOOGLE",
      "types": [
        "gym",
        "health",
        "point_of_interest",
        "establishment"
      ],
      "user_ratings_total": 12,
      "vicinity": "281 Greene Avenue, Brooklyn"
    },
    {
      "business_status": "OPERATIONAL",
      "geometry": {
        "location": {
          "lat": 40.6900216,
          "lng": -73.9516692
        },
        "viewport": {
          "northeast": {
            "lat": 40.69128618029149,
            "lng": -73.95029766970849
          },
          "southwest": {
            "lat": 40.6885882197085,
            "lng": -73.95299563029151
          }
        }
      },
      "icon": "https://maps.gstatic.com/mapfiles/place_api/icons/v1/png_71/cafe-71.png",
      "icon_background_color": "#FF9E67",
      "icon_mask_base_uri": "https://maps.gstatic.com/mapfiles/place_api/icons/v2/cafe_pinlet",
      "name": "Dunkin'",
      "opening_hours": {
        "open_now": true
      },
      "photos": [
        {
          "height": 4032,
          "html_attributions": [
            "<a href=\"https://maps.google.com/maps/contrib/112065738002801577601\">Mo Guerlain</a>"
          ],
          "photo_reference": "AeJbb3dM8KBg7Msc1QQWVfDdDIHTu1bkeX7rLHySWJEegZWX4-8AHnNW5EwJgEqi5D1Ti9YmmseuVOKTJUCTzy8FfIOpgGd8Y0jMTKBblcw4mM4EZR4g5eDhAJIOKwFzI_416qy2OZ4EGMER7D18C2bky4HbDOS9EFN6J29iQe5Irucc6MCU",
          "width": 3024
        }
      ],
      "place_id": "ChIJ5fEwFpNbwokR3urBvvsq-co",
      "plus_code": {
        "compound_code": "M2RX+28 New York, NY, USA",
        "global_code": "87G8M2RX+28"
      },
      "price_level": 1,
      "rating": 3.4,
      "reference": "ChIJ5fEwFpNbwokR3urBvvsq-co",
      "scope": "GOOGLE",
      "types": [
        "cafe",
        "meal_takeaway",
        "bakery",
        "restaurant",
        "point_of_interest",
        "food",
        "store",
        "establishment"
      ],
      "user_ratings_total": 245,
      "vicinity": "573 Lafayette Avenue, Brooklyn"
    },
    {
      "business_status": "OPERATIONAL",
      "geometry": {
        "location": {
          "lat": 40.6887853,
          "lng": -73.9562256
        },
        "viewport": {
          "northeast": {
            "lat": 40.6900282802915,
            "lng": -73.95485521970849
          },
          "southwest": {
            "lat": 40.6873303197085,
            "lng": -73.9575531802915
          }
        }
      },
      "icon": "https://maps.gstatic.com/mapfiles/place_api/icons/v1/png_71/shopping-71.png",
      "icon_background_color": "#4B96F3",
      "icon_mask_base_uri": "https://maps.gstatic.com/mapfiles/place_api/icons/v2/shopping_pinlet",
      "name": "Citi General Hardware Inc",
      "opening_hours": {
        "open_now": true
      },
      "photos": [
        {
          "height": 404,
          "html_attributions": [
            "<a href=\"https://maps.google.com/maps/contrib/104022219911849638409\">Citi General Hardware Inc</a>"
          ],
          "photo_reference": "AeJbb3c6gbLLAAKEUBdQZk8v1o9GwNF4kJcZ6LK3EQMD2bSLWiDrNGAc4TJUfQagDGUdFsfhFO5kkoT2_6fEPMXaqFIzEi_LQK1wtJcva0kOjagdPNs4Qq8v-jO4FeNoAN7hhgOH0lO3uOBv3dNkbst6COYay1wCiQoc3Qm-caXKyyk8JMbv",
          "width": 720
        }
      ],
      "place_id": "ChIJO1altpVbwokRm4AHew-GAC8",
      "plus_code": {
        "compound_code": "M2QV+GG New York, NY, USA",
        "global_code": "87G8M2QV+GG"
      },
      "rating": 3.8,
      "reference": "ChIJO1altpVbwokRm4AHew-GAC8",
      "scope": "GOOGLE",
      "types": [
        "hardware_store",
        "home_goods_store",
        "point_of_interest",
        "store",
        "establishment"
      ],
      "user_ratings_total": 93,
      "vicinity": "191 Clifton Place, Brooklyn"
    },
    {
      "business_status": "OPERATIONAL",
      "geometry": {
        "location": {
          "lat": 40.6914766,
          "lng": -73.959448
        },
        "viewport": {
          "northeast": {
            "lat": 40.6928151802915,
            "lng": -73.9581883697085
          },
          "southwest": {
            "lat": 40.6901172197085,
            "lng": -73.9608863302915
          }
        }
      },
      "icon": "https://maps.gstatic.com/mapfiles/place_api/icons/v1/png_71/school-71.png",
      "icon_background_color": "#7B9EB0",
      "icon_mask_base_uri": "https://maps.gstatic.com/mapfiles/place_api/icons/v2/school_pinlet",
      "name": "Brooklyn Doula -- Megan Davidson, PhD",
      "opening_hours": {
        "open_now": true
      },
      "photos": [
        {
          "height": 5220,
          "html_attributions": [
            "<a href=\"https://maps.google.com/maps/contrib/112662164459937212769\">Brooklyn Doula -- Megan Davidson, PhD</a>"
          ],
          "photo_reference": "AeJbb3f_AZPvuW-TkllE6Naaj84pTQdOwt1t5usMKu5tVYPHgn7lD9QZhtue1L1orF6rkisUsQALUi-5RNUYVrAUdz5V7IVNSjegSz3vwMQP4HGhOfOVPHjJsq_CTWVKFf9y1h7NnadGo2Aa90mHGyKoJeKDipLb2S0UYx-bi4RGlLoG5W0n",
          "width": 3480
        }
      ],
      "place_id": "ChIJH3Y94r9bwokRDJYNECtoSK0",
      "plus_code": {
        "compound_code": "M2RR+H6 Brooklyn, NY, USA",
        "global_code": "87G8M2RR+H6"
      },
      "reference": "ChIJH3Y94r9bwokRDJYNECtoSK0",
      "scope": "GOOGLE",
      "types": [
        "point_of_interest",
        "establishment"
      ],
      "vicinity": "213 Taaffe Place, Brooklyn"
    },
    {
      "business_status": "OPERATIONAL",
      "geometry": {
        "location": {
          "lat": 40.6911434,
          "lng": -73.95967519999999
        },
        "viewport": {
          "northeast": {
            "lat": 40.6925036302915,
            "lng": -73.95827261970848
          },
          "southwest": {
            "lat": 40.68980566970851,
            "lng": -73.96097058029149
          }
        }
      },
      "icon": "https://maps.gstatic.com/mapfiles/place_api/icons/v1/png_71/generic_business-71.png",
      "icon_background_color": "#7B9EB0",
      "icon_mask_base_uri": "https://maps.gstatic.com/mapfiles/place_api/icons/v2/generic_pinlet",
      "name": "Alma Realty Co",
      "place_id": "ChIJ22xo4L9bwokR91y6lPn2-qg",
      "plus_code": {
        "compound_code": "M2RR+F4 New York, NY, USA",
        "global_code": "87G8M2RR+F4"
      },
      "rating": 2.3,
      "reference": "ChIJ22xo4L9bwokR91y6lPn2-qg",
      "scope": "GOOGLE",
      "types": [
        "real_estate_agency",
        "point_of_interest",
        "establishment"
      ],
      "user_ratings_total": 3,
      "vicinity": "262 Taaffe Place, Brooklyn"
    },
    {
      "business_status": "OPERATIONAL",
      "geometry": {
        "location": {
          "lat": 40.6907896,
          "lng": -73.9550986
        },
        "viewport": {
          "northeast": {
            "lat": 40.6920887802915,
            "lng": -73.9538807697085
          },
          "southwest": {
            "lat": 40.6893908197085,
            "lng": -73.95657873029153
          }
        }
      },
      "icon": "https://maps.gstatic.com/mapfiles/place_api/icons/v1/png_71/bank-71.png",
      "icon_background_color": "#909CE1",
      "icon_mask_base_uri": "https://maps.gstatic.com/mapfiles/place_api/icons/v2/bank-intl_pinlet",
      "name": "Chase Bank",
      "opening_hours": {
        "open_now": false
      },
      "photos": [
        {
          "height": 3120,
          "html_attributions": [
            "<a href=\"https://maps.google.com/maps/contrib/113565206009013889762\">Shia h glick</a>"
          ],
          "photo_reference": "AeJbb3cRqV_etubAPsuYtObYAAxAxB0daAaRHW_nX-MMbrB4D7prKXvIP6Q45L8eYqw0mJlblOpdgyBi26bl-bclPmmd5vbeiDQKcUMVZbohzcOdAwfuIRZ3rQjPnK-pco-3eIKV2N7IBMQes6XL1ZVAhzF7T-x7p0XFgRlC2WrBs-LaQHYS",
          "width": 4160
        }
      ],
      "place_id": "ChIJ845bwJRbwokR3d0_lL14Ioc",
      "plus_code": {
        "compound_code": "M2RV+8X New York, NY, USA",
        "global_code": "87G8M2RV+8X"
      },
      "rating": 2.6,
      "reference": "ChIJ845bwJRbwokR3d0_lL14Ioc",
      "scope": "GOOGLE",
      "types": [
        "bank",
        "atm",
        "finance",
        "point_of_interest",
        "establishment"
      ],
      "user_ratings_total": 39,
      "vicinity": "975 Bedford Avenue, Brooklyn"
    },
    {
      "business_status": "OPERATIONAL",
      "geometry": {
        "location": {
          "lat": 40.6903646,
          "lng": -73.9580811
        },
        "viewport": {
          "northeast": {
            "lat": 40.6918346302915,
            "lng": -73.9567583697085
          },
          "southwest": {
            "lat": 40.6891366697085,
            "lng": -73.95945633029152
          }
        }
      },
      "icon": "https://maps.gstatic.com/mapfiles/place_api/icons/v1/png_71/civic_building-71.png",
      "icon_background_color": "#7B9EB0",
      "icon_mask_base_uri": "https://maps.gstatic.com/mapfiles/place_api/icons/v2/civic-bldg_pinlet",
      "name": "New York Power Authority",
      "photos": [
        {
          "height": 4160,
          "html_attributions": [
            "<a href=\"https://maps.google.com/maps/contrib/115571302857873313686\">Issaka Ansoma</a>"
          ],
          "photo_reference": "AeJbb3cBT43lfG8A4Vz5y1hpgXluK9h64PA4GW031wmxhnCU70TarVqa6b7450phN_5E_zt77vFfNHgaIqwn_tehPKvpfnjM6svtVcWx2GSsOuvtqNqrdUvq4kZ0Ti7qy70R48JqwhdAgneruEiM2kcEBNkYVLPpy8itwjgFG--HUOgdYwdc",
          "width": 3120
        }
      ],
      "place_id": "ChIJO1esbZVbwokRnWbX46xxN7g",
      "plus_code": {
        "compound_code": "M2RR+4Q New York, NY, USA",
        "global_code": "87G8M2RR+4Q"
      },
      "rating": 4,
      "reference": "ChIJO1esbZVbwokRnWbX46xxN7g",
      "scope": "GOOGLE",
      "types": [
        "local_government_office",
        "point_of_interest",
        "establishment"
      ],
      "user_ratings_total": 1,
      "vicinity": "470 DeKalb Avenue, Brooklyn"
    },
    {
      "business_status": "OPERATIONAL",
      "geometry": {
        "location": {
          "lat": 40.6914694,
          "lng": -73.9628951
        },
        "viewport": {
          "northeast": {
            "lat": 40.6928317302915,
            "lng": -73.9614364697085
          },
          "southwest": {
            "lat": 40.6901337697085,
            "lng": -73.96413443029151
          }
        }
      },
      "icon": "https://maps.gstatic.com/mapfiles/place_api/icons/v1/png_71/generic_business-71.png",
      "icon_background_color": "#7B9EB0",
      "icon_mask_base_uri": "https://maps.gstatic.com/mapfiles/place_api/icons/v2/generic_pinlet",
      "name": "Pratt Center for Community Development",
      "opening_hours": {
        "open_now": false
      },
      "photos": [
        {
          "height": 1331,
          "html_attributions": [
            "<a href=\"https://maps.google.com/maps/contrib/106423433960883845001\">Pratt Center for Community Development</a>"
          ],
          "photo_reference": "AeJbb3fD21OfvBMYUctZ4WB6tpJ7JWl-CkCBUFVq3qbmWStxj2U37aK4N8uTdRJYNi6GWjcBMhC3lg5In6aLXQ_9euUfybRTcjarGzUMr19nBa0KVWpMUBCY5XjIRizcUW56i8ajP3oklCbLqtwdjHzxwcl_5ndbVxUA0R_0dMwTyWxiRc3m",
          "width": 2048
        }
      ],
      "place_id": "ChIJ9b1Al8BbwokRpV_-dy2HPbg",
      "plus_code": {
        "compound_code": "M2RP+HR New York, NY, USA",
        "global_code": "87G8M2RP+HR"
      },
      "rating": 4.6,
      "reference": "ChIJ9b1Al8BbwokRpV_-dy2HPbg",
      "scope": "GOOGLE",
      "types": [
        "point_of_interest",
        "establishment"
      ],
      "user_ratings_total": 5,
      "vicinity": "200 Willoughby Avenue, Brooklyn"
    },
    {
      "business_status": "OPERATIONAL",
      "geometry": {
        "location": {
          "lat": 40.69194689999999,
          "lng": -73.9586747
        },
        "viewport": {
          "northeast": {
            "lat": 40.6936060302915,
            "lng": -73.9574393197085
          },
          "southwest": {
            "lat": 40.6909080697085,
            "lng": -73.9601372802915
          }
        }
      },
      "icon": "https://maps.gstatic.com/mapfiles/place_api/icons/v1/png_71/school-71.png",
      "icon_background_color": "#7B9EB0",
      "icon_mask_base_uri": "https://maps.gstatic.com/mapfiles/place_api/icons/v2/school_pinlet",
      "name": "Brooklyn Community Arts & Media High School (BCAM)",
      "photos": [
        {
          "height": 4032,
          "html_attributions": [
            "<a href=\"https://maps.google.com/maps/contrib/102327376685987955309\">teresa</a>"
          ],
          "photo_reference": "AeJbb3f4EyKg5YIYHYqCIaIjm0d--7WIHiKRRw7xq7PQbGSHZBaIHNAaN-NTq4nyvFBDcOp6WWfLO45ZQ_Qa0wB3kzcPrqF6EsT2fRr_y7ziECNsydvFzBfDhHDyrl0_JUXtxhXwWOixFzERSU5tYbe8ZDPqcY4dYaRH6RAhji2sukJnApnC",
          "width": 3024
        }
      ],
      "place_id": "ChIJu5pFsupbwokRrs3rxeL1Ano",
      "plus_code": {
        "compound_code": "M2RR+QG New York, NY, USA",
        "global_code": "87G8M2RR+QG"
      },
      "rating": 4.1,
      "reference": "ChIJu5pFsupbwokRrs3rxeL1Ano",
      "scope": "GOOGLE",
      "types": [
        "secondary_school",
        "school",
        "point_of_interest",
        "establishment"
      ],
      "user_ratings_total": 23,
      "vicinity": "300 Willoughby Avenue, Brooklyn"
    },
    {
      "business_status": "OPERATIONAL",
      "geometry": {
        "location": {
          "lat": 40.6908766,
          "lng": -73.9522387
        },
        "viewport": {
          "northeast": {
            "lat": 40.69225958029151,
            "lng": -73.9506090197085
          },
          "southwest": {
            "lat": 40.68956161970851,
            "lng": -73.9533069802915
          }
        }
      },
      "icon": "https://maps.gstatic.com/mapfiles/place_api/icons/v1/png_71/generic_business-71.png",
      "icon_background_color": "#7B9EB0",
      "icon_mask_base_uri": "https://maps.gstatic.com/mapfiles/place_api/icons/v2/generic_pinlet",
      "name": "Rehab Care Group",
      "place_id": "ChIJlwltPpNbwokRXScJwgS1-hE",
      "plus_code": {
        "compound_code": "M2RX+94 Brooklyn, NY, USA",
        "global_code": "87G8M2RX+94"
      },
      "reference": "ChIJlwltPpNbwokRXScJwgS1-hE",
      "scope": "GOOGLE",
      "types": [
        "health",
        "point_of_interest",
        "establishment"
      ],
      "vicinity": "270 Nostrand Avenue, Brooklyn"
    },
    {
      "business_status": "OPERATIONAL",
      "geometry": {
        "location": {
          "lat": 40.6883159,
          "lng": -73.9568761
        },
        "viewport": {
          "northeast": {
            "lat": 40.6896522802915,
            "lng": -73.9556350197085
          },
          "southwest": {
            "lat": 40.6869543197085,
            "lng": -73.9583329802915
          }
        }
      },
      "icon": "https://maps.gstatic.com/mapfiles/place_api/icons/v1/png_71/generic_business-71.png",
      "icon_background_color": "#7B9EB0",
      "icon_mask_base_uri": "https://maps.gstatic.com/mapfiles/place_api/icons/v2/generic_pinlet",
      "name": "Carteret Mortgage",
      "place_id": "ChIJyY3tyZVbwokRfHFdLej4GSU",
      "plus_code": {
        "compound_code": "M2QV+86 New York, NY, USA",
        "global_code": "87G8M2QV+86"
      },
      "reference": "ChIJyY3tyZVbwokRfHFdLej4GSU",
      "scope": "GOOGLE",
      "types": [
        "finance",
        "point_of_interest",
        "establishment"
      ],
      "vicinity": "325 Franklin Avenue, Brooklyn"
    },
    {
      "business_status": "OPERATIONAL",
      "geometry": {
        "location": {
          "lat": 40.6924651,
          "lng": -73.9582495
        },
        "viewport": {
          "northeast": {
            "lat": 40.69393503029149,
            "lng": -73.95692431970849
          },
          "southwest": {
            "lat": 40.6912370697085,
            "lng": -73.95962228029151
          }
        }
      },
      "icon": "https://maps.gstatic.com/mapfiles/place_api/icons/v1/png_71/school-71.png",
      "icon_background_color": "#7B9EB0",
      "icon_mask_base_uri": "https://maps.gstatic.com/mapfiles/place_api/icons/v2/school_pinlet",
      "name": "P369K - The Coy L. Cox School",
      "place_id": "ChIJu5pFsupbwokRw8M6uO9i-_0",
      "plus_code": {
        "compound_code": "M2RR+XP New York, NY, USA",
        "global_code": "87G8M2RR+XP"
      },
      "reference": "ChIJu5pFsupbwokRw8M6uO9i-_0",
      "scope": "GOOGLE",
      "types": [
        "school",
        "point_of_interest",
        "establishment"
      ],
      "vicinity": "300 Willoughby Avenue, Brooklyn"
    },
    {
      "business_status": "OPERATIONAL",
      "geometry": {
        "location": {
          "lat": 40.690586,
          "lng": -73.95931999999999
        },
        "viewport": {
          "northeast": {
            "lat": 40.6918784302915,
            "lng": -73.95791361970848
          },
          "southwest": {
            "lat": 40.6891804697085,
            "lng": -73.9606115802915
          }
        }
      },
      "icon": "https://maps.gstatic.com/mapfiles/place_api/icons/v1/png_71/shopping-71.png",
      "icon_background_color": "#4B96F3",
      "icon_mask_base_uri": "https://maps.gstatic.com/mapfiles/place_api/icons/v2/shoppingcart_pinlet",
      "name": "CTown Supermarkets",
      "opening_hours": {
        "open_now": true
      },
      "photos": [
        {
          "height": 453,
          "html_attributions": [
            "<a href=\"https://maps.google.com/maps/contrib/107682783472425980670\">CTown Supermarkets</a>"
          ],
          "photo_reference": "AeJbb3cUMNce0YmQNFnt9y_lxGKPyR26yl9-GoQS6zp1bRnrFhnpyEl6LJFwY-k8zY_Pzdo3sIbgphfavHLlike-JAAnOjI94Z2EFWU4qqAnoXC8YvzQMYJaCbNB8kctBAnlgJ3-aZFJ-ENN1dNwFB9R080KH33BT9LWOdq-06Qy5sCUskRM",
          "width": 806
        }
      ],
      "place_id": "ChIJTawz4r9bwokRKvztxkipzn4",
      "plus_code": {
        "compound_code": "M2RR+67 New York, NY, USA",
        "global_code": "87G8M2RR+67"
      },
      "price_level": 2,
      "rating": 4.1,
      "reference": "ChIJTawz4r9bwokRKvztxkipzn4",
      "scope": "GOOGLE",
      "types": [
        "supermarket",
        "grocery_or_supermarket",
        "point_of_interest",
        "food",
        "store",
        "establishment"
      ],
      "user_ratings_total": 444,
      "vicinity": "241 Taaffe Place, Brooklyn"
    },
    {
      "business_status": "OPERATIONAL",
      "geometry": {
        "location": {
          "lat": 40.6908766,
          "lng": -73.9522387
        },
        "viewport": {
          "northeast": {
            "lat": 40.69225958029151,
            "lng": -73.9506090197085
          },
          "southwest": {
            "lat": 40.68956161970851,
            "lng": -73.9533069802915
          }
        }
      },
      "icon": "https://maps.gstatic.com/mapfiles/place_api/icons/v1/png_71/generic_business-71.png",
      "icon_background_color": "#7B9EB0",
      "icon_mask_base_uri": "https://maps.gstatic.com/mapfiles/place_api/icons/v2/generic_pinlet",
      "name": "Borlam Charles DDS",
      "place_id": "ChIJlwltPpNbwokRaTeu1I7xW-4",
      "plus_code": {
        "compound_code": "M2RX+94 Brooklyn, NY, USA",
        "global_code": "87G8M2RX+94"
      },
      "reference": "ChIJlwltPpNbwokRaTeu1I7xW-4",
      "scope": "GOOGLE",
      "types": [
        "dentist",
        "health",
        "point_of_interest",
        "establishment"
      ],
      "vicinity": "270 Nostrand Avenue, Brooklyn"
    },
    {
      "business_status": "CLOSED_TEMPORARILY",
      "geometry": {
        "location": {
          "lat": 40.6911293,
          "lng": -73.95469539999999
        },
        "viewport": {
          "northeast": {
            "lat": 40.69241803029149,
            "lng": -73.9533349697085
          },
          "southwest": {
            "lat": 40.6897200697085,
            "lng": -73.95603293029151
          }
        }
      },
      "icon": "https://maps.gstatic.com/mapfiles/place_api/icons/v1/png_71/generic_business-71.png",
      "icon_background_color": "#7B9EB0",
      "icon_mask_base_uri": "https://maps.gstatic.com/mapfiles/place_api/icons/v2/generic_pinlet",
      "name": "Little Star Studio",
      "permanently_closed": true,
      "place_id": "ChIJmWv3upRbwokRkLqi4mAWGik",
      "plus_code": {
        "compound_code": "M2RW+F4 Brooklyn, NY, USA",
        "global_code": "87G8M2RW+F4"
      },
      "rating": 3.7,
      "reference": "ChIJmWv3upRbwokRkLqi4mAWGik",
      "scope": "GOOGLE",
      "types": [
        "point_of_interest",
        "establishment"
      ],
      "user_ratings_total": 3,
      "vicinity": "551 DeKalb Avenue, Brooklyn"
    },
    {
      "business_status": "OPERATIONAL",
      "geometry": {
        "location": {
          "lat": 40.688726,
          "lng": -73.9574578
        },
        "viewport": {
          "northeast": {
            "lat": 40.6900678302915,
            "lng": -73.9559701197085
          },
          "southwest": {
            "lat": 40.6873698697085,
            "lng": -73.9586680802915
          }
        }
      },
      "icon": "https://maps.gstatic.com/mapfiles/place_api/icons/v1/png_71/generic_business-71.png",
      "icon_background_color": "#7B9EB0",
      "icon_mask_base_uri": "https://maps.gstatic.com/mapfiles/place_api/icons/v2/generic_pinlet",
      "name": "Healthy Smile",
      "opening_hours": {
        "open_now": true
      },
      "place_id": "ChIJh8Nrt5VbwokRBbh5YFazC_0",
      "plus_code": {
        "compound_code": "M2QV+F2 New York, NY, USA",
        "global_code": "87G8M2QV+F2"
      },
      "rating": 4.7,
      "reference": "ChIJh8Nrt5VbwokRBbh5YFazC_0",
      "scope": "GOOGLE",
      "types": [
        "dentist",
        "health",
        "point_of_interest",
        "establishment"
      ],
      "user_ratings_total": 377,
      "vicinity": "308 Franklin Avenue, Brooklyn"
    },
    {
      "business_status": "CLOSED_TEMPORARILY",
      "geometry": {
        "location": {
          "lat": 40.69092310000001,
          "lng": -73.9593506
        },
        "viewport": {
          "northeast": {
            "lat": 40.6920469802915,
            "lng": -73.95792891970848
          },
          "southwest": {
            "lat": 40.6893490197085,
            "lng": -73.9606268802915
          }
        }
      },
      "icon": "https://maps.gstatic.com/mapfiles/place_api/icons/v1/png_71/school-71.png",
      "icon_background_color": "#7B9EB0",
      "icon_mask_base_uri": "https://maps.gstatic.com/mapfiles/place_api/icons/v2/school_pinlet",
      "name": "NYC Bass Lessons",
      "permanently_closed": true,
      "place_id": "ChIJnZ8IYpVbwokR9ye9RJIAHGY",
      "plus_code": {
        "compound_code": "M2RR+97 New York, NY, USA",
        "global_code": "87G8M2RR+97"
      },
      "reference": "ChIJnZ8IYpVbwokR9ye9RJIAHGY",
      "scope": "GOOGLE",
      "types": [
        "school",
        "point_of_interest",
        "establishment"
      ],
      "vicinity": "241 Taaffe Place, Brooklyn"
    },
    {
      "business_status": "OPERATIONAL",
      "geometry": {
        "location": {
          "lat": 40.691136,
          "lng": -73.9543046
        },
        "viewport": {
          "northeast": {
            "lat": 40.69244533029149,
            "lng": -73.95293481970852
          },
          "southwest": {
            "lat": 40.6897473697085,
            "lng": -73.95563278029152
          }
        }
      },
      "icon": "https://maps.gstatic.com/mapfiles/place_api/icons/v1/png_71/generic_business-71.png",
      "icon_background_color": "#7B9EB0",
      "icon_mask_base_uri": "https://maps.gstatic.com/mapfiles/place_api/icons/v2/generic_pinlet",
      "name": "Ny Developers & Management",
      "place_id": "ChIJf5MyrpRbwokR_GDXMpsG_TU",
      "plus_code": {
        "compound_code": "M2RW+F7 New York, NY, USA",
        "global_code": "87G8M2RW+F7"
      },
      "rating": 5,
      "reference": "ChIJf5MyrpRbwokR_GDXMpsG_TU",
      "scope": "GOOGLE",
      "types": [
        "point_of_interest",
        "establishment"
      ],
      "user_ratings_total": 1,
      "vicinity": "555 DeKalb Avenue # A, Brooklyn"
    },
    {
      "business_status": "CLOSED_TEMPORARILY",
      "geometry": {
        "location": {
          "lat": 40.6910643,
          "lng": -73.9585182
        },
        "viewport": {
          "northeast": {
            "lat": 40.6924040802915,
            "lng": -73.95725001970851
          },
          "southwest": {
            "lat": 40.6897061197085,
            "lng": -73.95994798029152
          }
        }
      },
      "icon": "https://maps.gstatic.com/mapfiles/place_api/icons/v1/png_71/shopping-71.png",
      "icon_background_color": "#4B96F3",
      "icon_mask_base_uri": "https://maps.gstatic.com/mapfiles/place_api/icons/v2/shopping_pinlet",
      "name": "FungWear Inc.",
      "permanently_closed": true,
      "place_id": "ChIJnZchaJVbwokR3zNQZYbSyAo",
      "plus_code": {
        "compound_code": "M2RR+CH New York, NY, USA",
        "global_code": "87G8M2RR+CH"
      },
      "reference": "ChIJnZchaJVbwokR3zNQZYbSyAo",
      "scope": "GOOGLE",
      "types": [
        "clothing_store",
        "point_of_interest",
        "store",
        "establishment"
      ],
      "vicinity": "965 Kent Avenue, Brooklyn"
    },
    {
      "business_status": "OPERATIONAL",
      "geometry": {
        "location": {
          "lat": 40.6914766,
          "lng": -73.959448
        },
        "viewport": {
          "northeast": {
            "lat": 40.6928151802915,
            "lng": -73.9581883697085
          },
          "southwest": {
            "lat": 40.6901172197085,
            "lng": -73.9608863302915
          }
        }
      },
      "icon": "https://maps.gstatic.com/mapfiles/place_api/icons/v1/png_71/generic_business-71.png",
      "icon_background_color": "#7B9EB0",
      "icon_mask_base_uri": "https://maps.gstatic.com/mapfiles/place_api/icons/v2/generic_pinlet",
      "name": "Stimulate Search",
      "opening_hours": {
        "open_now": false
      },
      "photos": [
        {
          "height": 300,
          "html_attributions": [
            "<a href=\"https://maps.google.com/maps/contrib/104712374669790686019\">Stimulate Search</a>"
          ],
          "photo_reference": "AeJbb3eeIAMow8bZlaUe_ZWtsUErd4aGaYNOE-0vW3Kg6i3SndpYrMAYhuQ881LBLxLaoFZc0q8S7FqNZGe82v9pAw39Up-PR4_R93U8JXglotR-7yKP484oXEab-I27vgU9Xaqf3BLVYKIPfcI9nTFYWCKt5E548t02NRqmP-eg_JTZJPrG",
          "width": 300
        }
      ],
      "place_id": "ChIJH3Y94r9bwokRuArC3WrLUAw",
      "plus_code": {
        "compound_code": "M2RR+H6 Brooklyn, NY, USA",
        "global_code": "87G8M2RR+H6"
      },
      "rating": 3,
      "reference": "ChIJH3Y94r9bwokRuArC3WrLUAw",
      "scope": "GOOGLE",
      "types": [
        "point_of_interest",
        "establishment"
      ],
      "user_ratings_total": 1,
      "vicinity": "213 Taaffe Place, Brooklyn"
    },
    {
      "business_status": "CLOSED_TEMPORARILY",
      "geometry": {
        "location": {
          "lat": 40.6901803,
          "lng": -73.9588352
        },
        "viewport": {
          "northeast": {
            "lat": 40.6916946302915,
            "lng": -73.9575232697085
          },
          "southwest": {
            "lat": 40.6889966697085,
            "lng": -73.96022123029151
          }
        }
      },
      "icon": "https://maps.gstatic.com/mapfiles/place_api/icons/v1/png_71/shopping-71.png",
      "icon_background_color": "#4B96F3",
      "icon_mask_base_uri": "https://maps.gstatic.com/mapfiles/place_api/icons/v2/shopping_pinlet",
      "name": "Rons Cologne Perfume Co, c/o Ronald D JOHNSON SR",
      "permanently_closed": true,
      "place_id": "ChIJN8gu1r9bwokRIaQzM1kRS3w",
      "plus_code": {
        "compound_code": "M2RR+3F Brooklyn, NY, USA",
        "global_code": "87G8M2RR+3F"
      },
      "reference": "ChIJN8gu1r9bwokRIaQzM1kRS3w",
      "scope": "GOOGLE",
      "types": [
        "clothing_store",
        "store",
        "point_of_interest",
        "establishment"
      ],
      "vicinity": "456 DeKalb Avenue #14c, Brooklyn"
    },
    {
      "business_status": "OPERATIONAL",
      "geometry": {
        "location": {
          "lat": 40.6901944,
          "lng": -73.9530874
        },
        "viewport": {
          "northeast": {
            "lat": 40.6916614302915,
            "lng": -73.9517618697085
          },
          "southwest": {
            "lat": 40.6889634697085,
            "lng": -73.95445983029151
          }
        }
      },
      "icon": "https://maps.gstatic.com/mapfiles/place_api/icons/v1/png_71/generic_business-71.png",
      "icon_background_color": "#7B9EB0",
      "icon_mask_base_uri": "https://maps.gstatic.com/mapfiles/place_api/icons/v2/generic_pinlet",
      "name": "Urban Classics Auto Repair",
      "opening_hours": {
        "open_now": false
      },
      "photos": [
        {
          "height": 680,
          "html_attributions": [
            "<a href=\"https://maps.google.com/maps/contrib/110205284012491979700\">Urban Classics Auto Repair</a>"
          ],
          "photo_reference": "AeJbb3c1gq5XUVNABzZ4mGvKKcwC3bUS1LQCqL7jY11bcz_PgSyCBzNfcGsQIZtIcIuWTzwuf8qJsdYsw1vO81WVrm4SMQpnZYJSiko1XDEKmkp9lxNbK5I_goQiWBlMF6LG8XxTRw61GL89697qDEM_LuIBPts3evlmI6G5ohKidsCcSqkI",
          "width": 1021
        }
      ],
      "place_id": "ChIJlYKqrzBawokRbw38a1wgIUs",
      "plus_code": {
        "compound_code": "M2RW+3Q Brooklyn, NY, USA",
        "global_code": "87G8M2RW+3Q"
      },
      "rating": 4.5,
      "reference": "ChIJlYKqrzBawokRbw38a1wgIUs",
      "scope": "GOOGLE",
      "types": [
        "car_repair",
        "point_of_interest",
        "establishment"
      ],
      "user_ratings_total": 288,
      "vicinity": "56 Kosciuszko Street, Brooklyn"
    },
    {
      "business_status": "OPERATIONAL",
      "geometry": {
        "location": {
          "lat": 40.6904793,
          "lng": -73.96005579999999
        },
        "viewport": {
          "northeast": {
            "lat": 40.69177993029151,
            "lng": -73.95869961970848
          },
          "southwest": {
            "lat": 40.68908196970851,
            "lng": -73.9613975802915
          }
        }
      },
      "icon": "https://maps.gstatic.com/mapfiles/place_api/icons/v1/png_71/restaurant-71.png",
      "icon_background_color": "#FF9E67",
      "icon_mask_base_uri": "https://maps.gstatic.com/mapfiles/place_api/icons/v2/restaurant_pinlet",
      "name": "Kennedy Chicken",
      "opening_hours": {
        "open_now": true
      },
      "photos": [
        {
          "height": 3072,
          "html_attributions": [
            "<a href=\"https://maps.google.com/maps/contrib/103846582712702028547\">Habibullah Syed</a>"
          ],
          "photo_reference": "AeJbb3ddiOSjKhD36BjtwLM1uoKJ79XiQGaBqfvId3Kb8DqxniBfj3NRFUsrl95jPLxsClkgVQxyjqisJgxddO0XXNoL6S1tI7yjfAnufeQ0cIdkTO-S1cNzagIisrIM9YRd2kMRysQLOOXLBP7pQCGtNHOQaw0FCOoWsBm3XdGMMofiknTa",
          "width": 4096
        }
      ],
      "place_id": "ChIJx2UI0b9bwokRZ2prMuABl6o",
      "plus_code": {
        "compound_code": "M2RQ+5X New York, NY, USA",
        "global_code": "87G8M2RQ+5X"
      },
      "price_level": 1,
      "rating": 4,
      "reference": "ChIJx2UI0b9bwokRZ2prMuABl6o",
      "scope": "GOOGLE",
      "types": [
        "meal_takeaway",
        "restaurant",
        "food",
        "point_of_interest",
        "establishment"
      ],
      "user_ratings_total": 93,
      "vicinity": "433 DeKalb Avenue, Brooklyn"
    },
    {
      "business_status": "OPERATIONAL",
      "geometry": {
        "location": {
          "lat": 40.690901,
          "lng": -73.95707449999999
        },
        "viewport": {
          "northeast": {
            "lat": 40.6921693302915,
            "lng": -73.95570981970849
          },
          "southwest": {
            "lat": 40.6894713697085,
            "lng": -73.9584077802915
          }
        }
      },
      "icon": "https://maps.gstatic.com/mapfiles/place_api/icons/v1/png_71/shopping-71.png",
      "icon_background_color": "#4B96F3",
      "icon_mask_base_uri": "https://maps.gstatic.com/mapfiles/place_api/icons/v2/shopping_pinlet",
      "name": "ADA Business Supplies",
      "opening_hours": {
        "open_now": false
      },
      "photos": [
        {
          "height": 1039,
          "html_attributions": [
            "<a href=\"https://maps.google.com/maps/contrib/104607899756985160891\">ADA Business Supplies</a>"
          ],
          "photo_reference": "AeJbb3f7TRTHUmL3mGD6MvD0K-dTVmR8x5FbM__R62t4daFDNaE_sk2EXD6KL6dHPPK-KTfIwk5zvah6ty867kL3zb69iGyH_jcqPoX_N_3y4ai2U5qO-aEOYN7uZxB6Xjkul_wTXlIRCklQD4IJQLTp9-4GGCQdJ3yoSAIiTUqHraVmdCQ-",
          "width": 1920
        }
      ],
      "place_id": "ChIJsegMlvfWwokRrtyu7kpypVU",
      "plus_code": {
        "compound_code": "M2RV+95 New York, NY, USA",
        "global_code": "87G8M2RV+95"
      },
      "rating": 4.1,
      "reference": "ChIJsegMlvfWwokRrtyu7kpypVU",
      "scope": "GOOGLE",
      "types": [
        "furniture_store",
        "home_goods_store",
        "store",
        "point_of_interest",
        "establishment"
      ],
      "user_ratings_total": 9,
      "vicinity": "495 DeKalb Avenue, Brooklyn"
    },
    {
      "business_status": "OPERATIONAL",
      "geometry": {
        "location": {
          "lat": 40.690622,
          "lng": -73.9567821
        },
        "viewport": {
          "northeast": {
            "lat": 40.6920428802915,
            "lng": -73.95546011970849
          },
          "southwest": {
            "lat": 40.6893449197085,
            "lng": -73.9581580802915
          }
        }
      },
      "icon": "https://maps.gstatic.com/mapfiles/place_api/icons/v1/png_71/generic_business-71.png",
      "icon_background_color": "#7B9EB0",
      "icon_mask_base_uri": "https://maps.gstatic.com/mapfiles/place_api/icons/v2/generic_pinlet",
      "name": "SimkowitzCo",
      "opening_hours": {
        "open_now": false
      },
      "photos": [
        {
          "height": 250,
          "html_attributions": [
            "<a href=\"https://maps.google.com/maps/contrib/114393426650622805714\">SimkowitzCo</a>"
          ],
          "photo_reference": "AeJbb3eTiiWqB747rdCcMb7yJpMPQ7Ch7yYL09s-hyLqQSX9WCxlzczOplNaWCYw3dXrameYK-EOo_YnErD_bjcuj3Tw7_w9E1mgPBMTq3fnNxDW--M_2hLeZzuLN6526NgCNOXk9ztNZ-OgUhUwrBnkVSZLmDXsPdFThy0Y9y3J99e1Vtsv",
          "width": 250
        }
      ],
      "place_id": "ChIJ5WKX9r9bwokRcBC5gj1oSVM",
      "plus_code": {
        "compound_code": "M2RV+67 New York, NY, USA",
        "global_code": "87G8M2RV+67"
      },
      "rating": 4.6,
      "reference": "ChIJ5WKX9r9bwokRcBC5gj1oSVM",
      "scope": "GOOGLE",
      "types": [
        "insurance_agency",
        "finance",
        "point_of_interest",
        "establishment"
      ],
      "user_ratings_total": 9,
      "vicinity": "500 DeKalb Avenue, Brooklyn"
    },
    {
      "business_status": "CLOSED_TEMPORARILY",
      "geometry": {
        "location": {
          "lat": 40.690617,
          "lng": -73.9564295
        },
        "viewport": {
          "northeast": {
            "lat": 40.6919473302915,
            "lng": -73.9550310197085
          },
          "southwest": {
            "lat": 40.6892493697085,
            "lng": -73.9577289802915
          }
        }
      },
      "icon": "https://maps.gstatic.com/mapfiles/place_api/icons/v1/png_71/civic_building-71.png",
      "icon_background_color": "#7B9EB0",
      "icon_mask_base_uri": "https://maps.gstatic.com/mapfiles/place_api/icons/v2/civic-bldg_pinlet",
      "name": "First Health Pro",
      "permanently_closed": true,
      "photos": [
        {
          "height": 3417,
          "html_attributions": [
            "<a href=\"https://maps.google.com/maps/contrib/103606636016668368600\">First Health Pro</a>"
          ],
          "photo_reference": "AeJbb3cwa3GU_Wyk3Bx52-teWzQnGA4Xr5-jVdIUrN3mo4t4Ah1jvP9Qqm0mpSnV990I-FsaFjSwZ9v_73ahm_CSSWCwl8ku8Xu9A6PMRM50nNKlOcYeL22iU0FgBpa4E2xBZNUE5zoSosT1kV9KGNAWKu_eEIn3Zop4afSrnjmHgIbaH2ob",
          "width": 5616
        }
      ],
      "place_id": "ChIJ82Q6Z-hbwokRcW4W_iz9pdM",
      "plus_code": {
        "compound_code": "M2RV+6C New York, NY, USA",
        "global_code": "87G8M2RV+6C"
      },
      "rating": 3.8,
      "reference": "ChIJ82Q6Z-hbwokRcW4W_iz9pdM",
      "scope": "GOOGLE",
      "types": [
        "point_of_interest",
        "establishment"
      ],
      "user_ratings_total": 11,
      "vicinity": "DeKalb Avenue, Brooklyn"
    },
    {
      "business_status": "OPERATIONAL",
      "geometry": {
        "location": {
          "lat": 40.6908948,
          "lng": -73.9584327
        },
        "viewport": {
          "northeast": {
            "lat": 40.69223168029149,
            "lng": -73.95718991970848
          },
          "southwest": {
            "lat": 40.68953371970849,
            "lng": -73.9598878802915
          }
        }
      },
      "icon": "https://maps.gstatic.com/mapfiles/place_api/icons/v1/png_71/generic_business-71.png",
      "icon_background_color": "#7B9EB0",
      "icon_mask_base_uri": "https://maps.gstatic.com/mapfiles/place_api/icons/v2/generic_pinlet",
      "name": "Bricolage Studio",
      "place_id": "ChIJscd5aZVbwokR-I_AgcjkLEY",
      "plus_code": {
        "compound_code": "M2RR+9J Brooklyn, NY, USA",
        "global_code": "87G8M2RR+9J"
      },
      "rating": 4,
      "reference": "ChIJscd5aZVbwokR-I_AgcjkLEY",
      "scope": "GOOGLE",
      "types": [
        "point_of_interest",
        "establishment"
      ],
      "user_ratings_total": 2,
      "vicinity": "973 Kent Avenue, Brooklyn"
    },
    {
      "business_status": "OPERATIONAL",
      "geometry": {
        "location": {
          "lat": 40.6897713,
          "lng": -73.9575823
        },
        "viewport": {
          "northeast": {
            "lat": 40.6913748,
            "lng": -73.95595595000002
          },
          "southwest": {
            "lat": 40.6881648,
            "lng": -73.96045374999997
          }
        }
      },
      "icon": "https://maps.gstatic.com/mapfiles/place_api/icons/v1/png_71/park-71.png",
      "icon_background_color": "#4DB546",
      "icon_mask_base_uri": "https://maps.gstatic.com/mapfiles/place_api/icons/v2/tree_pinlet",
      "name": "Lafayette Gardens Playground",
      "opening_hours": {
        "open_now": true
      },
      "photos": [
        {
          "height": 960,
          "html_attributions": [
            "<a href=\"https://maps.google.com/maps/contrib/110238049996092047923\">Lafayette Gardens Playground</a>"
          ],
          "photo_reference": "AeJbb3fDbWz9hisaSUY9ucuaBV8TSo3ADtxIW8InAEZAgJpj5NWAMLIWKqSvPlFhr4reDW8EDLBQD-p0xF5Ng8MJYvrAKJkdS4QQXwClKleS4ddzOvSOqV_54FJ52-WzgMQ1vkg3Io_09bNSCiGRIIqOWx5j3O-j5Lvfc5piArsZIi9NnsA4",
          "width": 1280
        }
      ],
      "place_id": "ChIJ37m8rpVbwokRPHOk8WAgOgY",
      "plus_code": {
        "compound_code": "M2QR+WX New York, NY, USA",
        "global_code": "87G8M2QR+WX"
      },
      "rating": 3.7,
      "reference": "ChIJ37m8rpVbwokRPHOk8WAgOgY",
      "scope": "GOOGLE",
      "types": [
        "park",
        "point_of_interest",
        "establishment"
      ],
      "user_ratings_total": 13,
      "vicinity": "Lafayette Ave &, Franklin Avenue"
    },
    {
      "business_status": "CLOSED_TEMPORARILY",
      "geometry": {
        "location": {
          "lat": 40.6910117,
          "lng": -73.9558923
        },
        "viewport": {
          "northeast": {
            "lat": 40.6922895302915,
            "lng": -73.95456016970849
          },
          "southwest": {
            "lat": 40.6895915697085,
            "lng": -73.9572581302915
          }
        }
      },
      "icon": "https://maps.gstatic.com/mapfiles/place_api/icons/v1/png_71/generic_business-71.png",
      "icon_background_color": "#7B9EB0",
      "icon_mask_base_uri": "https://maps.gstatic.com/mapfiles/place_api/icons/v2/generic_pinlet",
      "name": "Landmark Residential",
      "permanently_closed": true,
      "photos": [
        {
          "height": 1836,
          "html_attributions": [
            "<a href=\"https://maps.google.com/maps/contrib/107476071217376943683\">Sherrylan Alleyne</a>"
          ],
          "photo_reference": "AeJbb3fH8u9QJSYXxGsKUxmPeJz-SoUsmUi9gQ2boyyHPUG9lcU90oTAJbAU73jqD192S8M_nPEg7JcO70saDoZ2UvJ5JEO_eV7ms_HbuRldYhBQnsUi6O3R8zq5EjARqfO3fyUL9sGWc7oWHRAPwazHtlBpmzXcb5HcD2eRu2wxHSwF-0lr",
          "width": 3264
        }
      ],
      "place_id": "ChIJhVpf25RbwokRbvXm9_gymBk",
      "plus_code": {
        "compound_code": "M2RV+CJ Brooklyn, NY, USA",
        "global_code": "87G8M2RV+CJ"
      },
      "reference": "ChIJhVpf25RbwokRbvXm9_gymBk",
      "scope": "GOOGLE",
      "types": [
        "point_of_interest",
        "establishment"
      ],
      "vicinity": "525 DeKalb Avenue, Brooklyn"
    },
    {
      "business_status": "CLOSED_TEMPORARILY",
      "geometry": {
        "location": {
          "lat": 40.6910436,
          "lng": -73.9557042
        },
        "viewport": {
          "northeast": {
            "lat": 40.6924080302915,
            "lng": -73.9542222197085
          },
          "southwest": {
            "lat": 40.6897100697085,
            "lng": -73.95692018029152
          }
        }
      },
      "icon": "https://maps.gstatic.com/mapfiles/place_api/icons/v1/png_71/generic_business-71.png",
      "icon_background_color": "#7B9EB0",
      "icon_mask_base_uri": "https://maps.gstatic.com/mapfiles/place_api/icons/v2/generic_pinlet",
      "name": "HFB",
      "permanently_closed": true,
      "place_id": "ChIJ7fKKxJRbwokRg_T5q4xURaM",
      "plus_code": {
        "compound_code": "M2RV+CP Brooklyn, NY, USA",
        "global_code": "87G8M2RV+CP"
      },
      "rating": 4.3,
      "reference": "ChIJ7fKKxJRbwokRg_T5q4xURaM",
      "scope": "GOOGLE",
      "types": [
        "point_of_interest",
        "establishment"
      ],
      "user_ratings_total": 3,
      "vicinity": "992 Bedford Avenue, Brooklyn"
    },
    {
      "business_status": "OPERATIONAL",
      "geometry": {
        "location": {
          "lat": 40.690658,
          "lng": -73.959294
        },
        "viewport": {
          "northeast": {
            "lat": 40.6919114802915,
            "lng": -73.95791131970849
          },
          "southwest": {
            "lat": 40.6892135197085,
            "lng": -73.96060928029151
          }
        }
      },
      "icon": "https://maps.gstatic.com/mapfiles/place_api/icons/v1/png_71/generic_business-71.png",
      "icon_background_color": "#7B9EB0",
      "icon_mask_base_uri": "https://maps.gstatic.com/mapfiles/place_api/icons/v2/generic_pinlet",
      "name": "NYC Feng Shui Consultant - Will LeStrange",
      "opening_hours": {
        "open_now": true
      },
      "photos": [
        {
          "height": 1736,
          "html_attributions": [
            "<a href=\"https://maps.google.com/maps/contrib/117751054353257729145\">NYC Feng Shui Consultant - Will LeStrange</a>"
          ],
          "photo_reference": "AeJbb3cXbPQAw5iq-uLLe6uPTC0Q1bkxkclGsmgLlVJhz_023L228Zl_HlK0WLmHMwMbt7InDObz8DehpgxP6rgXR17VZWn6FxZ-pZzmPJTdhOV7RiwWxnSc9dVBWGUTJawNcvQH9VQfkaBCqAooSUL96k9546-VOq7p7uZ5G92hZvgLtKBZ",
          "width": 2416
        }
      ],
      "place_id": "ChIJVVVVVeF0aYgRMDxajvDZTDo",
      "plus_code": {
        "compound_code": "M2RR+77 Brooklyn, NY, USA",
        "global_code": "87G8M2RR+77"
      },
      "rating": 5,
      "reference": "ChIJVVVVVeF0aYgRMDxajvDZTDo",
      "scope": "GOOGLE",
      "types": [
        "real_estate_agency",
        "general_contractor",
        "health",
        "point_of_interest",
        "establishment"
      ],
      "user_ratings_total": 19,
      "vicinity": "241 Taaffe Place #610, Brooklyn"
    },
    {
      "business_status": "OPERATIONAL",
      "geometry": {
        "location": {
          "lat": 40.6920555,
          "lng": -73.9568097
        },
        "viewport": {
          "northeast": {
            "lat": 40.6934134302915,
            "lng": -73.95537061970849
          },
          "southwest": {
            "lat": 40.69071546970851,
            "lng": -73.9580685802915
          }
        }
      },
      "icon": "https://maps.gstatic.com/mapfiles/place_api/icons/v1/png_71/generic_business-71.png",
      "icon_background_color": "#7B9EB0",
      "icon_mask_base_uri": "https://maps.gstatic.com/mapfiles/place_api/icons/v2/generic_pinlet",
      "name": "ACD Billing Solutions inc.",
      "opening_hours": {
        "open_now": false
      },
      "photos": [
        {
          "height": 267,
          "html_attributions": [
            "<a href=\"https://maps.google.com/maps/contrib/111851349216485695086\">ACD Billing Solutions inc.</a>"
          ],
          "photo_reference": "AeJbb3cyF8W0OyQxPb3afmjOMumQ7zTty2BIKnLWf0Wo4xZADgUloKG5Nwn1w8F2EsUbIX5maCFyUcbqHhR-cuhfmN7gvkntlNwSfaS8c6QNJZMdPozsWZkfIn0Ec_-88FjWpZYLkmDyseGh_t4MReWS5Z3p9Cj9vhqPALXHa1rUy07VsJQ",
          "width": 694
        }
      ],
      "place_id": "ChIJK_03K5VbwokR3qEL9wa1APY",
      "plus_code": {
        "compound_code": "M2RV+R7 Brooklyn, NY, USA",
        "global_code": "87G8M2RV+R7"
      },
      "rating": 5,
      "reference": "ChIJK_03K5VbwokR3qEL9wa1APY",
      "scope": "GOOGLE",
      "types": [
        "finance",
        "health",
        "point_of_interest",
        "establishment"
      ],
      "user_ratings_total": 2,
      "vicinity": "206 Skillman Street, Brooklyn"
    },
    {
      "business_status": "OPERATIONAL",
      "geometry": {
        "location": {
          "lat": 40.6921253,
          "lng": -73.9579416
        },
        "viewport": {
          "northeast": {
            "lat": 40.6936415802915,
            "lng": -73.95642641970848
          },
          "southwest": {
            "lat": 40.6909436197085,
            "lng": -73.9591243802915
          }
        }
      },
      "icon": "https://maps.gstatic.com/mapfiles/place_api/icons/v1/png_71/generic_business-71.png",
      "icon_background_color": "#7B9EB0",
      "icon_mask_base_uri": "https://maps.gstatic.com/mapfiles/place_api/icons/v2/generic_pinlet",
      "name": "Star Spangled Playground",
      "opening_hours": {
        "open_now": true
      },
      "photos": [
        {
          "height": 3000,
          "html_attributions": [
            "<a href=\"https://maps.google.com/maps/contrib/114792142271428661530\">Eutiquio Marin</a>"
          ],
          "photo_reference": "AeJbb3fDRlUbZD8bO2Kt2MMmhzFv67HiRDtk_I0QK569j5OJiIzDSgeqIM4u0R3aHJ0d7UB0h3miCUac9ihoItmAlm7MIzbv4p3f-vupKN_dERCAEUYf-GNUY-sdBVhtu1HJV_IQC5bXNtJL5Quh2Fo6ZqYQCowlFzL7H7xguyPF_wZyWGli",
          "width": 4000
        }
      ],
      "place_id": "ChIJ28bQM5VbwokRyrPA-zwlM9M",
      "plus_code": {
        "compound_code": "M2RR+VR New York, NY, USA",
        "global_code": "87G8M2RR+VR"
      },
      "rating": 4.1,
      "reference": "ChIJ28bQM5VbwokRyrPA-zwlM9M",
      "scope": "GOOGLE",
      "types": [
        "point_of_interest",
        "establishment"
      ],
      "user_ratings_total": 69,
      "vicinity": "194 Franklin Avenue, Brooklyn"
    },
    {
      "business_status": "CLOSED_TEMPORARILY",
      "geometry": {
        "location": {
          "lat": 40.6915949,
          "lng": -73.9590877
        },
        "viewport": {
          "northeast": {
            "lat": 40.6929649302915,
            "lng": -73.9575932697085
          },
          "southwest": {
            "lat": 40.6902669697085,
            "lng": -73.9602912302915
          }
        }
      },
      "icon": "https://maps.gstatic.com/mapfiles/place_api/icons/v1/png_71/generic_business-71.png",
      "icon_background_color": "#7B9EB0",
      "icon_mask_base_uri": "https://maps.gstatic.com/mapfiles/place_api/icons/v2/generic_pinlet",
      "name": "Strategies For Planned Change",
      "permanently_closed": true,
      "place_id": "ChIJLZq6QpVbwokRFwqoCt996Os",
      "plus_code": {
        "compound_code": "M2RR+J9 Brooklyn, NY, USA",
        "global_code": "87G8M2RR+J9"
      },
      "reference": "ChIJLZq6QpVbwokRFwqoCt996Os",
      "scope": "GOOGLE",
      "types": [
        "point_of_interest",
        "establishment"
      ],
      "vicinity": "970 Kent Avenue, Brooklyn"
    },
    {
      "business_status": "OPERATIONAL",
      "geometry": {
        "location": {
          "lat": 40.6909149,
          "lng": -73.9596251
        },
        "viewport": {
          "northeast": {
            "lat": 40.6922291802915,
            "lng": -73.9582163697085
          },
          "southwest": {
            "lat": 40.6895312197085,
            "lng": -73.9609143302915
          }
        }
      },
      "icon": "https://maps.gstatic.com/mapfiles/place_api/icons/v1/png_71/restaurant-71.png",
      "icon_background_color": "#FF9E67",
      "icon_mask_base_uri": "https://maps.gstatic.com/mapfiles/place_api/icons/v2/restaurant_pinlet",
      "name": "Taste Korea 232",
      "opening_hours": {
        "open_now": true
      },
      "photos": [
        {
          "height": 720,
          "html_attributions": [
            "<a href=\"https://maps.google.com/maps/contrib/101443542021698571395\">Taste Korea 232</a>"
          ],
          "photo_reference": "AeJbb3cQDQgWhRpglli8HWpaUhRT8pIY9MXBiIZYzKrQD6jpQJ6qwgzj9lym2WfAwIKoz8irAOM4I91P8zHNJgg3nEwQucJ0lKkBoDbA3RQBPXxi4nrl2KuPSPFhtXIVXwy-GhP7pYguuqFEYt9x_OKNTHG9h5o00cph6MsHgOp9maaWwFt_",
          "width": 960
        }
      ],
      "place_id": "ChIJu68y379bwokR-oG-hDOAO2M",
      "plus_code": {
        "compound_code": "M2RR+94 Brooklyn, NY, USA",
        "global_code": "87G8M2RR+94"
      },
      "price_level": 2,
      "rating": 4.3,
      "reference": "ChIJu68y379bwokR-oG-hDOAO2M",
      "scope": "GOOGLE",
      "types": [
        "meal_delivery",
        "restaurant",
        "food",
        "point_of_interest",
        "establishment"
      ],
      "user_ratings_total": 254,
      "vicinity": "232 Taaffe Place, Brooklyn"
    },
    {
      "business_status": "OPERATIONAL",
      "geometry": {
        "location": {
          "lat": 40.69052479999999,
          "lng": -73.9551475
        },
        "viewport": {
          "northeast": {
            "lat": 40.69185573029149,
            "lng": -73.95388481970849
          },
          "southwest": {
            "lat": 40.68915776970849,
            "lng": -73.9565827802915
          }
        }
      },
      "icon": "https://maps.gstatic.com/mapfiles/place_api/icons/v1/png_71/generic_business-71.png",
      "icon_background_color": "#7B9EB0",
      "icon_mask_base_uri": "https://maps.gstatic.com/mapfiles/place_api/icons/v2/generic_pinlet",
      "name": "Robert Oliver Metalworks",
      "opening_hours": {
        "open_now": true
      },
      "photos": [
        {
          "height": 461,
          "html_attributions": [
            "<a href=\"https://maps.google.com/maps/contrib/101141501580914827946\">Robert Oliver Metalworks</a>"
          ],
          "photo_reference": "AeJbb3f2P9Dx8Dz4XdZ79U-302zHYAfz94447M6X6kxU_uF7eL6r9DMnCbHNGz4cddag3ZLQyQ8cvX_Yf8dSqq9oax-wEPkK6eya9iT0XWDqml_4A2sHAsv2ZTbx7BP0nYOP--Q_x-9jaByH52IOl3c9uQE2xhR65x8c57ZoGQUOwQMGXM7j",
          "width": 639
        }
      ],
      "place_id": "ChIJndxClZRbwokR8jOoDcvVy0U",
      "plus_code": {
        "compound_code": "M2RV+6W Brooklyn, NY, USA",
        "global_code": "87G8M2RV+6W"
      },
      "reference": "ChIJndxClZRbwokR8jOoDcvVy0U",
      "scope": "GOOGLE",
      "types": [
        "point_of_interest",
        "establishment"
      ],
      "vicinity": "981 Bedford Avenue, Brooklyn"
    },
    {
      "business_status": "OPERATIONAL",
      "geometry": {
        "location": {
          "lat": 40.6907716,
          "lng": -73.9551384
        },
        "viewport": {
          "northeast": {
            "lat": 40.6921120802915,
            "lng": -73.95390721970848
          },
          "southwest": {
            "lat": 40.6894141197085,
            "lng": -73.9566051802915
          }
        }
      },
      "icon": "https://maps.gstatic.com/mapfiles/place_api/icons/v1/png_71/generic_business-71.png",
      "icon_background_color": "#7B9EB0",
      "icon_mask_base_uri": "https://maps.gstatic.com/mapfiles/place_api/icons/v2/generic_pinlet",
      "name": "Chase Mortgage",
      "opening_hours": {
        "open_now": false
      },
      "place_id": "ChIJ-aiYwZRbwokRfn3ChHTnqg4",
      "plus_code": {
        "compound_code": "M2RV+8W Brooklyn, NY, USA",
        "global_code": "87G8M2RV+8W"
      },
      "reference": "ChIJ-aiYwZRbwokRfn3ChHTnqg4",
      "scope": "GOOGLE",
      "types": [
        "finance",
        "point_of_interest",
        "establishment"
      ],
      "vicinity": "975 Bedford Avenue, Brooklyn"
    },
    {
      "business_status": "OPERATIONAL",
      "geometry": {
        "location": {
          "lat": 40.6905905,
          "lng": -73.95977189999999
        },
        "viewport": {
          "northeast": {
            "lat": 40.6918509802915,
            "lng": -73.9584208197085
          },
          "southwest": {
            "lat": 40.6891530197085,
            "lng": -73.96111878029151
          }
        }
      },
      "icon": "https://maps.gstatic.com/mapfiles/place_api/icons/v1/png_71/generic_business-71.png",
      "icon_background_color": "#7B9EB0",
      "icon_mask_base_uri": "https://maps.gstatic.com/mapfiles/place_api/icons/v2/generic_pinlet",
      "name": "Prominis Medical Services",
      "opening_hours": {
        "open_now": false
      },
      "photos": [
        {
          "height": 621,
          "html_attributions": [
            "<a href=\"https://maps.google.com/maps/contrib/111089886074842726848\">Prominis Medical Services</a>"
          ],
          "photo_reference": "AeJbb3dbRqOv0O1IJfHufm3nJdcEPXaO2-UhQJ89WoC10Z-4B8D_k64JZ4epk3nWOYAvEM0SkoJZctGicyhpti9iGNgVbtAl551xR4HTRBBP_Rzp31mflgKgMPKvxis-m_uWVQ3QiIhVcKcU2tXR185Qkv81bqhZHSOyrG5mKvaSiQys1Txk",
          "width": 602
        }
      ],
      "place_id": "ChIJbalf179bwokREeN2zFgWwcA",
      "plus_code": {
        "compound_code": "M2RR+63 Brooklyn, NY, USA",
        "global_code": "87G8M2RR+63"
      },
      "rating": 3.1,
      "reference": "ChIJbalf179bwokREeN2zFgWwcA",
      "scope": "GOOGLE",
      "types": [
        "health",
        "point_of_interest",
        "establishment"
      ],
      "user_ratings_total": 11,
      "vicinity": "443 DeKalb Avenue, Brooklyn"
    },
    {
      "business_status": "OPERATIONAL",
      "geometry": {
        "location": {
          "lat": 40.691539,
          "lng": -73.959454
        },
        "viewport": {
          "northeast": {
            "lat": 40.6928772302915,
            "lng": -73.95819756970849
          },
          "southwest": {
            "lat": 40.6901792697085,
            "lng": -73.9608955302915
          }
        }
      },
      "icon": "https://maps.gstatic.com/mapfiles/place_api/icons/v1/png_71/generic_business-71.png",
      "icon_background_color": "#7B9EB0",
      "icon_mask_base_uri": "https://maps.gstatic.com/mapfiles/place_api/icons/v2/generic_pinlet",
      "name": "Intense Movers",
      "opening_hours": {
        "open_now": true
      },
      "photos": [
        {
          "height": 3024,
          "html_attributions": [
            "<a href=\"https://maps.google.com/maps/contrib/116256469650505752640\">Wai Lee</a>"
          ],
          "photo_reference": "AeJbb3dvAtvYMjQq6zJkUhXCO2onxNEe7rvR1pmqwg_-AAXJrdX_wbjDgjIC7_B0Je8kt4c6MQ_69o2KD5btnioOZYxgjAHQAP_xf-qdMynrZkzKIa-yCNmbdZD16-nICz6VRIXX7DmdyD8UW5Vdc8Ef-SepdKTJMaDVx1X_zkm4uLoL6o-V",
          "width": 4032
        }
      ],
      "place_id": "ChIJSaIr4b9bwokR35GTl4bca7Q",
      "plus_code": {
        "compound_code": "M2RR+J6 New York, NY, USA",
        "global_code": "87G8M2RR+J6"
      },
      "rating": 4.9,
      "reference": "ChIJSaIr4b9bwokR35GTl4bca7Q",
      "scope": "GOOGLE",
      "types": [
        "moving_company",
        "storage",
        "store",
        "point_of_interest",
        "establishment"
      ],
      "user_ratings_total": 326,
      "vicinity": "213 Taaffe Place, Brooklyn"
    }
  ],
  "status": "OK"
}