{
  "html_attributions": [],
  "results": [
    {
      "geometry": {
        "location": {
          "lat": 40.7127753,
          "lng": -74.0059728
        },
        "viewport": {
          "northeast": {
            "lat": 40.91757705070789,
            "lng": -73.70027206817629
          },
          "southwest": {
            "lat": 40.47739906045452,
            "lng": -74.25908991427882
          }
        }
      },
      "icon": "https://maps.gstatic.com/mapfiles/place_api/icons/v1/png_71/geocode-71.png",
      "icon_background_color": "#7B9EB0",
      "icon_mask_base_uri": "https://maps.gstatic.com/mapfiles/place_api/icons/v2/generic_pinlet",
      "name": "\u7d10\u7d04",
      "photos": [
        {
          "height": 600,
          "html_attributions": [
            "<a href=\"https://maps.google.com/maps/contrib/102389334567210814614\">Bukurie</a>"
          ],
          "photo_reference": "AeJbb3cn_QGiRHCsz5o_b-l7NzzAc4KTB7rgUy699bVVyDK25_8_1UdRntqafk-6fhFTxHG2TMUacOUYczQ3JdTabTgyPJ_ZjRUUKxhh_i_JGYnIaE5Dlf2g2kRN3ln-38qhlpxzXrAhq-W4ZmcnWFH1d9R8iu4BRrp1g9WWrcfvx8z0AfVN",
          "width": 480
        }
      ],
      "place_id": "ChIJOwg_06VPwokRYv534QaPC8g",
      "reference": "ChIJOwg_06VPwokRYv534QaPC8g",
      "scope": "GOOGLE",
      "types": [
        "locality",
        "political"
      ],
      "vicinity": "\u7d10\u7d04"
    },
    {
      "business_status": "OPERATIONAL",
      "geometry": {
        "location": {
          "lat": 40.7052672,
          "lng": -73.9181038
        },
        "viewport": {
          "northeast": {
            "lat": 40.7065818302915,
            "lng": -73.91683051970848
          },
          "southwest": {
            "lat": 40.70388386970851,
            "lng": -73.91952848029149
          }
        }
      },
      "icon": "https://maps.gstatic.com/mapfiles/place_api/icons/v1/png_71/generic_business-71.png",
      "icon_background_color": "#7B9EB0",
      "icon_mask_base_uri": "https://maps.gstatic.com/mapfiles/place_api/icons/v2/generic_pinlet",
      "name": "Lo Peter Y MD",
      "place_id": "ChIJdWmXCx5cwokRrrIDLYWTLy8",
      "plus_code": {
        "compound_code": "P34J+4Q \u7f8e\u570b\u7d10\u7d04",
        "global_code": "87G8P34J+4Q"
      },
      "reference": "ChIJdWmXCx5cwokRrrIDLYWTLy8",
      "scope": "GOOGLE",
      "types": [
        "doctor",
        "health",
        "point_of_interest",
        "establishment"
      ],
      "vicinity": "122 Saint Nicholas Avenue, Brooklyn"
    },
    {
      "business_status": "OPERATIONAL",
      "geometry": {
        "location": {
          "lat": 40.7041398,
          "lng": -73.91756579999999
        },
        "viewport": {
          "northeast": {
            "lat": 40.7053423802915,
            "lng": -73.91604816970849
          },
          "southwest": {
            "lat": 40.7026444197085,
            "lng": -73.9187461302915
          }
        }
      },
      "icon": "https://maps.gstatic.com/mapfiles/place_api/icons/v1/png_71/generic_business-71.png",
      "icon_background_color": "#7B9EB0",
      "icon_mask_base_uri": "https://maps.gstatic.com/mapfiles/place_api/icons/v2/generic_pinlet",
      "name": "Panagiotis Zenetos",
      "place_id": "ChIJ3fvDZB5cwokRQ4Hgw0_bwOU",
      "plus_code": {
        "compound_code": "P33J+MX \u7f8e\u570b\u7d10\u7d04",
        "global_code": "87G8P33J+MX"
      },
      "rating": 3,
      "reference": "ChIJ3fvDZB5cwokRQ4Hgw0_bwOU",
      "scope": "GOOGLE",
      "types": [
        "doctor",
        "health",
        "point_of_interest",
        "establishment"
      ],
      "user_ratings_total": 6,
      "vicinity": "374 Stockholm Street, Brooklyn"
    },
    {
      "business_status": "OPERATIONAL",
      "geometry": {
        "location": {
          "lat": 40.7046089,
          "lng": -73.9245904
        },
        "viewport": {
          "northeast": {
            "lat": 40.7060047302915,
            "lng": -73.9233322197085
          },
          "southwest": {
            "lat": 40.7033067697085,
            "lng": -73.9260301802915
          }
        }
      },
      "icon": "https://maps.gstatic.com/mapfiles/place_api/icons/v1/png_71/restaurant-71.png",
      "icon_background_color": "#FF9E67",
      "icon_mask_base_uri": "https://maps.gstatic.com/mapfiles/place_api/icons/v2/restaurant_pinlet",
      "name": "Arepera Guacuco",
      "opening_hours": {
        "open_now": true
      },
      "photos": [
        {
          "height": 4032,
          "html_attributions": [
            "<a href=\"https://maps.google.com/maps/contrib/107910435286058384719\">Tomas Orlando Aguilar Chagin</a>"
          ],
          "photo_reference": "AeJbb3fwtyfWYkvlWUTOxnyopFLl2RABKIgvPet9ONTl23zNBab4vQ27LQaVGPQclxK0EikFhqFqMrpEWEkpsAvZ8Bma1seNwNZYTjy0rMDAijegAKcgMSyY6QImBt7aKHcyZuZYcPV07VA8A53ws9KDG-o2bNCjE9QHjnMHWamzC9fedkvN",
          "width": 3024
        }
      ],
      "place_id": "ChIJA8vi1QJcwokRsUBXcVCMFO4",
      "plus_code": {
        "compound_code": "P33G+R5 \u7f8e\u570b\u7d10\u7d04",
        "global_code": "87G8P33G+R5"
      },
      "price_level": 1,
      "rating": 4.5,
      "reference": "ChIJA8vi1QJcwokRsUBXcVCMFO4",
      "scope": "GOOGLE",
      "types": [
        "restaurant",
        "food",
        "point_of_interest",
        "establishment"
      ],
      "user_ratings_total": 964,
      "vicinity": "44 Irving Avenue, Brooklyn"
    },
    {
      "business_status": "OPERATIONAL",
      "geometry": {
        "location": {
          "lat": 40.704168,
          "lng": -73.917684
        },
        "viewport": {
          "northeast": {
            "lat": 40.7053564802915,
            "lng": -73.9161204697085
          },
          "southwest": {
            "lat": 40.7026585197085,
            "lng": -73.91881843029151
          }
        }
      },
      "icon": "https://maps.gstatic.com/mapfiles/place_api/icons/v1/png_71/generic_business-71.png",
      "icon_background_color": "#7B9EB0",
      "icon_mask_base_uri": "https://maps.gstatic.com/mapfiles/place_api/icons/v2/generic_pinlet",
      "name": "Wyckoff Heights Medical Center: Ahram Joseph MD",
      "place_id": "ChIJ3fvDZB5cwokRsEOnEr7sfEQ",
      "plus_code": {
        "compound_code": "P33J+MW \u7f8e\u570b\u7d10\u7d04",
        "global_code": "87G8P33J+MW"
      },
      "reference": "ChIJ3fvDZB5cwokRsEOnEr7sfEQ",
      "scope": "GOOGLE",
      "types": [
        "doctor",
        "health",
        "point_of_interest",
        "establishment"
      ],
      "vicinity": "374 Stockholm Street, Brooklyn"
    },
    {
      "business_status": "OPERATIONAL",
      "geometry": {
        "location": {
          "lat": 40.704168,
          "lng": -73.917684
        },
        "viewport": {
          "northeast": {
            "lat": 40.7053564802915,
            "lng": -73.9161204697085
          },
          "southwest": {
            "lat": 40.7026585197085,
            "lng": -73.91881843029151
          }
        }
      },
      "icon": "https://maps.gstatic.com/mapfiles/place_api/icons/v1/png_71/generic_business-71.png",
      "icon_background_color": "#7B9EB0",
      "icon_mask_base_uri": "https://maps.gstatic.com/mapfiles/place_api/icons/v2/generic_pinlet",
      "name": "Wyckoff Heights Medical Center: Samii Mohsen MD",
      "place_id": "ChIJ3fvDZB5cwokRrD_USAQEAQo",
      "plus_code": {
        "compound_code": "P33J+MW \u7f8e\u570b\u7d10\u7d04",
        "global_code": "87G8P33J+MW"
      },
      "reference": "ChIJ3fvDZB5cwokRrD_USAQEAQo",
      "scope": "GOOGLE",
      "types": [
        "doctor",
        "health",
        "point_of_interest",
        "establishment"
      ],
      "vicinity": "374 Stockholm Street, Brooklyn"
    },
    {
      "business_status": "OPERATIONAL",
      "geometry": {
        "location": {
          "lat": 40.7041145,
          "lng": -73.9176832
        },
        "viewport": {
          "northeast": {
            "lat": 40.7053297302915,
            "lng": -73.9161369697085
          },
          "southwest": {
            "lat": 40.7026317697085,
            "lng": -73.91883493029151
          }
        }
      },
      "icon": "https://maps.gstatic.com/mapfiles/place_api/icons/v1/png_71/generic_business-71.png",
      "icon_background_color": "#7B9EB0",
      "icon_mask_base_uri": "https://maps.gstatic.com/mapfiles/place_api/icons/v2/generic_pinlet",
      "name": "Dr. Arkady Bilenko, MD",
      "place_id": "ChIJ3fvDZB5cwokR53sjN-BX6OE",
      "plus_code": {
        "compound_code": "P33J+JW \u7f8e\u570b\u7d10\u7d04",
        "global_code": "87G8P33J+JW"
      },
      "reference": "ChIJ3fvDZB5cwokR53sjN-BX6OE",
      "scope": "GOOGLE",
      "types": [
        "doctor",
        "health",
        "point_of_interest",
        "establishment"
      ],
      "vicinity": "374 Stockholm Street, Brooklyn"
    },
    {
      "business_status": "OPERATIONAL",
      "geometry": {
        "location": {
          "lat": 40.7041533,
          "lng": -73.91764719999999
        },
        "viewport": {
          "northeast": {
            "lat": 40.7053491302915,
            "lng": -73.91609981970848
          },
          "southwest": {
            "lat": 40.70265116970851,
            "lng": -73.9187977802915
          }
        }
      },
      "icon": "https://maps.gstatic.com/mapfiles/place_api/icons/v1/png_71/generic_business-71.png",
      "icon_background_color": "#7B9EB0",
      "icon_mask_base_uri": "https://maps.gstatic.com/mapfiles/place_api/icons/v2/generic_pinlet",
      "name": "Wyckoff Heights Medical Center: Orugunta Raveendra B MD",
      "place_id": "ChIJ3fvDZB5cwokRf7Uutvc4mXg",
      "plus_code": {
        "compound_code": "P33J+MW \u7f8e\u570b\u7d10\u7d04",
        "global_code": "87G8P33J+MW"
      },
      "reference": "ChIJ3fvDZB5cwokRf7Uutvc4mXg",
      "scope": "GOOGLE",
      "types": [
        "doctor",
        "health",
        "point_of_interest",
        "establishment"
      ],
      "vicinity": "374 Stockholm Street, Brooklyn"
    },
    {
      "business_status": "OPERATIONAL",
      "geometry": {
        "location": {
          "lat": 40.7041335,
          "lng": -73.91757129999999
        },
        "viewport": {
          "northeast": {
            "lat": 40.7053392302915,
            "lng": -73.91605396970849
          },
          "southwest": {
            "lat": 40.7026412697085,
            "lng": -73.9187519302915
          }
        }
      },
      "icon": "https://maps.gstatic.com/mapfiles/place_api/icons/v1/png_71/generic_business-71.png",
      "icon_background_color": "#7B9EB0",
      "icon_mask_base_uri": "https://maps.gstatic.com/mapfiles/place_api/icons/v2/generic_pinlet",
      "name": "Viswanathan Vasudha MD",
      "place_id": "ChIJ3fvDZB5cwokRt2-eEGr0ODA",
      "plus_code": {
        "compound_code": "P33J+MX \u7f8e\u570b\u7d10\u7d04",
        "global_code": "87G8P33J+MX"
      },
      "reference": "ChIJ3fvDZB5cwokRt2-eEGr0ODA",
      "scope": "GOOGLE",
      "types": [
        "doctor",
        "health",
        "point_of_interest",
        "establishment"
      ],
      "vicinity": "374 Stockholm Street, Brooklyn"
    },
    {
      "business_status": "OPERATIONAL",
      "geometry": {
        "location": {
          "lat": 40.7041145,
          "lng": -73.9176832
        },
        "viewport": {
          "northeast": {
            "lat": 40.7053297302915,
            "lng": -73.9161369697085
          },
          "southwest": {
            "lat": 40.7026317697085,
            "lng": -73.91883493029151
          }
        }
      },
      "icon": "https://maps.gstatic.com/mapfiles/place_api/icons/v1/png_71/generic_business-71.png",
      "icon_background_color": "#7B9EB0",
      "icon_mask_base_uri": "https://maps.gstatic.com/mapfiles/place_api/icons/v2/generic_pinlet",
      "name": "Dr. Sony Loiseau, MD",
      "place_id": "ChIJ3fvDZB5cwokRUq7J87XII8Y",
      "plus_code": {
        "compound_code": "P33J+JW \u7f8e\u570b\u7d10\u7d04",
        "global_code": "87G8P33J+JW"
      },
      "reference": "ChIJ3fvDZB5cwokRUq7J87XII8Y",
      "scope": "GOOGLE",
      "types": [
        "doctor",
        "health",
        "point_of_interest",
        "establishment"
      ],
      "vicinity": "374 Stockholm Street, Brooklyn"
    },
    {
      "business_status": "OPERATIONAL",
      "geometry": {
        "location": {
          "lat": 40.7041533,
          "lng": -73.91764719999999
        },
        "viewport": {
          "northeast": {
            "lat": 40.7053491302915,
            "lng": -73.91609981970848
          },
          "southwest": {
            "lat": 40.70265116970851,
            "lng": -73.9187977802915
          }
        }
      },
      "icon": "https://maps.gstatic.com/mapfiles/place_api/icons/v1/png_71/generic_business-71.png",
      "icon_background_color": "#7B9EB0",
      "icon_mask_base_uri": "https://maps.gstatic.com/mapfiles/place_api/icons/v2/generic_pinlet",
      "name": "Wyckoff Heights Dental Services",
      "opening_hours": {
        "open_now": false
      },
      "place_id": "ChIJ3fvDZB5cwokR4nCOVryjJmI",
      "plus_code": {
        "compound_code": "P33J+MW \u7f8e\u570b\u7d10\u7d04",
        "global_code": "87G8P33J+MW"
      },
      "rating": 2.3,
      "reference": "ChIJ3fvDZB5cwokR4nCOVryjJmI",
      "scope": "GOOGLE",
      "types": [
        "dentist",
        "health",
        "point_of_interest",
        "establishment"
      ],
      "user_ratings_total": 33,
      "vicinity": "374 Stockholm Street, Brooklyn"
    },
    {
      "business_status": "OPERATIONAL",
      "geometry": {
        "location": {
          "lat": 40.7041145,
          "lng": -73.9176832
        },
        "viewport": {
          "northeast": {
            "lat": 40.7053297302915,
            "lng": -73.9161369697085
          },
          "southwest": {
            "lat": 40.7026317697085,
            "lng": -73.91883493029151
          }
        }
      },
      "icon": "https://maps.gstatic.com/mapfiles/place_api/icons/v1/png_71/generic_business-71.png",
      "icon_background_color": "#7B9EB0",
      "icon_mask_base_uri": "https://maps.gstatic.com/mapfiles/place_api/icons/v2/generic_pinlet",
      "name": "Brandeis Fertility Center",
      "opening_hours": {
        "open_now": true
      },
      "place_id": "ChIJ3fvDZB5cwokRPooKZbkTAS4",
      "plus_code": {
        "compound_code": "P33J+JW \u7f8e\u570b\u7d10\u7d04",
        "global_code": "87G8P33J+JW"
      },
      "reference": "ChIJ3fvDZB5cwokRPooKZbkTAS4",
      "scope": "GOOGLE",
      "types": [
        "doctor",
        "health",
        "point_of_interest",
        "establishment"
      ],
      "vicinity": "374 Stockholm Street, Brooklyn"
    },
    {
      "business_status": "OPERATIONAL",
      "geometry": {
        "location": {
          "lat": 40.70408200000001,
          "lng": -73.9177493
        },
        "viewport": {
          "northeast": {
            "lat": 40.7053091302915,
            "lng": -73.9161928197085
          },
          "southwest": {
            "lat": 40.7026111697085,
            "lng": -73.9188907802915
          }
        }
      },
      "icon": "https://maps.gstatic.com/mapfiles/place_api/icons/v1/png_71/generic_business-71.png",
      "icon_background_color": "#7B9EB0",
      "icon_mask_base_uri": "https://maps.gstatic.com/mapfiles/place_api/icons/v2/generic_pinlet",
      "name": "Brenda L. Dash, MS",
      "place_id": "ChIJ3fvDZB5cwokRVXI2Nk70LCw",
      "plus_code": {
        "compound_code": "P33J+JW \u7f8e\u570b\u7d10\u7d04",
        "global_code": "87G8P33J+JW"
      },
      "reference": "ChIJ3fvDZB5cwokRVXI2Nk70LCw",
      "scope": "GOOGLE",
      "types": [
        "health",
        "point_of_interest",
        "establishment"
      ],
      "vicinity": "374 Stockholm Street, Brooklyn"
    },
    {
      "business_status": "OPERATIONAL",
      "geometry": {
        "location": {
          "lat": 40.70461939999999,
          "lng": -73.917525
        },
        "viewport": {
          "northeast": {
            "lat": 40.70558218029149,
            "lng": -73.91597791970851
          },
          "southwest": {
            "lat": 40.7028842197085,
            "lng": -73.91867588029152
          }
        }
      },
      "icon": "https://maps.gstatic.com/mapfiles/place_api/icons/v1/png_71/generic_business-71.png",
      "icon_background_color": "#7B9EB0",
      "icon_mask_base_uri": "https://maps.gstatic.com/mapfiles/place_api/icons/v2/generic_pinlet",
      "name": "Spirollari Mirjeta DDS",
      "place_id": "ChIJ3fvDZB5cwokRKir-uDpfoNA",
      "plus_code": {
        "compound_code": "P33J+RX \u7f8e\u570b\u7d10\u7d04",
        "global_code": "87G8P33J+RX"
      },
      "rating": 5,
      "reference": "ChIJ3fvDZB5cwokRKir-uDpfoNA",
      "scope": "GOOGLE",
      "types": [
        "dentist",
        "health",
        "point_of_interest",
        "establishment"
      ],
      "user_ratings_total": 1,
      "vicinity": "374 Stockholm Street, Brooklyn"
    },
    {
      "business_status": "OPERATIONAL",
      "geometry": {
        "location": {
          "lat": 40.7041145,
          "lng": -73.9176832
        },
        "viewport": {
          "northeast": {
            "lat": 40.7053297302915,
            "lng": -73.9161369697085
          },
          "southwest": {
            "lat": 40.7026317697085,
            "lng": -73.91883493029151
          }
        }
      },
      "icon": "https://maps.gstatic.com/mapfiles/place_api/icons/v1/png_71/generic_business-71.png",
      "icon_background_color": "#7B9EB0",
      "icon_mask_base_uri": "https://maps.gstatic.com/mapfiles/place_api/icons/v2/generic_pinlet",
      "name": "Dr. Sanjivan V Patel",
      "place_id": "ChIJ3fvDZB5cwokR8RZzYL4ippk",
      "plus_code": {
        "compound_code": "P33J+JW \u7f8e\u570b\u7d10\u7d04",
        "global_code": "87G8P33J+JW"
      },
      "reference": "ChIJ3fvDZB5cwokR8RZzYL4ippk",
      "scope": "GOOGLE",
      "types": [
        "doctor",
        "health",
        "point_of_interest",
        "establishment"
      ],
      "vicinity": "374 Stockholm Street, Brooklyn"
    },
    {
      "business_status": "OPERATIONAL",
      "geometry": {
        "location": {
          "lat": 40.7041145,
          "lng": -73.9176832
        },
        "viewport": {
          "northeast": {
            "lat": 40.7053297302915,
            "lng": -73.9161369697085
          },
          "southwest": {
            "lat": 40.7026317697085,
            "lng": -73.91883493029151
          }
        }
      },
      "icon": "https://maps.gstatic.com/mapfiles/place_api/icons/v1/png_71/generic_business-71.png",
      "icon_background_color": "#7B9EB0",
      "icon_mask_base_uri": "https://maps.gstatic.com/mapfiles/place_api/icons/v2/generic_pinlet",
      "name": "Dr. Saphwat L. Eskaros, MD",
      "place_id": "ChIJ3fvDZB5cwokRsOM9AmixG5k",
      "plus_code": {
        "compound_code": "P33J+JW \u7f8e\u570b\u7d10\u7d04",
        "global_code": "87G8P33J+JW"
      },
      "reference": "ChIJ3fvDZB5cwokRsOM9AmixG5k",
      "scope": "GOOGLE",
      "types": [
        "doctor",
        "health",
        "point_of_interest",
        "establishment"
      ],
      "vicinity": "374 Stockholm Street, Brooklyn"
    },
    {
      "business_status": "OPERATIONAL",
      "geometry": {
        "location": {
          "lat": 40.704168,
          "lng": -73.917684
        },
        "viewport": {
          "northeast": {
            "lat": 40.7053564802915,
            "lng": -73.9161204697085
          },
          "southwest": {
            "lat": 40.7026585197085,
            "lng": -73.91881843029151
          }
        }
      },
      "icon": "https://maps.gstatic.com/mapfiles/place_api/icons/v1/png_71/generic_business-71.png",
      "icon_background_color": "#7B9EB0",
      "icon_mask_base_uri": "https://maps.gstatic.com/mapfiles/place_api/icons/v2/generic_pinlet",
      "name": "Wyckoff Heights Medical Center: Chukwuneke Bernard MD",
      "place_id": "ChIJ3fvDZB5cwokRKTMk1N1MSww",
      "plus_code": {
        "compound_code": "P33J+MW \u7f8e\u570b\u7d10\u7d04",
        "global_code": "87G8P33J+MW"
      },
      "reference": "ChIJ3fvDZB5cwokRKTMk1N1MSww",
      "scope": "GOOGLE",
      "types": [
        "doctor",
        "health",
        "point_of_interest",
        "establishment"
      ],
      "vicinity": "374 Stockholm Street, Brooklyn"
    },
    {
      "business_status": "OPERATIONAL",
      "geometry": {
        "location": {
          "lat": 40.7041145,
          "lng": -73.9176832
        },
        "viewport": {
          "northeast": {
            "lat": 40.7053297302915,
            "lng": -73.9161369697085
          },
          "southwest": {
            "lat": 40.7026317697085,
            "lng": -73.91883493029151
          }
        }
      },
      "icon": "https://maps.gstatic.com/mapfiles/place_api/icons/v1/png_71/generic_business-71.png",
      "icon_background_color": "#7B9EB0",
      "icon_mask_base_uri": "https://maps.gstatic.com/mapfiles/place_api/icons/v2/generic_pinlet",
      "name": "Dr. Jaipaul Ramkelawan, MD",
      "place_id": "ChIJ3fvDZB5cwokR5PTieCd7G10",
      "plus_code": {
        "compound_code": "P33J+JW \u7f8e\u570b\u7d10\u7d04",
        "global_code": "87G8P33J+JW"
      },
      "reference": "ChIJ3fvDZB5cwokR5PTieCd7G10",
      "scope": "GOOGLE",
      "types": [
        "doctor",
        "health",
        "point_of_interest",
        "establishment"
      ],
      "vicinity": "374 Stockholm Street, Brooklyn"
    },
    {
      "business_status": "OPERATIONAL",
      "geometry": {
        "location": {
          "lat": 40.7041145,
          "lng": -73.9176832
        },
        "viewport": {
          "northeast": {
            "lat": 40.7053297302915,
            "lng": -73.9161369697085
          },
          "southwest": {
            "lat": 40.7026317697085,
            "lng": -73.91883493029151
          }
        }
      },
      "icon": "https://maps.gstatic.com/mapfiles/place_api/icons/v1/png_71/generic_business-71.png",
      "icon_background_color": "#7B9EB0",
      "icon_mask_base_uri": "https://maps.gstatic.com/mapfiles/place_api/icons/v2/generic_pinlet",
      "name": "Dr. Sanjeev Nischal, MD",
      "place_id": "ChIJ3fvDZB5cwokRvcIetiPVEeg",
      "plus_code": {
        "compound_code": "P33J+JW \u7f8e\u570b\u7d10\u7d04",
        "global_code": "87G8P33J+JW"
      },
      "reference": "ChIJ3fvDZB5cwokRvcIetiPVEeg",
      "scope": "GOOGLE",
      "types": [
        "doctor",
        "health",
        "point_of_interest",
        "establishment"
      ],
      "vicinity": "374 Stockholm Street, Brooklyn"
    },
    {
      "geometry": {
        "location": {
          "lat": 40.6781784,
          "lng": -73.9441579
        },
        "viewport": {
          "northeast": {
            "lat": 40.73944597129348,
            "lng": -73.83336505117123
          },
          "southwest": {
            "lat": 40.55104197967331,
            "lng": -74.05662998413648
          }
        }
      },
      "icon": "https://maps.gstatic.com/mapfiles/place_api/icons/v1/png_71/geocode-71.png",
      "icon_background_color": "#7B9EB0",
      "icon_mask_base_uri": "https://maps.gstatic.com/mapfiles/place_api/icons/v2/generic_pinlet",
      "name": "\u5e03\u9c81\u514b\u6797",
      "photos": [
        {
          "height": 3024,
          "html_attributions": [
            "<a href=\"https://maps.google.com/maps/contrib/114417859579881743500\">Chengxiang Yuan</a>"
          ],
          "photo_reference": "AeJbb3dLdGa9w512Unlv3rNnXDtEFF5bl6PVy5i5UXtIZv2kOMhsqmE2gLQxX4wLgLPI1hOPgQYJQE5hlgUMH_f60xC14ey2lRC_Whn3naTP4F6NcdqS_toOg-OLkrrj0q1ulrwK_JOrR5HykVEMxssaptqe_rIBkas0I33kVXGYQ2FRxr5T",
          "width": 4032
        }
      ],
      "place_id": "ChIJCSF8lBZEwokRhngABHRcdoI",
      "reference": "ChIJCSF8lBZEwokRhngABHRcdoI",
      "scope": "GOOGLE",
      "types": [
        "sublocality_level_1",
        "sublocality",
        "political"
      ],
      "vicinity": "\u5e03\u9c81\u514b\u6797"
    },
    {
      "business_status": "OPERATIONAL",
      "geometry": {
        "location": {
          "lat": 40.70406629999999,
          "lng": -73.9177227
        },
        "viewport": {
          "northeast": {
            "lat": 40.7053012302915,
            "lng": -73.9161795197085
          },
          "southwest": {
            "lat": 40.7026032697085,
            "lng": -73.91887748029151
          }
        }
      },
      "icon": "https://maps.gstatic.com/mapfiles/place_api/icons/v1/png_71/generic_business-71.png",
      "icon_background_color": "#7B9EB0",
      "icon_mask_base_uri": "https://maps.gstatic.com/mapfiles/place_api/icons/v2/generic_pinlet",
      "name": "Khaing Moe, MD",
      "place_id": "ChIJ3fvDZB5cwokR15I0tdVMrnc",
      "plus_code": {
        "compound_code": "P33J+JW New York, NY, USA",
        "global_code": "87G8P33J+JW"
      },
      "reference": "ChIJ3fvDZB5cwokR15I0tdVMrnc",
      "scope": "GOOGLE",
      "types": [
        "point_of_interest",
        "doctor",
        "health",
        "establishment"
      ],
      "vicinity": "374 Stockholm Street, Brooklyn"
    },
    {
      "business_status": "OPERATIONAL",
      "geometry": {
        "location": {
          "lat": 40.7041145,
          "lng": -73.9176832
        },
        "viewport": {
          "northeast": {
            "lat": 40.7053297302915,
            "lng": -73.9161369697085
          },
          "southwest": {
            "lat": 40.7026317697085,
            "lng": -73.91883493029151
          }
        }
      },
      "icon": "https://maps.gstatic.com/mapfiles/place_api/icons/v1/png_71/generic_business-71.png",
      "icon_background_color": "#7B9EB0",
      "icon_mask_base_uri": "https://maps.gstatic.com/mapfiles/place_api/icons/v2/generic_pinlet",
      "name": "Dr. Muller St Pre, MD",
      "place_id": "ChIJ3fvDZB5cwokRBG3JyqIOv5A",
      "plus_code": {
        "compound_code": "P33J+JW New York, NY, USA",
        "global_code": "87G8P33J+JW"
      },
      "reference": "ChIJ3fvDZB5cwokRBG3JyqIOv5A",
      "scope": "GOOGLE",
      "types": [
        "point_of_interest",
        "doctor",
        "health",
        "establishment"
      ],
      "vicinity": "374 Stockholm Street, Brooklyn"
    },
    {
      "business_status": "OPERATIONAL",
      "geometry": {
        "location": {
          "lat": 40.7041145,
          "lng": -73.9176832
        },
        "viewport": {
          "northeast": {
            "lat": 40.7053297302915,
            "lng": -73.9161369697085
          },
          "southwest": {
            "lat": 40.7026317697085,
            "lng": -73.91883493029151
          }
        }
      },
      "icon": "https://maps.gstatic.com/mapfiles/place_api/icons/v1/png_71/generic_business-71.png",
      "icon_background_color": "#7B9EB0",
      "icon_mask_base_uri": "https://maps.gstatic.com/mapfiles/place_api/icons/v2/generic_pinlet",
      "name": "Dr. Linxing Liu, MD",
      "place_id": "ChIJ3fvDZB5cwokR1lA93RIAls8",
      "plus_code": {
        "compound_code": "P33J+JW New York, NY, USA",
        "global_code": "87G8P33J+JW"
      },
      "reference": "ChIJ3fvDZB5cwokR1lA93RIAls8",
      "scope": "GOOGLE",
      "types": [
        "point_of_interest",
        "doctor",
        "health",
        "establishment"
      ],
      "vicinity": "374 Stockholm Street, Brooklyn"
    },
    {
      "business_status": "OPERATIONAL",
      "geometry": {
        "location": {
          "lat": 40.70422119999999,
          "lng": -73.9179876
        },
        "viewport": {
          "northeast": {
            "lat": 40.70536578029149,
            "lng": -73.9168602197085
          },
          "southwest": {
            "lat": 40.70266781970849,
            "lng": -73.9195581802915
          }
        }
      },
      "icon": "https://maps.gstatic.com/mapfiles/place_api/icons/v1/png_71/generic_business-71.png",
      "icon_background_color": "#7B9EB0",
      "icon_mask_base_uri": "https://maps.gstatic.com/mapfiles/place_api/icons/v2/generic_pinlet",
      "name": "Dr. Suparna Chowdhury, MD",
      "place_id": "ChIJ3fvDZB5cwokRH43uyMqH9V4",
      "plus_code": {
        "compound_code": "P33J+MR New York, NY, USA",
        "global_code": "87G8P33J+MR"
      },
      "rating": 5,
      "reference": "ChIJ3fvDZB5cwokRH43uyMqH9V4",
      "scope": "GOOGLE",
      "types": [
        "point_of_interest",
        "doctor",
        "health",
        "establishment"
      ],
      "user_ratings_total": 1,
      "vicinity": "374 Stockholm Street, Brooklyn"
    },
    {
      "business_status": "OPERATIONAL",
      "geometry": {
        "location": {
          "lat": 40.7041145,
          "lng": -73.9176832
        },
        "viewport": {
          "northeast": {
            "lat": 40.7053297302915,
            "lng": -73.9161369697085
          },
          "southwest": {
            "lat": 40.7026317697085,
            "lng": -73.91883493029151
          }
        }
      },
      "icon": "https://maps.gstatic.com/mapfiles/place_api/icons/v1/png_71/generic_business-71.png",
      "icon_background_color": "#7B9EB0",
      "icon_mask_base_uri": "https://maps.gstatic.com/mapfiles/place_api/icons/v2/generic_pinlet",
      "name": "Dr. Mohammad Farooqui, MD",
      "place_id": "ChIJ3fvDZB5cwokRmiR1JGE64r0",
      "plus_code": {
        "compound_code": "P33J+JW New York, NY, USA",
        "global_code": "87G8P33J+JW"
      },
      "reference": "ChIJ3fvDZB5cwokRmiR1JGE64r0",
      "scope": "GOOGLE",
      "types": [
        "point_of_interest",
        "doctor",
        "health",
        "establishment"
      ],
      "vicinity": "374 Stockholm Street, Brooklyn"
    },
    {
      "business_status": "OPERATIONAL",
      "geometry": {
        "location": {
          "lat": 40.7041145,
          "lng": -73.9176832
        },
        "viewport": {
          "northeast": {
            "lat": 40.7053297302915,
            "lng": -73.9161369697085
          },
          "southwest": {
            "lat": 40.7026317697085,
            "lng": -73.91883493029151
          }
        }
      },
      "icon": "https://maps.gstatic.com/mapfiles/place_api/icons/v1/png_71/generic_business-71.png",
      "icon_background_color": "#7B9EB0",
      "icon_mask_base_uri": "https://maps.gstatic.com/mapfiles/place_api/icons/v2/generic_pinlet",
      "name": "Dr. San Wai, MD",
      "place_id": "ChIJ3fvDZB5cwokRMplaa7EM0zQ",
      "plus_code": {
        "compound_code": "P33J+JW New York, NY, USA",
        "global_code": "87G8P33J+JW"
      },
      "reference": "ChIJ3fvDZB5cwokRMplaa7EM0zQ",
      "scope": "GOOGLE",
      "types": [
        "point_of_interest",
        "doctor",
        "health",
        "establishment"
      ],
      "vicinity": "374 Stockholm Street, Brooklyn"
    },
    {
      "business_status": "OPERATIONAL",
      "geometry": {
        "location": {
          "lat": 40.7041145,
          "lng": -73.9176832
        },
        "viewport": {
          "northeast": {
            "lat": 40.7053297302915,
            "lng": -73.9161369697085
          },
          "southwest": {
            "lat": 40.7026317697085,
            "lng": -73.91883493029151
          }
        }
      },
      "icon": "https://maps.gstatic.com/mapfiles/place_api/icons/v1/png_71/generic_business-71.png",
      "icon_background_color": "#7B9EB0",
      "icon_mask_base_uri": "https://maps.gstatic.com/mapfiles/place_api/icons/v2/generic_pinlet",
      "name": "Dr. Bhushan L. Khashu, MD",
      "place_id": "ChIJ3fvDZB5cwokRArk9Oezir1o",
      "plus_code": {
        "compound_code": "P33J+JW New York, NY, USA",
        "global_code": "87G8P33J+JW"
      },
      "reference": "ChIJ3fvDZB5cwokRArk9Oezir1o",
      "scope": "GOOGLE",
      "types": [
        "point_of_interest",
        "doctor",
        "health",
        "establishment"
      ],
      "vicinity": "374 Stockholm Street, Brooklyn"
    },
    {
      "business_status": "OPERATIONAL",
      "geometry": {
        "location": {
          "lat": 40.7041145,
          "lng": -73.9176832
        },
        "viewport": {
          "northeast": {
            "lat": 40.7053297302915,
            "lng": -73.9161369697085
          },
          "southwest": {
            "lat": 40.7026317697085,
            "lng": -73.91883493029151
          }
        }
      },
      "icon": "https://maps.gstatic.com/mapfiles/place_api/icons/v1/png_71/generic_business-71.png",
      "icon_background_color": "#7B9EB0",
      "icon_mask_base_uri": "https://maps.gstatic.com/mapfiles/place_api/icons/v2/generic_pinlet",
      "name": "Dr. Bala K. Ravi, MD",
      "place_id": "ChIJ3fvDZB5cwokR46tObwEMjsE",
      "plus_code": {
        "compound_code": "P33J+JW New York, NY, USA",
        "global_code": "87G8P33J+JW"
      },
      "reference": "ChIJ3fvDZB5cwokR46tObwEMjsE",
      "scope": "GOOGLE",
      "types": [
        "point_of_interest",
        "doctor",
        "health",
        "establishment"
      ],
      "vicinity": "374 Stockholm Street, Brooklyn"
    },
    {
      "business_status": "OPERATIONAL",
      "geometry": {
        "location": {
          "lat": 40.7041145,
          "lng": -73.9176832
        },
        "viewport": {
          "northeast": {
            "lat": 40.7053297302915,
            "lng": -73.9161369697085
          },
          "southwest": {
            "lat": 40.7026317697085,
            "lng": -73.91883493029151
          }
        }
      },
      "icon": "https://maps.gstatic.com/mapfiles/place_api/icons/v1/png_71/generic_business-71.png",
      "icon_background_color": "#7B9EB0",
      "icon_mask_base_uri": "https://maps.gstatic.com/mapfiles/place_api/icons/v2/generic_pinlet",
      "name": "Dr. Cesar D. Delrosario, MD",
      "place_id": "ChIJ3fvDZB5cwokR4STPd85Yzso",
      "plus_code": {
        "compound_code": "P33J+JW New York, NY, USA",
        "global_code": "87G8P33J+JW"
      },
      "reference": "ChIJ3fvDZB5cwokR4STPd85Yzso",
      "scope": "GOOGLE",
      "types": [
        "doctor",
        "point_of_interest",
        "health",
        "establishment"
      ],
      "vicinity": "374 Stockholm Street, Brooklyn"
    },
    {
      "business_status": "OPERATIONAL",
      "geometry": {
        "location": {
          "lat": 40.7041145,
          "lng": -73.9176832
        },
        "viewport": {
          "northeast": {
            "lat": 40.7053297302915,
            "lng": -73.9161369697085
          },
          "southwest": {
            "lat": 40.7026317697085,
            "lng": -73.91883493029151
          }
        }
      },
      "icon": "https://maps.gstatic.com/mapfiles/place_api/icons/v1/png_71/generic_business-71.png",
      "icon_background_color": "#7B9EB0",
      "icon_mask_base_uri": "https://maps.gstatic.com/mapfiles/place_api/icons/v2/generic_pinlet",
      "name": "Dr. Howard Eichenstein, MD",
      "place_id": "ChIJ3fvDZB5cwokR1saLbB2TmEs",
      "plus_code": {
        "compound_code": "P33J+JW New York, NY, USA",
        "global_code": "87G8P33J+JW"
      },
      "rating": 1,
      "reference": "ChIJ3fvDZB5cwokR1saLbB2TmEs",
      "scope": "GOOGLE",
      "types": [
        "point_of_interest",
        "doctor",
        "health",
        "establishment"
      ],
      "user_ratings_total": 1,
      "vicinity": "374 Stockholm Street, Brooklyn"
    },
    {
      "business_status": "OPERATIONAL",
      "geometry": {
        "location": {
          "lat": 40.7041533,
          "lng": -73.91764719999999
        },
        "viewport": {
          "northeast": {
            "lat": 40.7053491302915,
            "lng": -73.91609981970848
          },
          "southwest": {
            "lat": 40.70265116970851,
            "lng": -73.9187977802915
          }
        }
      },
      "icon": "https://maps.gstatic.com/mapfiles/place_api/icons/v1/png_71/generic_business-71.png",
      "icon_background_color": "#7B9EB0",
      "icon_mask_base_uri": "https://maps.gstatic.com/mapfiles/place_api/icons/v2/generic_pinlet",
      "name": "Dr. Aruna Thyagaraj, MD",
      "place_id": "ChIJ3fvDZB5cwokRNyrmXVoSp9g",
      "plus_code": {
        "compound_code": "P33J+MW New York, NY, USA",
        "global_code": "87G8P33J+MW"
      },
      "reference": "ChIJ3fvDZB5cwokRNyrmXVoSp9g",
      "scope": "GOOGLE",
      "types": [
        "point_of_interest",
        "doctor",
        "health",
        "establishment"
      ],
      "vicinity": "374 Stockholm Street, Brooklyn"
    },
    {
      "business_status": "OPERATIONAL",
      "geometry": {
        "location": {
          "lat": 40.7041145,
          "lng": -73.9176832
        },
        "viewport": {
          "northeast": {
            "lat": 40.7053297302915,
            "lng": -73.9161369697085
          },
          "southwest": {
            "lat": 40.7026317697085,
            "lng": -73.91883493029151
          }
        }
      },
      "icon": "https://maps.gstatic.com/mapfiles/place_api/icons/v1/png_71/generic_business-71.png",
      "icon_background_color": "#7B9EB0",
      "icon_mask_base_uri": "https://maps.gstatic.com/mapfiles/place_api/icons/v2/generic_pinlet",
      "name": "Dr. Sol Gourji, MD",
      "place_id": "ChIJ3fvDZB5cwokR0v3r_DURjjs",
      "plus_code": {
        "compound_code": "P33J+JW New York, NY, USA",
        "global_code": "87G8P33J+JW"
      },
      "reference": "ChIJ3fvDZB5cwokR0v3r_DURjjs",
      "scope": "GOOGLE",
      "types": [
        "doctor",
        "point_of_interest",
        "health",
        "establishment"
      ],
      "vicinity": "374 Stockholm Street, Brooklyn"
    },
    {
      "business_status": "OPERATIONAL",
      "geometry": {
        "location": {
          "lat": 40.7042404,
          "lng": -73.9177509
        },
        "viewport": {
          "northeast": {
            "lat": 40.7053926802915,
            "lng": -73.9161433197085
          },
          "southwest": {
            "lat": 40.7026947197085,
            "lng": -73.9188412802915
          }
        }
      },
      "icon": "https://maps.gstatic.com/mapfiles/place_api/icons/v1/png_71/generic_business-71.png",
      "icon_background_color": "#7B9EB0",
      "icon_mask_base_uri": "https://maps.gstatic.com/mapfiles/place_api/icons/v2/generic_pinlet",
      "name": "Calixto Cazano",
      "place_id": "ChIJ3fvDZB5cwokR_OSmfPySQVE",
      "plus_code": {
        "compound_code": "P33J+MV New York, NY, USA",
        "global_code": "87G8P33J+MV"
      },
      "reference": "ChIJ3fvDZB5cwokR_OSmfPySQVE",
      "scope": "GOOGLE",
      "types": [
        "point_of_interest",
        "doctor",
        "health",
        "establishment"
      ],
      "vicinity": "374 Stockholm Street, Brooklyn"
    },
    {
      "business_status": "OPERATIONAL",
      "geometry": {
        "location": {
          "lat": 40.70408200000001,
          "lng": -73.9177493
        },
        "viewport": {
          "northeast": {
            "lat": 40.7053091302915,
            "lng": -73.9161928197085
          },
          "southwest": {
            "lat": 40.7026111697085,
            "lng": -73.9188907802915
          }
        }
      },
      "icon": "https://maps.gstatic.com/mapfiles/place_api/icons/v1/png_71/generic_business-71.png",
      "icon_background_color": "#7B9EB0",
      "icon_mask_base_uri": "https://maps.gstatic.com/mapfiles/place_api/icons/v2/generic_pinlet",
      "name": "Soe Myint",
      "place_id": "ChIJ3fvDZB5cwokR5YQWuCv8xQc",
      "plus_code": {
        "compound_code": "P33J+JW New York, NY, USA",
        "global_code": "87G8P33J+JW"
      },
      "reference": "ChIJ3fvDZB5cwokR5YQWuCv8xQc",
      "scope": "GOOGLE",
      "types": [
        "point_of_interest",
        "doctor",
        "health",
        "establishment"
      ],
      "vicinity": "374 Stockholm Street, Brooklyn"
    },
    {
      "business_status": "OPERATIONAL",
      "geometry": {
        "location": {
          "lat": 40.7041533,
          "lng": -73.91764719999999
        },
        "viewport": {
          "northeast": {
            "lat": 40.7053491302915,
            "lng": -73.91609981970848
          },
          "southwest": {
            "lat": 40.70265116970851,
            "lng": -73.9187977802915
          }
        }
      },
      "icon": "https://maps.gstatic.com/mapfiles/place_api/icons/v1/png_71/generic_business-71.png",
      "icon_background_color": "#7B9EB0",
      "icon_mask_base_uri": "https://maps.gstatic.com/mapfiles/place_api/icons/v2/generic_pinlet",
      "name": "Modica Edmondo MD",
      "place_id": "ChIJ3fvDZB5cwokRZ4iuUJS81uU",
      "plus_code": {
        "compound_code": "P33J+MW New York, NY, USA",
        "global_code": "87G8P33J+MW"
      },
      "reference": "ChIJ3fvDZB5cwokRZ4iuUJS81uU",
      "scope": "GOOGLE",
      "types": [
        "doctor",
        "point_of_interest",
        "health",
        "establishment"
      ],
      "vicinity": "374 Stockholm Street, Brooklyn"
    },
    {
      "business_status": "OPERATIONAL",
      "geometry": {
        "location": {
          "lat": 40.7041145,
          "lng": -73.9176832
        },
        "viewport": {
          "northeast": {
            "lat": 40.7053297302915,
            "lng": -73.9161369697085
          },
          "southwest": {
            "lat": 40.7026317697085,
            "lng": -73.91883493029151
          }
        }
      },
      "icon": "https://maps.gstatic.com/mapfiles/place_api/icons/v1/png_71/generic_business-71.png",
      "icon_background_color": "#7B9EB0",
      "icon_mask_base_uri": "https://maps.gstatic.com/mapfiles/place_api/icons/v2/generic_pinlet",
      "name": "Dr. Brigitte Mueller-Morel, MD",
      "place_id": "ChIJ3fvDZB5cwokRDnnIxzydlNI",
      "plus_code": {
        "compound_code": "P33J+JW New York, NY, USA",
        "global_code": "87G8P33J+JW"
      },
      "rating": 1,
      "reference": "ChIJ3fvDZB5cwokRDnnIxzydlNI",
      "scope": "GOOGLE",
      "types": [
        "point_of_interest",
        "doctor",
        "health",
        "establishment"
      ],
      "user_ratings_total": 1,
      "vicinity": "374 Stockholm Street, Brooklyn"
    },
    {
      "business_status": "OPERATIONAL",
      "geometry": {
        "location": {
          "lat": 40.7041533,
          "lng": -73.91764719999999
        },
        "viewport": {
          "northeast": {
            "lat": 40.7053491302915,
            "lng": -73.91609981970848
          },
          "southwest": {
            "lat": 40.70265116970851,
            "lng": -73.9187977802915
          }
        }
      },
      "icon": "https://maps.gstatic.com/mapfiles/place_api/icons/v1/png_71/generic_business-71.png",
      "icon_background_color": "#7B9EB0",
      "icon_mask_base_uri": "https://maps.gstatic.com/mapfiles/place_api/icons/v2/generic_pinlet",
      "name": "Dr. Regina Grinker, MD",
      "place_id": "ChIJ3fvDZB5cwokRltvwCFU-3Ms",
      "plus_code": {
        "compound_code": "P33J+MW New York, NY, USA",
        "global_code": "87G8P33J+MW"
      },
      "reference": "ChIJ3fvDZB5cwokRltvwCFU-3Ms",
      "scope": "GOOGLE",
      "types": [
        "point_of_interest",
        "doctor",
        "health",
        "establishment"
      ],
      "vicinity": "374 Stockholm Street, Brooklyn"
    },
    {
      "business_status": "OPERATIONAL",
      "geometry": {
        "location": {
          "lat": 40.7041533,
          "lng": -73.91764719999999
        },
        "viewport": {
          "northeast": {
            "lat": 40.7053491302915,
            "lng": -73.91609981970848
          },
          "southwest": {
            "lat": 40.70265116970851,
            "lng": -73.9187977802915
          }
        }
      },
      "icon": "https://maps.gstatic.com/mapfiles/place_api/icons/v1/png_71/generic_business-71.png",
      "icon_background_color": "#7B9EB0",
      "icon_mask_base_uri": "https://maps.gstatic.com/mapfiles/place_api/icons/v2/generic_pinlet",
      "name": "Quraishi Shahed A MD",
      "place_id": "ChIJ3fvDZB5cwokRgMxQMiKgM98",
      "plus_code": {
        "compound_code": "P33J+MW New York, NY, USA",
        "global_code": "87G8P33J+MW"
      },
      "reference": "ChIJ3fvDZB5cwokRgMxQMiKgM98",
      "scope": "GOOGLE",
      "types": [
        "point_of_interest",
        "doctor",
        "health",
        "establishment"
      ],
      "vicinity": "374 Stockholm Street, Brooklyn"
    },
    {
      "business_status": "OPERATIONAL",
      "geometry": {
        "location": {
          "lat": 40.7041145,
          "lng": -73.9176832
        },
        "viewport": {
          "northeast": {
            "lat": 40.7053297302915,
            "lng": -73.9161369697085
          },
          "southwest": {
            "lat": 40.7026317697085,
            "lng": -73.91883493029151
          }
        }
      },
      "icon": "https://maps.gstatic.com/mapfiles/place_api/icons/v1/png_71/generic_business-71.png",
      "icon_background_color": "#7B9EB0",
      "icon_mask_base_uri": "https://maps.gstatic.com/mapfiles/place_api/icons/v2/generic_pinlet",
      "name": "Dr. Naznin Khan, MD",
      "place_id": "ChIJ3fvDZB5cwokRbc72ZzQKYC0",
      "plus_code": {
        "compound_code": "P33J+JW New York, NY, USA",
        "global_code": "87G8P33J+JW"
      },
      "reference": "ChIJ3fvDZB5cwokRbc72ZzQKYC0",
      "scope": "GOOGLE",
      "types": [
        "point_of_interest",
        "doctor",
        "health",
        "establishment"
      ],
      "vicinity": "374 Stockholm Street, Brooklyn"
    },
    {
      "business_status": "OPERATIONAL",
      "geometry": {
        "location": {
          "lat": 40.7041145,
          "lng": -73.9176832
        },
        "viewport": {
          "northeast": {
            "lat": 40.7053297302915,
            "lng": -73.9161369697085
          },
          "southwest": {
            "lat": 40.7026317697085,
            "lng": -73.91883493029151
          }
        }
      },
      "icon": "https://maps.gstatic.com/mapfiles/place_api/icons/v1/png_71/generic_business-71.png",
      "icon_background_color": "#7B9EB0",
      "icon_mask_base_uri": "https://maps.gstatic.com/mapfiles/place_api/icons/v2/generic_pinlet",
      "name": "Dr. Ezra Sofair, MD",
      "place_id": "ChIJ3fvDZB5cwokRWciqBVUyiDk",
      "plus_code": {
        "compound_code": "P33J+JW New York, NY, USA",
        "global_code": "87G8P33J+JW"
      },
      "reference": "ChIJ3fvDZB5cwokRWciqBVUyiDk",
      "scope": "GOOGLE",
      "types": [
        "point_of_interest",
        "doctor",
        "health",
        "establishment"
      ],
      "vicinity": "374 Stockholm Street, Brooklyn"
    },
    {
      "business_status": "OPERATIONAL",
      "geometry": {
        "location": {
          "lat": 40.7041145,
          "lng": -73.9176832
        },
        "viewport": {
          "northeast": {
            "lat": 40.7053297302915,
            "lng": -73.9161369697085
          },
          "southwest": {
            "lat": 40.7026317697085,
            "lng": -73.91883493029151
          }
        }
      },
      "icon": "https://maps.gstatic.com/mapfiles/place_api/icons/v1/png_71/generic_business-71.png",
      "icon_background_color": "#7B9EB0",
      "icon_mask_base_uri": "https://maps.gstatic.com/mapfiles/place_api/icons/v2/generic_pinlet",
      "name": "Dr. Jyotsna Gaur, MD",
      "place_id": "ChIJ3fvDZB5cwokRhFDAYQZyAiQ",
      "plus_code": {
        "compound_code": "P33J+JW New York, NY, USA",
        "global_code": "87G8P33J+JW"
      },
      "reference": "ChIJ3fvDZB5cwokRhFDAYQZyAiQ",
      "scope": "GOOGLE",
      "types": [
        "doctor",
        "point_of_interest",
        "health",
        "establishment"
      ],
      "vicinity": "374 Stockholm Street, Brooklyn"
    },
    {
      "business_status": "OPERATIONAL",
      "geometry": {
        "location": {
          "lat": 40.7041533,
          "lng": -73.91764719999999
        },
        "viewport": {
          "northeast": {
            "lat": 40.7053491302915,
            "lng": -73.91609981970848
          },
          "southwest": {
            "lat": 40.70265116970851,
            "lng": -73.9187977802915
          }
        }
      },
      "icon": "https://maps.gstatic.com/mapfiles/place_api/icons/v1/png_71/generic_business-71.png",
      "icon_background_color": "#7B9EB0",
      "icon_mask_base_uri": "https://maps.gstatic.com/mapfiles/place_api/icons/v2/generic_pinlet",
      "name": "Fischbein Jeffrey E MD",
      "place_id": "ChIJ3fvDZB5cwokRbJIBX5AeXk0",
      "plus_code": {
        "compound_code": "P33J+MW New York, NY, USA",
        "global_code": "87G8P33J+MW"
      },
      "reference": "ChIJ3fvDZB5cwokRbJIBX5AeXk0",
      "scope": "GOOGLE",
      "types": [
        "doctor",
        "point_of_interest",
        "health",
        "establishment"
      ],
      "vicinity": "374 Stockholm Street, Brooklyn"
    },
    {
      "business_status": "OPERATIONAL",
      "geometry": {
        "location": {
          "lat": 40.7041145,
          "lng": -73.9176832
        },
        "viewport": {
          "northeast": {
            "lat": 40.7053297302915,
            "lng": -73.9161369697085
          },
          "southwest": {
            "lat": 40.7026317697085,
            "lng": -73.91883493029151
          }
        }
      },
      "icon": "https://maps.gstatic.com/mapfiles/place_api/icons/v1/png_71/generic_business-71.png",
      "icon_background_color": "#7B9EB0",
      "icon_mask_base_uri": "https://maps.gstatic.com/mapfiles/place_api/icons/v2/generic_pinlet",
      "name": "Dr. Ernel S. Lewis, MD",
      "place_id": "ChIJ3fvDZB5cwokRwzEkSpe6faU",
      "plus_code": {
        "compound_code": "P33J+JW New York, NY, USA",
        "global_code": "87G8P33J+JW"
      },
      "reference": "ChIJ3fvDZB5cwokRwzEkSpe6faU",
      "scope": "GOOGLE",
      "types": [
        "doctor",
        "point_of_interest",
        "health",
        "establishment"
      ],
      "vicinity": "374 Stockholm Street, Brooklyn"
    },
    {
      "business_status": "OPERATIONAL",
      "geometry": {
        "location": {
          "lat": 40.7041145,
          "lng": -73.9176832
        },
        "viewport": {
          "northeast": {
            "lat": 40.7053297302915,
            "lng": -73.9161369697085
          },
          "southwest": {
            "lat": 40.7026317697085,
            "lng": -73.91883493029151
          }
        }
      },
      "icon": "https://maps.gstatic.com/mapfiles/place_api/icons/v1/png_71/generic_business-71.png",
      "icon_background_color": "#7B9EB0",
      "icon_mask_base_uri": "https://maps.gstatic.com/mapfiles/place_api/icons/v2/generic_pinlet",
      "name": "Dr. Aye M. Thu, MD",
      "place_id": "ChIJ3fvDZB5cwokRcEzsSvcXblc",
      "plus_code": {
        "compound_code": "P33J+JW New York, NY, USA",
        "global_code": "87G8P33J+JW"
      },
      "reference": "ChIJ3fvDZB5cwokRcEzsSvcXblc",
      "scope": "GOOGLE",
      "types": [
        "doctor",
        "point_of_interest",
        "health",
        "establishment"
      ],
      "vicinity": "374 Stockholm Street, Brooklyn"
    },
    {
      "business_status": "OPERATIONAL",
      "geometry": {
        "location": {
          "lat": 40.7041145,
          "lng": -73.9176832
        },
        "viewport": {
          "northeast": {
            "lat": 40.7053297302915,
            "lng": -73.9161369697085
          },
          "southwest": {
            "lat": 40.7026317697085,
            "lng": -73.91883493029151
          }
        }
      },
      "icon": "https://maps.gstatic.com/mapfiles/place_api/icons/v1/png_71/generic_business-71.png",
      "icon_background_color": "#7B9EB0",
      "icon_mask_base_uri": "https://maps.gstatic.com/mapfiles/place_api/icons/v2/generic_pinlet",
      "name": "Dr. Oksana B. Luke, MD",
      "place_id": "ChIJ3fvDZB5cwokRBUqBTH4KcQg",
      "plus_code": {
        "compound_code": "P33J+JW New York, NY, USA",
        "global_code": "87G8P33J+JW"
      },
      "reference": "ChIJ3fvDZB5cwokRBUqBTH4KcQg",
      "scope": "GOOGLE",
      "types": [
        "doctor",
        "point_of_interest",
        "health",
        "establishment"
      ],
      "vicinity": "374 Stockholm Street, Brooklyn"
    },
    {
      "business_status": "OPERATIONAL",
      "geometry": {
        "location": {
          "lat": 40.7041145,
          "lng": -73.9176832
        },
        "viewport": {
          "northeast": {
            "lat": 40.7053297302915,
            "lng": -73.9161369697085
          },
          "southwest": {
            "lat": 40.7026317697085,
            "lng": -73.91883493029151
          }
        }
      },
      "icon": "https://maps.gstatic.com/mapfiles/place_api/icons/v1/png_71/generic_business-71.png",
      "icon_background_color": "#7B9EB0",
      "icon_mask_base_uri": "https://maps.gstatic.com/mapfiles/place_api/icons/v2/generic_pinlet",
      "name": "Dr. Bhaskar K. Chhetri, MD",
      "place_id": "ChIJ3fvDZB5cwokRMYlUypzS5p0",
      "plus_code": {
        "compound_code": "P33J+JW New York, NY, USA",
        "global_code": "87G8P33J+JW"
      },
      "reference": "ChIJ3fvDZB5cwokRMYlUypzS5p0",
      "scope": "GOOGLE",
      "types": [
        "doctor",
        "point_of_interest",
        "health",
        "establishment"
      ],
      "vicinity": "374 Stockholm Street, Brooklyn"
    },
    {
      "business_status": "OPERATIONAL",
      "geometry": {
        "location": {
          "lat": 40.7041533,
          "lng": -73.91764719999999
        },
        "viewport": {
          "northeast": {
            "lat": 40.7053491302915,
            "lng": -73.91609981970848
          },
          "southwest": {
            "lat": 40.70265116970851,
            "lng": -73.9187977802915
          }
        }
      },
      "icon": "https://maps.gstatic.com/mapfiles/place_api/icons/v1/png_71/generic_business-71.png",
      "icon_background_color": "#7B9EB0",
      "icon_mask_base_uri": "https://maps.gstatic.com/mapfiles/place_api/icons/v2/generic_pinlet",
      "name": "Tchelebi Mounzer MD",
      "place_id": "ChIJ3fvDZB5cwokRuh5G7DuJLgw",
      "plus_code": {
        "compound_code": "P33J+MW New York, NY, USA",
        "global_code": "87G8P33J+MW"
      },
      "reference": "ChIJ3fvDZB5cwokRuh5G7DuJLgw",
      "scope": "GOOGLE",
      "types": [
        "doctor",
        "point_of_interest",
        "health",
        "establishment"
      ],
      "vicinity": "374 Stockholm Street, Brooklyn"
    },
    {
      "business_status": "OPERATIONAL",
      "geometry": {
        "location": {
          "lat": 40.7041533,
          "lng": -73.91764719999999
        },
        "viewport": {
          "northeast": {
            "lat": 40.7053491302915,
            "lng": -73.91609981970848
          },
          "southwest": {
            "lat": 40.70265116970851,
            "lng": -73.9187977802915
          }
        }
      },
      "icon": "https://maps.gstatic.com/mapfiles/place_api/icons/v1/png_71/generic_business-71.png",
      "icon_background_color": "#7B9EB0",
      "icon_mask_base_uri": "https://maps.gstatic.com/mapfiles/place_api/icons/v2/generic_pinlet",
      "name": "Wyckoff Heights Medical Center: Ahmad Imtiaz MD",
      "place_id": "ChIJ3fvDZB5cwokRQiG-jfndKU0",
      "plus_code": {
        "compound_code": "P33J+MW New York, NY, USA",
        "global_code": "87G8P33J+MW"
      },
      "rating": 5,
      "reference": "ChIJ3fvDZB5cwokRQiG-jfndKU0",
      "scope": "GOOGLE",
      "types": [
        "doctor",
        "point_of_interest",
        "health",
        "establishment"
      ],
      "user_ratings_total": 1,
      "vicinity": "374 Stockholm Street, Brooklyn"
    },
    {
      "business_status": "OPERATIONAL",
      "geometry": {
        "location": {
          "lat": 40.7041533,
          "lng": -73.91764719999999
        },
        "viewport": {
          "northeast": {
            "lat": 40.7053491302915,
            "lng": -73.91609981970848
          },
          "southwest": {
            "lat": 40.70265116970851,
            "lng": -73.9187977802915
          }
        }
      },
      "icon": "https://maps.gstatic.com/mapfiles/place_api/icons/v1/png_71/generic_business-71.png",
      "icon_background_color": "#7B9EB0",
      "icon_mask_base_uri": "https://maps.gstatic.com/mapfiles/place_api/icons/v2/generic_pinlet",
      "name": "Axon Neurosurgical, PLLC: Cardoso Erico MD",
      "place_id": "ChIJ3fvDZB5cwokR6KTloZFd2Y4",
      "plus_code": {
        "compound_code": "P33J+MW Brooklyn, NY, USA",
        "global_code": "87G8P33J+MW"
      },
      "rating": 4.7,
      "reference": "ChIJ3fvDZB5cwokR6KTloZFd2Y4",
      "scope": "GOOGLE",
      "types": [
        "doctor",
        "point_of_interest",
        "health",
        "establishment"
      ],
      "user_ratings_total": 9,
      "vicinity": "359 Stockholm Street, Brooklyn"
    },
    {
      "business_status": "OPERATIONAL",
      "geometry": {
        "location": {
          "lat": 40.7041533,
          "lng": -73.91764719999999
        },
        "viewport": {
          "northeast": {
            "lat": 40.7053491302915,
            "lng": -73.91609981970848
          },
          "southwest": {
            "lat": 40.70265116970851,
            "lng": -73.9187977802915
          }
        }
      },
      "icon": "https://maps.gstatic.com/mapfiles/place_api/icons/v1/png_71/generic_business-71.png",
      "icon_background_color": "#7B9EB0",
      "icon_mask_base_uri": "https://maps.gstatic.com/mapfiles/place_api/icons/v2/generic_pinlet",
      "name": "Wyckoff Heights Medical Center: San Myat MD",
      "place_id": "ChIJ3fvDZB5cwokRk6zVRK2Zwpc",
      "plus_code": {
        "compound_code": "P33J+MW New York, NY, USA",
        "global_code": "87G8P33J+MW"
      },
      "reference": "ChIJ3fvDZB5cwokRk6zVRK2Zwpc",
      "scope": "GOOGLE",
      "types": [
        "doctor",
        "point_of_interest",
        "health",
        "establishment"
      ],
      "vicinity": "374 Stockholm Street, Brooklyn"
    },
    {
      "business_status": "OPERATIONAL",
      "geometry": {
        "location": {
          "lat": 40.7041533,
          "lng": -73.91764719999999
        },
        "viewport": {
          "northeast": {
            "lat": 40.7053491302915,
            "lng": -73.91609981970848
          },
          "southwest": {
            "lat": 40.70265116970851,
            "lng": -73.9187977802915
          }
        }
      },
      "icon": "https://maps.gstatic.com/mapfiles/place_api/icons/v1/png_71/generic_business-71.png",
      "icon_background_color": "#7B9EB0",
      "icon_mask_base_uri": "https://maps.gstatic.com/mapfiles/place_api/icons/v2/generic_pinlet",
      "name": "Wyckoff Heights Medical Center -Department of Medicine",
      "place_id": "ChIJ3fvDZB5cwokR8ru_F_MzC_s",
      "plus_code": {
        "compound_code": "P33J+MW New York, NY, USA",
        "global_code": "87G8P33J+MW"
      },
      "reference": "ChIJ3fvDZB5cwokR8ru_F_MzC_s",
      "scope": "GOOGLE",
      "types": [
        "point_of_interest",
        "health",
        "establishment"
      ],
      "vicinity": "374 Stockholm Street, Brooklyn"
    },
    {
      "business_status": "OPERATIONAL",
      "geometry": {
        "location": {
          "lat": 40.70377300000001,
          "lng": -73.919415
        },
        "viewport": {
          "northeast": {
            "lat": 40.7050586302915,
            "lng": -73.9181325197085
          },
          "southwest": {
            "lat": 40.7023606697085,
            "lng": -73.9208304802915
          }
        }
      },
      "icon": "https://maps.gstatic.com/mapfiles/place_api/icons/v1/png_71/generic_business-71.png",
      "icon_background_color": "#7B9EB0",
      "icon_mask_base_uri": "https://maps.gstatic.com/mapfiles/place_api/icons/v2/generic_pinlet",
      "name": "Positive Health Management",
      "opening_hours": {
        "open_now": false
      },
      "place_id": "ChIJ3fvDZB5cwokRhX7j2QEXRaQ",
      "plus_code": {
        "compound_code": "P33J+G6 Brooklyn, NY, USA",
        "global_code": "87G8P33J+G6"
      },
      "rating": 3,
      "reference": "ChIJ3fvDZB5cwokRhX7j2QEXRaQ",
      "scope": "GOOGLE",
      "types": [
        "point_of_interest",
        "health",
        "establishment"
      ],
      "user_ratings_total": 4,
      "vicinity": "1610 DeKalb Avenue, Brooklyn"
    },
    {
      "business_status": "OPERATIONAL",
      "geometry": {
        "location": {
          "lat": 40.7041533,
          "lng": -73.91764719999999
        },
        "viewport": {
          "northeast": {
            "lat": 40.7053491302915,
            "lng": -73.91609981970848
          },
          "southwest": {
            "lat": 40.70265116970851,
            "lng": -73.9187977802915
          }
        }
      },
      "icon": "https://maps.gstatic.com/mapfiles/place_api/icons/v1/png_71/generic_business-71.png",
      "icon_background_color": "#7B9EB0",
      "icon_mask_base_uri": "https://maps.gstatic.com/mapfiles/place_api/icons/v2/generic_pinlet",
      "name": "Thwin Malar MD",
      "place_id": "ChIJ3fvDZB5cwokRjbl6siu6M_g",
      "plus_code": {
        "compound_code": "P33J+MW New York, NY, USA",
        "global_code": "87G8P33J+MW"
      },
      "reference": "ChIJ3fvDZB5cwokRjbl6siu6M_g",
      "scope": "GOOGLE",
      "types": [
        "doctor",
        "point_of_interest",
        "health",
        "establishment"
      ],
      "vicinity": "374 Stockholm Street, Brooklyn"
    },
    {
      "business_status": "OPERATIONAL",
      "geometry": {
        "location": {
          "lat": 40.7041145,
          "lng": -73.9176832
        },
        "viewport": {
          "northeast": {
            "lat": 40.7053297302915,
            "lng": -73.9161369697085
          },
          "southwest": {
            "lat": 40.7026317697085,
            "lng": -73.91883493029151
          }
        }
      },
      "icon": "https://maps.gstatic.com/mapfiles/place_api/icons/v1/png_71/generic_business-71.png",
      "icon_background_color": "#7B9EB0",
      "icon_mask_base_uri": "https://maps.gstatic.com/mapfiles/place_api/icons/v2/generic_pinlet",
      "name": "Faculty Practice",
      "place_id": "ChIJ3fvDZB5cwokRSJI1LvhNk2E",
      "plus_code": {
        "compound_code": "P33J+JW New York, NY, USA",
        "global_code": "87G8P33J+JW"
      },
      "reference": "ChIJ3fvDZB5cwokRSJI1LvhNk2E",
      "scope": "GOOGLE",
      "types": [
        "doctor",
        "point_of_interest",
        "health",
        "establishment"
      ],
      "vicinity": "374 Stockholm Street, Brooklyn"
    },
    {
      "business_status": "OPERATIONAL",
      "geometry": {
        "location": {
          "lat": 40.7041533,
          "lng": -73.91764719999999
        },
        "viewport": {
          "northeast": {
            "lat": 40.7053491302915,
            "lng": -73.91609981970848
          },
          "southwest": {
            "lat": 40.70265116970851,
            "lng": -73.9187977802915
          }
        }
      },
      "icon": "https://maps.gstatic.com/mapfiles/place_api/icons/v1/png_71/generic_business-71.png",
      "icon_background_color": "#7B9EB0",
      "icon_mask_base_uri": "https://maps.gstatic.com/mapfiles/place_api/icons/v2/generic_pinlet",
      "name": "Mishriky Sherif N MD",
      "place_id": "ChIJ3fvDZB5cwokRn00ZA_a3fng",
      "plus_code": {
        "compound_code": "P33J+MW New York, NY, USA",
        "global_code": "87G8P33J+MW"
      },
      "reference": "ChIJ3fvDZB5cwokRn00ZA_a3fng",
      "scope": "GOOGLE",
      "types": [
        "doctor",
        "point_of_interest",
        "health",
        "establishment"
      ],
      "vicinity": "374 Stockholm Street, Brooklyn"
    },
    {
      "business_status": "OPERATIONAL",
      "geometry": {
        "location": {
          "lat": 40.7041533,
          "lng": -73.91764719999999
        },
        "viewport": {
          "northeast": {
            "lat": 40.7053491302915,
            "lng": -73.91609981970848
          },
          "southwest": {
            "lat": 40.70265116970851,
            "lng": -73.9187977802915
          }
        }
      },
      "icon": "https://maps.gstatic.com/mapfiles/place_api/icons/v1/png_71/generic_business-71.png",
      "icon_background_color": "#7B9EB0",
      "icon_mask_base_uri": "https://maps.gstatic.com/mapfiles/place_api/icons/v2/generic_pinlet",
      "name": "Dr. Theophine Abakporo, MD",
      "place_id": "ChIJ3fvDZB5cwokRKsW37EgG9bI",
      "plus_code": {
        "compound_code": "P33J+MW New York, NY, USA",
        "global_code": "87G8P33J+MW"
      },
      "reference": "ChIJ3fvDZB5cwokRKsW37EgG9bI",
      "scope": "GOOGLE",
      "types": [
        "doctor",
        "point_of_interest",
        "health",
        "establishment"
      ],
      "vicinity": "374 Stockholm Street, Brooklyn"
    },
    {
      "business_status": "OPERATIONAL",
      "geometry": {
        "location": {
          "lat": 40.7041145,
          "lng": -73.9176832
        },
        "viewport": {
          "northeast": {
            "lat": 40.7053297302915,
            "lng": -73.9161369697085
          },
          "southwest": {
            "lat": 40.7026317697085,
            "lng": -73.91883493029151
          }
        }
      },
      "icon": "https://maps.gstatic.com/mapfiles/place_api/icons/v1/png_71/generic_business-71.png",
      "icon_background_color": "#7B9EB0",
      "icon_mask_base_uri": "https://maps.gstatic.com/mapfiles/place_api/icons/v2/generic_pinlet",
      "name": "Dr. Leonora Monroe, MD",
      "place_id": "ChIJ3fvDZB5cwokRl4_U5IFOth8",
      "plus_code": {
        "compound_code": "P33J+JW New York, NY, USA",
        "global_code": "87G8P33J+JW"
      },
      "reference": "ChIJ3fvDZB5cwokRl4_U5IFOth8",
      "scope": "GOOGLE",
      "types": [
        "doctor",
        "point_of_interest",
        "health",
        "establishment"
      ],
      "vicinity": "374 Stockholm Street, Brooklyn"
    },
    {
      "business_status": "OPERATIONAL",
      "geometry": {
        "location": {
          "lat": 40.7041533,
          "lng": -73.91764719999999
        },
        "viewport": {
          "northeast": {
            "lat": 40.7053491302915,
            "lng": -73.91609981970848
          },
          "southwest": {
            "lat": 40.70265116970851,
            "lng": -73.9187977802915
          }
        }
      },
      "icon": "https://maps.gstatic.com/mapfiles/place_api/icons/v1/png_71/generic_business-71.png",
      "icon_background_color": "#7B9EB0",
      "icon_mask_base_uri": "https://maps.gstatic.com/mapfiles/place_api/icons/v2/generic_pinlet",
      "name": "Wyckoff Heights Medical Center - TMA Radiation Oncology LLC",
      "place_id": "ChIJ3fvDZB5cwokRlEXE7f2NdnY",
      "plus_code": {
        "compound_code": "P33J+MW New York, NY, USA",
        "global_code": "87G8P33J+MW"
      },
      "rating": 1,
      "reference": "ChIJ3fvDZB5cwokRlEXE7f2NdnY",
      "scope": "GOOGLE",
      "types": [
        "point_of_interest",
        "health",
        "establishment"
      ],
      "user_ratings_total": 1,
      "vicinity": "374 Stockholm Street, Brooklyn"
    },
    {
      "business_status": "OPERATIONAL",
      "geometry": {
        "location": {
          "lat": 40.70406629999999,
          "lng": -73.9177227
        },
        "viewport": {
          "northeast": {
            "lat": 40.7053012302915,
            "lng": -73.9161795197085
          },
          "southwest": {
            "lat": 40.7026032697085,
            "lng": -73.91887748029151
          }
        }
      },
      "icon": "https://maps.gstatic.com/mapfiles/place_api/icons/v1/png_71/generic_business-71.png",
      "icon_background_color": "#7B9EB0",
      "icon_mask_base_uri": "https://maps.gstatic.com/mapfiles/place_api/icons/v2/generic_pinlet",
      "name": "Dr. K. Chu Cheong",
      "place_id": "ChIJ3fvDZB5cwokR_JtehBEFo7s",
      "plus_code": {
        "compound_code": "P33J+JW New York, NY, USA",
        "global_code": "87G8P33J+JW"
      },
      "reference": "ChIJ3fvDZB5cwokR_JtehBEFo7s",
      "scope": "GOOGLE",
      "types": [
        "doctor",
        "point_of_interest",
        "health",
        "establishment"
      ],
      "vicinity": "374 Stockholm Street, Brooklyn"
    },
    {
      "business_status": "OPERATIONAL",
      "geometry": {
        "location": {
          "lat": 40.7041533,
          "lng": -73.91764719999999
        },
        "viewport": {
          "northeast": {
            "lat": 40.7053491302915,
            "lng": -73.91609981970848
          },
          "southwest": {
            "lat": 40.70265116970851,
            "lng": -73.9187977802915
          }
        }
      },
      "icon": "https://maps.gstatic.com/mapfiles/place_api/icons/v1/png_71/generic_business-71.png",
      "icon_background_color": "#7B9EB0",
      "icon_mask_base_uri": "https://maps.gstatic.com/mapfiles/place_api/icons/v2/generic_pinlet",
      "name": "Dr. Mohammad S. Rahman, MD",
      "place_id": "ChIJ3fvDZB5cwokRtTaAaHAUmZc",
      "plus_code": {
        "compound_code": "P33J+MW New York, NY, USA",
        "global_code": "87G8P33J+MW"
      },
      "reference": "ChIJ3fvDZB5cwokRtTaAaHAUmZc",
      "scope": "GOOGLE",
      "types": [
        "doctor",
        "point_of_interest",
        "health",
        "establishment"
      ],
      "vicinity": "374 Stockholm Street, Brooklyn"
    }
  ],
  "status": "OK"
}