{
  "html_attributions": [],
  "results": [
    {
      "geometry": {
        "location": {
          "lat": 40.7127753,
          "lng": -74.0059728
        },
        "viewport": {
          "northeast": {
            "lat": 40.91757705070789,
            "lng": -73.70027206817629
          },
          "southwest": {
            "lat": 40.47739906045452,
            "lng": -74.25908991427882
          }
        }
      },
      "icon": "https://maps.gstatic.com/mapfiles/place_api/icons/v1/png_71/geocode-71.png",
      "icon_background_color": "#7B9EB0",
      "icon_mask_base_uri": "https://maps.gstatic.com/mapfiles/place_api/icons/v2/generic_pinlet",
      "name": "\u7d10\u7d04",
      "photos": [
        {
          "height": 600,
          "html_attributions": [
            "<a href=\"https://maps.google.com/maps/contrib/102389334567210814614\">Bukurie</a>"
          ],
          "photo_reference": "AeJbb3dpFSeb1AsDDuvXcx7FvEJRCVTx9qrwdxEah_Ztm3Wj0n1WDjbp1jxJi05UyiLVDK6HR70giUpGfqunWUaWq7K9cwahsZ6ZVR5lYn_zPJYp2VG-FsuOGThI7Kxwb1_OuODOfKpdb2F0gr7HUwiC-doi2TTwgcAUW274Y9-Yon45Dyxj",
          "width": 480
        }
      ],
      "place_id": "ChIJOwg_06VPwokRYv534QaPC8g",
      "reference": "ChIJOwg_06VPwokRYv534QaPC8g",
      "scope": "GOOGLE",
      "types": [
        "locality",
        "political"
      ],
      "vicinity": "\u7d10\u7d04"
    },
    {
      "business_status": "OPERATIONAL",
      "geometry": {
        "location": {
          "lat": 40.69914959999999,
          "lng": -73.9976004
        },
        "viewport": {
          "northeast": {
            "lat": 40.70038838029149,
            "lng": -73.99586491970848
          },
          "southwest": {
            "lat": 40.69769041970849,
            "lng": -73.9985628802915
          }
        }
      },
      "icon": "https://maps.gstatic.com/mapfiles/place_api/icons/v1/png_71/park-71.png",
      "icon_background_color": "#4DB546",
      "icon_mask_base_uri": "https://maps.gstatic.com/mapfiles/place_api/icons/v2/tree_pinlet",
      "name": "\u5e03\u9b6f\u514b\u6797\u6a4b\u516c\u5712",
      "opening_hours": {
        "open_now": true
      },
      "photos": [
        {
          "height": 3265,
          "html_attributions": [
            "<a href=\"https://maps.google.com/maps/contrib/110206723618825960685\">Shlomo Levi</a>"
          ],
          "photo_reference": "AeJbb3d0LZEYbPwRAD0caMVCxZ2oBWTKDnL-BZqYfVaXMEv3eNJZvpvGD6HQHkC4RjGr2vrWJpSYorr5SuRNBK1PNENeOxa2cLZNpoM2F5viUBpOFWYSaIryrNHxrpV9n7qCzZUlXcLRVtltUOBPSA298DqZi8kVydLYj7B7QyIAgvvYU4RU",
          "width": 4901
        }
      ],
      "place_id": "ChIJjaFpo0ZawokRBcOFUZ13CaE",
      "plus_code": {
        "compound_code": "M2X2+MX \u7f8e\u570b\u7d10\u7d04\u5e03\u9c81\u514b\u6797",
        "global_code": "87G8M2X2+MX"
      },
      "rating": 4.8,
      "reference": "ChIJjaFpo0ZawokRBcOFUZ13CaE",
      "scope": "GOOGLE",
      "types": [
        "park",
        "tourist_attraction",
        "point_of_interest",
        "establishment"
      ],
      "user_ratings_total": 34587,
      "vicinity": "334 Furman Street, Brooklyn"
    },
    {
      "business_status": "OPERATIONAL",
      "geometry": {
        "location": {
          "lat": 40.6974208,
          "lng": -73.9933581
        },
        "viewport": {
          "northeast": {
            "lat": 40.6988270802915,
            "lng": -73.99198176970849
          },
          "southwest": {
            "lat": 40.6961291197085,
            "lng": -73.99467973029151
          }
        }
      },
      "icon": "https://maps.gstatic.com/mapfiles/place_api/icons/v1/png_71/restaurant-71.png",
      "icon_background_color": "#FF9E67",
      "icon_mask_base_uri": "https://maps.gstatic.com/mapfiles/place_api/icons/v2/restaurant_pinlet",
      "name": "Ozu Japanese Cuisine & Lounge",
      "opening_hours": {
        "open_now": true
      },
      "photos": [
        {
          "height": 1836,
          "html_attributions": [
            "<a href=\"https://maps.google.com/maps/contrib/117133658997710700434\">Diego Orofino</a>"
          ],
          "photo_reference": "AeJbb3eVKctRQXBWeG5yF1nQK0UWTHFGvugTWfIIaeznwqsqLO_LnO3cwYWtjjN8tRFZp7fqWRwWh76UjcpQQs2qCdWfHDPXwOKTAxqdRs5_eJshdhp7BIKCYAF60qzv1ygaQJGIxWCKs1TwIVU_57nEUBlHhKZpNMZD6j_46_9bx3eE3l0k",
          "width": 3264
        }
      ],
      "place_id": "ChIJ9fFq3jdawokR8pqmPGytDE4",
      "plus_code": {
        "compound_code": "M2W4+XM \u7f8e\u570b\u7d10\u7d04",
        "global_code": "87G8M2W4+XM"
      },
      "price_level": 2,
      "rating": 3.9,
      "reference": "ChIJ9fFq3jdawokR8pqmPGytDE4",
      "scope": "GOOGLE",
      "types": [
        "meal_delivery",
        "bar",
        "restaurant",
        "food",
        "point_of_interest",
        "establishment"
      ],
      "user_ratings_total": 186,
      "vicinity": "78 Clark Street #2402, Brooklyn"
    },
    {
      "business_status": "OPERATIONAL",
      "geometry": {
        "location": {
          "lat": 40.69917110000001,
          "lng": -73.99314559999999
        },
        "viewport": {
          "northeast": {
            "lat": 40.7004252802915,
            "lng": -73.99184221970849
          },
          "southwest": {
            "lat": 40.6977273197085,
            "lng": -73.9945401802915
          }
        }
      },
      "icon": "https://maps.gstatic.com/mapfiles/place_api/icons/v1/png_71/worship_general-71.png",
      "icon_background_color": "#7B9EB0",
      "icon_mask_base_uri": "https://maps.gstatic.com/mapfiles/place_api/icons/v2/worship_christian_pinlet",
      "name": "\u666e\u5229\u8305\u65af\u6559\u5802",
      "photos": [
        {
          "height": 3024,
          "html_attributions": [
            "<a href=\"https://maps.google.com/maps/contrib/109415363621183907891\">Anthony C</a>"
          ],
          "photo_reference": "AeJbb3f6eEzzmkrFx4EYEt6WL5cmIbcBG-1l4SfZmi6bfxbTF0qHUbEgfP87DkYprG4wTOVSGGZ3f6rpzoG8cgb4xki2f5K_7QitmblVUKCORYr92Z6sgzHjDyeVMDuxLoUWBKq-lmhCKHYH4LKL_TY5FCkVULKWw9bK1wmiZtVagFlppWir",
          "width": 4032
        }
      ],
      "place_id": "ChIJ4QQvoDdawokRzRqQHNt01pU",
      "plus_code": {
        "compound_code": "M2X4+MP \u7f8e\u570b\u7d10\u7d04\u5e03\u9c81\u514b\u6797",
        "global_code": "87G8M2X4+MP"
      },
      "rating": 4.6,
      "reference": "ChIJ4QQvoDdawokRzRqQHNt01pU",
      "scope": "GOOGLE",
      "types": [
        "church",
        "tourist_attraction",
        "place_of_worship",
        "point_of_interest",
        "establishment"
      ],
      "user_ratings_total": 59,
      "vicinity": "57 Orange Street, Brooklyn"
    },
    {
      "business_status": "OPERATIONAL",
      "geometry": {
        "location": {
          "lat": 40.69619360000001,
          "lng": -73.9975036
        },
        "viewport": {
          "northeast": {
            "lat": 40.6973815302915,
            "lng": -73.99596441970849
          },
          "southwest": {
            "lat": 40.6946835697085,
            "lng": -73.99866238029149
          }
        }
      },
      "icon": "https://maps.gstatic.com/mapfiles/place_api/icons/v1/png_71/park-71.png",
      "icon_background_color": "#4DB546",
      "icon_mask_base_uri": "https://maps.gstatic.com/mapfiles/place_api/icons/v2/tree_pinlet",
      "name": "Brooklyn Heights Promenade",
      "opening_hours": {
        "open_now": true
      },
      "photos": [
        {
          "height": 3024,
          "html_attributions": [
            "<a href=\"https://maps.google.com/maps/contrib/106045596508150095059\">Venkat Chandramoleshwar</a>"
          ],
          "photo_reference": "AeJbb3cIQ61COIQ08hAzfeGy3q0sSEBx0MNaMrIVOloU3k9uPoHeB7kZA7qb99qA0vzHAnkBw2WFSRbKlO6LmTwl1tjaZq4dYdYDM9kye9zmuCY2yIeE0b_9hcJLa-CL7kxARaD-I2H723cq4ISn5PJExdXf6ZezyRZ63DfLm4rbwSkE2hqS",
          "width": 4032
        }
      ],
      "place_id": "ChIJkwX1AjdawokRx9reOccHFr4",
      "plus_code": {
        "compound_code": "M2W2+FX \u7f8e\u570b\u7d10\u7d04\u5e03\u9c81\u514b\u6797",
        "global_code": "87G8M2W2+FX"
      },
      "rating": 4.8,
      "reference": "ChIJkwX1AjdawokRx9reOccHFr4",
      "scope": "GOOGLE",
      "types": [
        "park",
        "tourist_attraction",
        "point_of_interest",
        "establishment"
      ],
      "user_ratings_total": 5416,
      "vicinity": "Montague St &, Pierrepont Place, Brooklyn"
    },
    {
      "business_status": "OPERATIONAL",
      "geometry": {
        "location": {
          "lat": 40.699094,
          "lng": -73.9924662
        },
        "viewport": {
          "northeast": {
            "lat": 40.7004210302915,
            "lng": -73.99100596970848
          },
          "southwest": {
            "lat": 40.6977230697085,
            "lng": -73.9937039302915
          }
        }
      },
      "icon": "https://maps.gstatic.com/mapfiles/place_api/icons/v1/png_71/restaurant-71.png",
      "icon_background_color": "#FF9E67",
      "icon_mask_base_uri": "https://maps.gstatic.com/mapfiles/place_api/icons/v2/restaurant_pinlet",
      "name": "Henry Street Ale House",
      "opening_hours": {
        "open_now": true
      },
      "photos": [
        {
          "height": 2304,
          "html_attributions": [
            "<a href=\"https://maps.google.com/maps/contrib/108270237022017977706\">Nelson Aguirre Google Business View</a>"
          ],
          "photo_reference": "AeJbb3dpaIAdQw4seP6z3uHPrqZ_25vNWMw7tWp8k5avmJW60sIPWSR-jwcX7ziXrUUh83xVm35hW_AUedp-FioEFFr4xsP8hwsKQK8GBzhIQ0n6AIjI78yz5p4GPeUf1gurw-8ugrzrl7b-xxRB6Kb9EOxnkoGmfFy8l4RXleMw2DPYk2Eg",
          "width": 4096
        }
      ],
      "place_id": "ChIJ3wxUrjdawokRCvceYKTpXFU",
      "plus_code": {
        "compound_code": "M2X5+J2 \u7f8e\u570b\u7d10\u7d04\u5e03\u9c81\u514b\u6797",
        "global_code": "87G8M2X5+J2"
      },
      "price_level": 2,
      "rating": 4.3,
      "reference": "ChIJ3wxUrjdawokRCvceYKTpXFU",
      "scope": "GOOGLE",
      "types": [
        "restaurant",
        "bar",
        "food",
        "point_of_interest",
        "establishment"
      ],
      "user_ratings_total": 523,
      "vicinity": "62 Henry Street, Brooklyn"
    },
    {
      "business_status": "OPERATIONAL",
      "geometry": {
        "location": {
          "lat": 40.697815,
          "lng": -73.99396899999999
        },
        "viewport": {
          "northeast": {
            "lat": 40.6990992302915,
            "lng": -73.9925446697085
          },
          "southwest": {
            "lat": 40.6964012697085,
            "lng": -73.9952426302915
          }
        }
      },
      "icon": "https://maps.gstatic.com/mapfiles/place_api/icons/v1/png_71/generic_business-71.png",
      "icon_background_color": "#7B9EB0",
      "icon_mask_base_uri": "https://maps.gstatic.com/mapfiles/place_api/icons/v2/generic_pinlet",
      "name": "Educational Housing Services",
      "opening_hours": {
        "open_now": true
      },
      "photos": [
        {
          "height": 4688,
          "html_attributions": [
            "<a href=\"https://maps.google.com/maps/contrib/104092651825892827566\">Educational Housing Services</a>"
          ],
          "photo_reference": "AeJbb3f5FVqTbsOwJBkQ6xsqu0p3nzv0hi6so-Js4FGPeMn3Irr4j5HsVYm1bRcbl-IbfgbUpa6-Z2R094SN6gKzETUTW0zuiPYHiwdDlWzvq6WZkNKtyA4hcKwRHpiFZ0Cf3OtG1rOBUS88Z6BcAodZMyQ-Xc_EW91V3rCiHie_1Gj69KUs",
          "width": 7024
        }
      ],
      "place_id": "ChIJmfz3beRYwokRruddvz1hCUc",
      "plus_code": {
        "compound_code": "M2X4+4C \u7f8e\u570b\u7d10\u7d04\u5e03\u9c81\u514b\u6797",
        "global_code": "87G8M2X4+4C"
      },
      "rating": 3.7,
      "reference": "ChIJmfz3beRYwokRruddvz1hCUc",
      "scope": "GOOGLE",
      "types": [
        "point_of_interest",
        "establishment"
      ],
      "user_ratings_total": 92,
      "vicinity": "55 Clark Street, Brooklyn"
    },
    {
      "business_status": "OPERATIONAL",
      "geometry": {
        "location": {
          "lat": 40.6953012,
          "lng": -73.99548779999999
        },
        "viewport": {
          "northeast": {
            "lat": 40.6965629802915,
            "lng": -73.9941520197085
          },
          "southwest": {
            "lat": 40.6938650197085,
            "lng": -73.9968499802915
          }
        }
      },
      "icon": "https://maps.gstatic.com/mapfiles/place_api/icons/v1/png_71/restaurant-71.png",
      "icon_background_color": "#FF9E67",
      "icon_mask_base_uri": "https://maps.gstatic.com/mapfiles/place_api/icons/v2/restaurant_pinlet",
      "name": "Lantern",
      "opening_hours": {
        "open_now": true
      },
      "photos": [
        {
          "height": 4032,
          "html_attributions": [
            "<a href=\"https://maps.google.com/maps/contrib/110165459937729714685\">Nicol\u00e1s Cabral</a>"
          ],
          "photo_reference": "AeJbb3eF1yzrdrkm0X02EaNZ3ivaEqUk9s7qYbSlqct_Qd-uVWbL0KMTGAVWnQ_cDxhRRJrG5LUyW7ke37FX86bJqEzTYRWPJy_qimjyT8fb3TRK2A-WVV93QBTUoivHj5AinBphVFTAK3hO1EVSzyg-ICwEsaNbkpDPHjea-2BExb8mXeBk",
          "width": 3024
        }
      ],
      "place_id": "ChIJu_V1zUdawokRajRClD40UIc",
      "plus_code": {
        "compound_code": "M2W3+4R \u7f8e\u570b\u7d10\u7d04\u5e03\u9c81\u514b\u6797",
        "global_code": "87G8M2W3+4R"
      },
      "price_level": 2,
      "rating": 4.3,
      "reference": "ChIJu_V1zUdawokRajRClD40UIc",
      "scope": "GOOGLE",
      "types": [
        "bar",
        "restaurant",
        "food",
        "point_of_interest",
        "establishment"
      ],
      "user_ratings_total": 884,
      "vicinity": "101 Montague Street, Brooklyn"
    },
    {
      "business_status": "OPERATIONAL",
      "geometry": {
        "location": {
          "lat": 40.69796540000001,
          "lng": -73.9957139
        },
        "viewport": {
          "northeast": {
            "lat": 40.69931588029149,
            "lng": -73.9942757697085
          },
          "southwest": {
            "lat": 40.6966179197085,
            "lng": -73.9969737302915
          }
        }
      },
      "icon": "https://maps.gstatic.com/mapfiles/place_api/icons/v1/png_71/worship_general-71.png",
      "icon_background_color": "#7B9EB0",
      "icon_mask_base_uri": "https://maps.gstatic.com/mapfiles/place_api/icons/v2/worship_christian_pinlet",
      "name": "Danish Seamen's Church",
      "opening_hours": {
        "open_now": false
      },
      "photos": [
        {
          "height": 4032,
          "html_attributions": [
            "<a href=\"https://maps.google.com/maps/contrib/115563825650343522959\">Natalia Spinelli</a>"
          ],
          "photo_reference": "AeJbb3dMprgpBwywyXck0Ojf_1Nl00h7z7kv2ak1T-N5aXeahQPddBENN-bO3IfCS-QcwkebvX9xYupB4cnWu8upErxIX2UyEEXn5w3kdSVbvNelIrz8R-4lGajYvW-FvzkMvCdamDVV4ABdWkEeyP7x0eaVcdoVKxgvgFed38radUmuEW-B",
          "width": 3024
        }
      ],
      "place_id": "ChIJcaG_DjhawokR7AQKXpfUEpc",
      "plus_code": {
        "compound_code": "M2X3+5P \u7f8e\u570b\u7d10\u7d04\u5e03\u9c81\u514b\u6797",
        "global_code": "87G8M2X3+5P"
      },
      "rating": 5,
      "reference": "ChIJcaG_DjhawokR7AQKXpfUEpc",
      "scope": "GOOGLE",
      "types": [
        "church",
        "place_of_worship",
        "point_of_interest",
        "establishment"
      ],
      "user_ratings_total": 10,
      "vicinity": "102 Willow Street, Brooklyn"
    },
    {
      "business_status": "OPERATIONAL",
      "geometry": {
        "location": {
          "lat": 40.6965458,
          "lng": -73.9969618
        },
        "viewport": {
          "northeast": {
            "lat": 40.6979138802915,
            "lng": -73.99569626970849
          },
          "southwest": {
            "lat": 40.6952159197085,
            "lng": -73.9983942302915
          }
        }
      },
      "icon": "https://maps.gstatic.com/mapfiles/place_api/icons/v1/png_71/generic_business-71.png",
      "icon_background_color": "#7B9EB0",
      "icon_mask_base_uri": "https://maps.gstatic.com/mapfiles/place_api/icons/v2/generic_pinlet",
      "name": "Supreme Estates Inc.",
      "opening_hours": {
        "open_now": false
      },
      "photos": [
        {
          "height": 583,
          "html_attributions": [
            "<a href=\"https://maps.google.com/maps/contrib/103131392813073898976\">Supreme Estates Inc.</a>"
          ],
          "photo_reference": "AeJbb3drfMcwDcribIbYIYLch1Gk7jHmTAzRCdBs4esr7QDvOHn7dBXyx2py6LcqpAXUfejnfctQoQrOtfTCASHVJxjDOoHGaLezKPe7RLODEpATYR5KTF5MODQJ3xyYe4Xx8IL4Hex-F810kWozIsiD--VtqF654XnNifmwOo0fO0DQlBHd",
          "width": 614
        }
      ],
      "place_id": "ChIJif___8NEwokRMYekFob5eGo",
      "plus_code": {
        "compound_code": "M2W3+J6 \u7f8e\u570b\u7d10\u7d04\u5e03\u9c81\u514b\u6797",
        "global_code": "87G8M2W3+J6"
      },
      "rating": 2,
      "reference": "ChIJif___8NEwokRMYekFob5eGo",
      "scope": "GOOGLE",
      "types": [
        "general_contractor",
        "point_of_interest",
        "establishment"
      ],
      "user_ratings_total": 1,
      "vicinity": "1, Pierrepont Plaza, Brooklyn"
    },
    {
      "business_status": "OPERATIONAL",
      "geometry": {
        "location": {
          "lat": 40.6987126,
          "lng": -73.99264509999999
        },
        "viewport": {
          "northeast": {
            "lat": 40.7000320302915,
            "lng": -73.99119281970849
          },
          "southwest": {
            "lat": 40.6973340697085,
            "lng": -73.9938907802915
          }
        }
      },
      "icon": "https://maps.gstatic.com/mapfiles/place_api/icons/v1/png_71/restaurant-71.png",
      "icon_background_color": "#FF9E67",
      "icon_mask_base_uri": "https://maps.gstatic.com/mapfiles/place_api/icons/v2/restaurant_pinlet",
      "name": "Henry's End",
      "opening_hours": {
        "open_now": false
      },
      "photos": [
        {
          "height": 1070,
          "html_attributions": [
            "<a href=\"https://maps.google.com/maps/contrib/112032230064504001478\">Henry&#39;s End</a>"
          ],
          "photo_reference": "AeJbb3d_49XiSDAQz75rHQxExFybcS5xwsqCHuIacIJlHD36aUQ4MlD5dCbGQdvLfq0W6D4F0V8jc8jHxqBs0u7sZAG3Ytk5-5jd0x3hZt12zKU1Lk9LTe23x36DdpP8FAamUZq137w_51wOc-9Cf9Um25JWk9Zh294gBtXjjTXf3eeNx_IM",
          "width": 1605
        }
      ],
      "place_id": "ChIJLdYpATdawokRiMEMn3lHExk",
      "plus_code": {
        "compound_code": "M2X4+FW \u7f8e\u570b\u7d10\u7d04\u5e03\u9c81\u514b\u6797",
        "global_code": "87G8M2X4+FW"
      },
      "price_level": 3,
      "rating": 4.5,
      "reference": "ChIJLdYpATdawokRiMEMn3lHExk",
      "scope": "GOOGLE",
      "types": [
        "bar",
        "restaurant",
        "food",
        "point_of_interest",
        "establishment"
      ],
      "user_ratings_total": 383,
      "vicinity": "72 Henry Street, Brooklyn"
    },
    {
      "business_status": "OPERATIONAL",
      "geometry": {
        "location": {
          "lat": 40.69981,
          "lng": -73.9921036
        },
        "viewport": {
          "northeast": {
            "lat": 40.7011259302915,
            "lng": -73.9906548697085
          },
          "southwest": {
            "lat": 40.6984279697085,
            "lng": -73.99335283029151
          }
        }
      },
      "icon": "https://maps.gstatic.com/mapfiles/place_api/icons/v1/png_71/restaurant-71.png",
      "icon_background_color": "#FF9E67",
      "icon_mask_base_uri": "https://maps.gstatic.com/mapfiles/place_api/icons/v2/restaurant_pinlet",
      "name": "Noodle Pudding",
      "opening_hours": {
        "open_now": false
      },
      "photos": [
        {
          "height": 3024,
          "html_attributions": [
            "<a href=\"https://maps.google.com/maps/contrib/115924793540509610412\">Mich S</a>"
          ],
          "photo_reference": "AeJbb3cXk_ivBc8NCb36FsqKJSoc7VUhvIXO9l-M4CNZ6etEta_cwhXruYmRiu2eGlN3cpoWwGJ8V9DpD_P8NWn2CWi4jxNgBeDz-GRz8j6vHtrPpZMYewo1JjzBtkCDeZF2c5ewYtwTpLL5A0kcqstXUS141Xu9XH-l1E5itTV-5LMkaI7K",
          "width": 4032
        }
      ],
      "place_id": "ChIJaZ3zATdawokRwWdbyV9OwmY",
      "plus_code": {
        "compound_code": "M2X5+W5 \u7f8e\u570b\u7d10\u7d04",
        "global_code": "87G8M2X5+W5"
      },
      "price_level": 2,
      "rating": 4.4,
      "reference": "ChIJaZ3zATdawokRwWdbyV9OwmY",
      "scope": "GOOGLE",
      "types": [
        "restaurant",
        "food",
        "point_of_interest",
        "establishment"
      ],
      "user_ratings_total": 500,
      "vicinity": "38 Henry Street, New York"
    },
    {
      "business_status": "OPERATIONAL",
      "geometry": {
        "location": {
          "lat": 40.6983742,
          "lng": -73.993038
        },
        "viewport": {
          "northeast": {
            "lat": 40.69964463029151,
            "lng": -73.99173196970851
          },
          "southwest": {
            "lat": 40.69694666970851,
            "lng": -73.99442993029152
          }
        }
      },
      "icon": "https://maps.gstatic.com/mapfiles/place_api/icons/v1/png_71/cafe-71.png",
      "icon_background_color": "#FF9E67",
      "icon_mask_base_uri": "https://maps.gstatic.com/mapfiles/place_api/icons/v2/cafe_pinlet",
      "name": "Vineapple Cafe",
      "opening_hours": {
        "open_now": true
      },
      "photos": [
        {
          "height": 1991,
          "html_attributions": [
            "<a href=\"https://maps.google.com/maps/contrib/101833054086577521453\">Vineapple Cafe</a>"
          ],
          "photo_reference": "AeJbb3emsy00dJ4corTdKhDiK34QRoh_YcqNumAqrKH6BgiWlcnkoqP-Wm4yLzKtjDlYsuVsl3N9P40QnmGxhg_XtPS_efpkJzkfD10g-HBIyYrZsRKv3PY7w5pHwcM-7ZzfD3Y6NqJstMVo0_2egwPVZBuO54x2eS3bIp2JUlglJstNw197",
          "width": 3539
        }
      ],
      "place_id": "ChIJkdevwDdawokR0j_3ECiQ8rE",
      "plus_code": {
        "compound_code": "M2X4+8Q \u7f8e\u570b\u7d10\u7d04",
        "global_code": "87G8M2X4+8Q"
      },
      "price_level": 1,
      "rating": 4.5,
      "reference": "ChIJkdevwDdawokR0j_3ECiQ8rE",
      "scope": "GOOGLE",
      "types": [
        "cafe",
        "bar",
        "restaurant",
        "food",
        "store",
        "point_of_interest",
        "establishment"
      ],
      "user_ratings_total": 486,
      "vicinity": "71 Pineapple Street, Brooklyn"
    },
    {
      "business_status": "OPERATIONAL",
      "geometry": {
        "location": {
          "lat": 40.7007185,
          "lng": -73.99297050000001
        },
        "viewport": {
          "northeast": {
            "lat": 40.7021367802915,
            "lng": -73.99173056970851
          },
          "southwest": {
            "lat": 40.6994388197085,
            "lng": -73.99442853029151
          }
        }
      },
      "icon": "https://maps.gstatic.com/mapfiles/place_api/icons/v1/png_71/school-71.png",
      "icon_background_color": "#7B9EB0",
      "icon_mask_base_uri": "https://maps.gstatic.com/mapfiles/place_api/icons/v2/school_pinlet",
      "name": "PS8 The Emily Warren Roebling School",
      "opening_hours": {
        "open_now": false
      },
      "photos": [
        {
          "height": 4032,
          "html_attributions": [
            "<a href=\"https://maps.google.com/maps/contrib/109727148333413044932\">Rutger van Faassen</a>"
          ],
          "photo_reference": "AeJbb3cotlVI16Ce6SRBvj73IOgizweSmhn6IbQPF7wqHO18jcpP44hrmCa2v4A97h2lZYXBgp3sHaUUfZKHCor72II1_W-Wj2iOPgqjLZdGgmX-E-npQHkivP2Ve6GiP1c2wS__ZfSJ0JRdztdbdGcwZZYK_ls3syQ9AaimAD_Zpjw0C9g",
          "width": 3024
        }
      ],
      "place_id": "ChIJk96UFTdawokRhZTbs4XVDHA",
      "plus_code": {
        "compound_code": "P224+7R \u7f8e\u570b\u7d10\u7d04",
        "global_code": "87G8P224+7R"
      },
      "rating": 4.6,
      "reference": "ChIJk96UFTdawokRhZTbs4XVDHA",
      "scope": "GOOGLE",
      "types": [
        "primary_school",
        "school",
        "point_of_interest",
        "establishment"
      ],
      "user_ratings_total": 11,
      "vicinity": "37 Hicks Street, Brooklyn"
    },
    {
      "business_status": "OPERATIONAL",
      "geometry": {
        "location": {
          "lat": 40.697372,
          "lng": -73.996639
        },
        "viewport": {
          "northeast": {
            "lat": 40.6987632802915,
            "lng": -73.9953399197085
          },
          "southwest": {
            "lat": 40.6960653197085,
            "lng": -73.9980378802915
          }
        }
      },
      "icon": "https://maps.gstatic.com/mapfiles/place_api/icons/v1/png_71/generic_business-71.png",
      "icon_background_color": "#7B9EB0",
      "icon_mask_base_uri": "https://maps.gstatic.com/mapfiles/place_api/icons/v2/generic_pinlet",
      "name": "The Standish - Contemporary Brooklyn Apartments",
      "opening_hours": {
        "open_now": true
      },
      "photos": [
        {
          "height": 4032,
          "html_attributions": [
            "<a href=\"https://maps.google.com/maps/contrib/100304389249163887318\">Barbara Hoosain</a>"
          ],
          "photo_reference": "AeJbb3cEPOfxTmtYggTSACU0c1rzcQbUNIzzX6nfUWsDDYhzK7Njm9Hmf4Toy5aRGDO28wZayywXsZYKXihHW_r_z7s0NFqZ9r4mc86HiH746cbTMmJT62DrZtAHP0kVPDKtLFUCt0vlTEtrHUZNE1TiekOyhdoRP1yprcCyOTKF-dgSDbsA",
          "width": 3024
        }
      ],
      "place_id": "ChIJDexniUdawokRlOyxVAqk2gk",
      "plus_code": {
        "compound_code": "M2W3+W8 \u7f8e\u570b\u7d10\u7d04\u5e03\u9c81\u514b\u6797",
        "global_code": "87G8M2W3+W8"
      },
      "rating": 3,
      "reference": "ChIJDexniUdawokRlOyxVAqk2gk",
      "scope": "GOOGLE",
      "types": [
        "point_of_interest",
        "establishment"
      ],
      "user_ratings_total": 10,
      "vicinity": "169 Columbia Heights, Brooklyn"
    },
    {
      "business_status": "OPERATIONAL",
      "geometry": {
        "location": {
          "lat": 40.6979881,
          "lng": -73.9917184
        },
        "viewport": {
          "northeast": {
            "lat": 40.6993375802915,
            "lng": -73.9902514697085
          },
          "southwest": {
            "lat": 40.69663961970851,
            "lng": -73.9929494302915
          }
        }
      },
      "icon": "https://maps.gstatic.com/mapfiles/place_api/icons/v1/png_71/restaurant-71.png",
      "icon_background_color": "#FF9E67",
      "icon_mask_base_uri": "https://maps.gstatic.com/mapfiles/place_api/icons/v2/restaurant_pinlet",
      "name": "Park Plaza",
      "opening_hours": {
        "open_now": true
      },
      "photos": [
        {
          "height": 2177,
          "html_attributions": [
            "<a href=\"https://maps.google.com/maps/contrib/113315385673430463783\">Lawrence Chertoff</a>"
          ],
          "photo_reference": "AeJbb3eXjq4quxZVLdosxWLBUWtWeHQb97A4LXorhSi0-PwmP8t-L5FQNLphTln5_-m1omD0y8V1JxTUJzBR94UDIdmPfF1mQt-yQ4jaxJsWNaBlJ2K68-PuZ-XOex7a8ciIJO5gJHBMRYiBqd64y3-uT1jR-DdLGLN8Ldo8Lerjgd6xBisI",
          "width": 3688
        }
      ],
      "place_id": "ChIJb7MiMjZawokRwrNLDOXf_OY",
      "plus_code": {
        "compound_code": "M2X5+58 \u7f8e\u570b\u7d10\u7d04",
        "global_code": "87G8M2X5+58"
      },
      "price_level": 2,
      "rating": 4.2,
      "reference": "ChIJb7MiMjZawokRwrNLDOXf_OY",
      "scope": "GOOGLE",
      "types": [
        "bar",
        "restaurant",
        "food",
        "point_of_interest",
        "establishment"
      ],
      "user_ratings_total": 1011,
      "vicinity": "220 Cadman Plaza West, Brooklyn"
    },
    {
      "business_status": "OPERATIONAL",
      "geometry": {
        "location": {
          "lat": 40.69557090000001,
          "lng": -73.99628129999999
        },
        "viewport": {
          "northeast": {
            "lat": 40.69681318029151,
            "lng": -73.99497981970849
          },
          "southwest": {
            "lat": 40.69411521970851,
            "lng": -73.9976777802915
          }
        }
      },
      "icon": "https://maps.gstatic.com/mapfiles/place_api/icons/v1/png_71/generic_business-71.png",
      "icon_background_color": "#7B9EB0",
      "icon_mask_base_uri": "https://maps.gstatic.com/mapfiles/place_api/icons/v2/generic_pinlet",
      "name": "Heights Casino",
      "opening_hours": {
        "open_now": true
      },
      "photos": [
        {
          "height": 4618,
          "html_attributions": [
            "<a href=\"https://maps.google.com/maps/contrib/107613162835931794884\">Zita Zilgalve</a>"
          ],
          "photo_reference": "AeJbb3dK7JeDWzhyrEGYtf20Fe957P6BBObjELb6UPVG5wkMY_OlTjhXm3OlPVdovs5pJXIIh2sf_3ip46VuLk1ooya3JOJGR9oBydjPdJGXRQ_346eJjhxQ73DQ0kvRA9orz7i2dHbd0nsLlIZ2oIXM9c_dxUFBNcJ3PARpMW5l73yMpkab",
          "width": 3464
        }
      ],
      "place_id": "ChIJHW0gtkdawokRehZY3jO0ewE",
      "plus_code": {
        "compound_code": "M2W3+6F \u7f8e\u570b\u7d10\u7d04",
        "global_code": "87G8M2W3+6F"
      },
      "rating": 4.3,
      "reference": "ChIJHW0gtkdawokRehZY3jO0ewE",
      "scope": "GOOGLE",
      "types": [
        "point_of_interest",
        "establishment"
      ],
      "user_ratings_total": 32,
      "vicinity": "75 Montague Street, Brooklyn"
    },
    {
      "business_status": "OPERATIONAL",
      "geometry": {
        "location": {
          "lat": 40.6985047,
          "lng": -73.9927592
        },
        "viewport": {
          "northeast": {
            "lat": 40.69982278029149,
            "lng": -73.9913022697085
          },
          "southwest": {
            "lat": 40.6971248197085,
            "lng": -73.9940002302915
          }
        }
      },
      "icon": "https://maps.gstatic.com/mapfiles/place_api/icons/v1/png_71/restaurant-71.png",
      "icon_background_color": "#FF9E67",
      "icon_mask_base_uri": "https://maps.gstatic.com/mapfiles/place_api/icons/v2/restaurant_pinlet",
      "name": "Fascati Pizzeria",
      "opening_hours": {
        "open_now": true
      },
      "photos": [
        {
          "height": 4032,
          "html_attributions": [
            "<a href=\"https://maps.google.com/maps/contrib/103967061093453033505\">Richard Rogers</a>"
          ],
          "photo_reference": "AeJbb3eNhbDpfTPdIBfWb1209J8V0Btvl0Zhn52feC-kWPX02b5EuiEXMwv1-h3M4pamM-uR9GJc4nNrGaWD1ICvjTfo0qY2IVUxgdH7pVuJkzQHf72Ze5KgRsMKRDGYgwhxfxgxfn1GzSp6Zq_6pYDx9voK6lr4I5aQTHzYS2N2lo89zw7I",
          "width": 3024
        }
      ],
      "place_id": "ChIJAxQpsDdawokRVz-rTsNwDSo",
      "plus_code": {
        "compound_code": "M2X4+CV \u7f8e\u570b\u7d10\u7d04\u5e03\u9c81\u514b\u6797",
        "global_code": "87G8M2X4+CV"
      },
      "price_level": 1,
      "rating": 4.2,
      "reference": "ChIJAxQpsDdawokRVz-rTsNwDSo",
      "scope": "GOOGLE",
      "types": [
        "restaurant",
        "food",
        "point_of_interest",
        "establishment"
      ],
      "user_ratings_total": 280,
      "vicinity": "80 Henry Street, Brooklyn"
    },
    {
      "business_status": "OPERATIONAL",
      "geometry": {
        "location": {
          "lat": 40.694881,
          "lng": -73.993779
        },
        "viewport": {
          "northeast": {
            "lat": 40.69612808029149,
            "lng": -73.9924775697085
          },
          "southwest": {
            "lat": 40.69343011970849,
            "lng": -73.9951755302915
          }
        }
      },
      "icon": "https://maps.gstatic.com/mapfiles/place_api/icons/v1/png_71/generic_business-71.png",
      "icon_background_color": "#7B9EB0",
      "icon_mask_base_uri": "https://maps.gstatic.com/mapfiles/place_api/icons/v2/generic_pinlet",
      "name": "Nurses Educational Funds Inc",
      "place_id": "ChIJAY04N6FZwokRpjuJDlIT91g",
      "plus_code": {
        "compound_code": "M2V4+XF \u7f8e\u570b\u7d10\u7d04\u5e03\u9c81\u514b\u6797",
        "global_code": "87G8M2V4+XF"
      },
      "reference": "ChIJAY04N6FZwokRpjuJDlIT91g",
      "scope": "GOOGLE",
      "types": [
        "point_of_interest",
        "establishment"
      ],
      "vicinity": "137 Montague Street #144, Brooklyn"
    },
    {
      "geometry": {
        "location": {
          "lat": 40.7830603,
          "lng": -73.9712488
        },
        "viewport": {
          "northeast": {
            "lat": 40.820045,
            "lng": -73.90331300000001
          },
          "southwest": {
            "lat": 40.698078,
            "lng": -74.03514899999999
          }
        }
      },
      "icon": "https://maps.gstatic.com/mapfiles/place_api/icons/v1/png_71/geocode-71.png",
      "icon_background_color": "#7B9EB0",
      "icon_mask_base_uri": "https://maps.gstatic.com/mapfiles/place_api/icons/v2/generic_pinlet",
      "name": "\u66fc\u54c8\u9813",
      "photos": [
        {
          "height": 1199,
          "html_attributions": [
            "<a href=\"https://maps.google.com/maps/contrib/108803842220307386999\">Debeli Atleti\u010dar</a>"
          ],
          "photo_reference": "AeJbb3fKucrJFz47y5QFwh0KA8tF3i0cr4aNJSpz1ihjDIhxe1GzCucg-Duptq_0NmJUa03YNgBbzgMlex4BAlHw-lPY0vC9F3BuY8b5nx_jXXDYBRAoSE9CMWR6fAHvzVvslRJDS6DGllbzqznFezaFQMtSngDhi8jKDm2-L9hJ42UH9G6Z",
          "width": 1800
        }
      ],
      "place_id": "ChIJYeZuBI9YwokRjMDs_IEyCwo",
      "reference": "ChIJYeZuBI9YwokRjMDs_IEyCwo",
      "scope": "GOOGLE",
      "types": [
        "sublocality_level_1",
        "sublocality",
        "political"
      ],
      "vicinity": "\u66fc\u54c8\u9813"
    },
    {
      "business_status": "OPERATIONAL",
      "geometry": {
        "location": {
          "lat": 40.699289,
          "lng": -73.9961168
        },
        "viewport": {
          "northeast": {
            "lat": 40.7006068802915,
            "lng": -73.9946567697085
          },
          "southwest": {
            "lat": 40.6979089197085,
            "lng": -73.9973547302915
          }
        }
      },
      "icon": "https://maps.gstatic.com/mapfiles/place_api/icons/v1/png_71/generic_business-71.png",
      "icon_background_color": "#7B9EB0",
      "icon_mask_base_uri": "https://maps.gstatic.com/mapfiles/place_api/icons/v2/generic_pinlet",
      "name": "Dr. Howard K. Linn, DDS",
      "place_id": "ChIJrfALOThawokRH2IMuVWoWQQ",
      "plus_code": {
        "compound_code": "M2X3+PH New York, NY, USA",
        "global_code": "87G8M2X3+PH"
      },
      "rating": 5,
      "reference": "ChIJrfALOThawokRH2IMuVWoWQQ",
      "scope": "GOOGLE",
      "types": [
        "dentist",
        "health",
        "point_of_interest",
        "establishment"
      ],
      "user_ratings_total": 2,
      "vicinity": "124 Columbia Heights, Brooklyn"
    },
    {
      "business_status": "OPERATIONAL",
      "geometry": {
        "location": {
          "lat": 40.701511,
          "lng": -73.9943804
        },
        "viewport": {
          "northeast": {
            "lat": 40.7030208802915,
            "lng": -73.9929507197085
          },
          "southwest": {
            "lat": 40.7003229197085,
            "lng": -73.99564868029151
          }
        }
      },
      "icon": "https://maps.gstatic.com/mapfiles/place_api/icons/v1/png_71/park-71.png",
      "icon_background_color": "#4DB546",
      "icon_mask_base_uri": "https://maps.gstatic.com/mapfiles/place_api/icons/v2/tree_pinlet",
      "name": "Hillside Dog Park",
      "opening_hours": {
        "open_now": true
      },
      "photos": [
        {
          "height": 3456,
          "html_attributions": [
            "<a href=\"https://maps.google.com/maps/contrib/111321347252125190805\">Dietmar Schmid 1953</a>"
          ],
          "photo_reference": "AeJbb3eWYxDV82F7h2liK--n0Pgb5EiSLe1yh3sa69cJRJfJ0Hhb5_GuJw4im3NIhI5I_435iDmBjm20bJb5SeRuoDtou2HDiojwdWoCpkFnBBkGMBA6LRP206U-HFxi5w51KVDAOl4CLLrbZOFcuGaUN2HWjeJRjsqiYaFvoUkKImuvmqgn",
          "width": 5184
        }
      ],
      "place_id": "ChIJxwxEXDdawokR2LYcQFUnsMs",
      "plus_code": {
        "compound_code": "P224+J6 New York, NY, USA",
        "global_code": "87G8P224+J6"
      },
      "rating": 4.6,
      "reference": "ChIJxwxEXDdawokR2LYcQFUnsMs",
      "scope": "GOOGLE",
      "types": [
        "tourist_attraction",
        "park",
        "point_of_interest",
        "establishment"
      ],
      "user_ratings_total": 327,
      "vicinity": "Vine Street, Brooklyn"
    },
    {
      "business_status": "OPERATIONAL",
      "geometry": {
        "location": {
          "lat": 40.699338,
          "lng": -73.9937211
        },
        "viewport": {
          "northeast": {
            "lat": 40.70070948029149,
            "lng": -73.9924555197085
          },
          "southwest": {
            "lat": 40.6980115197085,
            "lng": -73.99515348029152
          }
        }
      },
      "icon": "https://maps.gstatic.com/mapfiles/place_api/icons/v1/png_71/worship_general-71.png",
      "icon_background_color": "#7B9EB0",
      "icon_mask_base_uri": "https://maps.gstatic.com/mapfiles/place_api/icons/v2/worship_christian_pinlet",
      "name": "Plymouth Church School",
      "photos": [
        {
          "height": 3024,
          "html_attributions": [
            "<a href=\"https://maps.google.com/maps/contrib/106048252159271746773\">Philipp Kl\u00f6ckner</a>"
          ],
          "photo_reference": "AeJbb3epnO03YM5EDxScfQ2jYzX3bK-YFqdtBz9kUx6Db7-d6AP1cZUuiLOkjno0qMfJvIJRo1hDc99k-Ody72Dej-Gu1sjjfxt_YuIf0jR4qrjL0LYak9UDm3Ncvs5JhQFz_5wkHU6gV3nV7oJC5Ff0U3Sie4prMWH6Az4gATIa9AP0XQRA",
          "width": 4032
        }
      ],
      "place_id": "ChIJaT1YmjdawokRPAf1IaiClaM",
      "plus_code": {
        "compound_code": "M2X4+PG Brooklyn, NY, USA",
        "global_code": "87G8M2X4+PG"
      },
      "price_level": 0,
      "rating": 3.7,
      "reference": "ChIJaT1YmjdawokRPAf1IaiClaM",
      "scope": "GOOGLE",
      "types": [
        "church",
        "place_of_worship",
        "school",
        "point_of_interest",
        "establishment"
      ],
      "user_ratings_total": 10,
      "vicinity": "75 Hicks Street, Brooklyn"
    },
    {
      "business_status": "OPERATIONAL",
      "geometry": {
        "location": {
          "lat": 40.69485280000001,
          "lng": -73.99518859999999
        },
        "viewport": {
          "northeast": {
            "lat": 40.6962844302915,
            "lng": -73.9938056197085
          },
          "southwest": {
            "lat": 40.6935864697085,
            "lng": -73.9965035802915
          }
        }
      },
      "icon": "https://maps.gstatic.com/mapfiles/place_api/icons/v1/png_71/restaurant-71.png",
      "icon_background_color": "#FF9E67",
      "icon_mask_base_uri": "https://maps.gstatic.com/mapfiles/place_api/icons/v2/restaurant_pinlet",
      "name": "Montague Street Bagels",
      "opening_hours": {
        "open_now": true
      },
      "photos": [
        {
          "height": 1836,
          "html_attributions": [
            "<a href=\"https://maps.google.com/maps/contrib/114744492143843299209\">Sergio Gonzalez</a>"
          ],
          "photo_reference": "AeJbb3ftEiOArlSbbzSIWcRQtqmttjLmryUIaS6ht6RRODWVakNDoslkkq0kHViyo_wfKwPJa7s-y-OBk-9rU_85B0X1Y06GVBITUXFmjiKHTE_FwOwQooZCmvWyGNl9QvUbGKz7uXFgBRqjAj-Ah2jUyFT1sEOQk0Xrd7wKS2d-VWgbw2gt",
          "width": 3264
        }
      ],
      "place_id": "ChIJj2AULEZawokRPGgOU8vN1jQ",
      "plus_code": {
        "compound_code": "M2V3+WW Brooklyn, NY, USA",
        "global_code": "87G8M2V3+WW"
      },
      "price_level": 1,
      "rating": 4.1,
      "reference": "ChIJj2AULEZawokRPGgOU8vN1jQ",
      "scope": "GOOGLE",
      "types": [
        "bakery",
        "store",
        "food",
        "point_of_interest",
        "establishment"
      ],
      "user_ratings_total": 253,
      "vicinity": "108 Montague Street, Brooklyn"
    },
    {
      "business_status": "OPERATIONAL",
      "geometry": {
        "location": {
          "lat": 40.69519649999999,
          "lng": -73.9952199
        },
        "viewport": {
          "northeast": {
            "lat": 40.6964788302915,
            "lng": -73.99390291970849
          },
          "southwest": {
            "lat": 40.6937808697085,
            "lng": -73.9966008802915
          }
        }
      },
      "icon": "https://maps.gstatic.com/mapfiles/place_api/icons/v1/png_71/shopping-71.png",
      "icon_background_color": "#4B96F3",
      "icon_mask_base_uri": "https://maps.gstatic.com/mapfiles/place_api/icons/v2/shopping_pinlet",
      "name": "James Weir Floral Co.",
      "opening_hours": {
        "open_now": true
      },
      "photos": [
        {
          "height": 2237,
          "html_attributions": [
            "<a href=\"https://maps.google.com/maps/contrib/112368538260276580356\">James Weir Floral Co.</a>"
          ],
          "photo_reference": "AeJbb3drU1tkuOJ3Me-wkociwEAQKybH_v5aS86UTCr_OhYC63M2wj65H8I4iJII09iffnTT1QThRRZbXl6BgnT_Giv-P7ABEuhGZvOoFyN5zk8szdIHBUDvL9xLCRu40ACExJMNyPGpDATKOirFZWMWIS0q0iHiWfS1Qz_qGOKjeGKZ76Ux",
          "width": 2864
        }
      ],
      "place_id": "ChIJ3_lw9UhawokRAI_DWWXJU5w",
      "plus_code": {
        "compound_code": "M2W3+3W Brooklyn, NY, USA",
        "global_code": "87G8M2W3+3W"
      },
      "rating": 4.6,
      "reference": "ChIJ3_lw9UhawokRAI_DWWXJU5w",
      "scope": "GOOGLE",
      "types": [
        "florist",
        "store",
        "point_of_interest",
        "establishment"
      ],
      "user_ratings_total": 96,
      "vicinity": "107 Montague Street, Brooklyn"
    },
    {
      "business_status": "OPERATIONAL",
      "geometry": {
        "location": {
          "lat": 40.69500909999999,
          "lng": -73.9961082
        },
        "viewport": {
          "northeast": {
            "lat": 40.69633538029149,
            "lng": -73.9946932197085
          },
          "southwest": {
            "lat": 40.69363741970849,
            "lng": -73.9973911802915
          }
        }
      },
      "icon": "https://maps.gstatic.com/mapfiles/place_api/icons/v1/png_71/restaurant-71.png",
      "icon_background_color": "#FF9E67",
      "icon_mask_base_uri": "https://maps.gstatic.com/mapfiles/place_api/icons/v2/restaurant_pinlet",
      "name": "Dellarocco's Brick Oven Pizza",
      "opening_hours": {
        "open_now": true
      },
      "photos": [
        {
          "height": 3024,
          "html_attributions": [
            "<a href=\"https://maps.google.com/maps/contrib/117260267990215778263\">A. Todd Emerson</a>"
          ],
          "photo_reference": "AeJbb3des-qeGE8IVd8WOIbXjSM27V1XpsE0dne1a8s7CGZpvK_PPVTGXPLh-0NoTtcAw6Z4yRsxiQelj2V9gFL3CxHB-g1RBwNlM3fqVtlVZ8q6ry2WRS-KCsx9TQwwMX5BjGzAbE9rzZvu6PAbR_EyavHXjwwQ_URjiTp1GbHZ6v2CgM2S",
          "width": 4032
        }
      ],
      "place_id": "ChIJRYqTNEZawokRuSMWeyyinyI",
      "plus_code": {
        "compound_code": "M2W3+2H New York, NY, USA",
        "global_code": "87G8M2W3+2H"
      },
      "price_level": 2,
      "rating": 4.6,
      "reference": "ChIJRYqTNEZawokRuSMWeyyinyI",
      "scope": "GOOGLE",
      "types": [
        "restaurant",
        "food",
        "point_of_interest",
        "establishment"
      ],
      "user_ratings_total": 653,
      "vicinity": "214 Hicks Street, Brooklyn"
    },
    {
      "business_status": "OPERATIONAL",
      "geometry": {
        "location": {
          "lat": 40.6981198,
          "lng": -73.9922691
        },
        "viewport": {
          "northeast": {
            "lat": 40.6994627302915,
            "lng": -73.9911105197085
          },
          "southwest": {
            "lat": 40.6967647697085,
            "lng": -73.99380848029152
          }
        }
      },
      "icon": "https://maps.gstatic.com/mapfiles/place_api/icons/v1/png_71/generic_business-71.png",
      "icon_background_color": "#7B9EB0",
      "icon_mask_base_uri": "https://maps.gstatic.com/mapfiles/place_api/icons/v2/generic_pinlet",
      "name": "Image Salon- Spa",
      "opening_hours": {
        "open_now": true
      },
      "place_id": "ChIJbRubxjdawokREJnPFPA60j4",
      "plus_code": {
        "compound_code": "M2X5+63 Brooklyn, NY, USA",
        "global_code": "87G8M2X5+63"
      },
      "rating": 4.6,
      "reference": "ChIJbRubxjdawokREJnPFPA60j4",
      "scope": "GOOGLE",
      "types": [
        "beauty_salon",
        "point_of_interest",
        "establishment"
      ],
      "user_ratings_total": 10,
      "vicinity": "91 Pineapple Walk, Brooklyn"
    },
    {
      "business_status": "OPERATIONAL",
      "geometry": {
        "location": {
          "lat": 40.6991904,
          "lng": -73.992324
        },
        "viewport": {
          "northeast": {
            "lat": 40.70066218029149,
            "lng": -73.99096426970848
          },
          "southwest": {
            "lat": 40.6979642197085,
            "lng": -73.9936622302915
          }
        }
      },
      "icon": "https://maps.gstatic.com/mapfiles/place_api/icons/v1/png_71/restaurant-71.png",
      "icon_background_color": "#FF9E67",
      "icon_mask_base_uri": "https://maps.gstatic.com/mapfiles/place_api/icons/v2/restaurant_pinlet",
      "name": "Bevacco",
      "opening_hours": {
        "open_now": false
      },
      "photos": [
        {
          "height": 2340,
          "html_attributions": [
            "<a href=\"https://maps.google.com/maps/contrib/110967827747214523304\">Kenny Lyon</a>"
          ],
          "photo_reference": "AeJbb3c6B2esObFN9YjJkTYgBi44M9qAqJsS49b1OW16Rync_dONdWlkn60_6V7fvGCpNCszlrDrSgcYrTIPnEnmSBccLkWP7nkbl5Dx_aYt0JTVgPBsM-6tD5ZqRvzK2CRQ9P5VBIvr0rN6dwydiOnXHfYqlwzlu2elUfc6h7Gq4LUaDQYz",
          "width": 4160
        }
      ],
      "place_id": "ChIJUWWFrjdawokRD37DlCJC6gU",
      "plus_code": {
        "compound_code": "M2X5+M3 New York, NY, USA",
        "global_code": "87G8M2X5+M3"
      },
      "price_level": 2,
      "rating": 4.2,
      "reference": "ChIJUWWFrjdawokRD37DlCJC6gU",
      "scope": "GOOGLE",
      "types": [
        "bar",
        "restaurant",
        "food",
        "point_of_interest",
        "establishment"
      ],
      "user_ratings_total": 293,
      "vicinity": "60 Henry Street, Brooklyn"
    },
    {
      "business_status": "OPERATIONAL",
      "geometry": {
        "location": {
          "lat": 40.6954634,
          "lng": -73.9959497
        },
        "viewport": {
          "northeast": {
            "lat": 40.69678888029151,
            "lng": -73.99450956970848
          },
          "southwest": {
            "lat": 40.69409091970851,
            "lng": -73.99720753029149
          }
        }
      },
      "icon": "https://maps.gstatic.com/mapfiles/place_api/icons/v1/png_71/generic_business-71.png",
      "icon_background_color": "#7B9EB0",
      "icon_mask_base_uri": "https://maps.gstatic.com/mapfiles/place_api/icons/v2/generic_pinlet",
      "name": "Casino Mansion",
      "place_id": "ChIJ9z7yy0dawokRcjFhzNvTLD4",
      "plus_code": {
        "compound_code": "M2W3+5J New York, NY, USA",
        "global_code": "87G8M2W3+5J"
      },
      "rating": 3,
      "reference": "ChIJ9z7yy0dawokRcjFhzNvTLD4",
      "scope": "GOOGLE",
      "types": [
        "point_of_interest",
        "establishment"
      ],
      "user_ratings_total": 2,
      "vicinity": "200 Hicks Street, Brooklyn"
    },
    {
      "business_status": "OPERATIONAL",
      "geometry": {
        "location": {
          "lat": 40.6985596,
          "lng": -73.994
        },
        "viewport": {
          "northeast": {
            "lat": 40.6998822302915,
            "lng": -73.99273846970848
          },
          "southwest": {
            "lat": 40.6971842697085,
            "lng": -73.9954364302915
          }
        }
      },
      "icon": "https://maps.gstatic.com/mapfiles/place_api/icons/v1/png_71/generic_business-71.png",
      "icon_background_color": "#7B9EB0",
      "icon_mask_base_uri": "https://maps.gstatic.com/mapfiles/place_api/icons/v2/generic_pinlet",
      "name": "TKR Properties Services",
      "opening_hours": {
        "open_now": false
      },
      "place_id": "ChIJCydUjTdawokRxzsUITCvAfs",
      "plus_code": {
        "compound_code": "M2X4+CC New York, NY, USA",
        "global_code": "87G8M2X4+CC"
      },
      "reference": "ChIJCydUjTdawokRxzsUITCvAfs",
      "scope": "GOOGLE",
      "types": [
        "point_of_interest",
        "establishment"
      ],
      "vicinity": "45 Pineapple Street, Brooklyn"
    },
    {
      "business_status": "OPERATIONAL",
      "geometry": {
        "location": {
          "lat": 40.6974361,
          "lng": -73.9932444
        },
        "viewport": {
          "northeast": {
            "lat": 40.6988206802915,
            "lng": -73.99187361970849
          },
          "southwest": {
            "lat": 40.6961227197085,
            "lng": -73.9945715802915
          }
        }
      },
      "icon": "https://maps.gstatic.com/mapfiles/place_api/icons/v1/png_71/restaurant-71.png",
      "icon_background_color": "#FF9E67",
      "icon_mask_base_uri": "https://maps.gstatic.com/mapfiles/place_api/icons/v2/restaurant_pinlet",
      "name": "Clark's",
      "opening_hours": {
        "open_now": true
      },
      "photos": [
        {
          "height": 1960,
          "html_attributions": [
            "<a href=\"https://maps.google.com/maps/contrib/116962923538112334581\">Kevin Wong</a>"
          ],
          "photo_reference": "AeJbb3esD8mk2UMv8FJPW4-vMvX6ZLe-Tqx5hroSY6fy-r9XYPSMd1EN6MnEd9O7mrqBfyCeXmztDWFXkRvPuXaRgXFcc9aQnYliMfZoPQ52-kyu9K3-MP-h4XzxS0VKA42UekD3187RXVunlyRlB_BJSxhflIxuN-H1jCERXzgttA9aPLIF",
          "width": 4032
        }
      ],
      "place_id": "ChIJ4wBp3jdawokRZf_Uh0IhaXY",
      "plus_code": {
        "compound_code": "M2W4+XP Brooklyn, NY, USA",
        "global_code": "87G8M2W4+XP"
      },
      "price_level": 2,
      "rating": 4.4,
      "reference": "ChIJ4wBp3jdawokRZf_Uh0IhaXY",
      "scope": "GOOGLE",
      "types": [
        "restaurant",
        "food",
        "point_of_interest",
        "establishment"
      ],
      "user_ratings_total": 1005,
      "vicinity": "80 Clark Street, Brooklyn"
    },
    {
      "business_status": "OPERATIONAL",
      "geometry": {
        "location": {
          "lat": 40.6959876,
          "lng": -73.99509590000001
        },
        "viewport": {
          "northeast": {
            "lat": 40.6972398802915,
            "lng": -73.9937929697085
          },
          "southwest": {
            "lat": 40.69454191970851,
            "lng": -73.99649093029151
          }
        }
      },
      "icon": "https://maps.gstatic.com/mapfiles/place_api/icons/v1/png_71/generic_business-71.png",
      "icon_background_color": "#7B9EB0",
      "icon_mask_base_uri": "https://maps.gstatic.com/mapfiles/place_api/icons/v2/generic_pinlet",
      "name": "Junior League of Brooklyn",
      "place_id": "ChIJvydU2UdawokRzPQAMDqNCI4",
      "plus_code": {
        "compound_code": "M2W3+9X Brooklyn, NY, USA",
        "global_code": "87G8M2W3+9X"
      },
      "reference": "ChIJvydU2UdawokRzPQAMDqNCI4",
      "scope": "GOOGLE",
      "types": [
        "point_of_interest",
        "establishment"
      ],
      "vicinity": "55 Pierrepont Street, Brooklyn"
    },
    {
      "business_status": "OPERATIONAL",
      "geometry": {
        "location": {
          "lat": 40.698683,
          "lng": -73.991871
        },
        "viewport": {
          "northeast": {
            "lat": 40.6999632302915,
            "lng": -73.9903215697085
          },
          "southwest": {
            "lat": 40.6972652697085,
            "lng": -73.9930195302915
          }
        }
      },
      "icon": "https://maps.gstatic.com/mapfiles/place_api/icons/v1/png_71/generic_business-71.png",
      "icon_background_color": "#7B9EB0",
      "icon_mask_base_uri": "https://maps.gstatic.com/mapfiles/place_api/icons/v2/generic_pinlet",
      "name": "Bell Frances MD",
      "place_id": "ChIJ-ZU5szdawokRQlXE9vBiwdU",
      "plus_code": {
        "compound_code": "M2X5+F7 Brooklyn, NY, USA",
        "global_code": "87G8M2X5+F7"
      },
      "reference": "ChIJ-ZU5szdawokRQlXE9vBiwdU",
      "scope": "GOOGLE",
      "types": [
        "doctor",
        "health",
        "point_of_interest",
        "establishment"
      ],
      "vicinity": "75 Henry Street # 24E, Brooklyn"
    },
    {
      "business_status": "OPERATIONAL",
      "geometry": {
        "location": {
          "lat": 40.6948322,
          "lng": -73.9938015
        },
        "viewport": {
          "northeast": {
            "lat": 40.6961036302915,
            "lng": -73.9924887197085
          },
          "southwest": {
            "lat": 40.6934056697085,
            "lng": -73.99518668029151
          }
        }
      },
      "icon": "https://maps.gstatic.com/mapfiles/place_api/icons/v1/png_71/generic_business-71.png",
      "icon_background_color": "#7B9EB0",
      "icon_mask_base_uri": "https://maps.gstatic.com/mapfiles/place_api/icons/v2/generic_pinlet",
      "name": "The UPS Store",
      "opening_hours": {
        "open_now": true
      },
      "photos": [
        {
          "height": 3264,
          "html_attributions": [
            "<a href=\"https://maps.google.com/maps/contrib/107873831998655747034\">Dwight Simmons</a>"
          ],
          "photo_reference": "AeJbb3dGD5Uv8mMTkH_DWB3E1tfbmdSzFUUWDg_RaEI2KyALSKA7gfOisLn_Gl9AMNjH78R_0PHONKM2qKb08imZgHxEzFsKxl6HRgYkYUCzzifWmqrE4ec1xUBnSM-doyOiA97kSpiS5FnuHtG0GvWKNGOhoKyH5qb4hdRfcPL9-sWPlzA0",
          "width": 1836
        }
      ],
      "place_id": "ChIJbdFxYkhawokRJzhr8FKLAzk",
      "plus_code": {
        "compound_code": "M2V4+WF New York, NY, USA",
        "global_code": "87G8M2V4+WF"
      },
      "rating": 4.3,
      "reference": "ChIJbdFxYkhawokRJzhr8FKLAzk",
      "scope": "GOOGLE",
      "types": [
        "finance",
        "store",
        "point_of_interest",
        "establishment"
      ],
      "user_ratings_total": 126,
      "vicinity": "137 Montague Street, Brooklyn"
    },
    {
      "business_status": "OPERATIONAL",
      "geometry": {
        "location": {
          "lat": 40.69471600000001,
          "lng": -73.994664
        },
        "viewport": {
          "northeast": {
            "lat": 40.69614673029151,
            "lng": -73.9932924197085
          },
          "southwest": {
            "lat": 40.69344876970851,
            "lng": -73.9959903802915
          }
        }
      },
      "icon": "https://maps.gstatic.com/mapfiles/place_api/icons/v1/png_71/restaurant-71.png",
      "icon_background_color": "#FF9E67",
      "icon_mask_base_uri": "https://maps.gstatic.com/mapfiles/place_api/icons/v2/restaurant_pinlet",
      "name": "H\u00e4agen-Dazs\u00ae Ice Cream Shop",
      "opening_hours": {
        "open_now": true
      },
      "photos": [
        {
          "height": 3006,
          "html_attributions": [
            "<a href=\"https://maps.google.com/maps/contrib/114084489973838209589\">Yeye Castro</a>"
          ],
          "photo_reference": "AeJbb3cH3Tfv9IU5MtXiw33jaCeTxa10-mgiU77_UXE0wK-8ieVxZdJYaP4fxPfiZgqPXRMzn_O1cDIC_fbXgkmDjumnfLCVSr6IkrXqiQdzd_2h2bunEMSXEIwSFuw7TFiW7XJaAdGK39oAulQaIJRqdXmeV7VbJmbhH0Fbs0OZm-0AmM-g",
          "width": 5344
        }
      ],
      "place_id": "ChIJH3SlgUhawokR7f4Zknqi9BU",
      "plus_code": {
        "compound_code": "M2V4+V4 New York, NY, USA",
        "global_code": "87G8M2V4+V4"
      },
      "price_level": 2,
      "rating": 4.1,
      "reference": "ChIJH3SlgUhawokR7f4Zknqi9BU",
      "scope": "GOOGLE",
      "types": [
        "store",
        "food",
        "point_of_interest",
        "establishment"
      ],
      "user_ratings_total": 223,
      "vicinity": "120 Montague Street, Brooklyn"
    },
    {
      "business_status": "OPERATIONAL",
      "geometry": {
        "location": {
          "lat": 40.6977257,
          "lng": -73.99442320000001
        },
        "viewport": {
          "northeast": {
            "lat": 40.6991061802915,
            "lng": -73.9931884197085
          },
          "southwest": {
            "lat": 40.6964082197085,
            "lng": -73.99588638029151
          }
        }
      },
      "icon": "https://maps.gstatic.com/mapfiles/place_api/icons/v1/png_71/generic_business-71.png",
      "icon_background_color": "#7B9EB0",
      "icon_mask_base_uri": "https://maps.gstatic.com/mapfiles/place_api/icons/v2/generic_pinlet",
      "name": "Manhattan Wellness Group: Brooklyn Heights",
      "opening_hours": {
        "open_now": false
      },
      "photos": [
        {
          "height": 1000,
          "html_attributions": [
            "<a href=\"https://maps.google.com/maps/contrib/117608790808016994277\">Manhattan Wellness Group: Brooklyn Heights</a>"
          ],
          "photo_reference": "AeJbb3dKA9s2PW1P7GERYHmHritasQ-973Cm27HT0JkakjPzWyHs8HLyW9Ua0v85WBfaAPLj_DJ69RdG07KqgacJCntRE8qD-nn01lPqDMotIFFhV2QEwe351K5uvAZiuhzTrMao27lyLCVfDDOwtjiACND8-Zb4rbbiWhwsPrGZFrDO55_y",
          "width": 1000
        }
      ],
      "place_id": "ChIJORgg-TdawokRNTuNXvpumN8",
      "plus_code": {
        "compound_code": "M2X4+36 Brooklyn, NY, USA",
        "global_code": "87G8M2X4+36"
      },
      "rating": 4.7,
      "reference": "ChIJORgg-TdawokRNTuNXvpumN8",
      "scope": "GOOGLE",
      "types": [
        "physiotherapist",
        "health",
        "point_of_interest",
        "establishment"
      ],
      "user_ratings_total": 80,
      "vicinity": "123 Hicks Street, Brooklyn"
    },
    {
      "business_status": "OPERATIONAL",
      "geometry": {
        "location": {
          "lat": 40.69935290000001,
          "lng": -73.9937004
        },
        "viewport": {
          "northeast": {
            "lat": 40.70072603029151,
            "lng": -73.99244091970849
          },
          "southwest": {
            "lat": 40.69802806970851,
            "lng": -73.99513888029149
          }
        }
      },
      "icon": "https://maps.gstatic.com/mapfiles/place_api/icons/v1/png_71/generic_business-71.png",
      "icon_background_color": "#7B9EB0",
      "icon_mask_base_uri": "https://maps.gstatic.com/mapfiles/place_api/icons/v2/generic_pinlet",
      "name": "Ruth K. Eiss, LCSW",
      "place_id": "ChIJaT1YmjdawokRn-zoQWGllgQ",
      "plus_code": {
        "compound_code": "M2X4+PG New York, NY, USA",
        "global_code": "87G8M2X4+PG"
      },
      "reference": "ChIJaT1YmjdawokRn-zoQWGllgQ",
      "scope": "GOOGLE",
      "types": [
        "point_of_interest",
        "establishment"
      ],
      "vicinity": "75 Hicks Street, Brooklyn"
    },
    {
      "business_status": "OPERATIONAL",
      "geometry": {
        "location": {
          "lat": 40.6960118,
          "lng": -73.99391229999999
        },
        "viewport": {
          "northeast": {
            "lat": 40.69733453029149,
            "lng": -73.9924817197085
          },
          "southwest": {
            "lat": 40.6946365697085,
            "lng": -73.99517968029151
          }
        }
      },
      "icon": "https://maps.gstatic.com/mapfiles/place_api/icons/v1/png_71/generic_business-71.png",
      "icon_background_color": "#4B96F3",
      "icon_mask_base_uri": "https://maps.gstatic.com/mapfiles/place_api/icons/v2/generic_pinlet",
      "name": "CVS",
      "opening_hours": {
        "open_now": true
      },
      "photos": [
        {
          "height": 3024,
          "html_attributions": [
            "<a href=\"https://maps.google.com/maps/contrib/106384674004290807486\">Oguz Yucel</a>"
          ],
          "photo_reference": "AeJbb3fhOVZHA1mBNFZ11ht-PoENMhkoTybnqGSakMsRsR3KkqHyR9KDu-rplqK3yx1E8vFMqMpNVrT3UOaoHLpqemrJMf_0R05IX0PUOvFh2HUuYYvjVL4qSGSmBk8dj_rJUsegCcvuAElJgy147-mIyX8f1W-t-6e3H6UdMFYM0aTZJiky",
          "width": 4032
        }
      ],
      "place_id": "ChIJqyUgbUhawokRCbWATPB_JaE",
      "plus_code": {
        "compound_code": "M2W4+CC New York, NY, USA",
        "global_code": "87G8M2W4+CC"
      },
      "rating": 3.8,
      "reference": "ChIJqyUgbUhawokRCbWATPB_JaE",
      "scope": "GOOGLE",
      "types": [
        "drugstore",
        "convenience_store",
        "clothing_store",
        "health",
        "store",
        "food",
        "point_of_interest",
        "establishment"
      ],
      "user_ratings_total": 55,
      "vicinity": "156 Henry Street, Brooklyn"
    },
    {
      "business_status": "CLOSED_TEMPORARILY",
      "geometry": {
        "location": {
          "lat": 40.69786999999999,
          "lng": -73.9941801
        },
        "viewport": {
          "northeast": {
            "lat": 40.6991774802915,
            "lng": -73.99285096970848
          },
          "southwest": {
            "lat": 40.6964795197085,
            "lng": -73.9955489302915
          }
        }
      },
      "icon": "https://maps.gstatic.com/mapfiles/place_api/icons/v1/png_71/generic_business-71.png",
      "icon_background_color": "#7B9EB0",
      "icon_mask_base_uri": "https://maps.gstatic.com/mapfiles/place_api/icons/v2/generic_pinlet",
      "name": "Nails By Nelly",
      "permanently_closed": true,
      "photos": [
        {
          "height": 1530,
          "html_attributions": [
            "<a href=\"https://maps.google.com/maps/contrib/104571590027299284311\">Nelly Nails</a>"
          ],
          "photo_reference": "AeJbb3fDrETYHeS1TpSOOKE5SEQUeKKhF-qtgPYoZTpWuT0l3Z3b7UQA0W6E8fEX_dnLSga63yp_J85T7Tof-j_lGh-OmeQm0yO_Qg5inm3aKij4Z7aFcwarhK0Bs1fBcglSHG4hEqjYtUF8MxJEEtpjaeQYHomvthG7vSaNHCHMisN58le1",
          "width": 2048
        }
      ],
      "place_id": "ChIJt71-3DdawokRXqIgcseobnk",
      "plus_code": {
        "compound_code": "M2X4+48 New York, NY, USA",
        "global_code": "87G8M2X4+48"
      },
      "rating": 3.5,
      "reference": "ChIJt71-3DdawokRXqIgcseobnk",
      "scope": "GOOGLE",
      "types": [
        "beauty_salon",
        "point_of_interest",
        "establishment"
      ],
      "user_ratings_total": 6,
      "vicinity": "43 Clark Street, Brooklyn"
    },
    {
      "business_status": "OPERATIONAL",
      "geometry": {
        "location": {
          "lat": 40.6948965,
          "lng": -73.9970129
        },
        "viewport": {
          "northeast": {
            "lat": 40.6962064302915,
            "lng": -73.99569246970849
          },
          "southwest": {
            "lat": 40.6935084697085,
            "lng": -73.99839043029151
          }
        }
      },
      "icon": "https://maps.gstatic.com/mapfiles/place_api/icons/v1/png_71/generic_business-71.png",
      "icon_background_color": "#7B9EB0",
      "icon_mask_base_uri": "https://maps.gstatic.com/mapfiles/place_api/icons/v2/generic_pinlet",
      "name": "Fein Paul A MD",
      "place_id": "ChIJK6GQkUhawokRrJFR5L74hcY",
      "plus_code": {
        "compound_code": "M2V3+X5 Brooklyn, NY, USA",
        "global_code": "87G8M2V3+X5"
      },
      "reference": "ChIJK6GQkUhawokRrJFR5L74hcY",
      "scope": "GOOGLE",
      "types": [
        "doctor",
        "health",
        "point_of_interest",
        "establishment"
      ],
      "vicinity": "115 1/2 Remsen Street, Brooklyn"
    },
    {
      "business_status": "OPERATIONAL",
      "geometry": {
        "location": {
          "lat": 40.6972499,
          "lng": -73.99262170000002
        },
        "viewport": {
          "northeast": {
            "lat": 40.6986456302915,
            "lng": -73.99123096970851
          },
          "southwest": {
            "lat": 40.6959476697085,
            "lng": -73.99392893029152
          }
        }
      },
      "icon": "https://maps.gstatic.com/mapfiles/place_api/icons/v1/png_71/restaurant-71.png",
      "icon_background_color": "#FF9E67",
      "icon_mask_base_uri": "https://maps.gstatic.com/mapfiles/place_api/icons/v2/restaurant_pinlet",
      "name": "Iron Chef House",
      "opening_hours": {
        "open_now": true
      },
      "photos": [
        {
          "height": 805,
          "html_attributions": [
            "<a href=\"https://maps.google.com/maps/contrib/112661862626216174395\">Iron Chef House</a>"
          ],
          "photo_reference": "AeJbb3f1fNg0cL-d1X8uS5tSMHmHkpfj72FXSCG8hW2Jz5g-oSzWSbM_DFiYoC1hDWV3Zv3cOzam7bO_mXhle4LsgI7SWYvJqN0u03yBxaD_NqKQUAN1dP3Jb3sBH7JVqAymHzSzMNRATivLEJu5ARp80uesAdC8khOR0MRXGKR-HCTlDS5K",
          "width": 748
        }
      ],
      "place_id": "ChIJ4UIE2DdawokRt7NVO-poGhk",
      "plus_code": {
        "compound_code": "M2W4+VX New York, NY, USA",
        "global_code": "87G8M2W4+VX"
      },
      "price_level": 2,
      "rating": 4.3,
      "reference": "ChIJ4UIE2DdawokRt7NVO-poGhk",
      "scope": "GOOGLE",
      "types": [
        "meal_takeaway",
        "restaurant",
        "food",
        "point_of_interest",
        "establishment"
      ],
      "user_ratings_total": 436,
      "vicinity": "92 Clark Street, Brooklyn"
    },
    {
      "business_status": "OPERATIONAL",
      "geometry": {
        "location": {
          "lat": 40.6983259,
          "lng": -73.99572049999999
        },
        "viewport": {
          "northeast": {
            "lat": 40.6996169802915,
            "lng": -73.9943989697085
          },
          "southwest": {
            "lat": 40.6969190197085,
            "lng": -73.9970969302915
          }
        }
      },
      "icon": "https://maps.gstatic.com/mapfiles/place_api/icons/v1/png_71/generic_business-71.png",
      "icon_background_color": "#7B9EB0",
      "icon_mask_base_uri": "https://maps.gstatic.com/mapfiles/place_api/icons/v2/generic_pinlet",
      "name": "Zerline L. Goodman, Attorney at Law",
      "opening_hours": {
        "open_now": false
      },
      "place_id": "ChIJGS6NEDhawokRwn20XROlcR8",
      "plus_code": {
        "compound_code": "M2X3+8P Brooklyn, NY, USA",
        "global_code": "87G8M2X3+8P"
      },
      "rating": 4.3,
      "reference": "ChIJGS6NEDhawokRwn20XROlcR8",
      "scope": "GOOGLE",
      "types": [
        "point_of_interest",
        "establishment"
      ],
      "user_ratings_total": 3,
      "vicinity": "15 Clark Street #1E, Brooklyn"
    },
    {
      "business_status": "CLOSED_TEMPORARILY",
      "geometry": {
        "location": {
          "lat": 40.6970738,
          "lng": -73.996641
        },
        "viewport": {
          "northeast": {
            "lat": 40.6984562302915,
            "lng": -73.9954154197085
          },
          "southwest": {
            "lat": 40.6957582697085,
            "lng": -73.9981133802915
          }
        }
      },
      "icon": "https://maps.gstatic.com/mapfiles/place_api/icons/v1/png_71/school-71.png",
      "icon_background_color": "#7B9EB0",
      "icon_mask_base_uri": "https://maps.gstatic.com/mapfiles/place_api/icons/v2/school_pinlet",
      "name": "Qi-Yo",
      "permanently_closed": true,
      "place_id": "ChIJ6zr_kUdawokRLjgTkH7L43Q",
      "plus_code": {
        "compound_code": "M2W3+R8 New York, NY, USA",
        "global_code": "87G8M2W3+R8"
      },
      "rating": 3,
      "reference": "ChIJ6zr_kUdawokRLjgTkH7L43Q",
      "scope": "GOOGLE",
      "types": [
        "gym",
        "health",
        "point_of_interest",
        "establishment"
      ],
      "user_ratings_total": 1,
      "vicinity": "177 Columbia Heights, Brooklyn"
    },
    {
      "business_status": "OPERATIONAL",
      "geometry": {
        "location": {
          "lat": 40.69711699999999,
          "lng": -73.996194
        },
        "viewport": {
          "northeast": {
            "lat": 40.6984349302915,
            "lng": -73.99473421970849
          },
          "southwest": {
            "lat": 40.6957369697085,
            "lng": -73.9974321802915
          }
        }
      },
      "icon": "https://maps.gstatic.com/mapfiles/place_api/icons/v1/png_71/generic_business-71.png",
      "icon_background_color": "#7B9EB0",
      "icon_mask_base_uri": "https://maps.gstatic.com/mapfiles/place_api/icons/v2/generic_pinlet",
      "name": "Micheal Mclaughlin Photography",
      "place_id": "ChIJMzOE8kdawokRakFoe8UcNYw",
      "plus_code": {
        "compound_code": "M2W3+RG Brooklyn, NY, USA",
        "global_code": "87G8M2W3+RG"
      },
      "reference": "ChIJMzOE8kdawokRakFoe8UcNYw",
      "scope": "GOOGLE",
      "types": [
        "point_of_interest",
        "establishment"
      ],
      "vicinity": "128 Willow Street # 6F, Brooklyn"
    },
    {
      "business_status": "OPERATIONAL",
      "geometry": {
        "location": {
          "lat": 40.696017,
          "lng": -73.9929548
        },
        "viewport": {
          "northeast": {
            "lat": 40.69734388029151,
            "lng": -73.9914823197085
          },
          "southwest": {
            "lat": 40.69464591970851,
            "lng": -73.99418028029152
          }
        }
      },
      "icon": "https://maps.gstatic.com/mapfiles/place_api/icons/v1/png_71/generic_business-71.png",
      "icon_background_color": "#7B9EB0",
      "icon_mask_base_uri": "https://maps.gstatic.com/mapfiles/place_api/icons/v2/generic_pinlet",
      "name": "Erin M. Dalton, M.D.",
      "photos": [
        {
          "height": 2988,
          "html_attributions": [
            "<a href=\"https://maps.google.com/maps/contrib/103311134406589784579\">Joanna O</a>"
          ],
          "photo_reference": "AeJbb3dCfMjGUfzF3VEBYtWUVhLXPV7mWSxbo28zsoUVqMKzttM-QjZNk3hg9gkpGUDb_jUvTtEH0bxD52I--jgX_SJsPOSHBrQ_l0EsL4bl6QoO21IQxoH3dl8bR6uXcpFXDTMeQQkrUgDfrR_yv7xQXUGqCzJwHLWvLVhlHIftewuQlGgK",
          "width": 5312
        }
      ],
      "place_id": "ChIJGXBCP0hawokRkB-To1fmIfQ",
      "plus_code": {
        "compound_code": "M2W4+CR New York, NY, USA",
        "global_code": "87G8M2W4+CR"
      },
      "rating": 5,
      "reference": "ChIJGXBCP0hawokRkB-To1fmIfQ",
      "scope": "GOOGLE",
      "types": [
        "doctor",
        "health",
        "point_of_interest",
        "establishment"
      ],
      "user_ratings_total": 3,
      "vicinity": "35 Monroe Place, Brooklyn"
    },
    {
      "business_status": "OPERATIONAL",
      "geometry": {
        "location": {
          "lat": 40.69472879999999,
          "lng": -73.9946823
        },
        "viewport": {
          "northeast": {
            "lat": 40.69615313029151,
            "lng": -73.99330156970849
          },
          "southwest": {
            "lat": 40.69345516970851,
            "lng": -73.9959995302915
          }
        }
      },
      "icon": "https://maps.gstatic.com/mapfiles/place_api/icons/v1/png_71/generic_business-71.png",
      "icon_background_color": "#7B9EB0",
      "icon_mask_base_uri": "https://maps.gstatic.com/mapfiles/place_api/icons/v2/generic_pinlet",
      "name": "Brownstone Dental/Brownstone Pediatric Dentistry",
      "opening_hours": {
        "open_now": false
      },
      "photos": [
        {
          "height": 5304,
          "html_attributions": [
            "<a href=\"https://maps.google.com/maps/contrib/104105117863366841529\">Brownstone Dental/Brownstone Pediatric Dentistry</a>"
          ],
          "photo_reference": "AeJbb3dxAbNHCQ3aAe1jdfLWVfjRGj5TUjuoCZ71N_70pD2eOIk2Ib2Tsnl_g9T4pEy13s07OQ3xDwtGnQ5JtiI19u4pmVVWH79ASY-HdocJzk4fohMH6ehhuTzmsk0ddhchGyGNVnZahnpo858T9HwjMZwA61sd9v1ES7KH07uLYkgyFHOr",
          "width": 7952
        }
      ],
      "place_id": "ChIJzf2VtkhawokRgfZI5_CxgiQ",
      "plus_code": {
        "compound_code": "M2V4+V4 New York, NY, USA",
        "global_code": "87G8M2V4+V4"
      },
      "rating": 5,
      "reference": "ChIJzf2VtkhawokRgfZI5_CxgiQ",
      "scope": "GOOGLE",
      "types": [
        "doctor",
        "dentist",
        "health",
        "point_of_interest",
        "establishment"
      ],
      "user_ratings_total": 52,
      "vicinity": "119 Montague Street, Brooklyn"
    },
    {
      "business_status": "OPERATIONAL",
      "geometry": {
        "location": {
          "lat": 40.69573949999999,
          "lng": -73.99709779999999
        },
        "viewport": {
          "northeast": {
            "lat": 40.69699543029151,
            "lng": -73.9957649697085
          },
          "southwest": {
            "lat": 40.69429746970851,
            "lng": -73.99846293029151
          }
        }
      },
      "icon": "https://maps.gstatic.com/mapfiles/place_api/icons/v1/png_71/generic_business-71.png",
      "icon_background_color": "#7B9EB0",
      "icon_mask_base_uri": "https://maps.gstatic.com/mapfiles/place_api/icons/v2/generic_pinlet",
      "name": "Sozo Landscape Design",
      "opening_hours": {
        "open_now": false
      },
      "place_id": "ChIJHUUmsEdawokRsn-RwEB9YSs",
      "plus_code": {
        "compound_code": "M2W3+75 New York, NY, USA",
        "global_code": "87G8M2W3+75"
      },
      "reference": "ChIJHUUmsEdawokRsn-RwEB9YSs",
      "scope": "GOOGLE",
      "types": [
        "general_contractor",
        "point_of_interest",
        "establishment"
      ],
      "vicinity": "57 Montague Street, Brooklyn"
    },
    {
      "business_status": "CLOSED_TEMPORARILY",
      "geometry": {
        "location": {
          "lat": 40.6965402,
          "lng": -73.9969675
        },
        "viewport": {
          "northeast": {
            "lat": 40.6977889802915,
            "lng": -73.99569686970848
          },
          "southwest": {
            "lat": 40.6950910197085,
            "lng": -73.9983948302915
          }
        }
      },
      "icon": "https://maps.gstatic.com/mapfiles/place_api/icons/v1/png_71/generic_business-71.png",
      "icon_background_color": "#7B9EB0",
      "icon_mask_base_uri": "https://maps.gstatic.com/mapfiles/place_api/icons/v2/generic_pinlet",
      "name": "Bond Desk Group",
      "permanently_closed": true,
      "place_id": "ChIJYS2MokdawokRBK05N910gNI",
      "plus_code": {
        "compound_code": "M2W3+J6 Brooklyn, NY, USA",
        "global_code": "87G8M2W3+J6"
      },
      "reference": "ChIJYS2MokdawokRBK05N910gNI",
      "scope": "GOOGLE",
      "types": [
        "finance",
        "point_of_interest",
        "establishment"
      ],
      "vicinity": "1 Pierrepont Street, Brooklyn"
    },
    {
      "business_status": "CLOSED_TEMPORARILY",
      "geometry": {
        "location": {
          "lat": 40.6980847,
          "lng": -73.9935115
        },
        "viewport": {
          "northeast": {
            "lat": 40.69953908029149,
            "lng": -73.9921126197085
          },
          "southwest": {
            "lat": 40.6968411197085,
            "lng": -73.9948105802915
          }
        }
      },
      "icon": "https://maps.gstatic.com/mapfiles/place_api/icons/v1/png_71/generic_business-71.png",
      "icon_background_color": "#7B9EB0",
      "icon_mask_base_uri": "https://maps.gstatic.com/mapfiles/place_api/icons/v2/generic_pinlet",
      "name": "Screen International",
      "permanently_closed": true,
      "place_id": "ChIJlbab6zdawokR9ckArFfz2dE",
      "plus_code": {
        "compound_code": "M2X4+6H Brooklyn, NY, USA",
        "global_code": "87G8M2X4+6H"
      },
      "reference": "ChIJlbab6zdawokR9ckArFfz2dE",
      "scope": "GOOGLE",
      "types": [
        "point_of_interest",
        "establishment"
      ],
      "vicinity": "60 Pineapple Street # 6A, Brooklyn"
    },
    {
      "business_status": "OPERATIONAL",
      "geometry": {
        "location": {
          "lat": 40.6991105,
          "lng": -73.99570779999999
        },
        "viewport": {
          "northeast": {
            "lat": 40.70048953029149,
            "lng": -73.9944659697085
          },
          "southwest": {
            "lat": 40.69779156970849,
            "lng": -73.9971639302915
          }
        }
      },
      "icon": "https://maps.gstatic.com/mapfiles/place_api/icons/v1/png_71/generic_business-71.png",
      "icon_background_color": "#7B9EB0",
      "icon_mask_base_uri": "https://maps.gstatic.com/mapfiles/place_api/icons/v2/generic_pinlet",
      "name": "SchafferRogers",
      "place_id": "ChIJbZKEPDhawokRqx69sCZ9SPE",
      "plus_code": {
        "compound_code": "M2X3+JP Brooklyn, NY, USA",
        "global_code": "87G8M2X3+JP"
      },
      "reference": "ChIJbZKEPDhawokRqx69sCZ9SPE",
      "scope": "GOOGLE",
      "types": [
        "point_of_interest",
        "establishment"
      ],
      "vicinity": "113 Columbia Heights, Brooklyn"
    },
    {
      "business_status": "CLOSED_TEMPORARILY",
      "geometry": {
        "location": {
          "lat": 40.6978319,
          "lng": -73.9948252
        },
        "viewport": {
          "northeast": {
            "lat": 40.6991572302915,
            "lng": -73.99339041970849
          },
          "southwest": {
            "lat": 40.6964592697085,
            "lng": -73.9960883802915
          }
        }
      },
      "icon": "https://maps.gstatic.com/mapfiles/place_api/icons/v1/png_71/generic_business-71.png",
      "icon_background_color": "#7B9EB0",
      "icon_mask_base_uri": "https://maps.gstatic.com/mapfiles/place_api/icons/v2/generic_pinlet",
      "name": "NYDATAPC LLC",
      "permanently_closed": true,
      "photos": [
        {
          "height": 424,
          "html_attributions": [
            "<a href=\"https://maps.google.com/maps/contrib/102670557630246502669\">NYDATAPC LLC</a>"
          ],
          "photo_reference": "AeJbb3dwsfgolRYfgI2dOU2UcaznDN1SYreUhdj3krSskOygPsVrvR-i_cmvtabP-_DlXX_e3cDk6C5bmk3zJKRgrM_BnDvLmGNVCVY9ZOPPCMLS6eAj56fOK-LPacaRzq8jobyT3ibM9CT01Wj4OmA7v5ap3DHG5YvCPISj0auEMxMF0cW6",
          "width": 283
        }
      ],
      "place_id": "ChIJGbnx-DdawokR_r82Zd7SNKE",
      "plus_code": {
        "compound_code": "M2X4+43 Brooklyn Heights, Brooklyn, NY, USA",
        "global_code": "87G8M2X4+43"
      },
      "rating": 5,
      "reference": "ChIJGbnx-DdawokR_r82Zd7SNKE",
      "scope": "GOOGLE",
      "types": [
        "point_of_interest",
        "establishment"
      ],
      "user_ratings_total": 2,
      "vicinity": "120 Hicks Street 1st floor, Brooklyn Heights"
    },
    {
      "business_status": "OPERATIONAL",
      "geometry": {
        "location": {
          "lat": 40.6970936,
          "lng": -73.99574770000001
        },
        "viewport": {
          "northeast": {
            "lat": 40.69849393029149,
            "lng": -73.9944892197085
          },
          "southwest": {
            "lat": 40.69579596970849,
            "lng": -73.9971871802915
          }
        }
      },
      "icon": "https://maps.gstatic.com/mapfiles/place_api/icons/v1/png_71/generic_business-71.png",
      "icon_background_color": "#7B9EB0",
      "icon_mask_base_uri": "https://maps.gstatic.com/mapfiles/place_api/icons/v2/generic_pinlet",
      "name": "emagine simplicity",
      "opening_hours": {
        "open_now": true
      },
      "photos": [
        {
          "height": 640,
          "html_attributions": [
            "<a href=\"https://maps.google.com/maps/contrib/104749292055312218744\">emagine simplicity</a>"
          ],
          "photo_reference": "AeJbb3ee_sfgIN9zkrDdhOgv0mkQySOlwTXFGLJWUGWnLY5roIivItoHDCFI9SBJnqVkmrhXjxllAZGIag_vfKWSTukZjZ2yAEHjJb1TnloGSY9r8eYEN2iqbZis1q8IWLhAAjQxc_W7P4ycO_FY-YS3J5EfQhqwiIZi8eK4JmzEKLZGsTso",
          "width": 636
        }
      ],
      "place_id": "ChIJ_QFF8UdawokRg-fxfO7sqDg",
      "plus_code": {
        "compound_code": "M2W3+RP Brooklyn, NY, USA",
        "global_code": "87G8M2W3+RP"
      },
      "rating": 5,
      "reference": "ChIJ_QFF8UdawokRg-fxfO7sqDg",
      "scope": "GOOGLE",
      "types": [
        "point_of_interest",
        "establishment"
      ],
      "user_ratings_total": 3,
      "vicinity": "135 Willow Street, Brooklyn"
    },
    {
      "business_status": "CLOSED_TEMPORARILY",
      "geometry": {
        "location": {
          "lat": 40.6966603,
          "lng": -73.9950089
        },
        "viewport": {
          "northeast": {
            "lat": 40.6980316302915,
            "lng": -73.9937411697085
          },
          "southwest": {
            "lat": 40.6953336697085,
            "lng": -73.9964391302915
          }
        }
      },
      "icon": "https://maps.gstatic.com/mapfiles/place_api/icons/v1/png_71/generic_business-71.png",
      "icon_background_color": "#7B9EB0",
      "icon_mask_base_uri": "https://maps.gstatic.com/mapfiles/place_api/icons/v2/generic_pinlet",
      "name": "Cinnabar Pictures Inc",
      "permanently_closed": true,
      "place_id": "ChIJSahH4kdawokRWW0kf1L816Y",
      "plus_code": {
        "compound_code": "M2W3+MX Brooklyn, NY, USA",
        "global_code": "87G8M2W3+MX"
      },
      "reference": "ChIJSahH4kdawokRWW0kf1L816Y",
      "scope": "GOOGLE",
      "types": [
        "point_of_interest",
        "establishment"
      ],
      "vicinity": "167 Hicks Street, Brooklyn"
    },
    {
      "business_status": "OPERATIONAL",
      "geometry": {
        "location": {
          "lat": 40.6963752,
          "lng": -73.99675599999999
        },
        "viewport": {
          "northeast": {
            "lat": 40.69765778029149,
            "lng": -73.99542576970849
          },
          "southwest": {
            "lat": 40.69495981970849,
            "lng": -73.9981237302915
          }
        }
      },
      "icon": "https://maps.gstatic.com/mapfiles/place_api/icons/v1/png_71/generic_business-71.png",
      "icon_background_color": "#7B9EB0",
      "icon_mask_base_uri": "https://maps.gstatic.com/mapfiles/place_api/icons/v2/generic_pinlet",
      "name": "Jake Mills Productions",
      "opening_hours": {
        "open_now": false
      },
      "place_id": "ChIJYSvYjHhZwokRJK9dBSNyrGo",
      "plus_code": {
        "compound_code": "M2W3+H7 Brooklyn, NY, USA",
        "global_code": "87G8M2W3+H7"
      },
      "reference": "ChIJYSvYjHhZwokRJK9dBSNyrGo",
      "scope": "GOOGLE",
      "types": [
        "point_of_interest",
        "establishment"
      ],
      "vicinity": "15 Pierrepont Street, Brooklyn"
    },
    {
      "business_status": "OPERATIONAL",
      "geometry": {
        "location": {
          "lat": 40.6978214,
          "lng": -73.9963862
        },
        "viewport": {
          "northeast": {
            "lat": 40.6991920802915,
            "lng": -73.9951172697085
          },
          "southwest": {
            "lat": 40.6964941197085,
            "lng": -73.99781523029151
          }
        }
      },
      "icon": "https://maps.gstatic.com/mapfiles/place_api/icons/v1/png_71/generic_business-71.png",
      "icon_background_color": "#7B9EB0",
      "icon_mask_base_uri": "https://maps.gstatic.com/mapfiles/place_api/icons/v2/generic_pinlet",
      "name": "Abode de Mode",
      "place_id": "ChIJ5wVfdDhawokROufy2dx4Hrc",
      "plus_code": {
        "compound_code": "M2X3+4C New York, NY, USA",
        "global_code": "87G8M2X3+4C"
      },
      "reference": "ChIJ5wVfdDhawokROufy2dx4Hrc",
      "scope": "GOOGLE",
      "types": [
        "general_contractor",
        "point_of_interest",
        "establishment"
      ],
      "vicinity": "151 Columbia Heights, Brooklyn"
    },
    {
      "business_status": "OPERATIONAL",
      "geometry": {
        "location": {
          "lat": 40.6966603,
          "lng": -73.9950089
        },
        "viewport": {
          "northeast": {
            "lat": 40.6980316302915,
            "lng": -73.9937411697085
          },
          "southwest": {
            "lat": 40.6953336697085,
            "lng": -73.9964391302915
          }
        }
      },
      "icon": "https://maps.gstatic.com/mapfiles/place_api/icons/v1/png_71/generic_business-71.png",
      "icon_background_color": "#7B9EB0",
      "icon_mask_base_uri": "https://maps.gstatic.com/mapfiles/place_api/icons/v2/generic_pinlet",
      "name": "Tracy Taylor Coaching",
      "place_id": "ChIJSahH4kdawokRepVsmO16ID0",
      "plus_code": {
        "compound_code": "M2W3+MX New York, NY, USA",
        "global_code": "87G8M2W3+MX"
      },
      "reference": "ChIJSahH4kdawokRepVsmO16ID0",
      "scope": "GOOGLE",
      "types": [
        "health",
        "point_of_interest",
        "establishment"
      ],
      "vicinity": "167 Hicks Street, Brooklyn"
    },
    {
      "business_status": "CLOSED_TEMPORARILY",
      "geometry": {
        "location": {
          "lat": 40.69947159999999,
          "lng": -73.9941187
        },
        "viewport": {
          "northeast": {
            "lat": 40.70071263029149,
            "lng": -73.9928225697085
          },
          "southwest": {
            "lat": 40.69801466970849,
            "lng": -73.9955205302915
          }
        }
      },
      "icon": "https://maps.gstatic.com/mapfiles/place_api/icons/v1/png_71/generic_business-71.png",
      "icon_background_color": "#7B9EB0",
      "icon_mask_base_uri": "https://maps.gstatic.com/mapfiles/place_api/icons/v2/generic_pinlet",
      "name": "ICA Realty Corporation",
      "permanently_closed": true,
      "place_id": "ChIJLxKWhDdawokRltx5WtQ-ASE",
      "plus_code": {
        "compound_code": "M2X4+Q9 New York, NY, USA",
        "global_code": "87G8M2X4+Q9"
      },
      "reference": "ChIJLxKWhDdawokRltx5WtQ-ASE",
      "scope": "GOOGLE",
      "types": [
        "point_of_interest",
        "establishment"
      ],
      "vicinity": "35 Orange Street, Brooklyn"
    },
    {
      "business_status": "OPERATIONAL",
      "geometry": {
        "location": {
          "lat": 40.6974105,
          "lng": -73.99652859999999
        },
        "viewport": {
          "northeast": {
            "lat": 40.69878733029149,
            "lng": -73.99528246970848
          },
          "southwest": {
            "lat": 40.6960893697085,
            "lng": -73.99798043029149
          }
        }
      },
      "icon": "https://maps.gstatic.com/mapfiles/place_api/icons/v1/png_71/generic_business-71.png",
      "icon_background_color": "#7B9EB0",
      "icon_mask_base_uri": "https://maps.gstatic.com/mapfiles/place_api/icons/v2/generic_pinlet",
      "name": "169 Columbia Heights",
      "photos": [
        {
          "height": 3120,
          "html_attributions": [
            "<a href=\"https://maps.google.com/maps/contrib/113527020160867840921\">Stephen Augustin</a>"
          ],
          "photo_reference": "AeJbb3f5ZeUIWeP5QHwfqI-ZjWvnX54ANCjvGYegsyy7QHehHyi-L0xWeeXWvvcA7Xiyn13oBtVZt6fiHQGWvnVnKg4fuznSJlyuujLXBGN8W2-J5sH7yVrKLRpktoH_MTTiVrQGw8PWNEdMKe6p-IGp8Eybjhc58Z7QXvl4zMOGVsydXqnZ",
          "width": 4160
        }
      ],
      "place_id": "ChIJJXQOjEdawokRjgvA-2wWGp8",
      "plus_code": {
        "compound_code": "M2W3+X9 Brooklyn, NY, USA",
        "global_code": "87G8M2W3+X9"
      },
      "rating": 4.7,
      "reference": "ChIJJXQOjEdawokRjgvA-2wWGp8",
      "scope": "GOOGLE",
      "types": [
        "point_of_interest",
        "establishment"
      ],
      "user_ratings_total": 6,
      "vicinity": "Columbia Heights, Brooklyn"
    },
    {
      "business_status": "CLOSED_TEMPORARILY",
      "geometry": {
        "location": {
          "lat": 40.6990461,
          "lng": -73.9957912
        },
        "viewport": {
          "northeast": {
            "lat": 40.7004186802915,
            "lng": -73.9945265197085
          },
          "southwest": {
            "lat": 40.6977207197085,
            "lng": -73.99722448029151
          }
        }
      },
      "icon": "https://maps.gstatic.com/mapfiles/place_api/icons/v1/png_71/generic_business-71.png",
      "icon_background_color": "#7B9EB0",
      "icon_mask_base_uri": "https://maps.gstatic.com/mapfiles/place_api/icons/v2/generic_pinlet",
      "name": "CienciaPT",
      "permanently_closed": true,
      "place_id": "ChIJ9cT1PDhawokRuzJ1gcgUANg",
      "plus_code": {
        "compound_code": "M2X3+JM Brooklyn, NY, USA",
        "global_code": "87G8M2X3+JM"
      },
      "reference": "ChIJ9cT1PDhawokRuzJ1gcgUANg",
      "scope": "GOOGLE",
      "types": [
        "point_of_interest",
        "establishment"
      ],
      "vicinity": "115 Columbia Heights, Brooklyn"
    },
    {
      "business_status": "CLOSED_TEMPORARILY",
      "geometry": {
        "location": {
          "lat": 40.697239,
          "lng": -73.997126
        },
        "viewport": {
          "northeast": {
            "lat": 40.6985537802915,
            "lng": -73.9956508197085
          },
          "southwest": {
            "lat": 40.69585581970851,
            "lng": -73.99834878029151
          }
        }
      },
      "icon": "https://maps.gstatic.com/mapfiles/place_api/icons/v1/png_71/generic_business-71.png",
      "icon_background_color": "#7B9EB0",
      "icon_mask_base_uri": "https://maps.gstatic.com/mapfiles/place_api/icons/v2/generic_pinlet",
      "name": "Jonathan Peyser",
      "permanently_closed": true,
      "place_id": "ChIJyRfRmkdawokRcXXsFQBjXFU",
      "plus_code": {
        "compound_code": "M2W3+V4 Brooklyn, NY, USA",
        "global_code": "87G8M2W3+V4"
      },
      "reference": "ChIJyRfRmkdawokRcXXsFQBjXFU",
      "scope": "GOOGLE",
      "types": [
        "point_of_interest",
        "establishment"
      ],
      "vicinity": "200 Columbia Heights, Brooklyn"
    }
  ],
  "status": "OK"
}