{
  "html_attributions": [],
  "results": [
    {
      "geometry": {
        "location": {
          "lat": 40.7177545,
          "lng": -74.0431435
        },
        "viewport": {
          "northeast": {
            "lat": 40.76886696556042,
            "lng": -74.02040497604364
          },
          "southwest": {
            "lat": 40.66162203954202,
            "lng": -74.11705692034361
          }
        }
      },
      "icon": "https://maps.gstatic.com/mapfiles/place_api/icons/v1/png_71/geocode-71.png",
      "icon_background_color": "#7B9EB0",
      "icon_mask_base_uri": "https://maps.gstatic.com/mapfiles/place_api/icons/v2/generic_pinlet",
      "name": "\u6fa4\u897f\u5e02",
      "photos": [
        {
          "height": 3024,
          "html_attributions": [
            "<a href=\"https://maps.google.com/maps/contrib/110214719387408653852\">Husam Attalla</a>"
          ],
          "photo_reference": "AeJbb3d0ZgxDzppOpxeS6351VJzPuDrtRcwzyAe53jkBdvr0tnv2NXU25RmTZfhNa8yey1N5pNAWDlmA5pP78Df4kSfOQfHlzqdgs-0KAS_rrYd1MPnwLQWDAWhHm1MeNF1RWi5b5bqaF5sAqLZQ3gmxGTdYDn4LU3BxrRfdiNlm5iL4mc9b",
          "width": 4032
        }
      ],
      "place_id": "ChIJ3a-_JdJQwokR2SXNohPwSQI",
      "reference": "ChIJ3a-_JdJQwokR2SXNohPwSQI",
      "scope": "GOOGLE",
      "types": [
        "locality",
        "political"
      ],
      "vicinity": "\u6fa4\u897f\u5e02"
    },
    {
      "business_status": "OPERATIONAL",
      "geometry": {
        "location": {
          "lat": 40.7171182,
          "lng": -74.0325349
        },
        "viewport": {
          "northeast": {
            "lat": 40.71842178029151,
            "lng": -74.03129466970849
          },
          "southwest": {
            "lat": 40.71572381970851,
            "lng": -74.0339926302915
          }
        }
      },
      "icon": "https://maps.gstatic.com/mapfiles/place_api/icons/v1/png_71/lodging-71.png",
      "icon_background_color": "#909CE1",
      "icon_mask_base_uri": "https://maps.gstatic.com/mapfiles/place_api/icons/v2/hotel_pinlet",
      "name": "\u7d10\u6fa4\u897f\u54c8\u5fb7\u905c\u6cb3\u7554\u51f1\u6085\u9152\u5e97",
      "opening_hours": {
        "open_now": true
      },
      "photos": [
        {
          "height": 1920,
          "html_attributions": [
            "<a href=\"https://maps.google.com/maps/contrib/116363497443687382060\">Hyatt Regency Jersey City On The Hudson</a>"
          ],
          "photo_reference": "AeJbb3e6RYTLXbEIYBO3e60PhOuJO2BJNKM8Z7FuDZSw2CnREPqR2eJ-_YmsP_VZo0zqGnvZ2NZVTMFImebeM7AgOLSCrZxbHaPP-5o2awlnS-vrF4SiS13UOuT1juL5VHK6FCXDfhW_T2LUME6rUTX0Arq5rzGmRwB-AKO7Zccb6NEHMyX8",
          "width": 2880
        }
      ],
      "place_id": "ChIJMUNSg6lQwokRBO-vrsLMopg",
      "plus_code": {
        "compound_code": "PX88+RX \u7f8e\u570b\u65b0\u6fa4\u897f\u6fa4\u897f\u5e02",
        "global_code": "87G7PX88+RX"
      },
      "rating": 4.4,
      "reference": "ChIJMUNSg6lQwokRBO-vrsLMopg",
      "scope": "GOOGLE",
      "types": [
        "lodging",
        "point_of_interest",
        "establishment"
      ],
      "user_ratings_total": 2700,
      "vicinity": "2 Exchange Place, Jersey City"
    },
    {
      "business_status": "OPERATIONAL",
      "geometry": {
        "location": {
          "lat": 40.72097309999999,
          "lng": -74.0344491
        },
        "viewport": {
          "northeast": {
            "lat": 40.72236703029149,
            "lng": -74.0329989197085
          },
          "southwest": {
            "lat": 40.71966906970849,
            "lng": -74.03569688029151
          }
        }
      },
      "icon": "https://maps.gstatic.com/mapfiles/place_api/icons/v1/png_71/lodging-71.png",
      "icon_background_color": "#909CE1",
      "icon_mask_base_uri": "https://maps.gstatic.com/mapfiles/place_api/icons/v2/hotel_pinlet",
      "name": "Sonesta Simply Suites Jersey City",
      "opening_hours": {
        "open_now": true
      },
      "photos": [
        {
          "height": 2667,
          "html_attributions": [
            "<a href=\"https://maps.google.com/maps/contrib/109153409906789919941\">Sonesta Simply Suites Jersey City</a>"
          ],
          "photo_reference": "AeJbb3f-EkLDSsojO_NbLMC3waPTwTVPgBBYaPeKwqXjC-fcFsvJGGQFTSbn0XR7wdo5AclyZeNIBCsYxvFHXahCzI3skdXE0OHemskIUBfVKLLbpbS1i_WrcyZRn1gnu1Hg5lDQ4EWVr4ai8pCZR90uwn85n35oUNTwqykoj5o9KNCBG98c",
          "width": 4000
        }
      ],
      "place_id": "ChIJVWiMl6xQwokR4urHjEYJEx8",
      "plus_code": {
        "compound_code": "PXC8+96 \u7f8e\u570b\u65b0\u6fa4\u897f\u6fa4\u897f\u5e02",
        "global_code": "87G7PXC8+96"
      },
      "rating": 4.2,
      "reference": "ChIJVWiMl6xQwokR4urHjEYJEx8",
      "scope": "GOOGLE",
      "types": [
        "lodging",
        "point_of_interest",
        "establishment"
      ],
      "user_ratings_total": 1169,
      "vicinity": "21 2nd Street, Jersey City"
    },
    {
      "business_status": "OPERATIONAL",
      "geometry": {
        "location": {
          "lat": 40.7132603,
          "lng": -74.0355818
        },
        "viewport": {
          "northeast": {
            "lat": 40.7147649302915,
            "lng": -74.0340623197085
          },
          "southwest": {
            "lat": 40.7120669697085,
            "lng": -74.0367602802915
          }
        }
      },
      "icon": "https://maps.gstatic.com/mapfiles/place_api/icons/v1/png_71/generic_business-71.png",
      "icon_background_color": "#7B9EB0",
      "icon_mask_base_uri": "https://maps.gstatic.com/mapfiles/place_api/icons/v2/generic_pinlet",
      "name": "Liberty Towers",
      "opening_hours": {
        "open_now": true
      },
      "photos": [
        {
          "height": 7576,
          "html_attributions": [
            "<a href=\"https://maps.google.com/maps/contrib/113967992220998917472\">Liberty Towers</a>"
          ],
          "photo_reference": "AeJbb3fCY_4GTfeiAheisV9jRg4xndBUWF0w6c8rKj6TUlB6VNni8zeYV7fggVJgYamr2HoTkBMckCBWwVZLoZSyKfaDcZqMGDq_WnQRsRjnx9MR0yb6sCaXgMcZykTglabGzXt5i25k4_VmY01Sy10819jGUQmogYzssIaGu11Zj6q2giql",
          "width": 8184
        }
      ],
      "place_id": "ChIJtcYhqahQwokR17KtGYd2nOw",
      "plus_code": {
        "compound_code": "PX77+8Q \u7f8e\u570b\u65b0\u6fa4\u897f\u6fa4\u897f\u5e02",
        "global_code": "87G7PX77+8Q"
      },
      "rating": 3.5,
      "reference": "ChIJtcYhqahQwokR17KtGYd2nOw",
      "scope": "GOOGLE",
      "types": [
        "point_of_interest",
        "establishment"
      ],
      "user_ratings_total": 81,
      "vicinity": "33 Hudson Street, Jersey City"
    },
    {
      "business_status": "OPERATIONAL",
      "geometry": {
        "location": {
          "lat": 40.7162568,
          "lng": -74.0329837
        },
        "viewport": {
          "northeast": {
            "lat": 40.71761283029149,
            "lng": -74.03191741970849
          },
          "southwest": {
            "lat": 40.71491486970849,
            "lng": -74.0346153802915
          }
        }
      },
      "icon": "https://maps.gstatic.com/mapfiles/place_api/icons/v1/png_71/museum-71.png",
      "icon_background_color": "#7B9EB0",
      "icon_mask_base_uri": "https://maps.gstatic.com/mapfiles/place_api/icons/v2/monument_pinlet",
      "name": "Katy\u0144 Memorial",
      "opening_hours": {
        "open_now": true
      },
      "photos": [
        {
          "height": 4032,
          "html_attributions": [
            "<a href=\"https://maps.google.com/maps/contrib/116450410501346474373\">Daniel Rodriguez</a>"
          ],
          "photo_reference": "AeJbb3cBE6YMlJez_jo4xCj6N9PLI_aSsR2n7yPxQ1zAMw3oEk8J13kV5eQlwPghiaK6UwIMLRJ1NzwgLcwinQgQwSaHONPbyIxjNJL7m7oyIXwBhHopWOhJln1GHb3qYqAPDoEntLXcJawbdWy3EFT0tQo8pQnYMW6_AO9G2nbusH6yoLVs",
          "width": 3024
        }
      ],
      "place_id": "ChIJ3cc_CqlQwokRQ6bS60P4qe0",
      "plus_code": {
        "compound_code": "PX88+GR \u7f8e\u570b\u65b0\u6fa4\u897f\u6fa4\u897f\u5e02",
        "global_code": "87G7PX88+GR"
      },
      "rating": 4.7,
      "reference": "ChIJ3cc_CqlQwokRQ6bS60P4qe0",
      "scope": "GOOGLE",
      "types": [
        "tourist_attraction",
        "point_of_interest",
        "establishment"
      ],
      "user_ratings_total": 206,
      "vicinity": "2, Exchange Place, Jersey City"
    },
    {
      "business_status": "OPERATIONAL",
      "geometry": {
        "location": {
          "lat": 40.7192957,
          "lng": -74.0331028
        },
        "viewport": {
          "northeast": {
            "lat": 40.7207022302915,
            "lng": -74.03138266970849
          },
          "southwest": {
            "lat": 40.7180042697085,
            "lng": -74.0340806302915
          }
        }
      },
      "icon": "https://maps.gstatic.com/mapfiles/place_api/icons/v1/png_71/generic_business-71.png",
      "icon_background_color": "#7B9EB0",
      "icon_mask_base_uri": "https://maps.gstatic.com/mapfiles/place_api/icons/v2/generic_pinlet",
      "name": "Harborside",
      "opening_hours": {
        "open_now": false
      },
      "photos": [
        {
          "height": 3605,
          "html_attributions": [
            "<a href=\"https://maps.google.com/maps/contrib/111389280462388744063\">Harborside</a>"
          ],
          "photo_reference": "AeJbb3fyIoDXGGVj1ZWottbruvLVYXQQDvigC0mVZfzwnvaFllwbP108r09LxfxNNBzPAzVoa0MthUHhJntaO-XTIkH0xw0hzYhcNaPdCsWZkHOwJKEXaxvXaKC0XfqFKUa12oxPy7C-Rlo1ON4fqK7z4DPX7VTT0ZNFFTkOthGnOcuu_1uh",
          "width": 5657
        }
      ],
      "place_id": "ChIJ2wOuwqpQwokR9Nbe0WE4dpk",
      "plus_code": {
        "compound_code": "PX98+PQ \u7f8e\u570b\u65b0\u6fa4\u897f\u6fa4\u897f\u5e02",
        "global_code": "87G7PX98+PQ"
      },
      "rating": 4.4,
      "reference": "ChIJ2wOuwqpQwokR9Nbe0WE4dpk",
      "scope": "GOOGLE",
      "types": [
        "point_of_interest",
        "food",
        "establishment"
      ],
      "user_ratings_total": 333,
      "vicinity": "210 Hudson Street, Jersey City"
    },
    {
      "business_status": "OPERATIONAL",
      "geometry": {
        "location": {
          "lat": 40.71671,
          "lng": -74.0353097
        },
        "viewport": {
          "northeast": {
            "lat": 40.71801068029149,
            "lng": -74.0339710697085
          },
          "southwest": {
            "lat": 40.71531271970849,
            "lng": -74.0366690302915
          }
        }
      },
      "icon": "https://maps.gstatic.com/mapfiles/place_api/icons/v1/png_71/generic_business-71.png",
      "icon_background_color": "#7B9EB0",
      "icon_mask_base_uri": "https://maps.gstatic.com/mapfiles/place_api/icons/v2/generic_pinlet",
      "name": "FedEx Office Print & Ship Center",
      "opening_hours": {
        "open_now": true
      },
      "photos": [
        {
          "height": 3024,
          "html_attributions": [
            "<a href=\"https://maps.google.com/maps/contrib/103508354845999029763\">Abhinav Srivastava</a>"
          ],
          "photo_reference": "AeJbb3dLVnRLTHYVQX5If0HbxWjv73kIWraiRVw5RTPea2w4nOFplyccTTBR3udu-05TU6OAPf44Q4udTw9eS8Y8VY9D6W3bmiXhoBZu0urqXAe7RqCIiOkMGqbFRFccecdS3owGScT_tdv3kUPUYC_-3U1gCP4X1CNlRlJJ1d6fnsz_1dna",
          "width": 4032
        }
      ],
      "place_id": "ChIJzck2nqlQwokRZzhMCdtqNqk",
      "plus_code": {
        "compound_code": "PX87+MV \u7f8e\u570b\u65b0\u6fa4\u897f\u6fa4\u897f\u5e02",
        "global_code": "87G7PX87+MV"
      },
      "price_level": 2,
      "rating": 2.5,
      "reference": "ChIJzck2nqlQwokRZzhMCdtqNqk",
      "scope": "GOOGLE",
      "types": [
        "store",
        "point_of_interest",
        "establishment"
      ],
      "user_ratings_total": 150,
      "vicinity": "30 Montgomery Street Suite 110, Jersey City"
    },
    {
      "business_status": "OPERATIONAL",
      "geometry": {
        "location": {
          "lat": 40.71666949999999,
          "lng": -74.0333299
        },
        "viewport": {
          "northeast": {
            "lat": 40.7181788302915,
            "lng": -74.03199826970851
          },
          "southwest": {
            "lat": 40.7154808697085,
            "lng": -74.03469623029152
          }
        }
      },
      "icon": "https://maps.gstatic.com/mapfiles/place_api/icons/v1/png_71/generic_business-71.png",
      "icon_background_color": "#7B9EB0",
      "icon_mask_base_uri": "https://maps.gstatic.com/mapfiles/place_api/icons/v2/generic_pinlet",
      "name": "IT By Design",
      "opening_hours": {
        "open_now": true
      },
      "photos": [
        {
          "height": 4016,
          "html_attributions": [
            "<a href=\"https://maps.google.com/maps/contrib/102884309012579109756\">IT By Design</a>"
          ],
          "photo_reference": "AeJbb3f0txuRWgr_Lf5qhHMyUzfmmNz1T7_eZZeLVCv94DXLrcIiANP_ayT0PjPbuttytfnQDSsTJ3UHpm7nN3tVMYUOViavotNdLsykC9mhjSWcaC_Nhj67rxlfXB0qwXdr-7GZRFxMehHPA383YdF56qCoHDfAUohc0mS6o6m4xrLM-sYA",
          "width": 6016
        }
      ],
      "place_id": "ChIJ1XjgcmO2w4kRsA1F0Y5LOr4",
      "plus_code": {
        "compound_code": "PX88+MM \u7f8e\u570b\u65b0\u6fa4\u897f\u6fa4\u897f\u5e02",
        "global_code": "87G7PX88+MM"
      },
      "rating": 5,
      "reference": "ChIJ1XjgcmO2w4kRsA1F0Y5LOr4",
      "scope": "GOOGLE",
      "types": [
        "point_of_interest",
        "establishment"
      ],
      "user_ratings_total": 2,
      "vicinity": "10 Exchange Place, Jersey City"
    },
    {
      "business_status": "OPERATIONAL",
      "geometry": {
        "location": {
          "lat": 40.7193866,
          "lng": -74.0319784
        },
        "viewport": {
          "northeast": {
            "lat": 40.72080313029151,
            "lng": -74.03081466970849
          },
          "southwest": {
            "lat": 40.71810516970851,
            "lng": -74.03351263029151
          }
        }
      },
      "icon": "https://maps.gstatic.com/mapfiles/place_api/icons/v1/png_71/generic_business-71.png",
      "icon_background_color": "#7B9EB0",
      "icon_mask_base_uri": "https://maps.gstatic.com/mapfiles/place_api/icons/v2/generic_pinlet",
      "name": "The Pier Apartments",
      "opening_hours": {
        "open_now": true
      },
      "photos": [
        {
          "height": 1080,
          "html_attributions": [
            "<a href=\"https://maps.google.com/maps/contrib/116547766662859321263\">The Pier Apartments</a>"
          ],
          "photo_reference": "AeJbb3ca4Gs3cKcFclNsXlz25DiUpnG5LECgwPddHPcXReeclOrsGWWceJgz5YWcJZlf9yRE5BdQU9baxwKmrIejw7Lj35zEIF6L-md_kfBl_YbNsK5nf_rz02B4f1ttKFKHhTqt8qmB_d_o-7txdCm1WDLibcspBZChFjcAgAj7Um2ECH7n",
          "width": 1920
        }
      ],
      "place_id": "ChIJ_6P0VapQwokRA6lnBQJkHLk",
      "plus_code": {
        "compound_code": "PX99+Q6 \u7f8e\u570b\u65b0\u6fa4\u897f\u6fa4\u897f\u5e02",
        "global_code": "87G7PX99+Q6"
      },
      "rating": 4,
      "reference": "ChIJ_6P0VapQwokRA6lnBQJkHLk",
      "scope": "GOOGLE",
      "types": [
        "point_of_interest",
        "establishment"
      ],
      "user_ratings_total": 69,
      "vicinity": "1 Harborside Place, Jersey City"
    },
    {
      "business_status": "OPERATIONAL",
      "geometry": {
        "location": {
          "lat": 40.7147349,
          "lng": -74.0358284
        },
        "viewport": {
          "northeast": {
            "lat": 40.7160052302915,
            "lng": -74.0345798697085
          },
          "southwest": {
            "lat": 40.7133072697085,
            "lng": -74.0372778302915
          }
        }
      },
      "icon": "https://maps.gstatic.com/mapfiles/place_api/icons/v1/png_71/generic_business-71.png",
      "icon_background_color": "#7B9EB0",
      "icon_mask_base_uri": "https://maps.gstatic.com/mapfiles/place_api/icons/v2/generic_pinlet",
      "name": "70 Greene Apartments",
      "opening_hours": {
        "open_now": true
      },
      "photos": [
        {
          "height": 1080,
          "html_attributions": [
            "<a href=\"https://maps.google.com/maps/contrib/104867443248869695716\">70 Greene Apartments</a>"
          ],
          "photo_reference": "AeJbb3cjNBPB996dXOHa43zh_DQ7TqqXM6pCRX5xBrF0SziY8TSFty2EbtgsgeGjH6wnpyZre8WSIXSTIfzb78xf9KWFCvEOJZ0-nv7NI8Ga-vqNI8DEOwmFDTKIgFhc30YhTMt72_JXDBKyhK-Etb07nCpfyvzFt2H7Gnp3y1a01YQrOrGw",
          "width": 1920
        }
      ],
      "place_id": "ChIJ1dZ-M69QwokRaebraIBMCRw",
      "plus_code": {
        "compound_code": "PX77+VM \u7f8e\u570b\u65b0\u6fa4\u897f\u6fa4\u897f\u5e02",
        "global_code": "87G7PX77+VM"
      },
      "rating": 3.4,
      "reference": "ChIJ1dZ-M69QwokRaebraIBMCRw",
      "scope": "GOOGLE",
      "types": [
        "point_of_interest",
        "establishment"
      ],
      "user_ratings_total": 112,
      "vicinity": "70 Greene Street, Jersey City"
    },
    {
      "business_status": "OPERATIONAL",
      "geometry": {
        "location": {
          "lat": 40.7169228,
          "lng": -74.03532229999999
        },
        "viewport": {
          "northeast": {
            "lat": 40.7181233302915,
            "lng": -74.03399966970849
          },
          "southwest": {
            "lat": 40.71542536970851,
            "lng": -74.03669763029151
          }
        }
      },
      "icon": "https://maps.gstatic.com/mapfiles/place_api/icons/v1/png_71/civic_building-71.png",
      "icon_background_color": "#7B9EB0",
      "icon_mask_base_uri": "https://maps.gstatic.com/mapfiles/place_api/icons/v2/civic-bldg_pinlet",
      "name": "Express Employment Professionals",
      "opening_hours": {
        "open_now": false
      },
      "photos": [
        {
          "height": 1166,
          "html_attributions": [
            "<a href=\"https://maps.google.com/maps/contrib/118351104817504855564\">Express Employment Professionals</a>"
          ],
          "photo_reference": "AeJbb3dR53RI96E_zK_LL8TyYbEAUwmRAOaFW0dqOeSwk0UPhU93Ys1dVnttwt0Q3bCnUWjySGyRS6Ef_t5djiWKBizRJRfln4PHWSzF8LMGpkJy8cGLgM_JHliDMhst7Fs7OSgjuKdpbRh8mOTtpPoUTMZPSjEhcIt5c5Xw-bTigcCW3wo6",
          "width": 2070
        }
      ],
      "place_id": "ChIJ6-aDJbJQwokR8PEOUR7VXy0",
      "plus_code": {
        "compound_code": "PX87+QV \u7f8e\u570b\u65b0\u6fa4\u897f\u6fa4\u897f\u5e02",
        "global_code": "87G7PX87+QV"
      },
      "rating": 2.4,
      "reference": "ChIJ6-aDJbJQwokR8PEOUR7VXy0",
      "scope": "GOOGLE",
      "types": [
        "point_of_interest",
        "establishment"
      ],
      "user_ratings_total": 32,
      "vicinity": "30 Montgomery Street #1255, Jersey City"
    },
    {
      "business_status": "OPERATIONAL",
      "geometry": {
        "location": {
          "lat": 40.7175635,
          "lng": -74.0359631
        },
        "viewport": {
          "northeast": {
            "lat": 40.7188273302915,
            "lng": -74.0346434697085
          },
          "southwest": {
            "lat": 40.7161293697085,
            "lng": -74.03734143029152
          }
        }
      },
      "icon": "https://maps.gstatic.com/mapfiles/place_api/icons/v1/png_71/generic_business-71.png",
      "icon_background_color": "#7B9EB0",
      "icon_mask_base_uri": "https://maps.gstatic.com/mapfiles/place_api/icons/v2/generic_pinlet",
      "name": "Ana-Data Consulting Inc",
      "opening_hours": {
        "open_now": false
      },
      "place_id": "ChIJN-r3NKlQwokRT6a-1dCpbbY",
      "plus_code": {
        "compound_code": "PX97+2J \u7f8e\u570b\u65b0\u6fa4\u897f\u970d\u535a\u80af",
        "global_code": "87G7PX97+2J"
      },
      "rating": 4.5,
      "reference": "ChIJN-r3NKlQwokRT6a-1dCpbbY",
      "scope": "GOOGLE",
      "types": [
        "point_of_interest",
        "establishment"
      ],
      "user_ratings_total": 10,
      "vicinity": "515 517 Jefferson St, Hoboken"
    },
    {
      "business_status": "OPERATIONAL",
      "geometry": {
        "location": {
          "lat": 40.716993,
          "lng": -74.03529329999999
        },
        "viewport": {
          "northeast": {
            "lat": 40.7181576302915,
            "lng": -74.0339770697085
          },
          "southwest": {
            "lat": 40.7154596697085,
            "lng": -74.0366750302915
          }
        }
      },
      "icon": "https://maps.gstatic.com/mapfiles/place_api/icons/v1/png_71/generic_business-71.png",
      "icon_background_color": "#7B9EB0",
      "icon_mask_base_uri": "https://maps.gstatic.com/mapfiles/place_api/icons/v2/generic_pinlet",
      "name": "Genova Burns LLC",
      "opening_hours": {
        "open_now": false
      },
      "photos": [
        {
          "height": 1360,
          "html_attributions": [
            "<a href=\"https://maps.google.com/maps/contrib/112554388373728611763\">Genova Burns LLC</a>"
          ],
          "photo_reference": "AeJbb3cVIKiEyGOaW_UPIn4GbsT2-RoQq5ivQhAa_P_tsuHVOzsAEGHhU67HkdR_ixN9AgYrTZHyNrts0a3QCVUmJDW-hxbpnwLjIVm6GWsyF2UBKiSKs6ZS8kXIDZxmpUtDMKcAwExw0bi1Z8cPK_liKrCXowXcM91xj6VGjBE3RzQaFrMZ",
          "width": 2048
        }
      ],
      "place_id": "ChIJwRpdSKlQwokRbWiNthpA2vY",
      "plus_code": {
        "compound_code": "PX87+QV \u7f8e\u570b\u65b0\u6fa4\u897f\u6fa4\u897f\u5e02",
        "global_code": "87G7PX87+QV"
      },
      "rating": 5,
      "reference": "ChIJwRpdSKlQwokRbWiNthpA2vY",
      "scope": "GOOGLE",
      "types": [
        "point_of_interest",
        "establishment"
      ],
      "user_ratings_total": 1,
      "vicinity": "30 Montgomery Street 11th Floor, Jersey City"
    },
    {
      "business_status": "OPERATIONAL",
      "geometry": {
        "location": {
          "lat": 40.716911,
          "lng": -74.035254
        },
        "viewport": {
          "northeast": {
            "lat": 40.7181139302915,
            "lng": -74.03393096970849
          },
          "southwest": {
            "lat": 40.7154159697085,
            "lng": -74.03662893029151
          }
        }
      },
      "icon": "https://maps.gstatic.com/mapfiles/place_api/icons/v1/png_71/generic_business-71.png",
      "icon_background_color": "#7B9EB0",
      "icon_mask_base_uri": "https://maps.gstatic.com/mapfiles/place_api/icons/v2/generic_pinlet",
      "name": "Clear Analytics",
      "opening_hours": {
        "open_now": false
      },
      "photos": [
        {
          "height": 350,
          "html_attributions": [
            "<a href=\"https://maps.google.com/maps/contrib/113636410672535964766\">Clear Analytics</a>"
          ],
          "photo_reference": "AeJbb3fTA7XXZLs8PKMr2Ead-Suyr5yVmM4d3SrKH3aHGQExlprM_k747lvgmItsi4rQ4MppUBDTlsTyCe6_Y4CFTJpkyEd9Ma196QLjdtYPL4oI3KxhjNn6VV1lQhjJ5s03xmT1M2A9o_dp_yx5lYIJQsVsJeKCMefvJYTssMmpcgTHetmU",
          "width": 469
        }
      ],
      "place_id": "ChIJwRpdSKlQwokRi5n7bTdJMcA",
      "plus_code": {
        "compound_code": "PX87+QV \u7f8e\u570b\u65b0\u6fa4\u897f\u6fa4\u897f\u5e02",
        "global_code": "87G7PX87+QV"
      },
      "reference": "ChIJwRpdSKlQwokRi5n7bTdJMcA",
      "scope": "GOOGLE",
      "types": [
        "point_of_interest",
        "establishment"
      ],
      "vicinity": "30 Montgomery Street Suite #1245, Jersey City"
    },
    {
      "business_status": "OPERATIONAL",
      "geometry": {
        "location": {
          "lat": 40.7163825,
          "lng": -74.03521529999999
        },
        "viewport": {
          "northeast": {
            "lat": 40.71780983029149,
            "lng": -74.03395751970848
          },
          "southwest": {
            "lat": 40.7151118697085,
            "lng": -74.0366554802915
          }
        }
      },
      "icon": "https://maps.gstatic.com/mapfiles/place_api/icons/v1/png_71/restaurant-71.png",
      "icon_background_color": "#FF9E67",
      "icon_mask_base_uri": "https://maps.gstatic.com/mapfiles/place_api/icons/v2/restaurant_pinlet",
      "name": "Amiya",
      "opening_hours": {
        "open_now": true
      },
      "photos": [
        {
          "height": 4016,
          "html_attributions": [
            "<a href=\"https://maps.google.com/maps/contrib/108748184153178526147\">Amiya</a>"
          ],
          "photo_reference": "AeJbb3cV78mifQLUBJjOVhXBJwrkRTVhIc7vslgQUonUePqF0uOe_agWqIa6b8nJsjgO4ZR1Ehe0kgoqMtVjYrrxcAo63rAi8d8NXp_K3KP8LpqPKEeGKxqDW2U5zp6fw0UJezbe6jRT78zB6C8L_ZAuaRohIvozLEsb9jjsI3Yrn5_Rf4JL",
          "width": 6016
        }
      ],
      "place_id": "ChIJia9F8KtQwokR3bwbALwPf6o",
      "plus_code": {
        "compound_code": "PX87+HW \u7f8e\u570b\u65b0\u6fa4\u897f\u6fa4\u897f\u5e02",
        "global_code": "87G7PX87+HW"
      },
      "price_level": 2,
      "rating": 3.9,
      "reference": "ChIJia9F8KtQwokR3bwbALwPf6o",
      "scope": "GOOGLE",
      "types": [
        "restaurant",
        "point_of_interest",
        "food",
        "establishment"
      ],
      "user_ratings_total": 1124,
      "vicinity": "101 Hudson Street, Jersey City"
    },
    {
      "business_status": "OPERATIONAL",
      "geometry": {
        "location": {
          "lat": 40.7165515,
          "lng": -74.03767770000002
        },
        "viewport": {
          "northeast": {
            "lat": 40.7180208302915,
            "lng": -74.0363595197085
          },
          "southwest": {
            "lat": 40.71532286970851,
            "lng": -74.0390574802915
          }
        }
      },
      "icon": "https://maps.gstatic.com/mapfiles/place_api/icons/v1/png_71/generic_business-71.png",
      "icon_background_color": "#7B9EB0",
      "icon_mask_base_uri": "https://maps.gstatic.com/mapfiles/place_api/icons/v2/generic_pinlet",
      "name": "Balance by Acupuncture",
      "opening_hours": {
        "open_now": false
      },
      "place_id": "ChIJS-7sgqNZwokR0U8QHkxpQmA",
      "plus_code": {
        "compound_code": "PX86+JW \u7f8e\u570b\u65b0\u6fa4\u897f\u6fa4\u897f\u5e02",
        "global_code": "87G7PX86+JW"
      },
      "reference": "ChIJS-7sgqNZwokR0U8QHkxpQmA",
      "scope": "GOOGLE",
      "types": [
        "health",
        "point_of_interest",
        "establishment"
      ],
      "vicinity": "75 Montgomery Street, Jersey City"
    },
    {
      "business_status": "OPERATIONAL",
      "geometry": {
        "location": {
          "lat": 40.7188538,
          "lng": -74.03499930000001
        },
        "viewport": {
          "northeast": {
            "lat": 40.7203663802915,
            "lng": -74.0337802697085
          },
          "southwest": {
            "lat": 40.7176684197085,
            "lng": -74.03647823029151
          }
        }
      },
      "icon": "https://maps.gstatic.com/mapfiles/place_api/icons/v1/png_71/restaurant-71.png",
      "icon_background_color": "#FF9E67",
      "icon_mask_base_uri": "https://maps.gstatic.com/mapfiles/place_api/icons/v2/restaurant_pinlet",
      "name": "Hudson's Grill",
      "opening_hours": {
        "open_now": false
      },
      "photos": [
        {
          "height": 2988,
          "html_attributions": [
            "<a href=\"https://maps.google.com/maps/contrib/102920625975584617313\">Rajeshkumar Thankaraj</a>"
          ],
          "photo_reference": "AeJbb3e6zwVmzJy6x8xHH2GgQs9S6B9PkadbmBRaCCX_CjHG7dZejug4dwA2_xF94qYN5O37tL-L8hYMojyD16E0iBVLUs1KxRPX8VdYM-72ffDurjwbNzoDR0U4f0BMus3aERTGaatmaumGcYLKUoc0Gwnei7l7YmLRUhVUmcQXOvMSumPj",
          "width": 5312
        }
      ],
      "place_id": "ChIJz2k3UqlQwokRWX_g_R1-bjw",
      "plus_code": {
        "compound_code": "PX98+G2 \u7f8e\u570b\u65b0\u6fa4\u897f\u6fa4\u897f\u5e02",
        "global_code": "87G7PX98+G2"
      },
      "price_level": 1,
      "rating": 3.9,
      "reference": "ChIJz2k3UqlQwokRWX_g_R1-bjw",
      "scope": "GOOGLE",
      "types": [
        "meal_delivery",
        "meal_takeaway",
        "restaurant",
        "point_of_interest",
        "food",
        "establishment"
      ],
      "user_ratings_total": 91,
      "vicinity": "160 Greene Street, Jersey City"
    },
    {
      "business_status": "OPERATIONAL",
      "geometry": {
        "location": {
          "lat": 40.7168205,
          "lng": -74.0338512
        },
        "viewport": {
          "northeast": {
            "lat": 40.7178859302915,
            "lng": -74.03228416970849
          },
          "southwest": {
            "lat": 40.7151879697085,
            "lng": -74.03498213029151
          }
        }
      },
      "icon": "https://maps.gstatic.com/mapfiles/place_api/icons/v1/png_71/parking-71.png",
      "icon_background_color": "#7B9EB0",
      "icon_mask_base_uri": "https://maps.gstatic.com/mapfiles/place_api/icons/v2/parking_pinlet",
      "name": "One Parking",
      "opening_hours": {
        "open_now": true
      },
      "photos": [
        {
          "height": 480,
          "html_attributions": [
            "<a href=\"https://maps.google.com/maps/contrib/104505934699619152609\">One Parking</a>"
          ],
          "photo_reference": "AeJbb3dPnSouQ0DfBRftADghODXKu_x4rcDAGzVC195UveiiX-z80pP_A94AuyfnziaZ9yZeYv6EibpH98vQT-Rod3dhoUqzS4ozONDKGyrne4qVHK3X8VwTCNX_9RfJvdfZRUyEwbFkNbVuxexlg-pcj5Vb-K_RV0vULwjvxPeCn6L8lGFc",
          "width": 640
        }
      ],
      "place_id": "ChIJzck2nqlQwokR9ctG4kNT9wU",
      "plus_code": {
        "compound_code": "PX88+PF \u7f8e\u570b\u65b0\u6fa4\u897f\u6fa4\u897f\u5e02",
        "global_code": "87G7PX88+PF"
      },
      "rating": 4,
      "reference": "ChIJzck2nqlQwokR9ctG4kNT9wU",
      "scope": "GOOGLE",
      "types": [
        "parking",
        "point_of_interest",
        "establishment"
      ],
      "user_ratings_total": 72,
      "vicinity": "10 Exchange Place, Jersey City"
    },
    {
      "business_status": "CLOSED_TEMPORARILY",
      "geometry": {
        "location": {
          "lat": 40.716921,
          "lng": -74.0352882
        },
        "viewport": {
          "northeast": {
            "lat": 40.71812073029151,
            "lng": -74.03396571970849
          },
          "southwest": {
            "lat": 40.71542276970851,
            "lng": -74.0366636802915
          }
        }
      },
      "icon": "https://maps.gstatic.com/mapfiles/place_api/icons/v1/png_71/generic_business-71.png",
      "icon_background_color": "#7B9EB0",
      "icon_mask_base_uri": "https://maps.gstatic.com/mapfiles/place_api/icons/v2/generic_pinlet",
      "name": "Fundtech Limited",
      "permanently_closed": true,
      "place_id": "ChIJPV5SNKlQwokR9-W_ac_PSes",
      "plus_code": {
        "compound_code": "PX87+QV \u7f8e\u570b\u65b0\u6fa4\u897f\u6fa4\u897f\u5e02",
        "global_code": "87G7PX87+QV"
      },
      "reference": "ChIJPV5SNKlQwokR9-W_ac_PSes",
      "scope": "GOOGLE",
      "types": [
        "point_of_interest",
        "establishment"
      ],
      "vicinity": "30 Montgomery Street # 501, Jersey City"
    },
    {
      "geometry": {
        "location": {
          "lat": 40.7190163,
          "lng": -74.04136559999999
        },
        "viewport": {
          "northeast": {
            "lat": 40.73656454717712,
            "lng": -74.02661431449599
          },
          "southwest": {
            "lat": 40.7109149370721,
            "lng": -74.06200559238953
          }
        }
      },
      "icon": "https://maps.gstatic.com/mapfiles/place_api/icons/v1/png_71/geocode-71.png",
      "icon_background_color": "#7B9EB0",
      "icon_mask_base_uri": "https://maps.gstatic.com/mapfiles/place_api/icons/v2/generic_pinlet",
      "name": "Downtown Jersey City",
      "photos": [
        {
          "height": 1908,
          "html_attributions": [
            "<a href=\"https://maps.google.com/maps/contrib/116992533205705838643\">Punnu Singh</a>"
          ],
          "photo_reference": "AeJbb3cTbPLUD3TP4H_StYmSjqiIMiQUDV6kjvUEyOtTyKSzvCSV5KPE77IKemFCEq2hEuZ3mxEaJdCVHR2qVVqQdmSP-cx2IE8HGQt60HQj6GZAbwnin1GqHVcza5oT9hrKTZtCMg1rYODofJKEYc_aVywzLC_aczuUL630eMj-tJRZbRKz",
          "width": 4032
        }
      ],
      "place_id": "ChIJ_5Q_bLJQwokRy7o0TOvDEWk",
      "reference": "ChIJ_5Q_bLJQwokRy7o0TOvDEWk",
      "scope": "GOOGLE",
      "types": [
        "neighborhood",
        "political"
      ],
      "vicinity": "Jersey City"
    },
    {
      "business_status": "CLOSED_TEMPORARILY",
      "geometry": {
        "location": {
          "lat": 40.71685050000001,
          "lng": -74.0346024
        },
        "viewport": {
          "northeast": {
            "lat": 40.7180504802915,
            "lng": -74.0332798697085
          },
          "southwest": {
            "lat": 40.7153525197085,
            "lng": -74.0359778302915
          }
        }
      },
      "icon": "https://maps.gstatic.com/mapfiles/place_api/icons/v1/png_71/generic_business-71.png",
      "icon_background_color": "#7B9EB0",
      "icon_mask_base_uri": "https://maps.gstatic.com/mapfiles/place_api/icons/v2/generic_pinlet",
      "name": "Discount Life Insurance Quotes and Policies",
      "permanently_closed": true,
      "place_id": "ChIJmVtOQKlQwokRA6gypElZ-_U",
      "plus_code": {
        "compound_code": "PX88+P5 Jersey City, NJ, USA",
        "global_code": "87G7PX88+P5"
      },
      "reference": "ChIJmVtOQKlQwokRA6gypElZ-_U",
      "scope": "GOOGLE",
      "types": [
        "insurance_agency",
        "point_of_interest",
        "establishment"
      ],
      "vicinity": "2 Montgomery Street, Jersey City"
    },
    {
      "business_status": "OPERATIONAL",
      "geometry": {
        "location": {
          "lat": 40.7144933,
          "lng": -74.03377619999999
        },
        "viewport": {
          "northeast": {
            "lat": 40.7160226802915,
            "lng": -74.03236726970849
          },
          "southwest": {
            "lat": 40.7133247197085,
            "lng": -74.0350652302915
          }
        }
      },
      "icon": "https://maps.gstatic.com/mapfiles/place_api/icons/v1/png_71/generic_business-71.png",
      "icon_background_color": "#7B9EB0",
      "icon_mask_base_uri": "https://maps.gstatic.com/mapfiles/place_api/icons/v2/generic_pinlet",
      "name": "TD Ameritrade Corporate Office",
      "opening_hours": {
        "open_now": false
      },
      "photos": [
        {
          "height": 3024,
          "html_attributions": [
            "<a href=\"https://maps.google.com/maps/contrib/107925919819233790336\">Ramesh Kadirisani</a>"
          ],
          "photo_reference": "AeJbb3cPbnfyuYhdT67G2cAMSANJJ16Cd0I-PJst6rYgrn0VHHAd90aA-9u4GIgxvwC2y42qEeve_vN_Nk-LxzxoPiau41AXrtuWQZMT_9CuFZ0uNaLBZTiovWw_T5pqVDMW07FYwKj7XT8DBCBpvhCRqq1h0ukbyMLIbQTYy-wnNIhzwipE",
          "width": 4032
        }
      ],
      "place_id": "ChIJ7VFQj6xQwokReetOCwGRaOc",
      "plus_code": {
        "compound_code": "PX78+QF Jersey City, NJ, USA",
        "global_code": "87G7PX78+QF"
      },
      "rating": 4.4,
      "reference": "ChIJ7VFQj6xQwokReetOCwGRaOc",
      "scope": "GOOGLE",
      "types": [
        "point_of_interest",
        "establishment"
      ],
      "user_ratings_total": 42,
      "vicinity": "1 Plaza Four A, Jersey City"
    },
    {
      "business_status": "OPERATIONAL",
      "geometry": {
        "location": {
          "lat": 40.71609309999999,
          "lng": -74.0349852
        },
        "viewport": {
          "northeast": {
            "lat": 40.71763698029149,
            "lng": -74.0335957197085
          },
          "southwest": {
            "lat": 40.7149390197085,
            "lng": -74.03629368029151
          }
        }
      },
      "icon": "https://maps.gstatic.com/mapfiles/place_api/icons/v1/png_71/generic_business-71.png",
      "icon_background_color": "#7B9EB0",
      "icon_mask_base_uri": "https://maps.gstatic.com/mapfiles/place_api/icons/v2/generic_pinlet",
      "name": "PricewaterhouseCoopers",
      "opening_hours": {
        "open_now": false
      },
      "place_id": "ChIJe5LOIqlQwokRzWNMChSdo0w",
      "plus_code": {
        "compound_code": "PX88+C2 Jersey City, NJ, USA",
        "global_code": "87G7PX88+C2"
      },
      "reference": "ChIJe5LOIqlQwokRzWNMChSdo0w",
      "scope": "GOOGLE",
      "types": [
        "accounting",
        "finance",
        "point_of_interest",
        "establishment"
      ],
      "vicinity": "101 Hudson Street #26, Jersey City"
    },
    {
      "business_status": "OPERATIONAL",
      "geometry": {
        "location": {
          "lat": 40.7160849,
          "lng": -74.0349825
        },
        "viewport": {
          "northeast": {
            "lat": 40.7176326302915,
            "lng": -74.0335922197085
          },
          "southwest": {
            "lat": 40.71493466970851,
            "lng": -74.03629018029152
          }
        }
      },
      "icon": "https://maps.gstatic.com/mapfiles/place_api/icons/v1/png_71/generic_business-71.png",
      "icon_background_color": "#7B9EB0",
      "icon_mask_base_uri": "https://maps.gstatic.com/mapfiles/place_api/icons/v2/generic_pinlet",
      "name": "Franklin Credit Management Corporation",
      "opening_hours": {
        "open_now": false
      },
      "place_id": "ChIJe5LOIqlQwokRJEmZMDlB3gY",
      "plus_code": {
        "compound_code": "PX88+C2 Jersey City, NJ, USA",
        "global_code": "87G7PX88+C2"
      },
      "reference": "ChIJe5LOIqlQwokRJEmZMDlB3gY",
      "scope": "GOOGLE",
      "types": [
        "finance",
        "point_of_interest",
        "establishment"
      ],
      "vicinity": "101 Hudson Street, Jersey City"
    },
    {
      "business_status": "CLOSED_TEMPORARILY",
      "geometry": {
        "location": {
          "lat": 40.7186662,
          "lng": -74.03487779999999
        },
        "viewport": {
          "northeast": {
            "lat": 40.71989198029149,
            "lng": -74.03376451970848
          },
          "southwest": {
            "lat": 40.71719401970849,
            "lng": -74.03646248029149
          }
        }
      },
      "icon": "https://maps.gstatic.com/mapfiles/place_api/icons/v1/png_71/generic_business-71.png",
      "icon_background_color": "#7B9EB0",
      "icon_mask_base_uri": "https://maps.gstatic.com/mapfiles/place_api/icons/v2/generic_pinlet",
      "name": "Intellosoft LLC",
      "permanently_closed": true,
      "place_id": "ChIJexNeu6tQwokR6hGm4E5ITr8",
      "plus_code": {
        "compound_code": "PX98+F2 Jersey City, NJ, USA",
        "global_code": "87G7PX98+F2"
      },
      "reference": "ChIJexNeu6tQwokR6hGm4E5ITr8",
      "scope": "GOOGLE",
      "types": [
        "point_of_interest",
        "establishment"
      ],
      "vicinity": "Plaza 5, 2500 Plaza 5, Harborside Financial Center, Jersey City"
    },
    {
      "business_status": "OPERATIONAL",
      "geometry": {
        "location": {
          "lat": 40.7207484,
          "lng": -74.0321237
        },
        "viewport": {
          "northeast": {
            "lat": 40.7223219802915,
            "lng": -74.0305845697085
          },
          "southwest": {
            "lat": 40.7196240197085,
            "lng": -74.0332825302915
          }
        }
      },
      "icon": "https://maps.gstatic.com/mapfiles/place_api/icons/v1/png_71/generic_business-71.png",
      "icon_background_color": "#7B9EB0",
      "icon_mask_base_uri": "https://maps.gstatic.com/mapfiles/place_api/icons/v2/generic_pinlet",
      "name": "Deloitte",
      "opening_hours": {
        "open_now": false
      },
      "photos": [
        {
          "height": 3024,
          "html_attributions": [
            "<a href=\"https://maps.google.com/maps/contrib/114169183569284266370\">Jeff Yuk</a>"
          ],
          "photo_reference": "AeJbb3dKnOD_9osVMEtwcCvDvi1WRKJFJWWr46jhE_sZcREgu_Pw5Cg3I8VXC3XMiDuw-sZyV8PGErT4lVK27k4w6nTc57Q4Tlt0BAwxaW6hxgs7fp_WeWKTKWzaIerALTkp5yhDED_Lc6YGd6YtlBwm4vsDLuxHT0NEhDXhKgFeHZFp57C7",
          "width": 4032
        }
      ],
      "place_id": "ChIJNZYk6apQwokRvrfpByeMxi0",
      "plus_code": {
        "compound_code": "PXC9+75 Jersey City, NJ, USA",
        "global_code": "87G7PXC9+75"
      },
      "rating": 1.7,
      "reference": "ChIJNZYk6apQwokRvrfpByeMxi0",
      "scope": "GOOGLE",
      "types": [
        "accounting",
        "finance",
        "point_of_interest",
        "establishment"
      ],
      "user_ratings_total": 10,
      "vicinity": "Harborside Plaza 10, 3 2nd Street Suite 400, Jersey City"
    },
    {
      "business_status": "CLOSED_TEMPORARILY",
      "geometry": {
        "location": {
          "lat": 40.7174704,
          "lng": -74.0335612
        },
        "viewport": {
          "northeast": {
            "lat": 40.7190401302915,
            "lng": -74.03219056970849
          },
          "southwest": {
            "lat": 40.7163421697085,
            "lng": -74.03488853029151
          }
        }
      },
      "icon": "https://maps.gstatic.com/mapfiles/place_api/icons/v1/png_71/generic_business-71.png",
      "icon_background_color": "#7B9EB0",
      "icon_mask_base_uri": "https://maps.gstatic.com/mapfiles/place_api/icons/v2/generic_pinlet",
      "name": "G L Associates",
      "permanently_closed": true,
      "place_id": "ChIJTw408xZawokRw_hofd5pXKw",
      "plus_code": {
        "compound_code": "PX88+XH Jersey City, NJ, USA",
        "global_code": "87G7PX88+XH"
      },
      "reference": "ChIJTw408xZawokRw_hofd5pXKw",
      "scope": "GOOGLE",
      "types": [
        "point_of_interest",
        "establishment"
      ],
      "vicinity": "34 Exchange Place, Jersey City"
    },
    {
      "business_status": "OPERATIONAL",
      "geometry": {
        "location": {
          "lat": 40.7168309,
          "lng": -74.03527629999999
        },
        "viewport": {
          "northeast": {
            "lat": 40.7180745302915,
            "lng": -74.0339488197085
          },
          "southwest": {
            "lat": 40.7153765697085,
            "lng": -74.0366467802915
          }
        }
      },
      "icon": "https://maps.gstatic.com/mapfiles/place_api/icons/v1/png_71/generic_business-71.png",
      "icon_background_color": "#7B9EB0",
      "icon_mask_base_uri": "https://maps.gstatic.com/mapfiles/place_api/icons/v2/generic_pinlet",
      "name": "Options Clearing Corporation",
      "place_id": "ChIJlUrWHVRXwokRIlHG9Hcyu_Q",
      "plus_code": {
        "compound_code": "PX87+PV Jersey City, NJ, USA",
        "global_code": "87G7PX87+PV"
      },
      "reference": "ChIJlUrWHVRXwokRIlHG9Hcyu_Q",
      "scope": "GOOGLE",
      "types": [
        "point_of_interest",
        "establishment"
      ],
      "vicinity": "30 Montgomery Street, Jersey City"
    },
    {
      "business_status": "OPERATIONAL",
      "geometry": {
        "location": {
          "lat": 40.7169742,
          "lng": -74.03667639999999
        },
        "viewport": {
          "northeast": {
            "lat": 40.7182247802915,
            "lng": -74.0353434197085
          },
          "southwest": {
            "lat": 40.7155268197085,
            "lng": -74.0380413802915
          }
        }
      },
      "icon": "https://maps.gstatic.com/mapfiles/place_api/icons/v1/png_71/generic_business-71.png",
      "icon_background_color": "#7B9EB0",
      "icon_mask_base_uri": "https://maps.gstatic.com/mapfiles/place_api/icons/v2/generic_pinlet",
      "name": "Battery View Senior Citizens",
      "opening_hours": {
        "open_now": false
      },
      "photos": [
        {
          "height": 2448,
          "html_attributions": [
            "<a href=\"https://maps.google.com/maps/contrib/103268311105214676923\">Marina S.</a>"
          ],
          "photo_reference": "AeJbb3dAy-WOaLgkY0D4xaHCohldS-8CGGio_3vWZjkjTu7zNN_Jdr_IDSWkvTwGHVuxDDItcMX5vRn_VEuWBanBYVizL5bxfyvsVHoqc0PdRh85eDrQp4QOCPO7AHgxkuRF3bIati1cyeWDLtnQ31NlsxYWukYemlx_aHfURW0UJb3DvNXL",
          "width": 3264
        }
      ],
      "place_id": "ChIJ8-gJuK5QwokR2e0lQZZUjFE",
      "plus_code": {
        "compound_code": "PX87+Q8 Jersey City, NJ, USA",
        "global_code": "87G7PX87+Q8"
      },
      "rating": 3.9,
      "reference": "ChIJ8-gJuK5QwokR2e0lQZZUjFE",
      "scope": "GOOGLE",
      "types": [
        "point_of_interest",
        "establishment"
      ],
      "user_ratings_total": 19,
      "vicinity": "72 Montgomery Street, Jersey City"
    },
    {
      "business_status": "OPERATIONAL",
      "geometry": {
        "location": {
          "lat": 40.7160849,
          "lng": -74.0349825
        },
        "viewport": {
          "northeast": {
            "lat": 40.7176326302915,
            "lng": -74.0335922197085
          },
          "southwest": {
            "lat": 40.71493466970851,
            "lng": -74.03629018029152
          }
        }
      },
      "icon": "https://maps.gstatic.com/mapfiles/place_api/icons/v1/png_71/generic_business-71.png",
      "icon_background_color": "#7B9EB0",
      "icon_mask_base_uri": "https://maps.gstatic.com/mapfiles/place_api/icons/v2/generic_pinlet",
      "name": "AIG",
      "photos": [
        {
          "height": 4000,
          "html_attributions": [
            "<a href=\"https://maps.google.com/maps/contrib/110854164034814697389\">Aaron Johnson</a>"
          ],
          "photo_reference": "AeJbb3c_zJcl3lYD1FRGqbc_CZTI9bfBYLmQjuUMj7GQIo-AI9dRWi8O3LhZ7OYBNHNA1GW4plkQnelm3giAKX1-UG68zIiOBDK6UCl2-FP_Bq4tO3SWGxEu1X5TWMxKARobIoDPEX6ZxqZAzwIMIgQJfiUVEkXIdS_p_8rskCY7RnwYucXx",
          "width": 6000
        }
      ],
      "place_id": "ChIJe5LOIqlQwokRJC2HpPTcJI4",
      "plus_code": {
        "compound_code": "PX88+C2 Jersey City, NJ, USA",
        "global_code": "87G7PX88+C2"
      },
      "rating": 4.4,
      "reference": "ChIJe5LOIqlQwokRJC2HpPTcJI4",
      "scope": "GOOGLE",
      "types": [
        "insurance_agency",
        "point_of_interest",
        "establishment"
      ],
      "user_ratings_total": 14,
      "vicinity": "101 Hudson Street, Jersey City"
    },
    {
      "business_status": "OPERATIONAL",
      "geometry": {
        "location": {
          "lat": 40.716921,
          "lng": -74.0352882
        },
        "viewport": {
          "northeast": {
            "lat": 40.71812073029151,
            "lng": -74.03396571970849
          },
          "southwest": {
            "lat": 40.71542276970851,
            "lng": -74.0366636802915
          }
        }
      },
      "icon": "https://maps.gstatic.com/mapfiles/place_api/icons/v1/png_71/civic_building-71.png",
      "icon_background_color": "#7B9EB0",
      "icon_mask_base_uri": "https://maps.gstatic.com/mapfiles/place_api/icons/v2/civic-bldg_pinlet",
      "name": "Division Community Development",
      "place_id": "ChIJPV5SNKlQwokRS7yHx7gOW1o",
      "plus_code": {
        "compound_code": "PX87+QV Jersey City, NJ, USA",
        "global_code": "87G7PX87+QV"
      },
      "reference": "ChIJPV5SNKlQwokRS7yHx7gOW1o",
      "scope": "GOOGLE",
      "types": [
        "local_government_office",
        "point_of_interest",
        "establishment"
      ],
      "vicinity": "30 Montgomery Street #404, Jersey City"
    },
    {
      "business_status": "OPERATIONAL",
      "geometry": {
        "location": {
          "lat": 40.7164479,
          "lng": -74.0376871
        },
        "viewport": {
          "northeast": {
            "lat": 40.7177821802915,
            "lng": -74.0362303197085
          },
          "southwest": {
            "lat": 40.7150842197085,
            "lng": -74.0389282802915
          }
        }
      },
      "icon": "https://maps.gstatic.com/mapfiles/place_api/icons/v1/png_71/restaurant-71.png",
      "icon_background_color": "#FF9E67",
      "icon_mask_base_uri": "https://maps.gstatic.com/mapfiles/place_api/icons/v2/restaurant_pinlet",
      "name": "Mantra",
      "opening_hours": {
        "open_now": true
      },
      "photos": [
        {
          "height": 1282,
          "html_attributions": [
            "<a href=\"https://maps.google.com/maps/contrib/103688606300586217308\">Mantra</a>"
          ],
          "photo_reference": "AeJbb3etKz7gI1-n8HSRsi4pCGqv3CexsM80yTTGZAo3nJjr-Qxt-mQoxW1bni6C7Jaw0YjyHTvUOe6UVHloQqU2TWCE11gK5pshJ26lO_moEFc36fm4LdqBScqdnjNYqflgCybSFvtiL3nSf7saLioB3xScESM0fBgdcgsSxgs9s02gs7qn",
          "width": 2048
        }
      ],
      "place_id": "ChIJe2sa6K5QwokRuJHE4N8xlGg",
      "plus_code": {
        "compound_code": "PX86+HW Jersey City, NJ, USA",
        "global_code": "87G7PX86+HW"
      },
      "price_level": 2,
      "rating": 3.9,
      "reference": "ChIJe2sa6K5QwokRuJHE4N8xlGg",
      "scope": "GOOGLE",
      "types": [
        "meal_takeaway",
        "bar",
        "restaurant",
        "point_of_interest",
        "food",
        "establishment"
      ],
      "user_ratings_total": 755,
      "vicinity": "253 Washington Street, Jersey City"
    },
    {
      "business_status": "OPERATIONAL",
      "geometry": {
        "location": {
          "lat": 40.7160849,
          "lng": -74.0349825
        },
        "viewport": {
          "northeast": {
            "lat": 40.7176326302915,
            "lng": -74.0335922197085
          },
          "southwest": {
            "lat": 40.71493466970851,
            "lng": -74.03629018029152
          }
        }
      },
      "icon": "https://maps.gstatic.com/mapfiles/place_api/icons/v1/png_71/generic_business-71.png",
      "icon_background_color": "#7B9EB0",
      "icon_mask_base_uri": "https://maps.gstatic.com/mapfiles/place_api/icons/v2/generic_pinlet",
      "name": "Aspen Insurance",
      "place_id": "ChIJe5LOIqlQwokRtY5I1NZn00s",
      "plus_code": {
        "compound_code": "PX88+C2 Jersey City, NJ, USA",
        "global_code": "87G7PX88+C2"
      },
      "rating": 2,
      "reference": "ChIJe5LOIqlQwokRtY5I1NZn00s",
      "scope": "GOOGLE",
      "types": [
        "insurance_agency",
        "point_of_interest",
        "establishment"
      ],
      "user_ratings_total": 2,
      "vicinity": "101 Hudson Street, Jersey City"
    },
    {
      "business_status": "OPERATIONAL",
      "geometry": {
        "location": {
          "lat": 40.716921,
          "lng": -74.0352882
        },
        "viewport": {
          "northeast": {
            "lat": 40.71812073029151,
            "lng": -74.03396571970849
          },
          "southwest": {
            "lat": 40.71542276970851,
            "lng": -74.0366636802915
          }
        }
      },
      "icon": "https://maps.gstatic.com/mapfiles/place_api/icons/v1/png_71/civic_building-71.png",
      "icon_background_color": "#7B9EB0",
      "icon_mask_base_uri": "https://maps.gstatic.com/mapfiles/place_api/icons/v2/civic-bldg_pinlet",
      "name": "Jersey City Zoning Officer",
      "opening_hours": {
        "open_now": false
      },
      "place_id": "ChIJPV5SNKlQwokRqO1iqDw4pb4",
      "plus_code": {
        "compound_code": "PX87+QV Jersey City, NJ, USA",
        "global_code": "87G7PX87+QV"
      },
      "reference": "ChIJPV5SNKlQwokRqO1iqDw4pb4",
      "scope": "GOOGLE",
      "types": [
        "local_government_office",
        "point_of_interest",
        "establishment"
      ],
      "vicinity": "30 Montgomery Street, Jersey City"
    },
    {
      "business_status": "CLOSED_TEMPORARILY",
      "geometry": {
        "location": {
          "lat": 40.7196383,
          "lng": -74.03328669999999
        },
        "viewport": {
          "northeast": {
            "lat": 40.7211930302915,
            "lng": -74.03189076970848
          },
          "southwest": {
            "lat": 40.7184950697085,
            "lng": -74.0345887302915
          }
        }
      },
      "icon": "https://maps.gstatic.com/mapfiles/place_api/icons/v1/png_71/generic_business-71.png",
      "icon_background_color": "#7B9EB0",
      "icon_mask_base_uri": "https://maps.gstatic.com/mapfiles/place_api/icons/v2/generic_pinlet",
      "name": "GL Associates",
      "permanently_closed": true,
      "place_id": "ChIJQVDaUqpQwokRdP13pjfAADg",
      "plus_code": {
        "compound_code": "PX98+VM Jersey City, NJ, USA",
        "global_code": "87G7PX98+VM"
      },
      "rating": 5,
      "reference": "ChIJQVDaUqpQwokRdP13pjfAADg",
      "scope": "GOOGLE",
      "types": [
        "point_of_interest",
        "establishment"
      ],
      "user_ratings_total": 2,
      "vicinity": "1000 Plaza, Jersey City"
    },
    {
      "business_status": "OPERATIONAL",
      "geometry": {
        "location": {
          "lat": 40.7207484,
          "lng": -74.0321237
        },
        "viewport": {
          "northeast": {
            "lat": 40.7223219802915,
            "lng": -74.0305845697085
          },
          "southwest": {
            "lat": 40.7196240197085,
            "lng": -74.0332825302915
          }
        }
      },
      "icon": "https://maps.gstatic.com/mapfiles/place_api/icons/v1/png_71/generic_business-71.png",
      "icon_background_color": "#7B9EB0",
      "icon_mask_base_uri": "https://maps.gstatic.com/mapfiles/place_api/icons/v2/generic_pinlet",
      "name": "Perr & Knight",
      "place_id": "ChIJ3R3qFatQwokRu3NB5f2ax3A",
      "plus_code": {
        "compound_code": "PXC9+75 Jersey City, NJ, USA",
        "global_code": "87G7PXC9+75"
      },
      "rating": 5,
      "reference": "ChIJ3R3qFatQwokRu3NB5f2ax3A",
      "scope": "GOOGLE",
      "types": [
        "point_of_interest",
        "establishment"
      ],
      "user_ratings_total": 1,
      "vicinity": "3 2nd Street #1202, Jersey City"
    },
    {
      "business_status": "OPERATIONAL",
      "geometry": {
        "location": {
          "lat": 40.7131183,
          "lng": -74.0344112
        },
        "viewport": {
          "northeast": {
            "lat": 40.7142593802915,
            "lng": -74.03267516970848
          },
          "southwest": {
            "lat": 40.7115614197085,
            "lng": -74.0353731302915
          }
        }
      },
      "icon": "https://maps.gstatic.com/mapfiles/place_api/icons/v1/png_71/generic_business-71.png",
      "icon_background_color": "#7B9EB0",
      "icon_mask_base_uri": "https://maps.gstatic.com/mapfiles/place_api/icons/v2/generic_pinlet",
      "name": "Goldman Sachs",
      "opening_hours": {
        "open_now": false
      },
      "photos": [
        {
          "height": 3681,
          "html_attributions": [
            "<a href=\"https://maps.google.com/maps/contrib/116351892371472177979\">Omar Martinez</a>"
          ],
          "photo_reference": "AeJbb3dMitsLybveuSdXbYGPAH9dxi9AWpictMWD7pIkIeylMRlntiXckNXnChFA-RBFzzrgrKuNAHXmRxvtlQMzWSxYEafnjsjYRh5Ytuh1IV37T4GweSi8ngssCRmQTpAGwPnB3sJGWb0B-tgeNxm-poSz6fyEsaa75a0htf99nY9qLWZ-",
          "width": 2959
        }
      ],
      "place_id": "ChIJd95InqhQwokR4GyuOunrIxE",
      "plus_code": {
        "compound_code": "PX78+66 Jersey City, NJ, USA",
        "global_code": "87G7PX78+66"
      },
      "rating": 4.2,
      "reference": "ChIJd95InqhQwokR4GyuOunrIxE",
      "scope": "GOOGLE",
      "types": [
        "finance",
        "point_of_interest",
        "establishment"
      ],
      "user_ratings_total": 38,
      "vicinity": "30 Hudson Street, Jersey City"
    },
    {
      "business_status": "OPERATIONAL",
      "geometry": {
        "location": {
          "lat": 40.7147655,
          "lng": -74.0347802
        },
        "viewport": {
          "northeast": {
            "lat": 40.71609853029149,
            "lng": -74.0332934697085
          },
          "southwest": {
            "lat": 40.7134005697085,
            "lng": -74.0359914302915
          }
        }
      },
      "icon": "https://maps.gstatic.com/mapfiles/place_api/icons/v1/png_71/shopping-71.png",
      "icon_background_color": "#4B96F3",
      "icon_mask_base_uri": "https://maps.gstatic.com/mapfiles/place_api/icons/v2/shoppingcart_pinlet",
      "name": "Hudson Greene Market",
      "opening_hours": {
        "open_now": true
      },
      "photos": [
        {
          "height": 3120,
          "html_attributions": [
            "<a href=\"https://maps.google.com/maps/contrib/113505025511333529376\">Robert St.</a>"
          ],
          "photo_reference": "AeJbb3cz_8bFk5k-fwJogecn42YMLzflcCGK3VPLxByyOkFfsftxx22icGzJCH7d8FpmyTu0mFfs4NEAPUG7nviWX3QHiFpTJnfTM3oegeeJZut5vTB6WbjbLn5p8B2Gf1a3MLwfNzJdEbYmrAGJXm-YI13ZjnexxmZCz-iOHtwZrT4o5C0-",
          "width": 4160
        }
      ],
      "place_id": "ChIJXyL8yKhQwokRXoLtfy0ppY0",
      "plus_code": {
        "compound_code": "PX78+W3 Jersey City, NJ, USA",
        "global_code": "87G7PX78+W3"
      },
      "rating": 4.3,
      "reference": "ChIJXyL8yKhQwokRXoLtfy0ppY0",
      "scope": "GOOGLE",
      "types": [
        "supermarket",
        "cafe",
        "meal_takeaway",
        "grocery_or_supermarket",
        "health",
        "restaurant",
        "point_of_interest",
        "food",
        "store",
        "establishment"
      ],
      "user_ratings_total": 529,
      "vicinity": "77 Hudson Street, Jersey City"
    },
    {
      "business_status": "OPERATIONAL",
      "geometry": {
        "location": {
          "lat": 40.716921,
          "lng": -74.0352882
        },
        "viewport": {
          "northeast": {
            "lat": 40.71812073029151,
            "lng": -74.03396571970849
          },
          "southwest": {
            "lat": 40.71542276970851,
            "lng": -74.0366636802915
          }
        }
      },
      "icon": "https://maps.gstatic.com/mapfiles/place_api/icons/v1/png_71/civic_building-71.png",
      "icon_background_color": "#7B9EB0",
      "icon_mask_base_uri": "https://maps.gstatic.com/mapfiles/place_api/icons/v2/civic-bldg_pinlet",
      "name": "Destination Jersey City",
      "place_id": "ChIJPV5SNKlQwokRBH458iuIhso",
      "plus_code": {
        "compound_code": "PX87+QV Jersey City, NJ, USA",
        "global_code": "87G7PX87+QV"
      },
      "reference": "ChIJPV5SNKlQwokRBH458iuIhso",
      "scope": "GOOGLE",
      "types": [
        "courthouse",
        "point_of_interest",
        "establishment"
      ],
      "vicinity": "30 Montgomery Street # 820, Jersey City"
    },
    {
      "business_status": "CLOSED_TEMPORARILY",
      "geometry": {
        "location": {
          "lat": 40.7161534,
          "lng": -74.0346725
        },
        "viewport": {
          "northeast": {
            "lat": 40.7176481802915,
            "lng": -74.0332535697085
          },
          "southwest": {
            "lat": 40.7149502197085,
            "lng": -74.03595153029151
          }
        }
      },
      "icon": "https://maps.gstatic.com/mapfiles/place_api/icons/v1/png_71/generic_business-71.png",
      "icon_background_color": "#7B9EB0",
      "icon_mask_base_uri": "https://maps.gstatic.com/mapfiles/place_api/icons/v2/generic_pinlet",
      "name": "Melito & Adolfsen",
      "permanently_closed": true,
      "place_id": "ChIJkXMBI6lQwokR8WMglMMfLyA",
      "plus_code": {
        "compound_code": "PX88+F4 Jersey City, NJ, USA",
        "global_code": "87G7PX88+F4"
      },
      "reference": "ChIJkXMBI6lQwokR8WMglMMfLyA",
      "scope": "GOOGLE",
      "types": [
        "lawyer",
        "point_of_interest",
        "establishment"
      ],
      "vicinity": "101 Hudson Street, Jersey City"
    },
    {
      "business_status": "OPERATIONAL",
      "geometry": {
        "location": {
          "lat": 40.7160849,
          "lng": -74.0349825
        },
        "viewport": {
          "northeast": {
            "lat": 40.7176326302915,
            "lng": -74.0335922197085
          },
          "southwest": {
            "lat": 40.71493466970851,
            "lng": -74.03629018029152
          }
        }
      },
      "icon": "https://maps.gstatic.com/mapfiles/place_api/icons/v1/png_71/generic_business-71.png",
      "icon_background_color": "#7B9EB0",
      "icon_mask_base_uri": "https://maps.gstatic.com/mapfiles/place_api/icons/v2/generic_pinlet",
      "name": "National Stock Exchange",
      "place_id": "ChIJe5LOIqlQwokRq42dia1iFSk",
      "plus_code": {
        "compound_code": "PX88+C2 Jersey City, NJ, USA",
        "global_code": "87G7PX88+C2"
      },
      "rating": 5,
      "reference": "ChIJe5LOIqlQwokRq42dia1iFSk",
      "scope": "GOOGLE",
      "types": [
        "insurance_agency",
        "finance",
        "point_of_interest",
        "establishment"
      ],
      "user_ratings_total": 1,
      "vicinity": "101 Hudson Street, Jersey City"
    },
    {
      "business_status": "OPERATIONAL",
      "geometry": {
        "location": {
          "lat": 40.7164127,
          "lng": -74.0359631
        },
        "viewport": {
          "northeast": {
            "lat": 40.7177459302915,
            "lng": -74.0345097697085
          },
          "southwest": {
            "lat": 40.7150479697085,
            "lng": -74.03720773029151
          }
        }
      },
      "icon": "https://maps.gstatic.com/mapfiles/place_api/icons/v1/png_71/parking-71.png",
      "icon_background_color": "#7B9EB0",
      "icon_mask_base_uri": "https://maps.gstatic.com/mapfiles/place_api/icons/v2/parking_pinlet",
      "name": "LAZ Parking - 105 Greene St",
      "opening_hours": {
        "open_now": true
      },
      "place_id": "ChIJaREhza5QwokR23jcsjFpasU",
      "plus_code": {
        "compound_code": "PX87+HJ Jersey City, NJ, USA",
        "global_code": "87G7PX87+HJ"
      },
      "rating": 2,
      "reference": "ChIJaREhza5QwokR23jcsjFpasU",
      "scope": "GOOGLE",
      "types": [
        "parking",
        "point_of_interest",
        "establishment"
      ],
      "user_ratings_total": 6,
      "vicinity": "105 Greene Street, Jersey City"
    },
    {
      "business_status": "OPERATIONAL",
      "geometry": {
        "location": {
          "lat": 40.71835979999999,
          "lng": -74.0345032
        },
        "viewport": {
          "northeast": {
            "lat": 40.7196947802915,
            "lng": -74.0330869197085
          },
          "southwest": {
            "lat": 40.7169968197085,
            "lng": -74.0357848802915
          }
        }
      },
      "icon": "https://maps.gstatic.com/mapfiles/place_api/icons/v1/png_71/restaurant-71.png",
      "icon_background_color": "#FF9E67",
      "icon_mask_base_uri": "https://maps.gstatic.com/mapfiles/place_api/icons/v2/restaurant_pinlet",
      "name": "Porto Leggero",
      "opening_hours": {
        "open_now": false
      },
      "photos": [
        {
          "height": 562,
          "html_attributions": [
            "<a href=\"https://maps.google.com/maps/contrib/112247524092692471361\">Latoya Hunter</a>"
          ],
          "photo_reference": "AeJbb3cMNV6UaULH3G4fnvsWP3GKHjDlNBwho5fckOQxk6A3_du4gX2S8IwgSmP_fSGxUBjVNQ6hW5MXv56r_CIJmqkLC9yk7qNirOSw5ecGTN4da9aAvxPgHmXbmP2xYvW3ZRxrtbijG_9a5xwZrNj77A7q1KJsedtq7WQ2DEA_eP-kT1Yl",
          "width": 703
        }
      ],
      "place_id": "ChIJd2od6q5QwokRcWX43MPwpAc",
      "plus_code": {
        "compound_code": "PX98+85 Jersey City, NJ, USA",
        "global_code": "87G7PX98+85"
      },
      "price_level": 3,
      "rating": 4.4,
      "reference": "ChIJd2od6q5QwokRcWX43MPwpAc",
      "scope": "GOOGLE",
      "types": [
        "restaurant",
        "point_of_interest",
        "food",
        "establishment"
      ],
      "user_ratings_total": 630,
      "vicinity": "185 Hudson Street, Jersey City"
    },
    {
      "business_status": "CLOSED_TEMPORARILY",
      "geometry": {
        "location": {
          "lat": 40.7160849,
          "lng": -74.0349825
        },
        "viewport": {
          "northeast": {
            "lat": 40.7176326302915,
            "lng": -74.0335922197085
          },
          "southwest": {
            "lat": 40.71493466970851,
            "lng": -74.03629018029152
          }
        }
      },
      "icon": "https://maps.gstatic.com/mapfiles/place_api/icons/v1/png_71/generic_business-71.png",
      "icon_background_color": "#7B9EB0",
      "icon_mask_base_uri": "https://maps.gstatic.com/mapfiles/place_api/icons/v2/generic_pinlet",
      "name": "Frenkel & Co Inc: Lauria Stephen",
      "permanently_closed": true,
      "place_id": "ChIJe5LOIqlQwokR3LZYo5TBO6k",
      "plus_code": {
        "compound_code": "PX88+C2 Jersey City, NJ, USA",
        "global_code": "87G7PX88+C2"
      },
      "reference": "ChIJe5LOIqlQwokR3LZYo5TBO6k",
      "scope": "GOOGLE",
      "types": [
        "insurance_agency",
        "point_of_interest",
        "establishment"
      ],
      "vicinity": "101 Hudson Street # 38, Jersey City"
    },
    {
      "business_status": "OPERATIONAL",
      "geometry": {
        "location": {
          "lat": 40.7188737,
          "lng": -74.03477029999999
        },
        "viewport": {
          "northeast": {
            "lat": 40.7201951302915,
            "lng": -74.03317336970849
          },
          "southwest": {
            "lat": 40.7174971697085,
            "lng": -74.0358713302915
          }
        }
      },
      "icon": "https://maps.gstatic.com/mapfiles/place_api/icons/v1/png_71/generic_business-71.png",
      "icon_background_color": "#7B9EB0",
      "icon_mask_base_uri": "https://maps.gstatic.com/mapfiles/place_api/icons/v2/generic_pinlet",
      "name": "Tradeweb Markets",
      "photos": [
        {
          "height": 4096,
          "html_attributions": [
            "<a href=\"https://maps.google.com/maps/contrib/108934424477153306660\">Avijit Dey</a>"
          ],
          "photo_reference": "AeJbb3dLgyJjQKDZiXW_TtdXEvI5YggiURJyaKd_wqk6fJfld-u9u76NN53McvNo12PGwTEiZ60oV6IaxWIXCxG1RGCYT-juxw5S2894e9ZmOzAgaXVQ4VDo2mJgsLaA7wSZYrwcWDXIzT7rJK0BjtBmaCdw2mq_uBFJNWeeXLTCoJmyjQn3",
          "width": 3072
        }
      ],
      "place_id": "ChIJfZ81d-1XwokRIOtQM0fxOMI",
      "plus_code": {
        "compound_code": "PX98+G3 Jersey City, NJ, USA",
        "global_code": "87G7PX98+G3"
      },
      "rating": 5,
      "reference": "ChIJfZ81d-1XwokRIOtQM0fxOMI",
      "scope": "GOOGLE",
      "types": [
        "finance",
        "point_of_interest",
        "establishment"
      ],
      "user_ratings_total": 3,
      "vicinity": "Plaza 5, 185 Hudson Street #2200, Jersey City"
    },
    {
      "business_status": "CLOSED_TEMPORARILY",
      "geometry": {
        "location": {
          "lat": 40.7166653,
          "lng": -74.0333272
        },
        "viewport": {
          "northeast": {
            "lat": 40.7181764802915,
            "lng": -74.03199646970849
          },
          "southwest": {
            "lat": 40.7154785197085,
            "lng": -74.03469443029151
          }
        }
      },
      "icon": "https://maps.gstatic.com/mapfiles/place_api/icons/v1/png_71/shopping-71.png",
      "icon_background_color": "#4B96F3",
      "icon_mask_base_uri": "https://maps.gstatic.com/mapfiles/place_api/icons/v2/shopping_pinlet",
      "name": "Sun Gard",
      "permanently_closed": true,
      "place_id": "ChIJzck2nqlQwokRLXSyBlec6Yw",
      "plus_code": {
        "compound_code": "PX88+MM Jersey City, NJ, USA",
        "global_code": "87G7PX88+MM"
      },
      "reference": "ChIJzck2nqlQwokRLXSyBlec6Yw",
      "scope": "GOOGLE",
      "types": [
        "electronics_store",
        "store",
        "point_of_interest",
        "establishment"
      ],
      "vicinity": "10 Exchange Place, Jersey City"
    },
    {
      "business_status": "OPERATIONAL",
      "geometry": {
        "location": {
          "lat": 40.7160261,
          "lng": -74.0360273
        },
        "viewport": {
          "northeast": {
            "lat": 40.7173482802915,
            "lng": -74.03457761970849
          },
          "southwest": {
            "lat": 40.7146503197085,
            "lng": -74.0372755802915
          }
        }
      },
      "icon": "https://maps.gstatic.com/mapfiles/place_api/icons/v1/png_71/bar-71.png",
      "icon_background_color": "#FF9E67",
      "icon_mask_base_uri": "https://maps.gstatic.com/mapfiles/place_api/icons/v2/bar_pinlet",
      "name": "Iron Monkey",
      "opening_hours": {
        "open_now": true
      },
      "photos": [
        {
          "height": 1503,
          "html_attributions": [
            "<a href=\"https://maps.google.com/maps/contrib/116283050976035801017\">Iron Monkey</a>"
          ],
          "photo_reference": "AeJbb3cP6Jt1ETuTP45-N7Xz7l-9rXtjI7nKllew4YDEToyPnIpKazpPGqYL9M7jXigZubfSvpl5t-eAkQOOVAk1uadDc9fiF_WoCUfzbxl3zMCR9uWrU4kSysYnBvp2aR4XrH8Mnm217xzh8MvZJxP-BdOFWWn79lrtGCOn841-KpRU0z0x",
          "width": 2200
        }
      ],
      "place_id": "ChIJh2Fj065QwokRUBps8YL3B6E",
      "plus_code": {
        "compound_code": "PX87+CH Jersey City, NJ, USA",
        "global_code": "87G7PX87+CH"
      },
      "price_level": 2,
      "rating": 3.8,
      "reference": "ChIJh2Fj065QwokRUBps8YL3B6E",
      "scope": "GOOGLE",
      "types": [
        "bar",
        "restaurant",
        "point_of_interest",
        "food",
        "establishment"
      ],
      "user_ratings_total": 962,
      "vicinity": "99 Greene Street, Jersey City"
    },
    {
      "business_status": "OPERATIONAL",
      "geometry": {
        "location": {
          "lat": 40.71844059999999,
          "lng": -74.03395669999999
        },
        "viewport": {
          "northeast": {
            "lat": 40.71984018029149,
            "lng": -74.03265856970849
          },
          "southwest": {
            "lat": 40.71714221970849,
            "lng": -74.0353565302915
          }
        }
      },
      "icon": "https://maps.gstatic.com/mapfiles/place_api/icons/v1/png_71/bank-71.png",
      "icon_background_color": "#909CE1",
      "icon_mask_base_uri": "https://maps.gstatic.com/mapfiles/place_api/icons/v2/bank-intl_pinlet",
      "name": "Bank of America Financial Center",
      "opening_hours": {
        "open_now": false
      },
      "photos": [
        {
          "height": 980,
          "html_attributions": [
            "<a href=\"https://maps.google.com/maps/contrib/105287211477300548336\">Bank of America Financial Center</a>"
          ],
          "photo_reference": "AeJbb3dkX32gjZY6t81F8lP2JXP1OOY0LIrjGqVJb-IAoeKKiAb3LQD6untFYIuSEYiEIQePrVFN86nT7RNTacL9fiUUpS_arvcqCZENokd5866FZfn4leNdveDUu2e1aQAYs9hdVaQgScmx1nwqNEDaSg2X9-h96d9vP12KhhQg616gcB4F",
          "width": 1802
        }
      ],
      "place_id": "ChIJ_6P0VapQwokRu4_Shn3KDEk",
      "plus_code": {
        "compound_code": "PX98+9C Jersey City, NJ, USA",
        "global_code": "87G7PX98+9C"
      },
      "rating": 3.5,
      "reference": "ChIJ_6P0VapQwokRu4_Shn3KDEk",
      "scope": "GOOGLE",
      "types": [
        "bank",
        "finance",
        "point_of_interest",
        "establishment"
      ],
      "user_ratings_total": 22,
      "vicinity": "200 Hudson Street STE 162, Jersey City"
    },
    {
      "business_status": "CLOSED_TEMPORARILY",
      "geometry": {
        "location": {
          "lat": 40.7186662,
          "lng": -74.03487779999999
        },
        "viewport": {
          "northeast": {
            "lat": 40.71989198029149,
            "lng": -74.03376451970848
          },
          "southwest": {
            "lat": 40.71719401970849,
            "lng": -74.03646248029149
          }
        }
      },
      "icon": "https://maps.gstatic.com/mapfiles/place_api/icons/v1/png_71/generic_business-71.png",
      "icon_background_color": "#7B9EB0",
      "icon_mask_base_uri": "https://maps.gstatic.com/mapfiles/place_api/icons/v2/generic_pinlet",
      "name": "TRIDELITY Display Solutions LLC",
      "permanently_closed": true,
      "place_id": "ChIJ9REFrExXwokRv_NLmUuSeWM",
      "plus_code": {
        "compound_code": "PX98+F2 Jersey City, NJ, USA",
        "global_code": "87G7PX98+F2"
      },
      "reference": "ChIJ9REFrExXwokRv_NLmUuSeWM",
      "scope": "GOOGLE",
      "types": [
        "point_of_interest",
        "establishment"
      ],
      "vicinity": "Plaza 5, 2500 Plaza 5, 25th Floor, Jersey City"
    },
    {
      "business_status": "CLOSED_TEMPORARILY",
      "geometry": {
        "location": {
          "lat": 40.7160935,
          "lng": -74.0349837
        },
        "viewport": {
          "northeast": {
            "lat": 40.7176370802915,
            "lng": -74.03359426970849
          },
          "southwest": {
            "lat": 40.7149391197085,
            "lng": -74.03629223029151
          }
        }
      },
      "icon": "https://maps.gstatic.com/mapfiles/place_api/icons/v1/png_71/generic_business-71.png",
      "icon_background_color": "#7B9EB0",
      "icon_mask_base_uri": "https://maps.gstatic.com/mapfiles/place_api/icons/v2/generic_pinlet",
      "name": "Frenkel & Co Inc Tager Liya",
      "permanently_closed": true,
      "place_id": "ChIJe5LOIqlQwokRqo-cPQfA7z8",
      "plus_code": {
        "compound_code": "PX88+C2 Jersey City, NJ, USA",
        "global_code": "87G7PX88+C2"
      },
      "reference": "ChIJe5LOIqlQwokRqo-cPQfA7z8",
      "scope": "GOOGLE",
      "types": [
        "point_of_interest",
        "establishment"
      ],
      "vicinity": "101 Hudson Street, Jersey City"
    },
    {
      "business_status": "CLOSED_TEMPORARILY",
      "geometry": {
        "location": {
          "lat": 40.72085739999999,
          "lng": -74.0319677
        },
        "viewport": {
          "northeast": {
            "lat": 40.72237408029149,
            "lng": -74.0305611697085
          },
          "southwest": {
            "lat": 40.7196761197085,
            "lng": -74.03325913029151
          }
        }
      },
      "icon": "https://maps.gstatic.com/mapfiles/place_api/icons/v1/png_71/generic_business-71.png",
      "icon_background_color": "#7B9EB0",
      "icon_mask_base_uri": "https://maps.gstatic.com/mapfiles/place_api/icons/v2/generic_pinlet",
      "name": "Margulies Alan C CPA",
      "permanently_closed": true,
      "place_id": "ChIJlekyd-1XwokRtCd1-H3hovI",
      "plus_code": {
        "compound_code": "PXC9+86 Jersey City, NJ, USA",
        "global_code": "87G7PXC9+86"
      },
      "reference": "ChIJlekyd-1XwokRtCd1-H3hovI",
      "scope": "GOOGLE",
      "types": [
        "lawyer",
        "point_of_interest",
        "establishment"
      ],
      "vicinity": "3 2nd Street, Jersey City"
    },
    {
      "business_status": "OPERATIONAL",
      "geometry": {
        "location": {
          "lat": 40.7189459,
          "lng": -74.0345809
        },
        "viewport": {
          "northeast": {
            "lat": 40.7202830802915,
            "lng": -74.03306986970848
          },
          "southwest": {
            "lat": 40.7175851197085,
            "lng": -74.0357678302915
          }
        }
      },
      "icon": "https://maps.gstatic.com/mapfiles/place_api/icons/v1/png_71/school-71.png",
      "icon_background_color": "#7B9EB0",
      "icon_mask_base_uri": "https://maps.gstatic.com/mapfiles/place_api/icons/v2/school_pinlet",
      "name": "Forest Research Institute Inc",
      "place_id": "ChIJfZ81d-1XwokRzmC6aBJLHwE",
      "plus_code": {
        "compound_code": "PX98+H5 Jersey City, NJ, USA",
        "global_code": "87G7PX98+H5"
      },
      "rating": 5,
      "reference": "ChIJfZ81d-1XwokRzmC6aBJLHwE",
      "scope": "GOOGLE",
      "types": [
        "point_of_interest",
        "establishment"
      ],
      "user_ratings_total": 2,
      "vicinity": "Plaza 5, 1900 Plaza Five, Jersey City"
    },
    {
      "business_status": "OPERATIONAL",
      "geometry": {
        "location": {
          "lat": 40.7208502,
          "lng": -74.03191
        },
        "viewport": {
          "northeast": {
            "lat": 40.7223704802915,
            "lng": -74.03053231970848
          },
          "southwest": {
            "lat": 40.7196725197085,
            "lng": -74.03323028029149
          }
        }
      },
      "icon": "https://maps.gstatic.com/mapfiles/place_api/icons/v1/png_71/generic_business-71.png",
      "icon_background_color": "#7B9EB0",
      "icon_mask_base_uri": "https://maps.gstatic.com/mapfiles/place_api/icons/v2/generic_pinlet",
      "name": "Humana Inc",
      "opening_hours": {
        "open_now": true
      },
      "photos": [
        {
          "height": 3024,
          "html_attributions": [
            "<a href=\"https://maps.google.com/maps/contrib/108280803033766451596\">Urvashi Jain</a>"
          ],
          "photo_reference": "AeJbb3c1mGtBPZPJJefdCpD0Sqeu2nNh5p0SeSlpHjGEHJELtxADv4Sl81IxSsApAwiwsx9egXSxNnpTXpLowR0aGKc3bvWUTq0XToVN48dKPsDYmqN8ouD2nhXhRdLxXaNBp4X0UbhV53WLbJjLjS4av6rNL8mpZ8JRNnb-iGNL-LK6yEHg",
          "width": 4032
        }
      ],
      "place_id": "ChIJ2wOuwqpQwokRc0pHG7qSi5w",
      "plus_code": {
        "compound_code": "PXC9+86 Jersey City, NJ, USA",
        "global_code": "87G7PXC9+86"
      },
      "rating": 3,
      "reference": "ChIJ2wOuwqpQwokRc0pHG7qSi5w",
      "scope": "GOOGLE",
      "types": [
        "insurance_agency",
        "point_of_interest",
        "establishment"
      ],
      "user_ratings_total": 4,
      "vicinity": "3 2nd Street, Jersey City"
    },
    {
      "business_status": "OPERATIONAL",
      "geometry": {
        "location": {
          "lat": 40.7161158,
          "lng": -74.0349177
        },
        "viewport": {
          "northeast": {
            "lat": 40.71764468029149,
            "lng": -74.0335426697085
          },
          "southwest": {
            "lat": 40.7149467197085,
            "lng": -74.0362406302915
          }
        }
      },
      "icon": "https://maps.gstatic.com/mapfiles/place_api/icons/v1/png_71/generic_business-71.png",
      "icon_background_color": "#7B9EB0",
      "icon_mask_base_uri": "https://maps.gstatic.com/mapfiles/place_api/icons/v2/generic_pinlet",
      "name": "The LiRo Group",
      "opening_hours": {
        "open_now": false
      },
      "photos": [
        {
          "height": 600,
          "html_attributions": [
            "<a href=\"https://maps.google.com/maps/contrib/113981006727496666247\">The LiRo Group</a>"
          ],
          "photo_reference": "AeJbb3dgvu3FWzg7OQuts6HtQRfO1Bgz7g-pUIzcosyo8Oe4C4OCshWi8dTOPp5JnzjVEpSGV6joEfUE0SX5nH2iG_-hAqzqAUEwyR24qGu0OuwuA_sktaaUNBWdVFY7L7X0SO_rUQbK2mkLwFjiMq6ICS5O8kIAPK_YU5tb2NxNrGkAZqv0",
          "width": 1440
        }
      ],
      "place_id": "ChIJkXMBI6lQwokRII5DZg8bAwU",
      "plus_code": {
        "compound_code": "PX88+C2 Jersey City, NJ, USA",
        "global_code": "87G7PX88+C2"
      },
      "reference": "ChIJkXMBI6lQwokRII5DZg8bAwU",
      "scope": "GOOGLE",
      "types": [
        "general_contractor",
        "point_of_interest",
        "establishment"
      ],
      "vicinity": "101 Hudson Street 21st floor, Jersey City"
    },
    {
      "business_status": "OPERATIONAL",
      "geometry": {
        "location": {
          "lat": 40.71867280000001,
          "lng": -74.0348837
        },
        "viewport": {
          "northeast": {
            "lat": 40.7198948802915,
            "lng": -74.03376691970848
          },
          "southwest": {
            "lat": 40.7171969197085,
            "lng": -74.03646488029149
          }
        }
      },
      "icon": "https://maps.gstatic.com/mapfiles/place_api/icons/v1/png_71/generic_business-71.png",
      "icon_background_color": "#7B9EB0",
      "icon_mask_base_uri": "https://maps.gstatic.com/mapfiles/place_api/icons/v2/generic_pinlet",
      "name": "Regus - New Jersey, Jersey City - Harborside Financial",
      "opening_hours": {
        "open_now": true
      },
      "photos": [
        {
          "height": 270,
          "html_attributions": [
            "<a href=\"https://maps.google.com/maps/contrib/109667822641860268067\">Regus - New Jersey, Jersey City - Harborside Financial</a>"
          ],
          "photo_reference": "AeJbb3d0jLSzkbsxeKLzM5AHbntFUwY5Xa3HEcAYyMVVxQPzLrWjuSmOC8Uc0dQd1QbhDpVYG_HThV4Bbi1VR_15cIHWGoH5773QzdnxvRZysr5TQoooinjMr3acriCyEkFrBM33jc7O8suXt_RQlVQS-8D5C7cV_EY2FSjUQ8XhwFEpuYb8",
          "width": 480
        }
      ],
      "place_id": "ChIJfZ81d-1XwokRBJ59hjSZqRA",
      "plus_code": {
        "compound_code": "PX98+F2 Jersey City, NJ, USA",
        "global_code": "87G7PX98+F2"
      },
      "rating": 2.8,
      "reference": "ChIJfZ81d-1XwokRBJ59hjSZqRA",
      "scope": "GOOGLE",
      "types": [
        "real_estate_agency",
        "point_of_interest",
        "establishment"
      ],
      "user_ratings_total": 16,
      "vicinity": "2500 Plaza 5 The Waterfront, 25th floor, Jersey City"
    },
    {
      "business_status": "OPERATIONAL",
      "geometry": {
        "location": {
          "lat": 40.71612029999999,
          "lng": -74.03384179999999
        },
        "viewport": {
          "northeast": {
            "lat": 40.71748428029149,
            "lng": -74.03237056970849
          },
          "southwest": {
            "lat": 40.71478631970849,
            "lng": -74.03506853029151
          }
        }
      },
      "icon": "https://maps.gstatic.com/mapfiles/place_api/icons/v1/png_71/generic_business-71.png",
      "icon_background_color": "#7B9EB0",
      "icon_mask_base_uri": "https://maps.gstatic.com/mapfiles/place_api/icons/v2/generic_pinlet",
      "name": "Provident Financial Group",
      "opening_hours": {
        "open_now": true
      },
      "photos": [
        {
          "height": 265,
          "html_attributions": [
            "<a href=\"https://maps.google.com/maps/contrib/109696510538001669429\">Provident Financial Group</a>"
          ],
          "photo_reference": "AeJbb3dZZHbPDD6Z-NXsC4SeR7dp0HBS2oHdT0yjWjsEQTlUjVo_EsbwETxlay8WxHBiGfmfm5TVM2PnN_WYpHtHDf3cViG8T1RagvbKXmIoApDKvQIPYzXPwmXWKFAjQSfplcC07pVy_YUQGQs5JypBS8C-OJT9Fix1KtoJckVi6LFfLA0e",
          "width": 1398
        }
      ],
      "place_id": "ChIJoclDEqlQwokRmrupdEb7to4",
      "plus_code": {
        "compound_code": "PX88+CF Jersey City, NJ, USA",
        "global_code": "87G7PX88+CF"
      },
      "reference": "ChIJoclDEqlQwokRmrupdEb7to4",
      "scope": "GOOGLE",
      "types": [
        "finance",
        "point_of_interest",
        "establishment"
      ],
      "vicinity": "15 Exchange Place, Jersey City"
    },
    {
      "business_status": "OPERATIONAL",
      "geometry": {
        "location": {
          "lat": 40.7160849,
          "lng": -74.0349825
        },
        "viewport": {
          "northeast": {
            "lat": 40.7176326302915,
            "lng": -74.0335922197085
          },
          "southwest": {
            "lat": 40.71493466970851,
            "lng": -74.03629018029152
          }
        }
      },
      "icon": "https://maps.gstatic.com/mapfiles/place_api/icons/v1/png_71/worship_general-71.png",
      "icon_background_color": "#7B9EB0",
      "icon_mask_base_uri": "https://maps.gstatic.com/mapfiles/place_api/icons/v2/worship_christian_pinlet",
      "name": "CME LLC",
      "place_id": "ChIJkXMBI6lQwokRZ41F4dLn-xQ",
      "plus_code": {
        "compound_code": "PX88+C2 Jersey City, NJ, USA",
        "global_code": "87G7PX88+C2"
      },
      "reference": "ChIJkXMBI6lQwokRZ41F4dLn-xQ",
      "scope": "GOOGLE",
      "types": [
        "church",
        "place_of_worship",
        "point_of_interest",
        "establishment"
      ],
      "vicinity": "101 Hudson Street # 2100, Jersey City"
    },
    {
      "business_status": "OPERATIONAL",
      "geometry": {
        "location": {
          "lat": 40.7159419,
          "lng": -74.0339139
        },
        "viewport": {
          "northeast": {
            "lat": 40.7174003802915,
            "lng": -74.03242341970851
          },
          "southwest": {
            "lat": 40.7147024197085,
            "lng": -74.03512138029151
          }
        }
      },
      "icon": "https://maps.gstatic.com/mapfiles/place_api/icons/v1/png_71/generic_business-71.png",
      "icon_background_color": "#7B9EB0",
      "icon_mask_base_uri": "https://maps.gstatic.com/mapfiles/place_api/icons/v2/generic_pinlet",
      "name": "USAWorkersComp.com",
      "opening_hours": {
        "open_now": true
      },
      "photos": [
        {
          "height": 265,
          "html_attributions": [
            "<a href=\"https://maps.google.com/maps/contrib/100674688599808733077\">USAWorkersComp.com</a>"
          ],
          "photo_reference": "AeJbb3dHArq8I_pqkPp3SoY_WwpN8aPNUaXL1DsWjpjh_K571j0PgXNQuslLmj0hHIEu5EnVC7e0Huo-XDFt0WicJCal9NmRByV9OYuWpykV3FY7bkmPh4QSkv-FCXkTCLkVswPcgcEYN5h2lAoRFgb1uYbQWSwz-_ACyYM4818MgYJhpXIO",
          "width": 1398
        }
      ],
      "place_id": "ChIJoclDEqlQwokRBz04pgfAcy8",
      "plus_code": {
        "compound_code": "PX88+9C Jersey City, NJ, USA",
        "global_code": "87G7PX88+9C"
      },
      "reference": "ChIJoclDEqlQwokRBz04pgfAcy8",
      "scope": "GOOGLE",
      "types": [
        "insurance_agency",
        "point_of_interest",
        "establishment"
      ],
      "vicinity": "15 Exchange Place, Jersey City"
    },
    {
      "business_status": "OPERATIONAL",
      "geometry": {
        "location": {
          "lat": 40.7183468,
          "lng": -74.0380661
        },
        "viewport": {
          "northeast": {
            "lat": 40.71958833029151,
            "lng": -74.0366489197085
          },
          "southwest": {
            "lat": 40.71689036970851,
            "lng": -74.0393468802915
          }
        }
      },
      "icon": "https://maps.gstatic.com/mapfiles/place_api/icons/v1/png_71/generic_business-71.png",
      "icon_background_color": "#7B9EB0",
      "icon_mask_base_uri": "https://maps.gstatic.com/mapfiles/place_api/icons/v2/generic_pinlet",
      "name": "Evertrust Plaza",
      "photos": [
        {
          "height": 1836,
          "html_attributions": [
            "<a href=\"https://maps.google.com/maps/contrib/116698170550845376920\">Ming Tam</a>"
          ],
          "photo_reference": "AeJbb3cAnDsoql9_TGqHOASc5Y7FM1mpyEmcL0rwpOR1HlRrwJPjhH_cXH9Kvzvhxu-uIRw_ycoUtRvIvDIfJj9BMMMn_ZIcTwAzqZBIAuO43rfqAZPJ2QisXIsmJo-UvJaOruRyUSUZFg3LueLJ7c32f28mJ8E6H7xsr12Sb6UHwZY20log",
          "width": 3264
        }
      ],
      "place_id": "ChIJf0YSma5QwokR_i6DB5CXknY",
      "plus_code": {
        "compound_code": "PX96+8Q Jersey City, NJ, USA",
        "global_code": "87G7PX96+8Q"
      },
      "rating": 4.3,
      "reference": "ChIJf0YSma5QwokR_i6DB5CXknY",
      "scope": "GOOGLE",
      "types": [
        "finance",
        "point_of_interest",
        "establishment"
      ],
      "user_ratings_total": 12,
      "vicinity": "1 Evertrust Plz, Jersey City"
    },
    {
      "business_status": "OPERATIONAL",
      "geometry": {
        "location": {
          "lat": 40.7189857,
          "lng": -74.034424
        },
        "viewport": {
          "northeast": {
            "lat": 40.7203136302915,
            "lng": -74.0329881197085
          },
          "southwest": {
            "lat": 40.71761566970851,
            "lng": -74.03568608029151
          }
        }
      },
      "icon": "https://maps.gstatic.com/mapfiles/place_api/icons/v1/png_71/generic_business-71.png",
      "icon_background_color": "#7B9EB0",
      "icon_mask_base_uri": "https://maps.gstatic.com/mapfiles/place_api/icons/v2/generic_pinlet",
      "name": "MOJO Organics, Inc.",
      "opening_hours": {
        "open_now": true
      },
      "place_id": "ChIJkXMBI6lQwokRQAelic6se6A",
      "plus_code": {
        "compound_code": "PX98+H6 Jersey City, NJ, USA",
        "global_code": "87G7PX98+H6"
      },
      "rating": 4,
      "reference": "ChIJkXMBI6lQwokRQAelic6se6A",
      "scope": "GOOGLE",
      "types": [
        "point_of_interest",
        "establishment"
      ],
      "user_ratings_total": 6,
      "vicinity": "185 Hudson Street, Jersey City"
    }
  ],
  "status": "OK"
}