{
  "html_attributions": [],
  "results": [
    {
      "geometry": {
        "location": {
          "lat": 40.7127753,
          "lng": -74.0059728
        },
        "viewport": {
          "northeast": {
            "lat": 40.91757705070789,
            "lng": -73.70027206817629
          },
          "southwest": {
            "lat": 40.47739906045452,
            "lng": -74.25908991427882
          }
        }
      },
      "icon": "https://maps.gstatic.com/mapfiles/place_api/icons/v1/png_71/geocode-71.png",
      "icon_background_color": "#7B9EB0",
      "icon_mask_base_uri": "https://maps.gstatic.com/mapfiles/place_api/icons/v2/generic_pinlet",
      "name": "\u7d10\u7d04",
      "photos": [
        {
          "height": 600,
          "html_attributions": [
            "<a href=\"https://maps.google.com/maps/contrib/102389334567210814614\">Bukurie</a>"
          ],
          "photo_reference": "AeJbb3dcfOfNgYZ1ocNHQNvi6Y1tMYsm2E5UxS0u8IyIK1enzDIUbwTKoqPSUfP4U1SjE6QC8AyKu12xnTKSXkrjBE77-mCSKn6P7xbKkE2v_tsgSToj2xwnLhFVxH1GNRJQiKrFKArIHwti3QKTnjJSRtVN5TjUNemlYZRlJUGdeBIASXNM",
          "width": 480
        }
      ],
      "place_id": "ChIJOwg_06VPwokRYv534QaPC8g",
      "reference": "ChIJOwg_06VPwokRYv534QaPC8g",
      "scope": "GOOGLE",
      "types": [
        "locality",
        "political"
      ],
      "vicinity": "\u7d10\u7d04"
    },
    {
      "business_status": "OPERATIONAL",
      "geometry": {
        "location": {
          "lat": 40.67616699999999,
          "lng": -73.9032265
        },
        "viewport": {
          "northeast": {
            "lat": 40.6774270302915,
            "lng": -73.9018190197085
          },
          "southwest": {
            "lat": 40.6747290697085,
            "lng": -73.9045169802915
          }
        }
      },
      "icon": "https://maps.gstatic.com/mapfiles/place_api/icons/v1/png_71/lodging-71.png",
      "icon_background_color": "#909CE1",
      "icon_mask_base_uri": "https://maps.gstatic.com/mapfiles/place_api/icons/v2/hotel_pinlet",
      "name": "East New York Inn",
      "opening_hours": {
        "open_now": true
      },
      "photos": [
        {
          "height": 2250,
          "html_attributions": [
            "<a href=\"https://maps.google.com/maps/contrib/112374294783978950191\">East New York Inn</a>"
          ],
          "photo_reference": "AeJbb3eNogVf1aFJy96MtKbDDmtc5Rsb-k-u8kGw9d8Ay5DyPx4KYlfoxZCNrixAaXu6ZPUrF_zio7VH_5L13Gi6KJYt8d0Rgq9jAODiFpJKx0APyc78AYvKF-Yzx1UYnQRrFG_T0S7KJWRUyDHhICN3Pq1E6clU7M7YEG6b3ET_BlJIFD9P",
          "width": 4000
        }
      ],
      "place_id": "ChIJy-XnGEVcwokRapAi1AbY9FA",
      "plus_code": {
        "compound_code": "M3GW+FP \u7f8e\u570b\u7d10\u7d04",
        "global_code": "87G8M3GW+FP"
      },
      "rating": 3.1,
      "reference": "ChIJy-XnGEVcwokRapAi1AbY9FA",
      "scope": "GOOGLE",
      "types": [
        "lodging",
        "point_of_interest",
        "establishment"
      ],
      "user_ratings_total": 77,
      "vicinity": "2473 Atlantic Avenue, Brooklyn"
    },
    {
      "business_status": "OPERATIONAL",
      "geometry": {
        "location": {
          "lat": 40.6806629,
          "lng": -73.90321589999999
        },
        "viewport": {
          "northeast": {
            "lat": 40.6820349302915,
            "lng": -73.90189306970849
          },
          "southwest": {
            "lat": 40.6793369697085,
            "lng": -73.90459103029151
          }
        }
      },
      "icon": "https://maps.gstatic.com/mapfiles/place_api/icons/v1/png_71/gas_station-71.png",
      "icon_background_color": "#909CE1",
      "icon_mask_base_uri": "https://maps.gstatic.com/mapfiles/place_api/icons/v2/gas_pinlet",
      "name": "bp",
      "opening_hours": {
        "open_now": true
      },
      "photos": [
        {
          "height": 960,
          "html_attributions": [
            "<a href=\"https://maps.google.com/maps/contrib/110025650238814612254\">Pete R</a>"
          ],
          "photo_reference": "AeJbb3ebQshu7fsYqh3TxhNIEzCnpBLQojbK-q9ewCHMJzp2ccFhF4d3Heyx3ZA521nUNmmrZU0tbsrudCGVVcwKMVb81kPtSVjr35XmduFHcZq1CpaXqHry2uWF0THVSr-v-lJbHqGzpbvNeArUBPb7ptKfTbeqLGtm7BOgdOo04P4RnHvn",
          "width": 1148
        }
      ],
      "place_id": "ChIJmwzrEE9cwokRGIyHR43PZ9o",
      "plus_code": {
        "compound_code": "M3JW+7P \u7f8e\u570b\u7d10\u7d04",
        "global_code": "87G8M3JW+7P"
      },
      "rating": 3,
      "reference": "ChIJmwzrEE9cwokRGIyHR43PZ9o",
      "scope": "GOOGLE",
      "types": [
        "gas_station",
        "convenience_store",
        "store",
        "food",
        "point_of_interest",
        "establishment"
      ],
      "user_ratings_total": 20,
      "vicinity": "1610 Bushwick Avenue, Brooklyn"
    },
    {
      "business_status": "OPERATIONAL",
      "geometry": {
        "location": {
          "lat": 40.68045759999999,
          "lng": -73.90341750000002
        },
        "viewport": {
          "northeast": {
            "lat": 40.6818697302915,
            "lng": -73.90198486970851
          },
          "southwest": {
            "lat": 40.6791717697085,
            "lng": -73.90468283029152
          }
        }
      },
      "icon": "https://maps.gstatic.com/mapfiles/place_api/icons/v1/png_71/cafe-71.png",
      "icon_background_color": "#FF9E67",
      "icon_mask_base_uri": "https://maps.gstatic.com/mapfiles/place_api/icons/v2/cafe_pinlet",
      "name": "Dunkin'",
      "opening_hours": {
        "open_now": true
      },
      "photos": [
        {
          "height": 2304,
          "html_attributions": [
            "<a href=\"https://maps.google.com/maps/contrib/110710082132343728426\">jaime alvarez</a>"
          ],
          "photo_reference": "AeJbb3eYFcQq99B58z_nsr3xcIF9I3exn4Ks_gUBikuTJ9NE9gdxXDxf4i37qaKaIvM4iXP0gcUwMEwy10CyKDnP5Smf3Ulg7LCfVb4T3jVTjz5gypBTD9EtPorFDMkuiKZCarnEHaNf1-ZIn3f_DJ59Aa4j3cDrKyWwlIi3EkXOhVsDAErW",
          "width": 4096
        }
      ],
      "place_id": "ChIJLQ21ZkZcwokRyJFTwfyGy2U",
      "plus_code": {
        "compound_code": "M3JW+5J \u7f8e\u570b\u7d10\u7d04",
        "global_code": "87G8M3JW+5J"
      },
      "price_level": 1,
      "rating": 3.7,
      "reference": "ChIJLQ21ZkZcwokRyJFTwfyGy2U",
      "scope": "GOOGLE",
      "types": [
        "cafe",
        "bakery",
        "meal_takeaway",
        "store",
        "restaurant",
        "food",
        "point_of_interest",
        "establishment"
      ],
      "user_ratings_total": 136,
      "vicinity": "1610 Bushwick Avenue, Brooklyn"
    },
    {
      "business_status": "OPERATIONAL",
      "geometry": {
        "location": {
          "lat": 40.676548,
          "lng": -73.9002075
        },
        "viewport": {
          "northeast": {
            "lat": 40.6778587302915,
            "lng": -73.8988346197085
          },
          "southwest": {
            "lat": 40.6751607697085,
            "lng": -73.9015325802915
          }
        }
      },
      "icon": "https://maps.gstatic.com/mapfiles/place_api/icons/v1/png_71/lodging-71.png",
      "icon_background_color": "#909CE1",
      "icon_mask_base_uri": "https://maps.gstatic.com/mapfiles/place_api/icons/v2/hotel_pinlet",
      "name": "Imperial Hotel",
      "photos": [
        {
          "height": 2988,
          "html_attributions": [
            "<a href=\"https://maps.google.com/maps/contrib/116962782250794647904\">zhou steven</a>"
          ],
          "photo_reference": "AeJbb3fJo0r2PzAeFPkTqXx9sa_4iKwQkclWyxP8-M2ovawXxy6SUgom3wCyZVCNuLi98LAaxQlzMf6WAXVkFZfJXOGqZDNJNK4Xk6LSnl2x6XW_58zBPgKfFf2uQWYAvcv0yLvRRMmypnvbrljcAeJD1nyGeYYWuNYJb128SlQTsy_ipKoL",
          "width": 5312
        }
      ],
      "place_id": "ChIJoyfbeE9cwokRZQnSeKo4dJg",
      "plus_code": {
        "compound_code": "M3GX+JW \u7f8e\u570b\u7d10\u7d04",
        "global_code": "87G8M3GX+JW"
      },
      "rating": 3.4,
      "reference": "ChIJoyfbeE9cwokRZQnSeKo4dJg",
      "scope": "GOOGLE",
      "types": [
        "lodging",
        "point_of_interest",
        "establishment"
      ],
      "user_ratings_total": 660,
      "vicinity": "2550 East New York Avenue, Brooklyn"
    },
    {
      "business_status": "OPERATIONAL",
      "geometry": {
        "location": {
          "lat": 40.6776195,
          "lng": -73.9085698
        },
        "viewport": {
          "northeast": {
            "lat": 40.6788639302915,
            "lng": -73.90730031970848
          },
          "southwest": {
            "lat": 40.6761659697085,
            "lng": -73.90999828029149
          }
        }
      },
      "icon": "https://maps.gstatic.com/mapfiles/place_api/icons/v1/png_71/school-71.png",
      "icon_background_color": "#7B9EB0",
      "icon_mask_base_uri": "https://maps.gstatic.com/mapfiles/place_api/icons/v2/school_pinlet",
      "name": "P.S./ I.S. 155 Nicholas Herkimer",
      "place_id": "ChIJ4S9nD0NcwokRYlraAUblG8k",
      "plus_code": {
        "compound_code": "M3HR+2H \u7f8e\u570b\u7d10\u7d04",
        "global_code": "87G8M3HR+2H"
      },
      "rating": 2.3,
      "reference": "ChIJ4S9nD0NcwokRYlraAUblG8k",
      "scope": "GOOGLE",
      "types": [
        "primary_school",
        "school",
        "point_of_interest",
        "establishment"
      ],
      "user_ratings_total": 8,
      "vicinity": "1355 Herkimer Street, Brooklyn"
    },
    {
      "business_status": "OPERATIONAL",
      "geometry": {
        "location": {
          "lat": 40.6751572,
          "lng": -73.90647849999999
        },
        "viewport": {
          "northeast": {
            "lat": 40.6765719302915,
            "lng": -73.90512326970848
          },
          "southwest": {
            "lat": 40.6738739697085,
            "lng": -73.90782123029149
          }
        }
      },
      "icon": "https://maps.gstatic.com/mapfiles/place_api/icons/v1/png_71/generic_business-71.png",
      "icon_background_color": "#7B9EB0",
      "icon_mask_base_uri": "https://maps.gstatic.com/mapfiles/place_api/icons/v2/generic_pinlet",
      "name": "Molinari Funeral Home",
      "place_id": "ChIJ5Sx-VUNcwokRFDO3SWmvEYI",
      "plus_code": {
        "compound_code": "M3GV+3C \u7f8e\u570b\u7d10\u7d04\u5e03\u9c81\u514b\u6797",
        "global_code": "87G8M3GV+3C"
      },
      "rating": 5,
      "reference": "ChIJ5Sx-VUNcwokRFDO3SWmvEYI",
      "scope": "GOOGLE",
      "types": [
        "funeral_home",
        "point_of_interest",
        "establishment"
      ],
      "user_ratings_total": 1,
      "vicinity": "2380 Pacific Street, Brooklyn"
    },
    {
      "business_status": "OPERATIONAL",
      "geometry": {
        "location": {
          "lat": 40.6756409,
          "lng": -73.9059685
        },
        "viewport": {
          "northeast": {
            "lat": 40.67699633029151,
            "lng": -73.90471801970848
          },
          "southwest": {
            "lat": 40.67429836970851,
            "lng": -73.90741598029149
          }
        }
      },
      "icon": "https://maps.gstatic.com/mapfiles/place_api/icons/v1/png_71/generic_business-71.png",
      "icon_background_color": "#7B9EB0",
      "icon_mask_base_uri": "https://maps.gstatic.com/mapfiles/place_api/icons/v2/generic_pinlet",
      "name": "Mercer Mark D",
      "place_id": "ChIJC_Avu0RcwokREBro7rRkeAQ",
      "plus_code": {
        "compound_code": "M3GV+7J \u7f8e\u570b\u7d10\u7d04",
        "global_code": "87G8M3GV+7J"
      },
      "reference": "ChIJC_Avu0RcwokREBro7rRkeAQ",
      "scope": "GOOGLE",
      "types": [
        "health",
        "point_of_interest",
        "establishment"
      ],
      "vicinity": "2384 Atlantic Avenue, Brooklyn"
    },
    {
      "business_status": "OPERATIONAL",
      "geometry": {
        "location": {
          "lat": 40.6756409,
          "lng": -73.9059685
        },
        "viewport": {
          "northeast": {
            "lat": 40.67699633029151,
            "lng": -73.90471801970848
          },
          "southwest": {
            "lat": 40.67429836970851,
            "lng": -73.90741598029149
          }
        }
      },
      "icon": "https://maps.gstatic.com/mapfiles/place_api/icons/v1/png_71/generic_business-71.png",
      "icon_background_color": "#7B9EB0",
      "icon_mask_base_uri": "https://maps.gstatic.com/mapfiles/place_api/icons/v2/generic_pinlet",
      "name": "Patel Milan M MD",
      "place_id": "ChIJC_Avu0RcwokRLvqvduiY3Fk",
      "plus_code": {
        "compound_code": "M3GV+7J \u7f8e\u570b\u7d10\u7d04",
        "global_code": "87G8M3GV+7J"
      },
      "reference": "ChIJC_Avu0RcwokRLvqvduiY3Fk",
      "scope": "GOOGLE",
      "types": [
        "doctor",
        "health",
        "point_of_interest",
        "establishment"
      ],
      "vicinity": "2384 Atlantic Avenue, Brooklyn"
    },
    {
      "business_status": "OPERATIONAL",
      "geometry": {
        "location": {
          "lat": 40.6756409,
          "lng": -73.9059685
        },
        "viewport": {
          "northeast": {
            "lat": 40.67699633029151,
            "lng": -73.90471801970848
          },
          "southwest": {
            "lat": 40.67429836970851,
            "lng": -73.90741598029149
          }
        }
      },
      "icon": "https://maps.gstatic.com/mapfiles/place_api/icons/v1/png_71/generic_business-71.png",
      "icon_background_color": "#7B9EB0",
      "icon_mask_base_uri": "https://maps.gstatic.com/mapfiles/place_api/icons/v2/generic_pinlet",
      "name": "Jackson Douglas C",
      "place_id": "ChIJC_Avu0RcwokRNwq6BBmlE6I",
      "plus_code": {
        "compound_code": "M3GV+7J \u7f8e\u570b\u7d10\u7d04",
        "global_code": "87G8M3GV+7J"
      },
      "reference": "ChIJC_Avu0RcwokRNwq6BBmlE6I",
      "scope": "GOOGLE",
      "types": [
        "doctor",
        "health",
        "point_of_interest",
        "establishment"
      ],
      "vicinity": "2384 Atlantic Avenue, Brooklyn"
    },
    {
      "business_status": "OPERATIONAL",
      "geometry": {
        "location": {
          "lat": 40.6756409,
          "lng": -73.9059685
        },
        "viewport": {
          "northeast": {
            "lat": 40.67699633029151,
            "lng": -73.90471801970848
          },
          "southwest": {
            "lat": 40.67429836970851,
            "lng": -73.90741598029149
          }
        }
      },
      "icon": "https://maps.gstatic.com/mapfiles/place_api/icons/v1/png_71/generic_business-71.png",
      "icon_background_color": "#7B9EB0",
      "icon_mask_base_uri": "https://maps.gstatic.com/mapfiles/place_api/icons/v2/generic_pinlet",
      "name": "Morris Sonia",
      "place_id": "ChIJC_Avu0RcwokR0CoivIt3K5Q",
      "plus_code": {
        "compound_code": "M3GV+7J \u7f8e\u570b\u7d10\u7d04\u5e03\u9c81\u514b\u6797",
        "global_code": "87G8M3GV+7J"
      },
      "reference": "ChIJC_Avu0RcwokR0CoivIt3K5Q",
      "scope": "GOOGLE",
      "types": [
        "health",
        "point_of_interest",
        "establishment"
      ],
      "vicinity": "2384 Atlantic Avenue # 4, Brooklyn"
    },
    {
      "business_status": "OPERATIONAL",
      "geometry": {
        "location": {
          "lat": 40.6756416,
          "lng": -73.90598
        },
        "viewport": {
          "northeast": {
            "lat": 40.67699663029149,
            "lng": -73.90472376970848
          },
          "southwest": {
            "lat": 40.6742986697085,
            "lng": -73.9074217302915
          }
        }
      },
      "icon": "https://maps.gstatic.com/mapfiles/place_api/icons/v1/png_71/generic_business-71.png",
      "icon_background_color": "#7B9EB0",
      "icon_mask_base_uri": "https://maps.gstatic.com/mapfiles/place_api/icons/v2/generic_pinlet",
      "name": "Alistair R. Graham, LMSW",
      "place_id": "ChIJ_2f0o0RcwokR3-k0RkLbvD0",
      "plus_code": {
        "compound_code": "M3GV+7J \u7f8e\u570b\u7d10\u7d04",
        "global_code": "87G8M3GV+7J"
      },
      "reference": "ChIJ_2f0o0RcwokR3-k0RkLbvD0",
      "scope": "GOOGLE",
      "types": [
        "doctor",
        "health",
        "point_of_interest",
        "establishment"
      ],
      "vicinity": "2384 Atlantic Avenue, Brooklyn"
    },
    {
      "business_status": "OPERATIONAL",
      "geometry": {
        "location": {
          "lat": 40.6756416,
          "lng": -73.90598
        },
        "viewport": {
          "northeast": {
            "lat": 40.67699663029149,
            "lng": -73.90472376970848
          },
          "southwest": {
            "lat": 40.6742986697085,
            "lng": -73.9074217302915
          }
        }
      },
      "icon": "https://maps.gstatic.com/mapfiles/place_api/icons/v1/png_71/generic_business-71.png",
      "icon_background_color": "#7B9EB0",
      "icon_mask_base_uri": "https://maps.gstatic.com/mapfiles/place_api/icons/v2/generic_pinlet",
      "name": "Isabella S. Riojas, MA",
      "place_id": "ChIJC_Avu0RcwokRGJer0PtMaT0",
      "plus_code": {
        "compound_code": "M3GV+7J \u7f8e\u570b\u7d10\u7d04",
        "global_code": "87G8M3GV+7J"
      },
      "reference": "ChIJC_Avu0RcwokRGJer0PtMaT0",
      "scope": "GOOGLE",
      "types": [
        "doctor",
        "health",
        "point_of_interest",
        "establishment"
      ],
      "vicinity": "2384 Atlantic Avenue, Brooklyn"
    },
    {
      "business_status": "OPERATIONAL",
      "geometry": {
        "location": {
          "lat": 40.6783971,
          "lng": -73.9053022
        },
        "viewport": {
          "northeast": {
            "lat": 40.6796406302915,
            "lng": -73.90416989999999
          },
          "southwest": {
            "lat": 40.6769426697085,
            "lng": -73.9086991
          }
        }
      },
      "icon": "https://maps.gstatic.com/mapfiles/place_api/icons/v1/png_71/park-71.png",
      "icon_background_color": "#4DB546",
      "icon_mask_base_uri": "https://maps.gstatic.com/mapfiles/place_api/icons/v2/tree_pinlet",
      "name": "Callahan-Kelly Playground",
      "opening_hours": {
        "open_now": true
      },
      "photos": [
        {
          "height": 4032,
          "html_attributions": [
            "<a href=\"https://maps.google.com/maps/contrib/103929240800277414638\">Ryan Brown</a>"
          ],
          "photo_reference": "AeJbb3fV2xAYOl8U2IXQSuIkAVJSDzO2DSuOsNU-HHwLuUsY3L8FslV6HXD3MckwR39JC5zBmLcApNj8lZKg3iu4e1TzNUZs0B6BMweP-1rjs98Ln0jHY2DLcfeKCm0nZJlISv6OQdZJ3DvaIj6chedSKfmvq3wE-LHt0FJ6QYL2GorQVbxu",
          "width": 3024
        }
      ],
      "place_id": "ChIJ-3zDbURcwokRtcjiKqdlBmo",
      "plus_code": {
        "compound_code": "M3HV+9V \u7f8e\u570b\u7d10\u7d04\u5e03\u9c81\u514b\u6797",
        "global_code": "87G8M3HV+9V"
      },
      "rating": 3.8,
      "reference": "ChIJ-3zDbURcwokRtcjiKqdlBmo",
      "scope": "GOOGLE",
      "types": [
        "park",
        "tourist_attraction",
        "point_of_interest",
        "establishment"
      ],
      "user_ratings_total": 253,
      "vicinity": "19 Sackman Street, Brooklyn"
    },
    {
      "business_status": "OPERATIONAL",
      "geometry": {
        "location": {
          "lat": 40.6807553,
          "lng": -73.9044947
        },
        "viewport": {
          "northeast": {
            "lat": 40.6821378302915,
            "lng": -73.9032105197085
          },
          "southwest": {
            "lat": 40.6794398697085,
            "lng": -73.9059084802915
          }
        }
      },
      "icon": "https://maps.gstatic.com/mapfiles/place_api/icons/v1/png_71/generic_business-71.png",
      "icon_background_color": "#7B9EB0",
      "icon_mask_base_uri": "https://maps.gstatic.com/mapfiles/place_api/icons/v2/generic_pinlet",
      "name": "Law Offices of Bryan Barenbaum",
      "opening_hours": {
        "open_now": false
      },
      "photos": [
        {
          "height": 3792,
          "html_attributions": [
            "<a href=\"https://maps.google.com/maps/contrib/107891428486822812699\">Oksana Diakiv</a>"
          ],
          "photo_reference": "AeJbb3edowiYKNfWDZWuy4-GRQuK6604paHI6F0d1vKLICBblKOiG0tBQzZOyMSVS63MZenQajXAXSab5xuRV07uv0nwIgv7sqHHGy4xectCqy8AoHob0Jx2aqxuDo4Em9jKJVUwPHLcyeeLjtbNShwwIX368y4USYOvhhmTjhJnOJB4m0ph",
          "width": 6144
        }
      ],
      "place_id": "ChIJFwyTkkZcwokR4Z0GqEnPKzQ",
      "plus_code": {
        "compound_code": "M3JW+86 \u7f8e\u570b\u7d10\u7d04\u5e03\u9c81\u514b\u6797",
        "global_code": "87G8M3JW+86"
      },
      "rating": 4.6,
      "reference": "ChIJFwyTkkZcwokR4Z0GqEnPKzQ",
      "scope": "GOOGLE",
      "types": [
        "lawyer",
        "point_of_interest",
        "establishment"
      ],
      "user_ratings_total": 75,
      "vicinity": "2060 Eastern Parkway, Brooklyn"
    },
    {
      "business_status": "OPERATIONAL",
      "geometry": {
        "location": {
          "lat": 40.681351,
          "lng": -73.90330039999999
        },
        "viewport": {
          "northeast": {
            "lat": 40.68269288029149,
            "lng": -73.9018537697085
          },
          "southwest": {
            "lat": 40.67999491970849,
            "lng": -73.9045517302915
          }
        }
      },
      "icon": "https://maps.gstatic.com/mapfiles/place_api/icons/v1/png_71/shopping-71.png",
      "icon_background_color": "#4B96F3",
      "icon_mask_base_uri": "https://maps.gstatic.com/mapfiles/place_api/icons/v2/shopping_pinlet",
      "name": "Rodse Wine and Liquors",
      "opening_hours": {
        "open_now": true
      },
      "photos": [
        {
          "height": 668,
          "html_attributions": [
            "<a href=\"https://maps.google.com/maps/contrib/116442536417346510799\">Duane Rodriguez</a>"
          ],
          "photo_reference": "AeJbb3fpr2ChFC267Rm44BuO8hNF95GyC9vuIJE_WFI2o54CENE7zgvBuO_CVsHXVfZJCDOUqnhFGWfpU3RHZbBerRUUSaqnGyFQVJEOGUCcdaLNqxS_P_L2MnEfr93FourG8GcvMdqKiUz3k43DlJHUfjIuM31YjMce7r8vFe9SWN3HSZYo",
          "width": 1797
        }
      ],
      "place_id": "ChIJOXjUWUZcwokRDCIPUiyKSfM",
      "plus_code": {
        "compound_code": "M3JW+GM \u7f8e\u570b\u7d10\u7d04\u5e03\u9c81\u514b\u6797",
        "global_code": "87G8M3JW+GM"
      },
      "rating": 4,
      "reference": "ChIJOXjUWUZcwokRDCIPUiyKSfM",
      "scope": "GOOGLE",
      "types": [
        "liquor_store",
        "store",
        "food",
        "point_of_interest",
        "establishment"
      ],
      "user_ratings_total": 103,
      "vicinity": "1603 Bushwick Avenue, Brooklyn"
    },
    {
      "business_status": "OPERATIONAL",
      "geometry": {
        "location": {
          "lat": 40.68139350000001,
          "lng": -73.9046487
        },
        "viewport": {
          "northeast": {
            "lat": 40.6828777802915,
            "lng": -73.9031643197085
          },
          "southwest": {
            "lat": 40.68017981970851,
            "lng": -73.9058622802915
          }
        }
      },
      "icon": "https://maps.gstatic.com/mapfiles/place_api/icons/v1/png_71/shopping-71.png",
      "icon_background_color": "#4B96F3",
      "icon_mask_base_uri": "https://maps.gstatic.com/mapfiles/place_api/icons/v2/shopping_pinlet",
      "name": "Dream Auto Sales Inc",
      "opening_hours": {
        "open_now": true
      },
      "photos": [
        {
          "height": 4032,
          "html_attributions": [
            "<a href=\"https://maps.google.com/maps/contrib/101872518023166623022\">Lisa Tilson</a>"
          ],
          "photo_reference": "AeJbb3cB8GJ3_wLeqrqzohhFgpyEtZ3glon7l4vDPCZZ341vT1LwyDlHW2g3M3lZpYvOgRGp7OSBVPwtrR-V5Pp7Hd8HUTZIn8oQfAuLR_ipf4W4K-ga4r9GIEGofucSdYHPH1iMyPUpMTrP-ep9QmjSJ2xrxIfWouXWy12UH2KuT55l1ljW",
          "width": 3024
        }
      ],
      "place_id": "ChIJ_bBV7kZcwokRhmVjS0esEMY",
      "plus_code": {
        "compound_code": "M3JW+H4 \u7f8e\u570b\u7d10\u7d04\u5e03\u9c81\u514b\u6797",
        "global_code": "87G8M3JW+H4"
      },
      "rating": 4.9,
      "reference": "ChIJ_bBV7kZcwokRhmVjS0esEMY",
      "scope": "GOOGLE",
      "types": [
        "car_dealer",
        "store",
        "point_of_interest",
        "establishment"
      ],
      "user_ratings_total": 156,
      "vicinity": "1580 Bushwick Avenue, Brooklyn"
    },
    {
      "business_status": "CLOSED_TEMPORARILY",
      "geometry": {
        "location": {
          "lat": 40.6756416,
          "lng": -73.90598
        },
        "viewport": {
          "northeast": {
            "lat": 40.67699663029149,
            "lng": -73.90472376970848
          },
          "southwest": {
            "lat": 40.6742986697085,
            "lng": -73.9074217302915
          }
        }
      },
      "icon": "https://maps.gstatic.com/mapfiles/place_api/icons/v1/png_71/generic_business-71.png",
      "icon_background_color": "#7B9EB0",
      "icon_mask_base_uri": "https://maps.gstatic.com/mapfiles/place_api/icons/v2/generic_pinlet",
      "name": "Anthony L. Buford, Substance",
      "permanently_closed": true,
      "place_id": "ChIJC_Avu0RcwokRRbCxYhjQBhY",
      "plus_code": {
        "compound_code": "M3GV+7J \u7f8e\u570b\u7d10\u7d04",
        "global_code": "87G8M3GV+7J"
      },
      "reference": "ChIJC_Avu0RcwokRRbCxYhjQBhY",
      "scope": "GOOGLE",
      "types": [
        "health",
        "point_of_interest",
        "establishment"
      ],
      "vicinity": "2384 Atlantic Avenue, Brooklyn"
    },
    {
      "business_status": "OPERATIONAL",
      "geometry": {
        "location": {
          "lat": 40.6790937,
          "lng": -73.9070308
        },
        "viewport": {
          "northeast": {
            "lat": 40.6803990302915,
            "lng": -73.90562146970848
          },
          "southwest": {
            "lat": 40.6777010697085,
            "lng": -73.9083194302915
          }
        }
      },
      "icon": "https://maps.gstatic.com/mapfiles/place_api/icons/v1/png_71/generic_business-71.png",
      "icon_background_color": "#7B9EB0",
      "icon_mask_base_uri": "https://maps.gstatic.com/mapfiles/place_api/icons/v2/generic_pinlet",
      "name": "Jeff's Upholstery",
      "opening_hours": {
        "open_now": true
      },
      "place_id": "ChIJo6tqjUNcwokR1tyTmmnakf0",
      "plus_code": {
        "compound_code": "M3HV+J5 \u7f8e\u570b\u7d10\u7d04\u5e03\u9c81\u514b\u6797",
        "global_code": "87G8M3HV+J5"
      },
      "rating": 4.1,
      "reference": "ChIJo6tqjUNcwokR1tyTmmnakf0",
      "scope": "GOOGLE",
      "types": [
        "car_repair",
        "point_of_interest",
        "establishment"
      ],
      "user_ratings_total": 18,
      "vicinity": "1945 Eastern Parkway, Brooklyn"
    },
    {
      "geometry": {
        "location": {
          "lat": 40.6590529,
          "lng": -73.8759245
        },
        "viewport": {
          "northeast": {
            "lat": 40.67988802587961,
            "lng": -73.8555159825131
          },
          "southwest": {
            "lat": 40.635552052067,
            "lng": -73.90398823186696
          }
        }
      },
      "icon": "https://maps.gstatic.com/mapfiles/place_api/icons/v1/png_71/geocode-71.png",
      "icon_background_color": "#7B9EB0",
      "icon_mask_base_uri": "https://maps.gstatic.com/mapfiles/place_api/icons/v2/generic_pinlet",
      "name": "East New York",
      "photos": [
        {
          "height": 1597,
          "html_attributions": [
            "<a href=\"https://maps.google.com/maps/contrib/105149845741524682726\">Fresh Creek Nature Preserve</a>"
          ],
          "photo_reference": "AeJbb3cUo-igMrQeRCoA1VQ1QOKcmdpRftpZvM7jJSqy4ofEGnZVQ5i1y6x8m0DQApQwOb1tO1fhDoUZTLh41QURlBZVkWQfCGg5H-fW8FQbNipeyaxOjXJx_HbiMd617ls2KYZHUBR5SNFqL6zlzQgXD3LXZEL_Y4LQoWi7ijkBnMKPqX9l",
          "width": 2400
        }
      ],
      "place_id": "ChIJ81TWXQZdwokR1J1tvpkGRuo",
      "reference": "ChIJ81TWXQZdwokR1J1tvpkGRuo",
      "scope": "GOOGLE",
      "types": [
        "neighborhood",
        "political"
      ],
      "vicinity": "Brooklyn"
    },
    {
      "business_status": "OPERATIONAL",
      "geometry": {
        "location": {
          "lat": 40.67695930000001,
          "lng": -73.9032263
        },
        "viewport": {
          "northeast": {
            "lat": 40.6783798802915,
            "lng": -73.9017989697085
          },
          "southwest": {
            "lat": 40.6756819197085,
            "lng": -73.9044969302915
          }
        }
      },
      "icon": "https://maps.gstatic.com/mapfiles/place_api/icons/v1/png_71/worship_general-71.png",
      "icon_background_color": "#7B9EB0",
      "icon_mask_base_uri": "https://maps.gstatic.com/mapfiles/place_api/icons/v2/worship_christian_pinlet",
      "name": "Calvary Free Will Baptist Church",
      "photos": [
        {
          "height": 2268,
          "html_attributions": [
            "<a href=\"https://maps.google.com/maps/contrib/115924793540509610412\">Mich S</a>"
          ],
          "photo_reference": "AeJbb3dq6HgSmfwIEZC6nfVcv4ZSDBDCJfgisXrAS4wSrCao8PU0MYUn1FIrC5H7XEfVgodkUfbSkwECwXxw8WVd87sq8gFgSNUmjkih7zy-x0x9MDBXMVLz1Blxdf4JmpHkneuI7Ll69lTZRJMF1tfoEYP_0HYnjHpo02EB6mKvrk3Jk4kF",
          "width": 4032
        }
      ],
      "place_id": "ChIJ0TxVBkVcwokR5d2S7ZVYR4I",
      "plus_code": {
        "compound_code": "M3GW+QP New York, NY, USA",
        "global_code": "87G8M3GW+QP"
      },
      "rating": 4.9,
      "reference": "ChIJ0TxVBkVcwokR5d2S7ZVYR4I",
      "scope": "GOOGLE",
      "types": [
        "church",
        "place_of_worship",
        "point_of_interest",
        "establishment"
      ],
      "user_ratings_total": 22,
      "vicinity": "1520 Herkimer Street, Brooklyn"
    },
    {
      "business_status": "OPERATIONAL",
      "geometry": {
        "location": {
          "lat": 40.6777892,
          "lng": -73.9040717
        },
        "viewport": {
          "northeast": {
            "lat": 40.6791986302915,
            "lng": -73.90270656970851
          },
          "southwest": {
            "lat": 40.6765006697085,
            "lng": -73.90540453029152
          }
        }
      },
      "icon": "https://maps.gstatic.com/mapfiles/place_api/icons/v1/png_71/school-71.png",
      "icon_background_color": "#7B9EB0",
      "icon_mask_base_uri": "https://maps.gstatic.com/mapfiles/place_api/icons/v2/school_pinlet",
      "name": "Carmen Aquilone Day Center",
      "place_id": "ChIJVVVVVW5cwokRZxSWcR_yQHE",
      "plus_code": {
        "compound_code": "M3HW+49 Brooklyn, NY, USA",
        "global_code": "87G8M3HW+49"
      },
      "rating": 1,
      "reference": "ChIJVVVVVW5cwokRZxSWcR_yQHE",
      "scope": "GOOGLE",
      "types": [
        "point_of_interest",
        "establishment"
      ],
      "user_ratings_total": 1,
      "vicinity": "Brooklyn"
    },
    {
      "business_status": "OPERATIONAL",
      "geometry": {
        "location": {
          "lat": 40.6798039,
          "lng": -73.9053113
        },
        "viewport": {
          "northeast": {
            "lat": 40.6812113802915,
            "lng": -73.90389991970848
          },
          "southwest": {
            "lat": 40.6785134197085,
            "lng": -73.9065978802915
          }
        }
      },
      "icon": "https://maps.gstatic.com/mapfiles/place_api/icons/v1/png_71/generic_business-71.png",
      "icon_background_color": "#7B9EB0",
      "icon_mask_base_uri": "https://maps.gstatic.com/mapfiles/place_api/icons/v2/generic_pinlet",
      "name": "Knights Collision Experts Inc",
      "opening_hours": {
        "open_now": true
      },
      "photos": [
        {
          "height": 4032,
          "html_attributions": [
            "<a href=\"https://maps.google.com/maps/contrib/109479272661533439578\">Angie Zulay</a>"
          ],
          "photo_reference": "AeJbb3eT-7DtdamgGWKkYM_e-f1UB8DwSTrj7OyXarTq-t16VrQXtH-8euIowP-OOJayC_s-iLFV4QrCLqfPddln3WQo-3AYZDDQzcuwdDe63oeKV2EBRufMIGUoA4mslMwCn4bx-RIEx0ezyPhY5GTdgcERkdh5rZlmYOc-J0PV-qH8whZJ",
          "width": 3024
        }
      ],
      "place_id": "ChIJoUafKkRcwokRuUS_L9J5JoY",
      "plus_code": {
        "compound_code": "M3HV+WV New York, NY, USA",
        "global_code": "87G8M3HV+WV"
      },
      "rating": 2.7,
      "reference": "ChIJoUafKkRcwokRuUS_L9J5JoY",
      "scope": "GOOGLE",
      "types": [
        "car_repair",
        "point_of_interest",
        "establishment"
      ],
      "user_ratings_total": 79,
      "vicinity": "1924 Broadway, Brooklyn"
    },
    {
      "business_status": "OPERATIONAL",
      "geometry": {
        "location": {
          "lat": 40.6786126,
          "lng": -73.9031388
        },
        "viewport": {
          "northeast": {
            "lat": 40.67998138029149,
            "lng": -73.9017701697085
          },
          "southwest": {
            "lat": 40.67728341970849,
            "lng": -73.9044681302915
          }
        }
      },
      "icon": "https://maps.gstatic.com/mapfiles/place_api/icons/v1/png_71/generic_business-71.png",
      "icon_background_color": "#7B9EB0",
      "icon_mask_base_uri": "https://maps.gstatic.com/mapfiles/place_api/icons/v2/generic_pinlet",
      "name": "General United",
      "place_id": "ChIJLSPizkVcwokRVKZdCyjJSmw",
      "plus_code": {
        "compound_code": "M3HW+CP New York, NY, USA",
        "global_code": "87G8M3HW+CP"
      },
      "reference": "ChIJLSPizkVcwokRVKZdCyjJSmw",
      "scope": "GOOGLE",
      "types": [
        "point_of_interest",
        "establishment"
      ],
      "vicinity": "2012 Broadway, Brooklyn"
    },
    {
      "business_status": "OPERATIONAL",
      "geometry": {
        "location": {
          "lat": 40.6796861,
          "lng": -73.90445249999999
        },
        "viewport": {
          "northeast": {
            "lat": 40.6808501802915,
            "lng": -73.90288516970848
          },
          "southwest": {
            "lat": 40.6781522197085,
            "lng": -73.9055831302915
          }
        }
      },
      "icon": "https://maps.gstatic.com/mapfiles/place_api/icons/v1/png_71/civic_building-71.png",
      "icon_background_color": "#7B9EB0",
      "icon_mask_base_uri": "https://maps.gstatic.com/mapfiles/place_api/icons/v2/civic-bldg_pinlet",
      "name": "Office of NYC Council Member Rafael Espinal",
      "opening_hours": {
        "open_now": false
      },
      "place_id": "ChIJYdwv9TxcwokRmRxcCnm3rM4",
      "plus_code": {
        "compound_code": "M3HW+V6 Brooklyn, NY, USA",
        "global_code": "87G8M3HW+V6"
      },
      "rating": 3,
      "reference": "ChIJYdwv9TxcwokRmRxcCnm3rM4",
      "scope": "GOOGLE",
      "types": [
        "local_government_office",
        "point_of_interest",
        "establishment"
      ],
      "user_ratings_total": 4,
      "vicinity": "1945 Broadway, Brooklyn"
    },
    {
      "business_status": "OPERATIONAL",
      "geometry": {
        "location": {
          "lat": 40.679673,
          "lng": -73.90543600000001
        },
        "viewport": {
          "northeast": {
            "lat": 40.68114773029151,
            "lng": -73.90396516970851
          },
          "southwest": {
            "lat": 40.67844976970851,
            "lng": -73.90666313029152
          }
        }
      },
      "icon": "https://maps.gstatic.com/mapfiles/place_api/icons/v1/png_71/generic_business-71.png",
      "icon_background_color": "#7B9EB0",
      "icon_mask_base_uri": "https://maps.gstatic.com/mapfiles/place_api/icons/v2/generic_pinlet",
      "name": "Knight's Collision & Auto Care Center Inc.",
      "opening_hours": {
        "open_now": true
      },
      "photos": [
        {
          "height": 720,
          "html_attributions": [
            "<a href=\"https://maps.google.com/maps/contrib/106643781725319605532\">Knights Collision</a>"
          ],
          "photo_reference": "AeJbb3fhn1ZA2QHTCfJ8a7ASWyKFu9pU7IItcodUCITZYPmvIji7GzE8j3_wocJ8h7R1Oz4qj1G-vJio8Lgj5gW_t_7uiS2SpA2UaYqNga4isbeR-NJglMqMr3IDrlzxBgPnGlpoLISdnFIqgw_bIoltauMsEVFHR2U1Mqb9q4WmSv6zglX7",
          "width": 960
        }
      ],
      "place_id": "ChIJdR1XHkRcwokRNYMn9pg-dgs",
      "plus_code": {
        "compound_code": "M3HV+VR Brooklyn, NY, USA",
        "global_code": "87G8M3HV+VR"
      },
      "rating": 4,
      "reference": "ChIJdR1XHkRcwokRNYMn9pg-dgs",
      "scope": "GOOGLE",
      "types": [
        "car_repair",
        "point_of_interest",
        "establishment"
      ],
      "user_ratings_total": 347,
      "vicinity": "2000 Eastern Parkway, Brooklyn"
    },
    {
      "business_status": "OPERATIONAL",
      "geometry": {
        "location": {
          "lat": 40.6774444,
          "lng": -73.9013842
        },
        "viewport": {
          "northeast": {
            "lat": 40.6787262302915,
            "lng": -73.9000786197085
          },
          "southwest": {
            "lat": 40.6760282697085,
            "lng": -73.9027765802915
          }
        }
      },
      "icon": "https://maps.gstatic.com/mapfiles/place_api/icons/v1/png_71/generic_business-71.png",
      "icon_background_color": "#7B9EB0",
      "icon_mask_base_uri": "https://maps.gstatic.com/mapfiles/place_api/icons/v2/generic_pinlet",
      "name": "El Menor Auto Repair",
      "opening_hours": {
        "open_now": true
      },
      "photos": [
        {
          "height": 3024,
          "html_attributions": [
            "<a href=\"https://maps.google.com/maps/contrib/106958324951629899708\">El Menor Auto Repair</a>"
          ],
          "photo_reference": "AeJbb3ct0vaiMIaenzwjE1c_jpB6lXGEj8_KYrl8qOiee0f0F2sVkumxNzXF6uv0DRKZSfNuWYVFmk6V6lAf05ec721eWPa3NfTV4qsZis_LjXA-k_ULvzijtr27aNpQnfQI7ipB_1NO60guIPxAooXy4T2NEPu6Qokoq23wMsXoTZ41x_KQ",
          "width": 4032
        }
      ],
      "place_id": "ChIJfSmLj0VcwokRWKxCBjqetDw",
      "plus_code": {
        "compound_code": "M3GX+XC Brooklyn, NY, USA",
        "global_code": "87G8M3GX+XC"
      },
      "rating": 4.6,
      "reference": "ChIJfSmLj0VcwokRWKxCBjqetDw",
      "scope": "GOOGLE",
      "types": [
        "car_repair",
        "point_of_interest",
        "establishment"
      ],
      "user_ratings_total": 40,
      "vicinity": "2501-B Fulton Street, (Inside Lot), 2501 Fulton Street, Brooklyn"
    },
    {
      "business_status": "OPERATIONAL",
      "geometry": {
        "location": {
          "lat": 40.68045039999999,
          "lng": -73.9049747
        },
        "viewport": {
          "northeast": {
            "lat": 40.6817856802915,
            "lng": -73.9035999197085
          },
          "southwest": {
            "lat": 40.6790877197085,
            "lng": -73.9062978802915
          }
        }
      },
      "icon": "https://maps.gstatic.com/mapfiles/place_api/icons/v1/png_71/generic_business-71.png",
      "icon_background_color": "#7B9EB0",
      "icon_mask_base_uri": "https://maps.gstatic.com/mapfiles/place_api/icons/v2/generic_pinlet",
      "name": "Y & M Transit Corp.",
      "place_id": "ChIJmxWjl0ZcwokRESBAXZgfOEM",
      "plus_code": {
        "compound_code": "M3JW+52 Brooklyn, NY, USA",
        "global_code": "87G8M3JW+52"
      },
      "rating": 4.3,
      "reference": "ChIJmxWjl0ZcwokRESBAXZgfOEM",
      "scope": "GOOGLE",
      "types": [
        "point_of_interest",
        "establishment"
      ],
      "user_ratings_total": 4,
      "vicinity": "2034 Eastern Parkway, Brooklyn"
    },
    {
      "business_status": "OPERATIONAL",
      "geometry": {
        "location": {
          "lat": 40.6821174,
          "lng": -73.9055633
        },
        "viewport": {
          "northeast": {
            "lat": 40.6835355302915,
            "lng": -73.90414601970849
          },
          "southwest": {
            "lat": 40.6808375697085,
            "lng": -73.9068439802915
          }
        }
      },
      "icon": "https://maps.gstatic.com/mapfiles/place_api/icons/v1/png_71/shopping-71.png",
      "icon_background_color": "#4B96F3",
      "icon_mask_base_uri": "https://maps.gstatic.com/mapfiles/place_api/icons/v2/shopping_pinlet",
      "name": "Zakis Auto Sales",
      "opening_hours": {
        "open_now": true
      },
      "photos": [
        {
          "height": 3024,
          "html_attributions": [
            "<a href=\"https://maps.google.com/maps/contrib/117972520942994150511\">LUIS EDUARDO RODRIGUEZ</a>"
          ],
          "photo_reference": "AeJbb3en7fKwAV7_YuJeFPQfava0BQgYm2oG73dB9j-xV48P9rI_ulq1aXJ-Svo-vfNrXHHbK7ecAzWXKjj_gjvb3YEyBdmeR2uE2h_IJlaZHxCcBu8nXVCd8ZYy7cMcJzdF1s8Zk8bQQ46RAzgJEuS89agexnu44WHncipxE1M102EUmnEI",
          "width": 4032
        }
      ],
      "place_id": "ChIJvUsb3kZcwokRlimCZh2iHfo",
      "plus_code": {
        "compound_code": "M3JV+RQ New York, NY, USA",
        "global_code": "87G8M3JV+RQ"
      },
      "rating": 4.4,
      "reference": "ChIJvUsb3kZcwokRlimCZh2iHfo",
      "scope": "GOOGLE",
      "types": [
        "car_dealer",
        "store",
        "point_of_interest",
        "establishment"
      ],
      "user_ratings_total": 79,
      "vicinity": "1540 Bushwick Avenue, Brooklyn"
    },
    {
      "business_status": "OPERATIONAL",
      "geometry": {
        "location": {
          "lat": 40.6803646,
          "lng": -73.90555859999999
        },
        "viewport": {
          "northeast": {
            "lat": 40.68164858029149,
            "lng": -73.9043015697085
          },
          "southwest": {
            "lat": 40.67895061970849,
            "lng": -73.9069995302915
          }
        }
      },
      "icon": "https://maps.gstatic.com/mapfiles/place_api/icons/v1/png_71/shopping-71.png",
      "icon_background_color": "#4B96F3",
      "icon_mask_base_uri": "https://maps.gstatic.com/mapfiles/place_api/icons/v2/shopping_pinlet",
      "name": "MBJ Motors Inc.",
      "opening_hours": {
        "open_now": true
      },
      "place_id": "ChIJi-BLpEZcwokRZtW6ro7XznE",
      "plus_code": {
        "compound_code": "M3JV+4Q Brooklyn, NY, USA",
        "global_code": "87G8M3JV+4Q"
      },
      "rating": 4,
      "reference": "ChIJi-BLpEZcwokRZtW6ro7XznE",
      "scope": "GOOGLE",
      "types": [
        "car_dealer",
        "store",
        "point_of_interest",
        "establishment"
      ],
      "user_ratings_total": 5,
      "vicinity": "1913 Broadway, Brooklyn"
    },
    {
      "business_status": "OPERATIONAL",
      "geometry": {
        "location": {
          "lat": 40.6764106,
          "lng": -73.9044799
        },
        "viewport": {
          "northeast": {
            "lat": 40.6777558302915,
            "lng": -73.9030587697085
          },
          "southwest": {
            "lat": 40.6750578697085,
            "lng": -73.9057567302915
          }
        }
      },
      "icon": "https://maps.gstatic.com/mapfiles/place_api/icons/v1/png_71/generic_business-71.png",
      "icon_background_color": "#7B9EB0",
      "icon_mask_base_uri": "https://maps.gstatic.com/mapfiles/place_api/icons/v2/generic_pinlet",
      "name": "Z-Studios",
      "opening_hours": {
        "open_now": false
      },
      "photos": [
        {
          "height": 375,
          "html_attributions": [
            "<a href=\"https://maps.google.com/maps/contrib/112637332824551567756\">Z-Studios</a>"
          ],
          "photo_reference": "AeJbb3ckbIYXa4NF_CGPRotFRTRSR9hF09C0HRcajUxinJbrO3t7MbrYYHPaUtUb-Q0V08wBd2VEsG4DTbcY7xGaeky8uSADaG3rGnmTzaLKaElM4wXg_jtLknZNv1HfSdX2s9vw9hWDH3aQzZcIpD7t9_G3hlHpkE5W0jchNxkIy8PUWE9A",
          "width": 635
        }
      ],
      "place_id": "ChIJDTcFvwZcwokR3261eaVpytg",
      "plus_code": {
        "compound_code": "M3GW+H6 New York, NY, USA",
        "global_code": "87G8M3GW+H6"
      },
      "rating": 3.9,
      "reference": "ChIJDTcFvwZcwokR3261eaVpytg",
      "scope": "GOOGLE",
      "types": [
        "point_of_interest",
        "establishment"
      ],
      "user_ratings_total": 11,
      "vicinity": "30 Havens Place, Brooklyn"
    },
    {
      "business_status": "OPERATIONAL",
      "geometry": {
        "location": {
          "lat": 40.6806423,
          "lng": -73.9052449
        },
        "viewport": {
          "northeast": {
            "lat": 40.6819421302915,
            "lng": -73.9038092697085
          },
          "southwest": {
            "lat": 40.6792441697085,
            "lng": -73.90650723029151
          }
        }
      },
      "icon": "https://maps.gstatic.com/mapfiles/place_api/icons/v1/png_71/generic_business-71.png",
      "icon_background_color": "#7B9EB0",
      "icon_mask_base_uri": "https://maps.gstatic.com/mapfiles/place_api/icons/v2/generic_pinlet",
      "name": "Jofaz Transportation Inc.",
      "photos": [
        {
          "height": 4032,
          "html_attributions": [
            "<a href=\"https://maps.google.com/maps/contrib/109135160012889451102\">Monica Guerra</a>"
          ],
          "photo_reference": "AeJbb3fyDTh_fuvTVHAjotvypRZ7sAcIJMFD52n6Y_IujmGYw7rNBF0sl_Rxno5QQTT85RWYIHp4DMBpv-a9kAa_v1DyJQm4CEw7w27WJggvMaYJzIdMy2UA7QWRa0qkkUZuxoaUYggWsJNafVFkC7eJL_n5hgm6oLzFiUQSy-x2ggeUzBLR",
          "width": 3024
        }
      ],
      "place_id": "ChIJf1jGvUZcwokRElbTFejvfeo",
      "plus_code": {
        "compound_code": "M3JV+7W Brooklyn, NY, USA",
        "global_code": "87G8M3JV+7W"
      },
      "rating": 3.8,
      "reference": "ChIJf1jGvUZcwokRElbTFejvfeo",
      "scope": "GOOGLE",
      "types": [
        "point_of_interest",
        "establishment"
      ],
      "user_ratings_total": 30,
      "vicinity": "2031 Eastern Parkway, Brooklyn"
    },
    {
      "business_status": "OPERATIONAL",
      "geometry": {
        "location": {
          "lat": 40.675927,
          "lng": -73.901471
        },
        "viewport": {
          "northeast": {
            "lat": 40.6771929802915,
            "lng": -73.90013936970848
          },
          "southwest": {
            "lat": 40.6744950197085,
            "lng": -73.9028373302915
          }
        }
      },
      "icon": "https://maps.gstatic.com/mapfiles/place_api/icons/v1/png_71/generic_business-71.png",
      "icon_background_color": "#7B9EB0",
      "icon_mask_base_uri": "https://maps.gstatic.com/mapfiles/place_api/icons/v2/generic_pinlet",
      "name": "Exotic Cabinets Inc",
      "opening_hours": {
        "open_now": false
      },
      "place_id": "ChIJbSRnb0VcwokR5-a79VzqiIQ",
      "plus_code": {
        "compound_code": "M3GX+9C Brooklyn, NY, USA",
        "global_code": "87G8M3GX+9C"
      },
      "reference": "ChIJbSRnb0VcwokR5-a79VzqiIQ",
      "scope": "GOOGLE",
      "types": [
        "furniture_store",
        "home_goods_store",
        "store",
        "point_of_interest",
        "establishment"
      ],
      "vicinity": "2515 Atlantic Avenue, Brooklyn"
    },
    {
      "business_status": "OPERATIONAL",
      "geometry": {
        "location": {
          "lat": 40.6768924,
          "lng": -73.9013981
        },
        "viewport": {
          "northeast": {
            "lat": 40.6782970302915,
            "lng": -73.8999976697085
          },
          "southwest": {
            "lat": 40.6755990697085,
            "lng": -73.9026956302915
          }
        }
      },
      "icon": "https://maps.gstatic.com/mapfiles/place_api/icons/v1/png_71/generic_business-71.png",
      "icon_background_color": "#7B9EB0",
      "icon_mask_base_uri": "https://maps.gstatic.com/mapfiles/place_api/icons/v2/generic_pinlet",
      "name": "Soul of the Street Garage",
      "opening_hours": {
        "open_now": true
      },
      "photos": [
        {
          "height": 3024,
          "html_attributions": [
            "<a href=\"https://maps.google.com/maps/contrib/117674940447474375241\">Soul of the Street Garage</a>"
          ],
          "photo_reference": "AeJbb3dADRkByEiLIhVhk7NQPOYw91-18cPFP4_JTElhBFvQRiMPlLDMj8C6RvTjUbibefdbyTdBQMbsFlZ1zic14gEYls5kkKrWJhb4GgZWhtOMlWicDLnxXsm_-IdiuQGtWryAB9H9EZ9duq1r0skN7Cj7h_tGcMndxFdQYdEoGhVsLmHU",
          "width": 4032
        }
      ],
      "place_id": "ChIJb-X-0aNcwokRL9g99awWgO0",
      "plus_code": {
        "compound_code": "M3GX+QC Brooklyn, NY, USA",
        "global_code": "87G8M3GX+QC"
      },
      "rating": 5,
      "reference": "ChIJb-X-0aNcwokRL9g99awWgO0",
      "scope": "GOOGLE",
      "types": [
        "car_dealer",
        "store",
        "point_of_interest",
        "establishment"
      ],
      "user_ratings_total": 7,
      "vicinity": "1576 Herkimer Street, Brooklyn"
    },
    {
      "business_status": "OPERATIONAL",
      "geometry": {
        "location": {
          "lat": 40.677014,
          "lng": -73.90629
        },
        "viewport": {
          "northeast": {
            "lat": 40.6785029302915,
            "lng": -73.9050476697085
          },
          "southwest": {
            "lat": 40.6758049697085,
            "lng": -73.90774563029152
          }
        }
      },
      "icon": "https://maps.gstatic.com/mapfiles/place_api/icons/v1/png_71/generic_business-71.png",
      "icon_background_color": "#7B9EB0",
      "icon_mask_base_uri": "https://maps.gstatic.com/mapfiles/place_api/icons/v2/generic_pinlet",
      "name": "Magnolia House",
      "photos": [
        {
          "height": 4618,
          "html_attributions": [
            "<a href=\"https://maps.google.com/maps/contrib/115008332087211008317\">Yamaha Banker</a>"
          ],
          "photo_reference": "AeJbb3deljLNHLcr0BFk77pvzhfYFfDnxj100UcDprBWlq0rLOZESKBL0nMX0pUpO_wcbD3M0t6LC228Ux7bl7RuTYR-Um9DeN8IZudn0M3vx_uS0hltfWtypUKTflEbGo3U-FC8FXD-YB4AqbeKbr2ddS3puOCMU_w3bVBBJctSRBY1y_o",
          "width": 3464
        }
      ],
      "place_id": "ChIJw1eZg0RcwokRDMGKhTdRew0",
      "plus_code": {
        "compound_code": "M3GV+RF Brooklyn, NY, USA",
        "global_code": "87G8M3GV+RF"
      },
      "rating": 1.4,
      "reference": "ChIJw1eZg0RcwokRDMGKhTdRew0",
      "scope": "GOOGLE",
      "types": [
        "health",
        "point_of_interest",
        "establishment"
      ],
      "user_ratings_total": 27,
      "vicinity": "1424 Herkimer Street, Brooklyn"
    },
    {
      "business_status": "OPERATIONAL",
      "geometry": {
        "location": {
          "lat": 40.6761888,
          "lng": -73.9022889
        },
        "viewport": {
          "northeast": {
            "lat": 40.6775916302915,
            "lng": -73.90069131970849
          },
          "southwest": {
            "lat": 40.6748936697085,
            "lng": -73.90338928029149
          }
        }
      },
      "icon": "https://maps.gstatic.com/mapfiles/place_api/icons/v1/png_71/generic_business-71.png",
      "icon_background_color": "#7B9EB0",
      "icon_mask_base_uri": "https://maps.gstatic.com/mapfiles/place_api/icons/v2/generic_pinlet",
      "name": "Promotional Development Inc",
      "place_id": "ChIJGV0nIUVcwokRUfjdby0bj_o",
      "plus_code": {
        "compound_code": "M3GX+F3 Brooklyn, NY, USA",
        "global_code": "87G8M3GX+F3"
      },
      "reference": "ChIJGV0nIUVcwokRUfjdby0bj_o",
      "scope": "GOOGLE",
      "types": [
        "point_of_interest",
        "establishment"
      ],
      "vicinity": "1785 East New York Avenue, Brooklyn"
    },
    {
      "business_status": "CLOSED_TEMPORARILY",
      "geometry": {
        "location": {
          "lat": 40.6813945,
          "lng": -73.9033616
        },
        "viewport": {
          "northeast": {
            "lat": 40.6826465302915,
            "lng": -73.90211066970849
          },
          "southwest": {
            "lat": 40.6799485697085,
            "lng": -73.9048086302915
          }
        }
      },
      "icon": "https://maps.gstatic.com/mapfiles/place_api/icons/v1/png_71/generic_business-71.png",
      "icon_background_color": "#7B9EB0",
      "icon_mask_base_uri": "https://maps.gstatic.com/mapfiles/place_api/icons/v2/generic_pinlet",
      "name": "B.C. PRODUCTIONS",
      "permanently_closed": true,
      "place_id": "ChIJBalcV0ZcwokRQbwAX5zumcA",
      "plus_code": {
        "compound_code": "M3JW+HM New York, NY, USA",
        "global_code": "87G8M3JW+HM"
      },
      "reference": "ChIJBalcV0ZcwokRQbwAX5zumcA",
      "scope": "GOOGLE",
      "types": [
        "point_of_interest",
        "establishment"
      ],
      "vicinity": "1601 Bushwick Avenue, Brooklyn"
    },
    {
      "business_status": "OPERATIONAL",
      "geometry": {
        "location": {
          "lat": 40.6759013,
          "lng": -73.9025554
        },
        "viewport": {
          "northeast": {
            "lat": 40.6772611302915,
            "lng": -73.9012139697085
          },
          "southwest": {
            "lat": 40.6745631697085,
            "lng": -73.90391193029151
          }
        }
      },
      "icon": "https://maps.gstatic.com/mapfiles/place_api/icons/v1/png_71/generic_business-71.png",
      "icon_background_color": "#7B9EB0",
      "icon_mask_base_uri": "https://maps.gstatic.com/mapfiles/place_api/icons/v2/generic_pinlet",
      "name": "Cybatrones",
      "place_id": "ChIJRXqeFkVcwokRXjxZ4LunLhg",
      "plus_code": {
        "compound_code": "M3GW+9X Brooklyn, NY, USA",
        "global_code": "87G8M3GW+9X"
      },
      "reference": "ChIJRXqeFkVcwokRXjxZ4LunLhg",
      "scope": "GOOGLE",
      "types": [
        "point_of_interest",
        "establishment"
      ],
      "vicinity": "10028 East New York Avenue, Brooklyn"
    },
    {
      "business_status": "OPERATIONAL",
      "geometry": {
        "location": {
          "lat": 40.6760797,
          "lng": -73.9013794
        },
        "viewport": {
          "northeast": {
            "lat": 40.6774910802915,
            "lng": -73.90005341970848
          },
          "southwest": {
            "lat": 40.6747931197085,
            "lng": -73.9027513802915
          }
        }
      },
      "icon": "https://maps.gstatic.com/mapfiles/place_api/icons/v1/png_71/worship_general-71.png",
      "icon_background_color": "#7B9EB0",
      "icon_mask_base_uri": "https://maps.gstatic.com/mapfiles/place_api/icons/v2/worship_christian_pinlet",
      "name": "Glorious Praise Baptist Church",
      "place_id": "ChIJvxwzPUVcwokRth7l_rJ9hcY",
      "plus_code": {
        "compound_code": "M3GX+CC New York, NY, USA",
        "global_code": "87G8M3GX+CC"
      },
      "rating": 5,
      "reference": "ChIJvxwzPUVcwokRth7l_rJ9hcY",
      "scope": "GOOGLE",
      "types": [
        "church",
        "place_of_worship",
        "point_of_interest",
        "establishment"
      ],
      "user_ratings_total": 4,
      "vicinity": "1820 East New York Avenue, Brooklyn"
    },
    {
      "business_status": "OPERATIONAL",
      "geometry": {
        "location": {
          "lat": 40.67590099999999,
          "lng": -73.901574
        },
        "viewport": {
          "northeast": {
            "lat": 40.6771824302915,
            "lng": -73.9002003197085
          },
          "southwest": {
            "lat": 40.6744844697085,
            "lng": -73.90289828029151
          }
        }
      },
      "icon": "https://maps.gstatic.com/mapfiles/place_api/icons/v1/png_71/generic_business-71.png",
      "icon_background_color": "#7B9EB0",
      "icon_mask_base_uri": "https://maps.gstatic.com/mapfiles/place_api/icons/v2/generic_pinlet",
      "name": "Absolute Ornamental Plastering",
      "opening_hours": {
        "open_now": false
      },
      "photos": [
        {
          "height": 756,
          "html_attributions": [
            "<a href=\"https://maps.google.com/maps/contrib/115280832733859483540\">P K</a>"
          ],
          "photo_reference": "AeJbb3eYWLrLw2MTmqhRu4qzx5Z9VlitPFs4K72gjb_PAO9fKBy1_aK7WMSJKOXAOht0a912gHZoZoAZJKk3zGnIuIKTWpZp7hBot_XxsJof8rYzv847s4AjizgJPh5sRn4ztyKRTVSVhydwOPZPjDtFbTD82waB7S97iNsHv2FC8R3d8w3r",
          "width": 1600
        }
      ],
      "place_id": "ChIJg-46b0VcwokRWohBezssOvI",
      "plus_code": {
        "compound_code": "M3GX+99 New York, NY, USA",
        "global_code": "87G8M3GX+99"
      },
      "rating": 5,
      "reference": "ChIJg-46b0VcwokRWohBezssOvI",
      "scope": "GOOGLE",
      "types": [
        "painter",
        "point_of_interest",
        "establishment"
      ],
      "user_ratings_total": 1,
      "vicinity": "2511 Atlantic Avenue, Brooklyn"
    },
    {
      "business_status": "OPERATIONAL",
      "geometry": {
        "location": {
          "lat": 40.678067,
          "lng": -73.8997292
        },
        "viewport": {
          "northeast": {
            "lat": 40.67923253029149,
            "lng": -73.89794731970849
          },
          "southwest": {
            "lat": 40.67653456970849,
            "lng": -73.90064528029151
          }
        }
      },
      "icon": "https://maps.gstatic.com/mapfiles/place_api/icons/v1/png_71/civic_building-71.png",
      "icon_background_color": "#7B9EB0",
      "icon_mask_base_uri": "https://maps.gstatic.com/mapfiles/place_api/icons/v2/civic-bldg_pinlet",
      "name": "New York City Transit Authority Surface Transit Headquarters",
      "opening_hours": {
        "open_now": false
      },
      "photos": [
        {
          "height": 2448,
          "html_attributions": [
            "<a href=\"https://maps.google.com/maps/contrib/114592143269096100906\">Jesse Spector</a>"
          ],
          "photo_reference": "AeJbb3e_LUCKNqEIiz6iXx_b_2B-kSRWi4tUWd32l6xOI1rEqwiMFj3Gz7ZBaOWeFJ5_a1NlQcUvRuTCspdt7dsEjrl1ryq8co6qnm6VDHdSsXY-nh5iVUZMb9fuX-6OJhMdbpWwG64W8bmOHAc7QKOliaXk17ed1whiOr8B3QW5gqe7cb2D",
          "width": 3264
        }
      ],
      "place_id": "ChIJ1WqQb09cwokRYdQ_J5N_hdQ",
      "plus_code": {
        "compound_code": "M4H2+64 Brooklyn, NY, USA",
        "global_code": "87G8M4H2+64"
      },
      "rating": 4,
      "reference": "ChIJ1WqQb09cwokRYdQ_J5N_hdQ",
      "scope": "GOOGLE",
      "types": [
        "local_government_office",
        "point_of_interest",
        "establishment"
      ],
      "user_ratings_total": 49,
      "vicinity": "25 Jamaica Avenue, Brooklyn"
    },
    {
      "business_status": "OPERATIONAL",
      "geometry": {
        "location": {
          "lat": 40.6818231,
          "lng": -73.90401229999999
        },
        "viewport": {
          "northeast": {
            "lat": 40.6830544302915,
            "lng": -73.90277801970849
          },
          "southwest": {
            "lat": 40.6803564697085,
            "lng": -73.90547598029151
          }
        }
      },
      "icon": "https://maps.gstatic.com/mapfiles/place_api/icons/v1/png_71/generic_business-71.png",
      "icon_background_color": "#7B9EB0",
      "icon_mask_base_uri": "https://maps.gstatic.com/mapfiles/place_api/icons/v2/generic_pinlet",
      "name": "APRA Energy Group Inc",
      "place_id": "ChIJqztB-kZcwokRlJt5so9PUWg",
      "plus_code": {
        "compound_code": "M3JW+P9 New York, NY, USA",
        "global_code": "87G8M3JW+P9"
      },
      "reference": "ChIJqztB-kZcwokRlJt5so9PUWg",
      "scope": "GOOGLE",
      "types": [
        "point_of_interest",
        "establishment"
      ],
      "vicinity": "1579 Bushwick Avenue, Brooklyn"
    },
    {
      "business_status": "CLOSED_TEMPORARILY",
      "geometry": {
        "location": {
          "lat": 40.681555,
          "lng": -73.904992
        },
        "viewport": {
          "northeast": {
            "lat": 40.6829539302915,
            "lng": -73.90373241970849
          },
          "southwest": {
            "lat": 40.6802559697085,
            "lng": -73.9064303802915
          }
        }
      },
      "icon": "https://maps.gstatic.com/mapfiles/place_api/icons/v1/png_71/generic_business-71.png",
      "icon_background_color": "#7B9EB0",
      "icon_mask_base_uri": "https://maps.gstatic.com/mapfiles/place_api/icons/v2/generic_pinlet",
      "name": "DeirDebwan Scope",
      "permanently_closed": true,
      "place_id": "ChIJx8pv6EZcwokRFXwLxRtBhsw",
      "plus_code": {
        "compound_code": "M3JW+J2 Brooklyn, NY, USA",
        "global_code": "87G8M3JW+J2"
      },
      "reference": "ChIJx8pv6EZcwokRFXwLxRtBhsw",
      "scope": "GOOGLE",
      "types": [
        "point_of_interest",
        "establishment"
      ],
      "vicinity": "48 De Sales Place, Brooklyn"
    },
    {
      "business_status": "OPERATIONAL",
      "geometry": {
        "location": {
          "lat": 40.6761863,
          "lng": -73.9005023
        },
        "viewport": {
          "northeast": {
            "lat": 40.67751303029149,
            "lng": -73.8992978197085
          },
          "southwest": {
            "lat": 40.6748150697085,
            "lng": -73.9019957802915
          }
        }
      },
      "icon": "https://maps.gstatic.com/mapfiles/place_api/icons/v1/png_71/generic_business-71.png",
      "icon_background_color": "#7B9EB0",
      "icon_mask_base_uri": "https://maps.gstatic.com/mapfiles/place_api/icons/v2/generic_pinlet",
      "name": "Coustof Waxman",
      "photos": [
        {
          "height": 3024,
          "html_attributions": [
            "<a href=\"https://maps.google.com/maps/contrib/106905294470212349895\">David Sonenberg</a>"
          ],
          "photo_reference": "AeJbb3cMiHQqL--8_x3KyR2Vb2e-1QtJyEVvp3d4_-GvBhxAMP6mllJsmmXbSaqT4fXWZqqDZoBkkjzL72lnlTToW879UhstSSejc7g0UxF14z-mLkgcvwqmH_mum0q8Hf_Rdea0gCS9-9nck2kUaJGwTX3K4OvgBrL35kmf-7ymVcmfxNZf",
          "width": 4032
        }
      ],
      "place_id": "ChIJpT3z8CpawokRH3Bqu2RfLLI",
      "plus_code": {
        "compound_code": "M3GX+FQ Brooklyn, NY, USA",
        "global_code": "87G8M3GX+FQ"
      },
      "rating": 5,
      "reference": "ChIJpT3z8CpawokRH3Bqu2RfLLI",
      "scope": "GOOGLE",
      "types": [
        "point_of_interest",
        "establishment"
      ],
      "user_ratings_total": 1,
      "vicinity": "17 Williams Avenue, Brooklyn"
    },
    {
      "business_status": "OPERATIONAL",
      "geometry": {
        "location": {
          "lat": 40.6806076,
          "lng": -73.9034649
        },
        "viewport": {
          "northeast": {
            "lat": 40.68198703029149,
            "lng": -73.90208101970849
          },
          "southwest": {
            "lat": 40.6792890697085,
            "lng": -73.9047789802915
          }
        }
      },
      "icon": "https://maps.gstatic.com/mapfiles/place_api/icons/v1/png_71/generic_business-71.png",
      "icon_background_color": "#7B9EB0",
      "icon_mask_base_uri": "https://maps.gstatic.com/mapfiles/place_api/icons/v2/generic_pinlet",
      "name": "U-Haul Neighborhood Dealer",
      "opening_hours": {
        "open_now": true
      },
      "photos": [
        {
          "height": 3024,
          "html_attributions": [
            "<a href=\"https://maps.google.com/maps/contrib/103999239913403038569\">Rahee Rahman</a>"
          ],
          "photo_reference": "AeJbb3dTyFvfX1eGsvB2bzZ_3XVCP0Dvng6AXWfm51Yzl5SvYxSsQtv7dH-H56Gy-RMfA_805a9lkc2j0D_BYZXZrk-vBXjLvLQFCJN0jm3Zkmr-SfEoiQCFHn03CVLqqcvAAjf5tZzKDvk6m7FHqyVoL4hcQHcZd6DnqObWKrjFRwysXGc8",
          "width": 4032
        }
      ],
      "place_id": "ChIJLQ21ZkZcwokREfu8dZYMj6w",
      "plus_code": {
        "compound_code": "M3JW+6J New York, NY, USA",
        "global_code": "87G8M3JW+6J"
      },
      "price_level": 1,
      "rating": 3.1,
      "reference": "ChIJLQ21ZkZcwokREfu8dZYMj6w",
      "scope": "GOOGLE",
      "types": [
        "point_of_interest",
        "establishment"
      ],
      "user_ratings_total": 98,
      "vicinity": "1610 Bushwick Avenue, Brooklyn"
    },
    {
      "business_status": "OPERATIONAL",
      "geometry": {
        "location": {
          "lat": 40.6790857,
          "lng": -73.8990451
        },
        "viewport": {
          "northeast": {
            "lat": 40.68034203029149,
            "lng": -73.8977759197085
          },
          "southwest": {
            "lat": 40.67764406970849,
            "lng": -73.9004738802915
          }
        }
      },
      "icon": "https://maps.gstatic.com/mapfiles/place_api/icons/v1/png_71/shopping-71.png",
      "icon_background_color": "#4B96F3",
      "icon_mask_base_uri": "https://maps.gstatic.com/mapfiles/place_api/icons/v2/shopping_pinlet",
      "name": "Ale Auto Sales Inc.",
      "opening_hours": {
        "open_now": true
      },
      "photos": [
        {
          "height": 960,
          "html_attributions": [
            "<a href=\"https://maps.google.com/maps/contrib/110069501536817131706\">Ale Auto Sales Inc.</a>"
          ],
          "photo_reference": "AeJbb3eXJMy8O_iRN8GouZpDRwQc4iFzJCCpn4q4rV5OpSACMFuC8cfXtVp-2CuPhwakBj9-4FO_YwM_e6VLME-PU3_wwyvn57Si4T_vXz06XMR4zRpw974M92qMV0NV8PzQlZf-EiJ3BNOdabWqLHPYoH7YZn82DvWmT8hY2OpNaAMlWwDw",
          "width": 959
        }
      ],
      "place_id": "ChIJPXety0hcwokRKstMXregsPA",
      "plus_code": {
        "compound_code": "M4H2+J9 Brooklyn, NY, USA",
        "global_code": "87G8M4H2+J9"
      },
      "rating": 4.6,
      "reference": "ChIJPXety0hcwokRKstMXregsPA",
      "scope": "GOOGLE",
      "types": [
        "car_dealer",
        "point_of_interest",
        "store",
        "establishment"
      ],
      "user_ratings_total": 5,
      "vicinity": "1751 Bushwick Avenue, Brooklyn"
    },
    {
      "business_status": "OPERATIONAL",
      "geometry": {
        "location": {
          "lat": 40.6763012,
          "lng": -73.8996918
        },
        "viewport": {
          "northeast": {
            "lat": 40.6776352302915,
            "lng": -73.8984430197085
          },
          "southwest": {
            "lat": 40.6749372697085,
            "lng": -73.9011409802915
          }
        }
      },
      "icon": "https://maps.gstatic.com/mapfiles/place_api/icons/v1/png_71/generic_business-71.png",
      "icon_background_color": "#7B9EB0",
      "icon_mask_base_uri": "https://maps.gstatic.com/mapfiles/place_api/icons/v2/generic_pinlet",
      "name": "William Kanes Mfr Corporation",
      "place_id": "ChIJRUmZnk9cwokRIi2Hy3uyT-Y",
      "plus_code": {
        "compound_code": "M4G2+G4 New York, NY, USA",
        "global_code": "87G8M4G2+G4"
      },
      "rating": 2.8,
      "reference": "ChIJRUmZnk9cwokRIi2Hy3uyT-Y",
      "scope": "GOOGLE",
      "types": [
        "point_of_interest",
        "establishment"
      ],
      "user_ratings_total": 5,
      "vicinity": "23 Alabama Avenue, Brooklyn"
    },
    {
      "business_status": "OPERATIONAL",
      "geometry": {
        "location": {
          "lat": 40.6784765,
          "lng": -73.89875669999999
        },
        "viewport": {
          "northeast": {
            "lat": 40.6798986802915,
            "lng": -73.8973438697085
          },
          "southwest": {
            "lat": 40.6772007197085,
            "lng": -73.9000418302915
          }
        }
      },
      "icon": "https://maps.gstatic.com/mapfiles/place_api/icons/v1/png_71/generic_business-71.png",
      "icon_background_color": "#7B9EB0",
      "icon_mask_base_uri": "https://maps.gstatic.com/mapfiles/place_api/icons/v2/generic_pinlet",
      "name": "Western Union",
      "opening_hours": {
        "open_now": true
      },
      "photos": [
        {
          "height": 1000,
          "html_attributions": [
            "<a href=\"https://maps.google.com/maps/contrib/101429981836587048990\">Western Union</a>"
          ],
          "photo_reference": "AeJbb3cMpw5RfJ4k_ZAboPIrACTYlrQRjNROXGgIxn-i5OleUIpXZQSliF17lbWEs9C6uSqD718-NjHLSRLVVtUdRrhh57ZkRCUfq-ZARd4l-WiBtRG1CECx1t4tDtYmCbFqK1qH283FGBe1DCoKTaqfXjnVukElzlKa6rts5G0q7Bv4k6f0",
          "width": 1000
        }
      ],
      "place_id": "ChIJ5YFsMU9cwokRsHi-ppNUrPw",
      "plus_code": {
        "compound_code": "M4H2+9F Brooklyn, NY, USA",
        "global_code": "87G8M4H2+9F"
      },
      "rating": 4.1,
      "reference": "ChIJ5YFsMU9cwokRsHi-ppNUrPw",
      "scope": "GOOGLE",
      "types": [
        "finance",
        "point_of_interest",
        "establishment"
      ],
      "user_ratings_total": 7,
      "vicinity": "Pay-o-matic, 1756 Bushwick Avenue, Brooklyn"
    },
    {
      "business_status": "OPERATIONAL",
      "geometry": {
        "location": {
          "lat": 40.6759892,
          "lng": -73.9001699
        },
        "viewport": {
          "northeast": {
            "lat": 40.67720148029149,
            "lng": -73.89882036970849
          },
          "southwest": {
            "lat": 40.67450351970849,
            "lng": -73.9015183302915
          }
        }
      },
      "icon": "https://maps.gstatic.com/mapfiles/place_api/icons/v1/png_71/generic_business-71.png",
      "icon_background_color": "#7B9EB0",
      "icon_mask_base_uri": "https://maps.gstatic.com/mapfiles/place_api/icons/v2/generic_pinlet",
      "name": "Novo, Inc",
      "opening_hours": {
        "open_now": true
      },
      "photos": [
        {
          "height": 1836,
          "html_attributions": [
            "<a href=\"https://maps.google.com/maps/contrib/111598706232627859020\">Sven Bliedung</a>"
          ],
          "photo_reference": "AeJbb3c_FaaPPc6FQS03k9pi6LfjoC5WFQ2z7ZDZ6Dv1jnIOlBPN4__KFdQB3zchQCXLF_dkFZrYwyRkkUCWJkYu__rgvyGPwm7LYhCc8GrvyMcjYkjOKZJpVAPM1br7Pwna2wRyxeS-3Ap3If_f63l8F92MhloNJqHuyxxZCYBtSuLtIL2u",
          "width": 3264
        }
      ],
      "place_id": "ChIJrd75i09cwokRkU_jtA30PVA",
      "plus_code": {
        "compound_code": "M3GX+9W Brooklyn, NY, USA",
        "global_code": "87G8M3GX+9W"
      },
      "rating": 5,
      "reference": "ChIJrd75i09cwokRkU_jtA30PVA",
      "scope": "GOOGLE",
      "types": [
        "point_of_interest",
        "establishment"
      ],
      "user_ratings_total": 1,
      "vicinity": "2541 Atlantic Avenue, Brooklyn"
    },
    {
      "business_status": "OPERATIONAL",
      "geometry": {
        "location": {
          "lat": 40.67846759999999,
          "lng": -73.8987516
        },
        "viewport": {
          "northeast": {
            "lat": 40.67989198029149,
            "lng": -73.89733686970848
          },
          "southwest": {
            "lat": 40.6771940197085,
            "lng": -73.9000348302915
          }
        }
      },
      "icon": "https://maps.gstatic.com/mapfiles/place_api/icons/v1/png_71/generic_business-71.png",
      "icon_background_color": "#7B9EB0",
      "icon_mask_base_uri": "https://maps.gstatic.com/mapfiles/place_api/icons/v2/generic_pinlet",
      "name": "PAYOMATIC",
      "opening_hours": {
        "open_now": true
      },
      "place_id": "ChIJFZS4MU9cwokRnuBUpHSoK8E",
      "plus_code": {
        "compound_code": "M4H2+9F New York, NY, USA",
        "global_code": "87G8M4H2+9F"
      },
      "rating": 2.9,
      "reference": "ChIJFZS4MU9cwokRnuBUpHSoK8E",
      "scope": "GOOGLE",
      "types": [
        "bank",
        "finance",
        "point_of_interest",
        "establishment"
      ],
      "user_ratings_total": 9,
      "vicinity": "1756 Bushwick Avenue, Brooklyn"
    },
    {
      "business_status": "OPERATIONAL",
      "geometry": {
        "location": {
          "lat": 40.6820926,
          "lng": -73.90552319999999
        },
        "viewport": {
          "northeast": {
            "lat": 40.6835123302915,
            "lng": -73.9042333197085
          },
          "southwest": {
            "lat": 40.6808143697085,
            "lng": -73.9069312802915
          }
        }
      },
      "icon": "https://maps.gstatic.com/mapfiles/place_api/icons/v1/png_71/gas_station-71.png",
      "icon_background_color": "#909CE1",
      "icon_mask_base_uri": "https://maps.gstatic.com/mapfiles/place_api/icons/v2/gas_pinlet",
      "name": "Shell",
      "opening_hours": {
        "open_now": true
      },
      "photos": [
        {
          "height": 3024,
          "html_attributions": [
            "<a href=\"https://maps.google.com/maps/contrib/113079186152754654033\">Tyler Wilson</a>"
          ],
          "photo_reference": "AeJbb3dxBRB7qx60W6UeaDnQa3vzUGAkrrp6PPCGiNTVXGX4EGfY98oUM9y_kr6NKIhbOP_ReXeciyUnoCoMhS-oJ2H_zJcB_fsRE2ehybCaUxy_7ltxAUctz0EUkaa8rC9Sgrm0vmZvqRSQ5kX3M_K_jJgjyEfpi3mBi_B9ESe77dSzr9m6",
          "width": 4032
        }
      ],
      "place_id": "ChIJGzEx2UZcwokRS1oIjIzLAIs",
      "plus_code": {
        "compound_code": "M3JV+RQ New York, NY, USA",
        "global_code": "87G8M3JV+RQ"
      },
      "price_level": 2,
      "rating": 3.7,
      "reference": "ChIJGzEx2UZcwokRS1oIjIzLAIs",
      "scope": "GOOGLE",
      "types": [
        "gas_station",
        "atm",
        "finance",
        "point_of_interest",
        "establishment"
      ],
      "user_ratings_total": 21,
      "vicinity": "1532 Bushwick Avenue, Brooklyn"
    },
    {
      "business_status": "OPERATIONAL",
      "geometry": {
        "location": {
          "lat": 40.6751417,
          "lng": -73.9016711
        },
        "viewport": {
          "northeast": {
            "lat": 40.67650073029149,
            "lng": -73.90025176970849
          },
          "southwest": {
            "lat": 40.6738027697085,
            "lng": -73.9029497302915
          }
        }
      },
      "icon": "https://maps.gstatic.com/mapfiles/place_api/icons/v1/png_71/generic_business-71.png",
      "icon_background_color": "#7B9EB0",
      "icon_mask_base_uri": "https://maps.gstatic.com/mapfiles/place_api/icons/v2/generic_pinlet",
      "name": "Smartek USA Inc.",
      "opening_hours": {
        "open_now": false
      },
      "place_id": "ChIJ7chaREVcwokRkWJqQf8hmzM",
      "plus_code": {
        "compound_code": "M3GX+38 New York, NY, USA",
        "global_code": "87G8M3GX+38"
      },
      "rating": 3.5,
      "reference": "ChIJ7chaREVcwokRkWJqQf8hmzM",
      "scope": "GOOGLE",
      "types": [
        "point_of_interest",
        "establishment"
      ],
      "user_ratings_total": 8,
      "vicinity": "12 Hinsdale Street, Brooklyn"
    },
    {
      "business_status": "OPERATIONAL",
      "geometry": {
        "location": {
          "lat": 40.6769726,
          "lng": -73.9084068
        },
        "viewport": {
          "northeast": {
            "lat": 40.67831203029149,
            "lng": -73.9069001197085
          },
          "southwest": {
            "lat": 40.67561406970849,
            "lng": -73.9095980802915
          }
        }
      },
      "icon": "https://maps.gstatic.com/mapfiles/place_api/icons/v1/png_71/generic_business-71.png",
      "icon_background_color": "#7B9EB0",
      "icon_mask_base_uri": "https://maps.gstatic.com/mapfiles/place_api/icons/v2/generic_pinlet",
      "name": "Akay electric corporation licensed electrician",
      "opening_hours": {
        "open_now": true
      },
      "photos": [
        {
          "height": 450,
          "html_attributions": [
            "<a href=\"https://maps.google.com/maps/contrib/108029117317613990055\">Akay electric corporation</a>"
          ],
          "photo_reference": "AeJbb3ct6kqdAX4h-Kp5-yRQgeci2PGJD_T2oQFJxSwD_q28cZEkEN5HRVe-tq6F-aPvck7mx7gADivu18wWJ4HKe9xYsJ3VXF1Ly6iO4r5dXZ3ynsh47wCXeJD2fYQhU05YMXJJcYpVp3FDMowrvFQWUkj-5rzeMFMsXW-TMvC9fEqq2zrY",
          "width": 645
        }
      ],
      "place_id": "ChIJlz92cUNcwokRQX9NWN7ZS2E",
      "plus_code": {
        "compound_code": "M3GR+QJ New York, NY, USA",
        "global_code": "87G8M3GR+QJ"
      },
      "rating": 4.5,
      "reference": "ChIJlz92cUNcwokRQX9NWN7ZS2E",
      "scope": "GOOGLE",
      "types": [
        "electrician",
        "point_of_interest",
        "establishment"
      ],
      "user_ratings_total": 6,
      "vicinity": "1891 Eastern Parkway, Brooklyn"
    },
    {
      "business_status": "OPERATIONAL",
      "geometry": {
        "location": {
          "lat": 40.67696600000001,
          "lng": -73.90840299999999
        },
        "viewport": {
          "northeast": {
            "lat": 40.6783171302915,
            "lng": -73.90689551970848
          },
          "southwest": {
            "lat": 40.6756191697085,
            "lng": -73.90959348029149
          }
        }
      },
      "icon": "https://maps.gstatic.com/mapfiles/place_api/icons/v1/png_71/pharmacy-71.png",
      "icon_background_color": "#F88181",
      "icon_mask_base_uri": "https://maps.gstatic.com/mapfiles/place_api/icons/v2/pharmacy_pinlet",
      "name": "Rossi Pharmacy",
      "opening_hours": {
        "open_now": true
      },
      "photos": [
        {
          "height": 4032,
          "html_attributions": [
            "<a href=\"https://maps.google.com/maps/contrib/107759586958227743545\">Ajay Keluskar</a>"
          ],
          "photo_reference": "AeJbb3c2fIx1UkS1lsGoRpHYY2uWp8dpHT9GV84BykZz2MxoaKDoAHMQ1Hh2v5sI-aLvUbXvX-dTS7thj2rYu9b7Ng2wq1xGwZ-4qJo3B4RE5fqg4dq71VAzitSpIyRa4kC0TaXq9Fks8ltWGfA7PBq_yWWl4ENIxVQEo4Ex3SPlHCreTk47",
          "width": 3024
        }
      ],
      "place_id": "ChIJ47_QE0NcwokR-FszU4EPeaA",
      "plus_code": {
        "compound_code": "M3GR+QJ New York, NY, USA",
        "global_code": "87G8M3GR+QJ"
      },
      "rating": 4.6,
      "reference": "ChIJ47_QE0NcwokR-FszU4EPeaA",
      "scope": "GOOGLE",
      "types": [
        "pharmacy",
        "point_of_interest",
        "health",
        "store",
        "establishment"
      ],
      "user_ratings_total": 33,
      "vicinity": "1891 Eastern Parkway, Brooklyn"
    },
    {
      "business_status": "OPERATIONAL",
      "geometry": {
        "location": {
          "lat": 40.6803451,
          "lng": -73.9082181
        },
        "viewport": {
          "northeast": {
            "lat": 40.6817754302915,
            "lng": -73.90704046970849
          },
          "southwest": {
            "lat": 40.6790774697085,
            "lng": -73.90973843029151
          }
        }
      },
      "icon": "https://maps.gstatic.com/mapfiles/place_api/icons/v1/png_71/shopping-71.png",
      "icon_background_color": "#4B96F3",
      "icon_mask_base_uri": "https://maps.gstatic.com/mapfiles/place_api/icons/v2/shopping_pinlet",
      "name": "Family Dollar",
      "opening_hours": {
        "open_now": true
      },
      "photos": [
        {
          "height": 2160,
          "html_attributions": [
            "<a href=\"https://maps.google.com/maps/contrib/106515617067735914609\">Francisco Diaz</a>"
          ],
          "photo_reference": "AeJbb3fVdpntFXedl6RFgqS7WFgKR88I4Os7dycePzZ7w8-NiFFde8WjcdC0G932xSdibjk9dyp6R_G_tZshRLKUq_7PHaSvNOaldQdri0euhNl3qEd-U41WWi3r1frXP8rpuIDF6dyrdpzX66-XptWkBzmYjTkC6a66hubl4G9Cmj8ZqmfE",
          "width": 2880
        }
      ],
      "place_id": "ChIJKRtUYEFcwokRc7aUaaeM-wg",
      "plus_code": {
        "compound_code": "M3JR+4P New York, NY, USA",
        "global_code": "87G8M3JR+4P"
      },
      "price_level": 1,
      "rating": 4,
      "reference": "ChIJKRtUYEFcwokRc7aUaaeM-wg",
      "scope": "GOOGLE",
      "types": [
        "supermarket",
        "grocery_or_supermarket",
        "clothing_store",
        "food",
        "point_of_interest",
        "store",
        "establishment"
      ],
      "user_ratings_total": 189,
      "vicinity": "294-304 Macdougal Street, Brooklyn"
    },
    {
      "business_status": "CLOSED_TEMPORARILY",
      "geometry": {
        "location": {
          "lat": 40.6750157,
          "lng": -73.90170800000001
        },
        "viewport": {
          "northeast": {
            "lat": 40.6763794302915,
            "lng": -73.90025576970851
          },
          "southwest": {
            "lat": 40.67368146970851,
            "lng": -73.90295373029151
          }
        }
      },
      "icon": "https://maps.gstatic.com/mapfiles/place_api/icons/v1/png_71/generic_business-71.png",
      "icon_background_color": "#7B9EB0",
      "icon_mask_base_uri": "https://maps.gstatic.com/mapfiles/place_api/icons/v2/generic_pinlet",
      "name": "Hideaway Catering Services",
      "permanently_closed": true,
      "place_id": "ChIJy27hRUVcwokR_Pc--7sGp9E",
      "plus_code": {
        "compound_code": "M3GX+28 Brooklyn, NY, USA",
        "global_code": "87G8M3GX+28"
      },
      "reference": "ChIJy27hRUVcwokR_Pc--7sGp9E",
      "scope": "GOOGLE",
      "types": [
        "food",
        "point_of_interest",
        "establishment"
      ],
      "vicinity": "16 Hinsdale Street, Brooklyn"
    },
    {
      "business_status": "OPERATIONAL",
      "geometry": {
        "location": {
          "lat": 40.6758582,
          "lng": -73.89998469999999
        },
        "viewport": {
          "northeast": {
            "lat": 40.6772267802915,
            "lng": -73.89854276970848
          },
          "southwest": {
            "lat": 40.6745288197085,
            "lng": -73.9012407302915
          }
        }
      },
      "icon": "https://maps.gstatic.com/mapfiles/place_api/icons/v1/png_71/shopping-71.png",
      "icon_background_color": "#4B96F3",
      "icon_mask_base_uri": "https://maps.gstatic.com/mapfiles/place_api/icons/v2/shopping_pinlet",
      "name": "Kabako Guitars",
      "opening_hours": {
        "open_now": true
      },
      "photos": [
        {
          "height": 2280,
          "html_attributions": [
            "<a href=\"https://maps.google.com/maps/contrib/108440691521189403271\">Kabako Guitars</a>"
          ],
          "photo_reference": "AeJbb3dIiCYmubz9O4Kx3L07LP3DQuV7J4oAFkNhJiQDOssILDJBg2piUzxHJy9fMP-tsPIKQ7RV2mcFUxz6iXirYboz2L-VRqEvVv1zoL5POmQBSc1QkN4r2Q2_iVb7Nt0oDF9pZuiTIuRqplhvLhtyWPJZqJUPhM7k_DxNxudHR493sKCV",
          "width": 1080
        }
      ],
      "place_id": "ChIJUczfj09cwokRMMBb0eAdyZE",
      "plus_code": {
        "compound_code": "M4G2+82 Brooklyn, NY, USA",
        "global_code": "87G8M4G2+82"
      },
      "rating": 5,
      "reference": "ChIJUczfj09cwokRMMBb0eAdyZE",
      "scope": "GOOGLE",
      "types": [
        "electronics_store",
        "point_of_interest",
        "home_goods_store",
        "store",
        "establishment"
      ],
      "user_ratings_total": 3,
      "vicinity": "38 Alabama Avenue, Brooklyn"
    },
    {
      "business_status": "OPERATIONAL",
      "geometry": {
        "location": {
          "lat": 40.67579750000001,
          "lng": -73.8998629
        },
        "viewport": {
          "northeast": {
            "lat": 40.6772012802915,
            "lng": -73.89849621970849
          },
          "southwest": {
            "lat": 40.6745033197085,
            "lng": -73.90119418029151
          }
        }
      },
      "icon": "https://maps.gstatic.com/mapfiles/place_api/icons/v1/png_71/generic_business-71.png",
      "icon_background_color": "#7B9EB0",
      "icon_mask_base_uri": "https://maps.gstatic.com/mapfiles/place_api/icons/v2/generic_pinlet",
      "name": "Affordable Self-Storage",
      "opening_hours": {
        "open_now": true
      },
      "photos": [
        {
          "height": 4032,
          "html_attributions": [
            "<a href=\"https://maps.google.com/maps/contrib/107629386008135480376\">KABAKO GUITARS</a>"
          ],
          "photo_reference": "AeJbb3fEUu4cxl0CuW0ONOjJpwlyipZN17g9aWuWpV9UAteFGQBbe96gnENmlODTMiVU7pytrpgqRO3kS5HXBnypA89hYUrSER3I00suZSfSrOjgRGi8UIQeIT5E1wXUas4Kz7mn13H3SBXxo7SZsP8RUh26jZWtXfD3FjlPyhxhtGiEb__b",
          "width": 3024
        }
      ],
      "place_id": "ChIJBSSBmk9cwokR3a8k4RUgWnw",
      "plus_code": {
        "compound_code": "M4G2+83 New York, NY, USA",
        "global_code": "87G8M4G2+83"
      },
      "rating": 4.4,
      "reference": "ChIJBSSBmk9cwokR3a8k4RUgWnw",
      "scope": "GOOGLE",
      "types": [
        "storage",
        "point_of_interest",
        "establishment"
      ],
      "user_ratings_total": 15,
      "vicinity": "2553 Atlantic Avenue, Brooklyn"
    },
    {
      "business_status": "OPERATIONAL",
      "geometry": {
        "location": {
          "lat": 40.6772379,
          "lng": -73.8986815
        },
        "viewport": {
          "northeast": {
            "lat": 40.6786469302915,
            "lng": -73.89739346970849
          },
          "southwest": {
            "lat": 40.6759489697085,
            "lng": -73.90009143029151
          }
        }
      },
      "icon": "https://maps.gstatic.com/mapfiles/place_api/icons/v1/png_71/gas_station-71.png",
      "icon_background_color": "#909CE1",
      "icon_mask_base_uri": "https://maps.gstatic.com/mapfiles/place_api/icons/v2/gas_pinlet",
      "name": "bp",
      "opening_hours": {
        "open_now": true
      },
      "place_id": "ChIJmwzrEE9cwokRmRG1NLOhNd8",
      "plus_code": {
        "compound_code": "M4G2+VG New York, NY, USA",
        "global_code": "87G8M4G2+VG"
      },
      "rating": 2.9,
      "reference": "ChIJmwzrEE9cwokRmRG1NLOhNd8",
      "scope": "GOOGLE",
      "types": [
        "gas_station",
        "convenience_store",
        "food",
        "point_of_interest",
        "store",
        "establishment"
      ],
      "user_ratings_total": 8,
      "vicinity": "32 Jamaica Avenue, Brooklyn"
    },
    {
      "business_status": "OPERATIONAL",
      "geometry": {
        "location": {
          "lat": 40.6781568,
          "lng": -73.8983483
        },
        "viewport": {
          "northeast": {
            "lat": 40.6795077302915,
            "lng": -73.8968840697085
          },
          "southwest": {
            "lat": 40.67680976970851,
            "lng": -73.89958203029151
          }
        }
      },
      "icon": "https://maps.gstatic.com/mapfiles/place_api/icons/v1/png_71/restaurant-71.png",
      "icon_background_color": "#FF9E67",
      "icon_mask_base_uri": "https://maps.gstatic.com/mapfiles/place_api/icons/v2/restaurant_pinlet",
      "name": "Baskin-Robbins",
      "opening_hours": {
        "open_now": true
      },
      "photos": [
        {
          "height": 3024,
          "html_attributions": [
            "<a href=\"https://maps.google.com/maps/contrib/108094364980986851763\">Oku Okoko</a>"
          ],
          "photo_reference": "AeJbb3d4xqACV4cm3Wt9GdgOHAagrCj12WySzUnJGWmMcezPbHbM4rwVb9flIHeluUkT1QqY8U9P-iKV0CnX8rWNZatx9weCDXK1z61YAxlYhIVlUnvR7jcwTonzQXcCNSBizGb-4dTNxAsgI192BWSSutX5tXY9ToS0ZyDjBUKyT_tb-suO",
          "width": 4032
        }
      ],
      "place_id": "ChIJqYLHJU9cwokR46WSPTVFBXM",
      "plus_code": {
        "compound_code": "M4H2+7M New York, NY, USA",
        "global_code": "87G8M4H2+7M"
      },
      "price_level": 1,
      "rating": 4.1,
      "reference": "ChIJqYLHJU9cwokR46WSPTVFBXM",
      "scope": "GOOGLE",
      "types": [
        "bakery",
        "food",
        "point_of_interest",
        "store",
        "establishment"
      ],
      "user_ratings_total": 31,
      "vicinity": "43 Jamaica Avenue, Brooklyn"
    }
  ],
  "status": "OK"
}