{
  "html_attributions": [],
  "results": [
    {
      "geometry": {
        "location": {
          "lat": 40.7127753,
          "lng": -74.0059728
        },
        "viewport": {
          "northeast": {
            "lat": 40.91757705070789,
            "lng": -73.70027206817629
          },
          "southwest": {
            "lat": 40.47739906045452,
            "lng": -74.25908991427882
          }
        }
      },
      "icon": "https://maps.gstatic.com/mapfiles/place_api/icons/v1/png_71/geocode-71.png",
      "icon_background_color": "#7B9EB0",
      "icon_mask_base_uri": "https://maps.gstatic.com/mapfiles/place_api/icons/v2/generic_pinlet",
      "name": "\u7d10\u7d04",
      "photos": [
        {
          "height": 600,
          "html_attributions": [
            "<a href=\"https://maps.google.com/maps/contrib/102389334567210814614\">Bukurie</a>"
          ],
          "photo_reference": "AeJbb3fSiWs0BhW9UnvHpGfUNEW4tXsxN7c2-AZfWQVpHlkBGtnx8xlUKykuVV80bB6gD0wEq3C9Sg7biII-0YmP4MzJOfiSK546BAGE-s7MmAVXsJHP0953CZ54Y55_g6_E6ylnkSOPvREOyNXv_YyLQWOcrcojYHdN8wDql6FiSHRPsuIH",
          "width": 480
        }
      ],
      "place_id": "ChIJOwg_06VPwokRYv534QaPC8g",
      "reference": "ChIJOwg_06VPwokRYv534QaPC8g",
      "scope": "GOOGLE",
      "types": [
        "locality",
        "political"
      ],
      "vicinity": "\u7d10\u7d04"
    },
    {
      "business_status": "OPERATIONAL",
      "geometry": {
        "location": {
          "lat": 40.684079,
          "lng": -73.90920919999999
        },
        "viewport": {
          "northeast": {
            "lat": 40.68553573029151,
            "lng": -73.9077539697085
          },
          "southwest": {
            "lat": 40.68283776970851,
            "lng": -73.9104519302915
          }
        }
      },
      "icon": "https://maps.gstatic.com/mapfiles/place_api/icons/v1/png_71/generic_business-71.png",
      "icon_background_color": "#7B9EB0",
      "icon_mask_base_uri": "https://maps.gstatic.com/mapfiles/place_api/icons/v2/generic_pinlet",
      "name": "Family Dynamics",
      "place_id": "ChIJ8dOu9UBcwokRf3GHpJqE924",
      "plus_code": {
        "compound_code": "M3MR+J8 \u7f8e\u570b\u7d10\u7d04",
        "global_code": "87G8M3MR+J8"
      },
      "rating": 5,
      "reference": "ChIJ8dOu9UBcwokRf3GHpJqE924",
      "scope": "GOOGLE",
      "types": [
        "point_of_interest",
        "establishment"
      ],
      "user_ratings_total": 1,
      "vicinity": "1420 Bushwick Avenue, Brooklyn"
    },
    {
      "business_status": "OPERATIONAL",
      "geometry": {
        "location": {
          "lat": 40.6806629,
          "lng": -73.90321589999999
        },
        "viewport": {
          "northeast": {
            "lat": 40.6820349302915,
            "lng": -73.90189306970849
          },
          "southwest": {
            "lat": 40.6793369697085,
            "lng": -73.90459103029151
          }
        }
      },
      "icon": "https://maps.gstatic.com/mapfiles/place_api/icons/v1/png_71/gas_station-71.png",
      "icon_background_color": "#909CE1",
      "icon_mask_base_uri": "https://maps.gstatic.com/mapfiles/place_api/icons/v2/gas_pinlet",
      "name": "bp",
      "opening_hours": {
        "open_now": true
      },
      "photos": [
        {
          "height": 960,
          "html_attributions": [
            "<a href=\"https://maps.google.com/maps/contrib/110025650238814612254\">Pete R</a>"
          ],
          "photo_reference": "AeJbb3e-1Wln-XCFK7nO4823dxM1c1zTwZbJzIKKDcAQ7KKLr3H6OLKB_aWPjjixrehfGrkAq_ZeHMEB8f_GI-i9ZM-ee0ut2n27J2dpt7bC-II-Q6MxArbeFoVjaYlJ6dw7zGlzv0XmGMwTNXxPL-YmyCiqCtBNJgMgiGbuC6M4a5tEQaja",
          "width": 1148
        }
      ],
      "place_id": "ChIJmwzrEE9cwokRGIyHR43PZ9o",
      "plus_code": {
        "compound_code": "M3JW+7P \u7f8e\u570b\u7d10\u7d04",
        "global_code": "87G8M3JW+7P"
      },
      "rating": 3,
      "reference": "ChIJmwzrEE9cwokRGIyHR43PZ9o",
      "scope": "GOOGLE",
      "types": [
        "gas_station",
        "convenience_store",
        "point_of_interest",
        "food",
        "store",
        "establishment"
      ],
      "user_ratings_total": 20,
      "vicinity": "1610 Bushwick Avenue, Brooklyn"
    },
    {
      "business_status": "OPERATIONAL",
      "geometry": {
        "location": {
          "lat": 40.68421720000001,
          "lng": -73.9099809
        },
        "viewport": {
          "northeast": {
            "lat": 40.6855044802915,
            "lng": -73.9085370697085
          },
          "southwest": {
            "lat": 40.6828065197085,
            "lng": -73.91123503029151
          }
        }
      },
      "icon": "https://maps.gstatic.com/mapfiles/place_api/icons/v1/png_71/generic_business-71.png",
      "icon_background_color": "#7B9EB0",
      "icon_mask_base_uri": "https://maps.gstatic.com/mapfiles/place_api/icons/v2/generic_pinlet",
      "name": "FlickerLab",
      "opening_hours": {
        "open_now": false
      },
      "photos": [
        {
          "height": 380,
          "html_attributions": [
            "<a href=\"https://maps.google.com/maps/contrib/109379955934437063908\">FlickerLab</a>"
          ],
          "photo_reference": "AeJbb3ewheNzBU6Ff5UsSwxdWFDM_mzkwlZzMC1QQFerM3dU-fsk3nwuPMs7JZS78MYDVm8BTuh2wHp89N8zefpQcPrjHYF6Ezgjf0KSfNbWDYYICZK_kJdgCEITNvL7-fQvYqIwTSvv05zcGp4UCNfNJXK3jvn6le2wSrD7xPsJWQoOV3Jx",
          "width": 979
        }
      ],
      "place_id": "ChIJP1Y1145ZwokRJHwhF49lgzU",
      "plus_code": {
        "compound_code": "M3MR+M2 \u7f8e\u570b\u7d10\u7d04\u5e03\u9c81\u514b\u6797",
        "global_code": "87G8M3MR+M2"
      },
      "reference": "ChIJP1Y1145ZwokRJHwhF49lgzU",
      "scope": "GOOGLE",
      "types": [
        "point_of_interest",
        "establishment"
      ],
      "vicinity": "43 Moffat Street #1, Brooklyn"
    },
    {
      "business_status": "CLOSED_TEMPORARILY",
      "geometry": {
        "location": {
          "lat": 40.6835288,
          "lng": -73.91107269999999
        },
        "viewport": {
          "northeast": {
            "lat": 40.68478798029149,
            "lng": -73.9098109697085
          },
          "southwest": {
            "lat": 40.6820900197085,
            "lng": -73.91250893029151
          }
        }
      },
      "icon": "https://maps.gstatic.com/mapfiles/place_api/icons/v1/png_71/generic_business-71.png",
      "icon_background_color": "#13B5C7",
      "icon_mask_base_uri": "https://maps.gstatic.com/mapfiles/place_api/icons/v2/generic_pinlet",
      "name": "The Coop",
      "permanently_closed": true,
      "place_id": "ChIJj9k6NEBcwokR_DgLCq5TSsk",
      "plus_code": {
        "compound_code": "M3MQ+CH \u7f8e\u570b\u7d10\u7d04",
        "global_code": "87G8M3MQ+CH"
      },
      "reference": "ChIJj9k6NEBcwokR_DgLCq5TSsk",
      "scope": "GOOGLE",
      "types": [
        "electronics_store",
        "home_goods_store",
        "point_of_interest",
        "store",
        "establishment"
      ],
      "vicinity": "1723 Broadway, Brooklyn"
    },
    {
      "business_status": "OPERATIONAL",
      "geometry": {
        "location": {
          "lat": 40.6837254,
          "lng": -73.9116396
        },
        "viewport": {
          "northeast": {
            "lat": 40.68507098029151,
            "lng": -73.91038501970849
          },
          "southwest": {
            "lat": 40.68237301970851,
            "lng": -73.9130829802915
          }
        }
      },
      "icon": "https://maps.gstatic.com/mapfiles/place_api/icons/v1/png_71/restaurant-71.png",
      "icon_background_color": "#FF9E67",
      "icon_mask_base_uri": "https://maps.gstatic.com/mapfiles/place_api/icons/v2/restaurant_pinlet",
      "name": "Subway",
      "opening_hours": {
        "open_now": true
      },
      "photos": [
        {
          "height": 2340,
          "html_attributions": [
            "<a href=\"https://maps.google.com/maps/contrib/106982792855868719851\">Ming Liu</a>"
          ],
          "photo_reference": "AeJbb3fhbXO5IbJBggabgOVsQ0NdxJpt9DFFfsiRJw-3gRKocIk95eKQVBd8Y1Fhj-UKtwBSn-LEvi5Y_ICEU8Gf4-nsK32f1rcsedh86qwIuDikvsV7GRCHbUBo-HdYFiaL9FzPSE5bHSCdiGydqEPz3-84GsKqDDSNxghzRj6HEBEmndi-",
          "width": 4160
        }
      ],
      "place_id": "ChIJuefldRJcwokR4XehM7SC2vM",
      "plus_code": {
        "compound_code": "M3MQ+F8 \u7f8e\u570b\u7d10\u7d04",
        "global_code": "87G8M3MQ+F8"
      },
      "price_level": 1,
      "rating": 3.5,
      "reference": "ChIJuefldRJcwokR4XehM7SC2vM",
      "scope": "GOOGLE",
      "types": [
        "meal_takeaway",
        "restaurant",
        "point_of_interest",
        "food",
        "establishment"
      ],
      "user_ratings_total": 175,
      "vicinity": "1709 Broadway Store # 10, Brooklyn"
    },
    {
      "business_status": "OPERATIONAL",
      "geometry": {
        "location": {
          "lat": 40.684079,
          "lng": -73.90920919999999
        },
        "viewport": {
          "northeast": {
            "lat": 40.68553573029151,
            "lng": -73.9077539697085
          },
          "southwest": {
            "lat": 40.68283776970851,
            "lng": -73.9104519302915
          }
        }
      },
      "icon": "https://maps.gstatic.com/mapfiles/place_api/icons/v1/png_71/generic_business-71.png",
      "icon_background_color": "#7B9EB0",
      "icon_mask_base_uri": "https://maps.gstatic.com/mapfiles/place_api/icons/v2/generic_pinlet",
      "name": "Gonzalez Reinaldo",
      "place_id": "ChIJ8dOu9UBcwokR6SHhdMKLOg4",
      "plus_code": {
        "compound_code": "M3MR+J8 \u7f8e\u570b\u7d10\u7d04",
        "global_code": "87G8M3MR+J8"
      },
      "reference": "ChIJ8dOu9UBcwokR6SHhdMKLOg4",
      "scope": "GOOGLE",
      "types": [
        "doctor",
        "point_of_interest",
        "health",
        "establishment"
      ],
      "vicinity": "1420 Bushwick Avenue, Brooklyn"
    },
    {
      "business_status": "OPERATIONAL",
      "geometry": {
        "location": {
          "lat": 40.684079,
          "lng": -73.90920919999999
        },
        "viewport": {
          "northeast": {
            "lat": 40.68553573029151,
            "lng": -73.9077539697085
          },
          "southwest": {
            "lat": 40.68283776970851,
            "lng": -73.9104519302915
          }
        }
      },
      "icon": "https://maps.gstatic.com/mapfiles/place_api/icons/v1/png_71/generic_business-71.png",
      "icon_background_color": "#7B9EB0",
      "icon_mask_base_uri": "https://maps.gstatic.com/mapfiles/place_api/icons/v2/generic_pinlet",
      "name": "Federici Jessica",
      "place_id": "ChIJ8dOu9UBcwokRFP3HGUBTG5o",
      "plus_code": {
        "compound_code": "M3MR+J8 \u7f8e\u570b\u7d10\u7d04",
        "global_code": "87G8M3MR+J8"
      },
      "reference": "ChIJ8dOu9UBcwokRFP3HGUBTG5o",
      "scope": "GOOGLE",
      "types": [
        "doctor",
        "point_of_interest",
        "health",
        "establishment"
      ],
      "vicinity": "1420 Bushwick Avenue, Brooklyn"
    },
    {
      "business_status": "CLOSED_TEMPORARILY",
      "geometry": {
        "location": {
          "lat": 40.68411469999999,
          "lng": -73.90922929999999
        },
        "viewport": {
          "northeast": {
            "lat": 40.6855636302915,
            "lng": -73.90778176970849
          },
          "southwest": {
            "lat": 40.6828656697085,
            "lng": -73.9104797302915
          }
        }
      },
      "icon": "https://maps.gstatic.com/mapfiles/place_api/icons/v1/png_71/generic_business-71.png",
      "icon_background_color": "#7B9EB0",
      "icon_mask_base_uri": "https://maps.gstatic.com/mapfiles/place_api/icons/v2/generic_pinlet",
      "name": "Jasmin A. Tanjeloff, MA",
      "permanently_closed": true,
      "place_id": "ChIJ8dOu9UBcwokRFmgd44BejnI",
      "plus_code": {
        "compound_code": "M3MR+J8 \u7f8e\u570b\u7d10\u7d04",
        "global_code": "87G8M3MR+J8"
      },
      "rating": 5,
      "reference": "ChIJ8dOu9UBcwokRFmgd44BejnI",
      "scope": "GOOGLE",
      "types": [
        "point_of_interest",
        "health",
        "establishment"
      ],
      "user_ratings_total": 1,
      "vicinity": "1420 Bushwick Avenue, Brooklyn"
    },
    {
      "business_status": "OPERATIONAL",
      "geometry": {
        "location": {
          "lat": 40.684079,
          "lng": -73.90920919999999
        },
        "viewport": {
          "northeast": {
            "lat": 40.68553573029151,
            "lng": -73.9077539697085
          },
          "southwest": {
            "lat": 40.68283776970851,
            "lng": -73.9104519302915
          }
        }
      },
      "icon": "https://maps.gstatic.com/mapfiles/place_api/icons/v1/png_71/generic_business-71.png",
      "icon_background_color": "#7B9EB0",
      "icon_mask_base_uri": "https://maps.gstatic.com/mapfiles/place_api/icons/v2/generic_pinlet",
      "name": "Blanco Carmen",
      "place_id": "ChIJ8dOu9UBcwokRV1-nZiLd2Kg",
      "plus_code": {
        "compound_code": "M3MR+J8 \u7f8e\u570b\u7d10\u7d04",
        "global_code": "87G8M3MR+J8"
      },
      "reference": "ChIJ8dOu9UBcwokRV1-nZiLd2Kg",
      "scope": "GOOGLE",
      "types": [
        "point_of_interest",
        "health",
        "establishment"
      ],
      "vicinity": "1420 Bushwick Avenue, Brooklyn"
    },
    {
      "business_status": "OPERATIONAL",
      "geometry": {
        "location": {
          "lat": 40.684079,
          "lng": -73.90920919999999
        },
        "viewport": {
          "northeast": {
            "lat": 40.68553573029151,
            "lng": -73.9077539697085
          },
          "southwest": {
            "lat": 40.68283776970851,
            "lng": -73.9104519302915
          }
        }
      },
      "icon": "https://maps.gstatic.com/mapfiles/place_api/icons/v1/png_71/generic_business-71.png",
      "icon_background_color": "#7B9EB0",
      "icon_mask_base_uri": "https://maps.gstatic.com/mapfiles/place_api/icons/v2/generic_pinlet",
      "name": "Denny Allison",
      "place_id": "ChIJ8dOu9UBcwokRL4_tXO8FhyQ",
      "plus_code": {
        "compound_code": "M3MR+J8 \u7f8e\u570b\u7d10\u7d04",
        "global_code": "87G8M3MR+J8"
      },
      "rating": 1,
      "reference": "ChIJ8dOu9UBcwokRL4_tXO8FhyQ",
      "scope": "GOOGLE",
      "types": [
        "physiotherapist",
        "point_of_interest",
        "health",
        "establishment"
      ],
      "user_ratings_total": 1,
      "vicinity": "1420 Bushwick Avenue, Brooklyn"
    },
    {
      "business_status": "OPERATIONAL",
      "geometry": {
        "location": {
          "lat": 40.684079,
          "lng": -73.90920919999999
        },
        "viewport": {
          "northeast": {
            "lat": 40.68553573029151,
            "lng": -73.9077539697085
          },
          "southwest": {
            "lat": 40.68283776970851,
            "lng": -73.9104519302915
          }
        }
      },
      "icon": "https://maps.gstatic.com/mapfiles/place_api/icons/v1/png_71/generic_business-71.png",
      "icon_background_color": "#7B9EB0",
      "icon_mask_base_uri": "https://maps.gstatic.com/mapfiles/place_api/icons/v2/generic_pinlet",
      "name": "SCO Family of Services",
      "place_id": "ChIJ8dOu9UBcwokRURdHCV9eEpw",
      "plus_code": {
        "compound_code": "M3MR+J8 \u7f8e\u570b\u7d10\u7d04",
        "global_code": "87G8M3MR+J8"
      },
      "rating": 3,
      "reference": "ChIJ8dOu9UBcwokRURdHCV9eEpw",
      "scope": "GOOGLE",
      "types": [
        "point_of_interest",
        "establishment"
      ],
      "user_ratings_total": 4,
      "vicinity": "1420 Bushwick Avenue, Brooklyn"
    },
    {
      "business_status": "OPERATIONAL",
      "geometry": {
        "location": {
          "lat": 40.684104,
          "lng": -73.90922429999999
        },
        "viewport": {
          "northeast": {
            "lat": 40.6855554802915,
            "lng": -73.90777426970848
          },
          "southwest": {
            "lat": 40.6828575197085,
            "lng": -73.91047223029149
          }
        }
      },
      "icon": "https://maps.gstatic.com/mapfiles/place_api/icons/v1/png_71/generic_business-71.png",
      "icon_background_color": "#7B9EB0",
      "icon_mask_base_uri": "https://maps.gstatic.com/mapfiles/place_api/icons/v2/generic_pinlet",
      "name": "Bushwick Health Center",
      "photos": [
        {
          "height": 3024,
          "html_attributions": [
            "<a href=\"https://maps.google.com/maps/contrib/108574306133013403622\">Miguel A. Ortiz</a>"
          ],
          "photo_reference": "AeJbb3fI0xrSj_bYOr0aDBU7GXRErlRLf8Ir64jEnMLh9zRpipEo8wL-u441pnMR9m9afhQiY8Fr7-WjIah5O2rE_szK3tZzZqOSrC_5DCBIQUu88YLq5I1UoArq6QB-b2j9e8ajafTlRqnk3_cL9XNkEmB4mENT69YZK9Th0Ex0BpFsBlgQ",
          "width": 4032
        }
      ],
      "place_id": "ChIJ8dOu9UBcwokROaHL-nsypRc",
      "plus_code": {
        "compound_code": "M3MR+J8 \u7f8e\u570b\u7d10\u7d04\u5e03\u9c81\u514b\u6797",
        "global_code": "87G8M3MR+J8"
      },
      "rating": 3.1,
      "reference": "ChIJ8dOu9UBcwokROaHL-nsypRc",
      "scope": "GOOGLE",
      "types": [
        "point_of_interest",
        "establishment"
      ],
      "user_ratings_total": 15,
      "vicinity": "1420 Bushwick Avenue, Brooklyn"
    },
    {
      "business_status": "OPERATIONAL",
      "geometry": {
        "location": {
          "lat": 40.684079,
          "lng": -73.90920919999999
        },
        "viewport": {
          "northeast": {
            "lat": 40.68553573029151,
            "lng": -73.9077539697085
          },
          "southwest": {
            "lat": 40.68283776970851,
            "lng": -73.9104519302915
          }
        }
      },
      "icon": "https://maps.gstatic.com/mapfiles/place_api/icons/v1/png_71/generic_business-71.png",
      "icon_background_color": "#7B9EB0",
      "icon_mask_base_uri": "https://maps.gstatic.com/mapfiles/place_api/icons/v2/generic_pinlet",
      "name": "FSN",
      "place_id": "ChIJ8dOu9UBcwokR86H325D2Jqo",
      "plus_code": {
        "compound_code": "M3MR+J8 \u7f8e\u570b\u7d10\u7d04",
        "global_code": "87G8M3MR+J8"
      },
      "rating": 4,
      "reference": "ChIJ8dOu9UBcwokR86H325D2Jqo",
      "scope": "GOOGLE",
      "types": [
        "point_of_interest",
        "establishment"
      ],
      "user_ratings_total": 1,
      "vicinity": "1420 Bushwick Avenue, Brooklyn"
    },
    {
      "business_status": "OPERATIONAL",
      "geometry": {
        "location": {
          "lat": 40.684079,
          "lng": -73.90920919999999
        },
        "viewport": {
          "northeast": {
            "lat": 40.68553573029151,
            "lng": -73.9077539697085
          },
          "southwest": {
            "lat": 40.68283776970851,
            "lng": -73.9104519302915
          }
        }
      },
      "icon": "https://maps.gstatic.com/mapfiles/place_api/icons/v1/png_71/generic_business-71.png",
      "icon_background_color": "#7B9EB0",
      "icon_mask_base_uri": "https://maps.gstatic.com/mapfiles/place_api/icons/v2/generic_pinlet",
      "name": "Bushwick Community Services Society",
      "place_id": "ChIJ_-ndrkFcwokR5fq83SRe9Uc",
      "plus_code": {
        "compound_code": "M3MR+J8 \u7f8e\u570b\u7d10\u7d04",
        "global_code": "87G8M3MR+J8"
      },
      "reference": "ChIJ_-ndrkFcwokR5fq83SRe9Uc",
      "scope": "GOOGLE",
      "types": [
        "point_of_interest",
        "establishment"
      ],
      "vicinity": "1420 Bushwick Avenue, Brooklyn"
    },
    {
      "business_status": "OPERATIONAL",
      "geometry": {
        "location": {
          "lat": 40.684079,
          "lng": -73.90920919999999
        },
        "viewport": {
          "northeast": {
            "lat": 40.68553573029151,
            "lng": -73.9077539697085
          },
          "southwest": {
            "lat": 40.68283776970851,
            "lng": -73.9104519302915
          }
        }
      },
      "icon": "https://maps.gstatic.com/mapfiles/place_api/icons/v1/png_71/generic_business-71.png",
      "icon_background_color": "#7B9EB0",
      "icon_mask_base_uri": "https://maps.gstatic.com/mapfiles/place_api/icons/v2/generic_pinlet",
      "name": "Milford L",
      "place_id": "ChIJ8dOu9UBcwokR5zXNHPpqYqk",
      "plus_code": {
        "compound_code": "M3MR+J8 \u7f8e\u570b\u7d10\u7d04",
        "global_code": "87G8M3MR+J8"
      },
      "reference": "ChIJ8dOu9UBcwokR5zXNHPpqYqk",
      "scope": "GOOGLE",
      "types": [
        "doctor",
        "point_of_interest",
        "health",
        "establishment"
      ],
      "vicinity": "1420 Bushwick Avenue, Brooklyn"
    },
    {
      "business_status": "OPERATIONAL",
      "geometry": {
        "location": {
          "lat": 40.684079,
          "lng": -73.90920919999999
        },
        "viewport": {
          "northeast": {
            "lat": 40.68553573029151,
            "lng": -73.9077539697085
          },
          "southwest": {
            "lat": 40.68283776970851,
            "lng": -73.9104519302915
          }
        }
      },
      "icon": "https://maps.gstatic.com/mapfiles/place_api/icons/v1/png_71/generic_business-71.png",
      "icon_background_color": "#7B9EB0",
      "icon_mask_base_uri": "https://maps.gstatic.com/mapfiles/place_api/icons/v2/generic_pinlet",
      "name": "Bryce M",
      "place_id": "ChIJ8dOu9UBcwokRE9aMJSi3RUU",
      "plus_code": {
        "compound_code": "M3MR+J8 \u7f8e\u570b\u7d10\u7d04",
        "global_code": "87G8M3MR+J8"
      },
      "reference": "ChIJ8dOu9UBcwokRE9aMJSi3RUU",
      "scope": "GOOGLE",
      "types": [
        "doctor",
        "point_of_interest",
        "health",
        "establishment"
      ],
      "vicinity": "1420 Bushwick Avenue, Brooklyn"
    },
    {
      "business_status": "OPERATIONAL",
      "geometry": {
        "location": {
          "lat": 40.68411469999999,
          "lng": -73.90922929999999
        },
        "viewport": {
          "northeast": {
            "lat": 40.6855636302915,
            "lng": -73.90778176970849
          },
          "southwest": {
            "lat": 40.6828656697085,
            "lng": -73.9104797302915
          }
        }
      },
      "icon": "https://maps.gstatic.com/mapfiles/place_api/icons/v1/png_71/generic_business-71.png",
      "icon_background_color": "#7B9EB0",
      "icon_mask_base_uri": "https://maps.gstatic.com/mapfiles/place_api/icons/v2/generic_pinlet",
      "name": "Lydia Radziul, LMSW",
      "place_id": "ChIJ8dOu9UBcwokRhu18J7yivKI",
      "plus_code": {
        "compound_code": "M3MR+J8 \u7f8e\u570b\u7d10\u7d04",
        "global_code": "87G8M3MR+J8"
      },
      "reference": "ChIJ8dOu9UBcwokRhu18J7yivKI",
      "scope": "GOOGLE",
      "types": [
        "doctor",
        "point_of_interest",
        "health",
        "establishment"
      ],
      "vicinity": "1420 Bushwick Avenue, Brooklyn"
    },
    {
      "business_status": "OPERATIONAL",
      "geometry": {
        "location": {
          "lat": 40.684079,
          "lng": -73.90920919999999
        },
        "viewport": {
          "northeast": {
            "lat": 40.68553573029151,
            "lng": -73.9077539697085
          },
          "southwest": {
            "lat": 40.68283776970851,
            "lng": -73.9104519302915
          }
        }
      },
      "icon": "https://maps.gstatic.com/mapfiles/place_api/icons/v1/png_71/generic_business-71.png",
      "icon_background_color": "#7B9EB0",
      "icon_mask_base_uri": "https://maps.gstatic.com/mapfiles/place_api/icons/v2/generic_pinlet",
      "name": "Delton Lola",
      "place_id": "ChIJ8dOu9UBcwokRzhGfPvaFHas",
      "plus_code": {
        "compound_code": "M3MR+J8 \u7f8e\u570b\u7d10\u7d04",
        "global_code": "87G8M3MR+J8"
      },
      "reference": "ChIJ8dOu9UBcwokRzhGfPvaFHas",
      "scope": "GOOGLE",
      "types": [
        "point_of_interest",
        "health",
        "establishment"
      ],
      "vicinity": "1420 Bushwick Avenue, Brooklyn"
    },
    {
      "geometry": {
        "location": {
          "lat": 40.6781784,
          "lng": -73.9441579
        },
        "viewport": {
          "northeast": {
            "lat": 40.73944597129348,
            "lng": -73.83336505117123
          },
          "southwest": {
            "lat": 40.55104197967331,
            "lng": -74.05662998413648
          }
        }
      },
      "icon": "https://maps.gstatic.com/mapfiles/place_api/icons/v1/png_71/geocode-71.png",
      "icon_background_color": "#7B9EB0",
      "icon_mask_base_uri": "https://maps.gstatic.com/mapfiles/place_api/icons/v2/generic_pinlet",
      "name": "\u5e03\u9c81\u514b\u6797",
      "photos": [
        {
          "height": 3024,
          "html_attributions": [
            "<a href=\"https://maps.google.com/maps/contrib/114417859579881743500\">Chengxiang Yuan</a>"
          ],
          "photo_reference": "AeJbb3dGgj2VUQdQvJwiY3pkmCYbwHbOzrNXns1Wdo5VeUEvi5CyIW0RsDlI_JUZew5d6xmwgsKMwvXIqbcqE1TUEAv5OqXELP6tH9mRWvIoyDeZJOa9xzwL0cgQ6DwP674-68RNqAapvMMcuM6KBkY5r905UQQ69xXY-Iue3UrxvVXpjn2s",
          "width": 4032
        }
      ],
      "place_id": "ChIJCSF8lBZEwokRhngABHRcdoI",
      "reference": "ChIJCSF8lBZEwokRhngABHRcdoI",
      "scope": "GOOGLE",
      "types": [
        "sublocality_level_1",
        "sublocality",
        "political"
      ],
      "vicinity": "\u5e03\u9c81\u514b\u6797"
    },
    {
      "business_status": "OPERATIONAL",
      "geometry": {
        "location": {
          "lat": 40.681002,
          "lng": -73.913139
        },
        "viewport": {
          "northeast": {
            "lat": 40.68224688029149,
            "lng": -73.91176951970849
          },
          "southwest": {
            "lat": 40.6795489197085,
            "lng": -73.9144674802915
          }
        }
      },
      "icon": "https://maps.gstatic.com/mapfiles/place_api/icons/v1/png_71/lodging-71.png",
      "icon_background_color": "#909CE1",
      "icon_mask_base_uri": "https://maps.gstatic.com/mapfiles/place_api/icons/v2/hotel_pinlet",
      "name": "Quick Silver",
      "place_id": "ChIJB6DGAmpcwokRhu048nT1Mfk",
      "plus_code": {
        "compound_code": "M3JP+CP Brooklyn, NY, USA",
        "global_code": "87G8M3JP+CP"
      },
      "reference": "ChIJB6DGAmpcwokRhu048nT1Mfk",
      "scope": "GOOGLE",
      "types": [
        "lodging",
        "point_of_interest",
        "establishment"
      ],
      "vicinity": "295A Sumpter Street, Brooklyn"
    },
    {
      "business_status": "OPERATIONAL",
      "geometry": {
        "location": {
          "lat": 40.68045759999999,
          "lng": -73.90341750000002
        },
        "viewport": {
          "northeast": {
            "lat": 40.6818697302915,
            "lng": -73.90198486970851
          },
          "southwest": {
            "lat": 40.6791717697085,
            "lng": -73.90468283029152
          }
        }
      },
      "icon": "https://maps.gstatic.com/mapfiles/place_api/icons/v1/png_71/cafe-71.png",
      "icon_background_color": "#FF9E67",
      "icon_mask_base_uri": "https://maps.gstatic.com/mapfiles/place_api/icons/v2/cafe_pinlet",
      "name": "Dunkin'",
      "opening_hours": {
        "open_now": true
      },
      "photos": [
        {
          "height": 2304,
          "html_attributions": [
            "<a href=\"https://maps.google.com/maps/contrib/110710082132343728426\">jaime alvarez</a>"
          ],
          "photo_reference": "AeJbb3cHT6Oofzhdv4_QatdYdiRLUHBbQUUbrsCF2qi0Db-qjq6OxqviqBYMz0qV4eV1-CnW91ivU6ZLx0VIj6ymrfVd5yGhGaMD5ktqYIFhOK4N6GSsl-lSDopoHM_iN1xssc09_0y77TZyjK1VGNq9gc-yp9sMkUDgRMuwKcD3p2ndjgZD",
          "width": 4096
        }
      ],
      "place_id": "ChIJLQ21ZkZcwokRyJFTwfyGy2U",
      "plus_code": {
        "compound_code": "M3JW+5J New York, NY, USA",
        "global_code": "87G8M3JW+5J"
      },
      "price_level": 1,
      "rating": 3.7,
      "reference": "ChIJLQ21ZkZcwokRyJFTwfyGy2U",
      "scope": "GOOGLE",
      "types": [
        "cafe",
        "meal_takeaway",
        "bakery",
        "restaurant",
        "food",
        "point_of_interest",
        "store",
        "establishment"
      ],
      "user_ratings_total": 136,
      "vicinity": "1610 Bushwick Avenue, Brooklyn"
    },
    {
      "business_status": "OPERATIONAL",
      "geometry": {
        "location": {
          "lat": 40.6776195,
          "lng": -73.9085698
        },
        "viewport": {
          "northeast": {
            "lat": 40.6788639302915,
            "lng": -73.90730031970848
          },
          "southwest": {
            "lat": 40.6761659697085,
            "lng": -73.90999828029149
          }
        }
      },
      "icon": "https://maps.gstatic.com/mapfiles/place_api/icons/v1/png_71/school-71.png",
      "icon_background_color": "#7B9EB0",
      "icon_mask_base_uri": "https://maps.gstatic.com/mapfiles/place_api/icons/v2/school_pinlet",
      "name": "P.S./ I.S. 155 Nicholas Herkimer",
      "place_id": "ChIJ4S9nD0NcwokRYlraAUblG8k",
      "plus_code": {
        "compound_code": "M3HR+2H New York, NY, USA",
        "global_code": "87G8M3HR+2H"
      },
      "rating": 2.3,
      "reference": "ChIJ4S9nD0NcwokRYlraAUblG8k",
      "scope": "GOOGLE",
      "types": [
        "primary_school",
        "school",
        "point_of_interest",
        "establishment"
      ],
      "user_ratings_total": 8,
      "vicinity": "1355 Herkimer Street, Brooklyn"
    },
    {
      "business_status": "OPERATIONAL",
      "geometry": {
        "location": {
          "lat": 40.683801,
          "lng": -73.90753509999999
        },
        "viewport": {
          "northeast": {
            "lat": 40.6851889802915,
            "lng": -73.90625751970849
          },
          "southwest": {
            "lat": 40.6824910197085,
            "lng": -73.9089554802915
          }
        }
      },
      "icon": "https://maps.gstatic.com/mapfiles/place_api/icons/v1/png_71/generic_business-71.png",
      "icon_background_color": "#7B9EB0",
      "icon_mask_base_uri": "https://maps.gstatic.com/mapfiles/place_api/icons/v2/generic_pinlet",
      "name": "Borinquen Memorial Funeral Home",
      "opening_hours": {
        "open_now": true
      },
      "photos": [
        {
          "height": 3688,
          "html_attributions": [
            "<a href=\"https://maps.google.com/maps/contrib/100692931726088788286\">Borinquen Memorial Funeral Home</a>"
          ],
          "photo_reference": "AeJbb3eOzm9rcmiUD2P5UDYbl2zQaqQFGKpgpbC5_hcz1J5SDXPtAcY_oyV8wY-nFA58TtmnGB0zhrxI8msTDneqwgiUbxTiR_iXwX5IJOg6oYlw42JPZSRZjGxJ2XDnz-sUCp3ESnqbNJEWydE3RQAdIDQb2lpHV0cc7wUINily4yLl8Yx6",
          "width": 2766
        }
      ],
      "place_id": "ChIJF2UBx0BcwokRrZfafjNfYYA",
      "plus_code": {
        "compound_code": "M3MR+GX New York, NY, USA",
        "global_code": "87G8M3MR+GX"
      },
      "rating": 4.6,
      "reference": "ChIJF2UBx0BcwokRrZfafjNfYYA",
      "scope": "GOOGLE",
      "types": [
        "funeral_home",
        "point_of_interest",
        "establishment"
      ],
      "user_ratings_total": 39,
      "vicinity": "1461 Bushwick Avenue, Brooklyn"
    },
    {
      "business_status": "OPERATIONAL",
      "geometry": {
        "location": {
          "lat": 40.6821174,
          "lng": -73.9055633
        },
        "viewport": {
          "northeast": {
            "lat": 40.6835355302915,
            "lng": -73.90414601970849
          },
          "southwest": {
            "lat": 40.6808375697085,
            "lng": -73.9068439802915
          }
        }
      },
      "icon": "https://maps.gstatic.com/mapfiles/place_api/icons/v1/png_71/shopping-71.png",
      "icon_background_color": "#4B96F3",
      "icon_mask_base_uri": "https://maps.gstatic.com/mapfiles/place_api/icons/v2/shopping_pinlet",
      "name": "Zakis Auto Sales",
      "opening_hours": {
        "open_now": true
      },
      "photos": [
        {
          "height": 3024,
          "html_attributions": [
            "<a href=\"https://maps.google.com/maps/contrib/117972520942994150511\">LUIS EDUARDO RODRIGUEZ</a>"
          ],
          "photo_reference": "AeJbb3dLiSPyImaCXHYNRpVb-Q0y0uiMGdGjzdyAIjUsLOtrPaYubfQpcUiv0jKIwJXGNXQG3Uqko1HazGU0OB_PQTo2b6WhTcnPvgNrdDqeZWGEzbgkInuT-hW9qiJaZ98pUNC0HO9-c6bEsRy_QWV4fH_aBoiRPZEBQgZhfRCzw2sTcCbZ",
          "width": 4032
        }
      ],
      "place_id": "ChIJvUsb3kZcwokRlimCZh2iHfo",
      "plus_code": {
        "compound_code": "M3JV+RQ New York, NY, USA",
        "global_code": "87G8M3JV+RQ"
      },
      "rating": 4.4,
      "reference": "ChIJvUsb3kZcwokRlimCZh2iHfo",
      "scope": "GOOGLE",
      "types": [
        "car_dealer",
        "point_of_interest",
        "store",
        "establishment"
      ],
      "user_ratings_total": 79,
      "vicinity": "1540 Bushwick Avenue, Brooklyn"
    },
    {
      "business_status": "OPERATIONAL",
      "geometry": {
        "location": {
          "lat": 40.6821212,
          "lng": -73.9094952
        },
        "viewport": {
          "northeast": {
            "lat": 40.68354688029149,
            "lng": -73.90807126970849
          },
          "southwest": {
            "lat": 40.6808489197085,
            "lng": -73.91076923029149
          }
        }
      },
      "icon": "https://maps.gstatic.com/mapfiles/place_api/icons/v1/png_71/worship_general-71.png",
      "icon_background_color": "#7B9EB0",
      "icon_mask_base_uri": "https://maps.gstatic.com/mapfiles/place_api/icons/v2/worship_christian_pinlet",
      "name": "Mt. Zion Pentecostal Holiness Church Inc.",
      "place_id": "ChIJ-aZxCEFcwokRYNVz1M9xXDo",
      "plus_code": {
        "compound_code": "M3JR+R6 Brooklyn, NY, USA",
        "global_code": "87G8M3JR+R6"
      },
      "reference": "ChIJ-aZxCEFcwokRYNVz1M9xXDo",
      "scope": "GOOGLE",
      "types": [
        "church",
        "place_of_worship",
        "point_of_interest",
        "establishment"
      ],
      "vicinity": "1792 Broadway, Brooklyn"
    },
    {
      "business_status": "OPERATIONAL",
      "geometry": {
        "location": {
          "lat": 40.682386,
          "lng": -73.9099375
        },
        "viewport": {
          "northeast": {
            "lat": 40.6838106302915,
            "lng": -73.9085261697085
          },
          "southwest": {
            "lat": 40.6811126697085,
            "lng": -73.91122413029152
          }
        }
      },
      "icon": "https://maps.gstatic.com/mapfiles/place_api/icons/v1/png_71/restaurant-71.png",
      "icon_background_color": "#FF9E67",
      "icon_mask_base_uri": "https://maps.gstatic.com/mapfiles/place_api/icons/v2/restaurant_pinlet",
      "name": "Egg Roll",
      "opening_hours": {
        "open_now": true
      },
      "photos": [
        {
          "height": 3024,
          "html_attributions": [
            "<a href=\"https://maps.google.com/maps/contrib/109849544050959632007\">Luis Enrique Rivera Cuyar</a>"
          ],
          "photo_reference": "AeJbb3dLHaV9CFOqgoAcYQB0Vo5LvDixiZuNwnDw1v6_qHyBFKCyG0HmX1uc4E233SAUko0pMhPs1jp9-T38qmzbbtjyryPTyg7n9KdQ8hTfuiifjQ5zQh1z897et9c3SEeWjt9_JF44ERU7Vgl2zDML5QNnlkpJCw2_ENDkVrr2ktBz_Cin",
          "width": 4032
        }
      ],
      "place_id": "ChIJjxGMpUFcwokRRA0PiubyV3M",
      "plus_code": {
        "compound_code": "M3JR+X2 New York, NY, USA",
        "global_code": "87G8M3JR+X2"
      },
      "price_level": 1,
      "rating": 3.9,
      "reference": "ChIJjxGMpUFcwokRRA0PiubyV3M",
      "scope": "GOOGLE",
      "types": [
        "meal_delivery",
        "restaurant",
        "food",
        "point_of_interest",
        "establishment"
      ],
      "user_ratings_total": 181,
      "vicinity": "1772 Broadway, Brooklyn"
    },
    {
      "business_status": "OPERATIONAL",
      "geometry": {
        "location": {
          "lat": 40.68139350000001,
          "lng": -73.9046487
        },
        "viewport": {
          "northeast": {
            "lat": 40.6828777802915,
            "lng": -73.9031643197085
          },
          "southwest": {
            "lat": 40.68017981970851,
            "lng": -73.9058622802915
          }
        }
      },
      "icon": "https://maps.gstatic.com/mapfiles/place_api/icons/v1/png_71/shopping-71.png",
      "icon_background_color": "#4B96F3",
      "icon_mask_base_uri": "https://maps.gstatic.com/mapfiles/place_api/icons/v2/shopping_pinlet",
      "name": "Dream Auto Sales Inc",
      "opening_hours": {
        "open_now": true
      },
      "photos": [
        {
          "height": 4032,
          "html_attributions": [
            "<a href=\"https://maps.google.com/maps/contrib/101872518023166623022\">Lisa Tilson</a>"
          ],
          "photo_reference": "AeJbb3eOP4dYdUMGQsNfxU-s7ZvKo_4jvbGdzDpTOE5L0xsE0QOJ2CFGYiI36bInb3fXYdIhp396zolIGaKHPc-gtcW59TA--_VJuHLcYVfVKQPfEXDpBI5E5JUdU_JnZkUjh2KxfjfNG-GQqHtisgQXMud-SI4MsmUrI8ZEgF_YRWpfTGmh",
          "width": 3024
        }
      ],
      "place_id": "ChIJ_bBV7kZcwokRhmVjS0esEMY",
      "plus_code": {
        "compound_code": "M3JW+H4 Brooklyn, NY, USA",
        "global_code": "87G8M3JW+H4"
      },
      "rating": 4.9,
      "reference": "ChIJ_bBV7kZcwokRhmVjS0esEMY",
      "scope": "GOOGLE",
      "types": [
        "car_dealer",
        "point_of_interest",
        "store",
        "establishment"
      ],
      "user_ratings_total": 156,
      "vicinity": "1580 Bushwick Avenue, Brooklyn"
    },
    {
      "business_status": "OPERATIONAL",
      "geometry": {
        "location": {
          "lat": 40.6825465,
          "lng": -73.909255
        },
        "viewport": {
          "northeast": {
            "lat": 40.68377673029149,
            "lng": -73.9079817697085
          },
          "southwest": {
            "lat": 40.6810787697085,
            "lng": -73.9106797302915
          }
        }
      },
      "icon": "https://maps.gstatic.com/mapfiles/place_api/icons/v1/png_71/shopping-71.png",
      "icon_background_color": "#4B96F3",
      "icon_mask_base_uri": "https://maps.gstatic.com/mapfiles/place_api/icons/v2/shoppingcart_pinlet",
      "name": "CTown Supermarkets",
      "opening_hours": {
        "open_now": true
      },
      "photos": [
        {
          "height": 1836,
          "html_attributions": [
            "<a href=\"https://maps.google.com/maps/contrib/104063886043692921720\">Myr D</a>"
          ],
          "photo_reference": "AeJbb3eWu96XgaUAsMWSqTM9WmDUo1II3dPzKPveK0Sj8ODB5y6F13Dv4Di_x-ev88f4aR0ten6TwC5-WLSY48bl7F1Zv7m1So9rywXEnhjB2uIjTszjhk3681NYCvhwvYtXPU1TkB7mmIhq4Ap4uk80U-77ThBJukRMYtZ4Ys3CrcVBzd76",
          "width": 3264
        }
      ],
      "place_id": "ChIJpQTNB0FcwokR7AFROYO06HA",
      "plus_code": {
        "compound_code": "M3MR+27 New York, NY, USA",
        "global_code": "87G8M3MR+27"
      },
      "rating": 3.9,
      "reference": "ChIJpQTNB0FcwokR7AFROYO06HA",
      "scope": "GOOGLE",
      "types": [
        "grocery_or_supermarket",
        "food",
        "point_of_interest",
        "store",
        "establishment"
      ],
      "user_ratings_total": 253,
      "vicinity": "1781 Broadway, Brooklyn"
    },
    {
      "business_status": "OPERATIONAL",
      "geometry": {
        "location": {
          "lat": 40.68063209999999,
          "lng": -73.9094729
        },
        "viewport": {
          "northeast": {
            "lat": 40.68189613029151,
            "lng": -73.90810691970849
          },
          "southwest": {
            "lat": 40.67919816970851,
            "lng": -73.91080488029151
          }
        }
      },
      "icon": "https://maps.gstatic.com/mapfiles/place_api/icons/v1/png_71/shopping-71.png",
      "icon_background_color": "#4B96F3",
      "icon_mask_base_uri": "https://maps.gstatic.com/mapfiles/place_api/icons/v2/shopping_pinlet",
      "name": "Faak Systems",
      "opening_hours": {
        "open_now": false
      },
      "place_id": "ChIJSVZQf0FcwokRVRw_BicD97A",
      "plus_code": {
        "compound_code": "M3JR+76 Brooklyn, NY, USA",
        "global_code": "87G8M3JR+76"
      },
      "reference": "ChIJSVZQf0FcwokRVRw_BicD97A",
      "scope": "GOOGLE",
      "types": [
        "electronics_store",
        "point_of_interest",
        "store",
        "establishment"
      ],
      "vicinity": "295 Macdougal Street, Brooklyn"
    },
    {
      "business_status": "OPERATIONAL",
      "geometry": {
        "location": {
          "lat": 40.6807553,
          "lng": -73.9044947
        },
        "viewport": {
          "northeast": {
            "lat": 40.6821378302915,
            "lng": -73.9032105197085
          },
          "southwest": {
            "lat": 40.6794398697085,
            "lng": -73.9059084802915
          }
        }
      },
      "icon": "https://maps.gstatic.com/mapfiles/place_api/icons/v1/png_71/generic_business-71.png",
      "icon_background_color": "#7B9EB0",
      "icon_mask_base_uri": "https://maps.gstatic.com/mapfiles/place_api/icons/v2/generic_pinlet",
      "name": "Law Offices of Bryan Barenbaum",
      "opening_hours": {
        "open_now": false
      },
      "photos": [
        {
          "height": 3792,
          "html_attributions": [
            "<a href=\"https://maps.google.com/maps/contrib/107891428486822812699\">Oksana Diakiv</a>"
          ],
          "photo_reference": "AeJbb3dY07UAcQo2K5xixCx1m6kz_u0TR28CDyFELjOQ0p-pn0l1S06ITxVPPMhavOY7upb1cvZsK6_dJYOsRL0eJW9gugGteb0CnRiHo8P2zC6jk9yEhdgbrIDf22SS16SWCF-GiKsLT_sHSQxBLCoUEhuC5S2K2PE7z_DyqO7t8DFlEbOx",
          "width": 6144
        }
      ],
      "place_id": "ChIJFwyTkkZcwokR4Z0GqEnPKzQ",
      "plus_code": {
        "compound_code": "M3JW+86 Brooklyn, NY, USA",
        "global_code": "87G8M3JW+86"
      },
      "rating": 4.6,
      "reference": "ChIJFwyTkkZcwokR4Z0GqEnPKzQ",
      "scope": "GOOGLE",
      "types": [
        "lawyer",
        "point_of_interest",
        "establishment"
      ],
      "user_ratings_total": 75,
      "vicinity": "2060 Eastern Parkway, Brooklyn"
    },
    {
      "business_status": "OPERATIONAL",
      "geometry": {
        "location": {
          "lat": 40.6790937,
          "lng": -73.9070308
        },
        "viewport": {
          "northeast": {
            "lat": 40.6803990302915,
            "lng": -73.90562146970848
          },
          "southwest": {
            "lat": 40.6777010697085,
            "lng": -73.9083194302915
          }
        }
      },
      "icon": "https://maps.gstatic.com/mapfiles/place_api/icons/v1/png_71/generic_business-71.png",
      "icon_background_color": "#7B9EB0",
      "icon_mask_base_uri": "https://maps.gstatic.com/mapfiles/place_api/icons/v2/generic_pinlet",
      "name": "Jeff's Upholstery",
      "opening_hours": {
        "open_now": true
      },
      "place_id": "ChIJo6tqjUNcwokR1tyTmmnakf0",
      "plus_code": {
        "compound_code": "M3HV+J5 Brooklyn, NY, USA",
        "global_code": "87G8M3HV+J5"
      },
      "rating": 4.1,
      "reference": "ChIJo6tqjUNcwokR1tyTmmnakf0",
      "scope": "GOOGLE",
      "types": [
        "car_repair",
        "point_of_interest",
        "establishment"
      ],
      "user_ratings_total": 18,
      "vicinity": "1945 Eastern Parkway, Brooklyn"
    },
    {
      "business_status": "OPERATIONAL",
      "geometry": {
        "location": {
          "lat": 40.6841066,
          "lng": -73.9091965
        },
        "viewport": {
          "northeast": {
            "lat": 40.6855521802915,
            "lng": -73.9077522697085
          },
          "southwest": {
            "lat": 40.6828542197085,
            "lng": -73.9104502302915
          }
        }
      },
      "icon": "https://maps.gstatic.com/mapfiles/place_api/icons/v1/png_71/civic_building-71.png",
      "icon_background_color": "#7B9EB0",
      "icon_mask_base_uri": "https://maps.gstatic.com/mapfiles/place_api/icons/v2/civic-bldg_pinlet",
      "name": "Brooklyn Community Board 4",
      "opening_hours": {
        "open_now": false
      },
      "place_id": "ChIJ8yrTHCJcwokRJikd_lbcEBs",
      "plus_code": {
        "compound_code": "M3MR+J8 Brooklyn, NY, USA",
        "global_code": "87G8M3MR+J8"
      },
      "rating": 4.8,
      "reference": "ChIJ8yrTHCJcwokRJikd_lbcEBs",
      "scope": "GOOGLE",
      "types": [
        "local_government_office",
        "point_of_interest",
        "establishment"
      ],
      "user_ratings_total": 4,
      "vicinity": "1420 Bushwick Avenue rm 370, Brooklyn"
    },
    {
      "business_status": "OPERATIONAL",
      "geometry": {
        "location": {
          "lat": 40.6830654,
          "lng": -73.91050260000002
        },
        "viewport": {
          "northeast": {
            "lat": 40.6843738302915,
            "lng": -73.90919491970851
          },
          "southwest": {
            "lat": 40.6816758697085,
            "lng": -73.91189288029152
          }
        }
      },
      "icon": "https://maps.gstatic.com/mapfiles/place_api/icons/v1/png_71/school-71.png",
      "icon_background_color": "#7B9EB0",
      "icon_mask_base_uri": "https://maps.gstatic.com/mapfiles/place_api/icons/v2/school_pinlet",
      "name": "Superior Day Care Center",
      "opening_hours": {
        "open_now": false
      },
      "photos": [
        {
          "height": 4032,
          "html_attributions": [
            "<a href=\"https://maps.google.com/maps/contrib/100046641398085648315\">Jonathon Rivait</a>"
          ],
          "photo_reference": "AeJbb3fqa4qCv6gUNljgmHYhYmu317XkSiYsI6hVF9hV22edF5LPNDMo584x-1f9XgNDsC_uqP6rwvunFdktbjsgJpwaefysPAqhbmAyD4H3pp8CPvrSGD9RYVL5KQC5w_vT4iHdIn0Sw4oNXRjXV1V1ZK9JJwDRFGDXysGVJhORS50jYoG_",
          "width": 3024
        }
      ],
      "place_id": "ChIJJ7XITEBcwokRrJgWb_Vjtf0",
      "plus_code": {
        "compound_code": "M3MQ+6Q Brooklyn, NY, USA",
        "global_code": "87G8M3MQ+6Q"
      },
      "rating": 3.5,
      "reference": "ChIJJ7XITEBcwokRrJgWb_Vjtf0",
      "scope": "GOOGLE",
      "types": [
        "point_of_interest",
        "establishment"
      ],
      "user_ratings_total": 8,
      "vicinity": "1741 Broadway, Brooklyn"
    },
    {
      "business_status": "OPERATIONAL",
      "geometry": {
        "location": {
          "lat": 40.6798039,
          "lng": -73.9053113
        },
        "viewport": {
          "northeast": {
            "lat": 40.6812113802915,
            "lng": -73.90389991970848
          },
          "southwest": {
            "lat": 40.6785134197085,
            "lng": -73.9065978802915
          }
        }
      },
      "icon": "https://maps.gstatic.com/mapfiles/place_api/icons/v1/png_71/generic_business-71.png",
      "icon_background_color": "#7B9EB0",
      "icon_mask_base_uri": "https://maps.gstatic.com/mapfiles/place_api/icons/v2/generic_pinlet",
      "name": "Knights Collision Experts Inc",
      "opening_hours": {
        "open_now": true
      },
      "photos": [
        {
          "height": 4032,
          "html_attributions": [
            "<a href=\"https://maps.google.com/maps/contrib/109479272661533439578\">Angie Zulay</a>"
          ],
          "photo_reference": "AeJbb3cytJXQpTAC_RP0lNoeNYr-i9a6LqCC10DM5hBeojxLD_SOCR3rV3Wj5RMeUeEWV_0gd1lLc8Hn02nmouHYYNNbdFvAQjdmpmShLi0efdUDteeeXbV6gtUcN_fC-rSEqjo1o_2AgPCcRYWYnHn5FdTGxeHo7NwJCLYOzKqO-16os_zs",
          "width": 3024
        }
      ],
      "place_id": "ChIJoUafKkRcwokRuUS_L9J5JoY",
      "plus_code": {
        "compound_code": "M3HV+WV New York, NY, USA",
        "global_code": "87G8M3HV+WV"
      },
      "rating": 2.7,
      "reference": "ChIJoUafKkRcwokRuUS_L9J5JoY",
      "scope": "GOOGLE",
      "types": [
        "car_repair",
        "point_of_interest",
        "establishment"
      ],
      "user_ratings_total": 79,
      "vicinity": "1924 Broadway, Brooklyn"
    },
    {
      "business_status": "OPERATIONAL",
      "geometry": {
        "location": {
          "lat": 40.68213069999999,
          "lng": -73.9085432
        },
        "viewport": {
          "northeast": {
            "lat": 40.6833797802915,
            "lng": -73.90729716970849
          },
          "southwest": {
            "lat": 40.6806818197085,
            "lng": -73.9099951302915
          }
        }
      },
      "icon": "https://maps.gstatic.com/mapfiles/place_api/icons/v1/png_71/generic_business-71.png",
      "icon_background_color": "#7B9EB0",
      "icon_mask_base_uri": "https://maps.gstatic.com/mapfiles/place_api/icons/v2/generic_pinlet",
      "name": "Workers Compensation Doctor - Dr. Gautam K. Khakhar",
      "opening_hours": {
        "open_now": false
      },
      "photos": [
        {
          "height": 340,
          "html_attributions": [
            "<a href=\"https://maps.google.com/maps/contrib/102117386557315293953\">Workers Compensation Doctor - Dr. Gautam K. Khakhar</a>"
          ],
          "photo_reference": "AeJbb3dosoR6kuBRaflD1ktISCqO3K00VwMhOdaP0Yw23Ro4RJN3HY5UWTVo_rZEFrzcwZPakoPNYo2vlk8QTkMa32YOphH9pk3BVPZKo44adBYsUq_z2KWyLO-Sri_V5wukMyeRAtckPB0n5VYA0EQ1YjnR9sWM-WjxiGmLV4nUhMeQnyF8",
          "width": 340
        }
      ],
      "place_id": "ChIJz6YHq0FcwokRGrd7vQyfEZ8",
      "plus_code": {
        "compound_code": "M3JR+VH New York, NY, USA",
        "global_code": "87G8M3JR+VH"
      },
      "reference": "ChIJz6YHq0FcwokRGrd7vQyfEZ8",
      "scope": "GOOGLE",
      "types": [
        "physiotherapist",
        "doctor",
        "point_of_interest",
        "health",
        "establishment"
      ],
      "vicinity": "1801 Broadway, Brooklyn"
    },
    {
      "business_status": "OPERATIONAL",
      "geometry": {
        "location": {
          "lat": 40.6803451,
          "lng": -73.9082181
        },
        "viewport": {
          "northeast": {
            "lat": 40.6817754302915,
            "lng": -73.90704046970849
          },
          "southwest": {
            "lat": 40.6790774697085,
            "lng": -73.90973843029151
          }
        }
      },
      "icon": "https://maps.gstatic.com/mapfiles/place_api/icons/v1/png_71/shopping-71.png",
      "icon_background_color": "#4B96F3",
      "icon_mask_base_uri": "https://maps.gstatic.com/mapfiles/place_api/icons/v2/shopping_pinlet",
      "name": "Family Dollar",
      "opening_hours": {
        "open_now": true
      },
      "photos": [
        {
          "height": 2160,
          "html_attributions": [
            "<a href=\"https://maps.google.com/maps/contrib/106515617067735914609\">Francisco Diaz</a>"
          ],
          "photo_reference": "AeJbb3cj69hHWVWZoCQR5umb9hMQkW0v3iaDYXq_a1hdLc0GvYjZC2onGjSErdLb3duWgxPwcqnAo-HCNCDEsdG8tvLSt4VPl6Rw6ghZp5j3oBE7T4aC660jmqGD5WAufoJpUcRb6BZIGTad6T0SfgPhag1Yhy-jy-WhOR5_2oskXxIqmq_O",
          "width": 2880
        }
      ],
      "place_id": "ChIJKRtUYEFcwokRc7aUaaeM-wg",
      "plus_code": {
        "compound_code": "M3JR+4P New York, NY, USA",
        "global_code": "87G8M3JR+4P"
      },
      "price_level": 1,
      "rating": 4,
      "reference": "ChIJKRtUYEFcwokRc7aUaaeM-wg",
      "scope": "GOOGLE",
      "types": [
        "supermarket",
        "grocery_or_supermarket",
        "clothing_store",
        "food",
        "point_of_interest",
        "store",
        "establishment"
      ],
      "user_ratings_total": 189,
      "vicinity": "294-304 Macdougal Street, Brooklyn"
    },
    {
      "business_status": "OPERATIONAL",
      "geometry": {
        "location": {
          "lat": 40.6823211,
          "lng": -73.9061778
        },
        "viewport": {
          "northeast": {
            "lat": 40.6837839302915,
            "lng": -73.9047168697085
          },
          "southwest": {
            "lat": 40.6810859697085,
            "lng": -73.90741483029151
          }
        }
      },
      "icon": "https://maps.gstatic.com/mapfiles/place_api/icons/v1/png_71/generic_business-71.png",
      "icon_background_color": "#7B9EB0",
      "icon_mask_base_uri": "https://maps.gstatic.com/mapfiles/place_api/icons/v2/generic_pinlet",
      "name": "Louie Bushwick Towing",
      "opening_hours": {
        "open_now": true
      },
      "photos": [
        {
          "height": 1024,
          "html_attributions": [
            "<a href=\"https://maps.google.com/maps/contrib/106705769513280377763\">Louie Bushwick Towing</a>"
          ],
          "photo_reference": "AeJbb3dh4EgFpb52nNql0CovHwIPySn-KW_wkL_Ak_b-23ynqNg4bIwkhgeLGnB6nK_r5hsgDa4xDqho0Ik1-NMn_IoOc9JTlweZg7PSRgGbPlc9corX-TqOpu_Mi_gcF1mtwtN9upJm2K6vrTgHdn_unUUapeoWRDmuRSGCVuaeJQjlaSui",
          "width": 768
        }
      ],
      "place_id": "ChIJ4ZEN1kZcwokRkvcobXqeGDs",
      "plus_code": {
        "compound_code": "M3JV+WG Brooklyn, NY, USA",
        "global_code": "87G8M3JV+WG"
      },
      "rating": 5,
      "reference": "ChIJ4ZEN1kZcwokRkvcobXqeGDs",
      "scope": "GOOGLE",
      "types": [
        "point_of_interest",
        "establishment"
      ],
      "user_ratings_total": 2877,
      "vicinity": "1520 Bushwick Avenue, Brooklyn"
    },
    {
      "business_status": "OPERATIONAL",
      "geometry": {
        "location": {
          "lat": 40.6824211,
          "lng": -73.906063
        },
        "viewport": {
          "northeast": {
            "lat": 40.6838356802915,
            "lng": -73.9046659697085
          },
          "southwest": {
            "lat": 40.6811377197085,
            "lng": -73.90736393029151
          }
        }
      },
      "icon": "https://maps.gstatic.com/mapfiles/place_api/icons/v1/png_71/generic_business-71.png",
      "icon_background_color": "#7B9EB0",
      "icon_mask_base_uri": "https://maps.gstatic.com/mapfiles/place_api/icons/v2/generic_pinlet",
      "name": "M.M. Transmissions Inc.",
      "opening_hours": {
        "open_now": false
      },
      "photos": [
        {
          "height": 321,
          "html_attributions": [
            "<a href=\"https://maps.google.com/maps/contrib/114686310178434493944\">M.M. Transmissions Inc.</a>"
          ],
          "photo_reference": "AeJbb3chMG9ieild6QA7wroSzsIoOujqVMSuR6FBYxpp6eq0XZBQJLlxhB_cZtNheMGkarjU5u6vi3_Nukq_ZZoWkObrTqapiG6d4bycx_x_LLiAEocCaflV9MTOnjBuW0m_TgcmMrQobBQz6CPhu7Dt4nsRL49zu0rL_5y_a0H98lFt50yl",
          "width": 941
        }
      ],
      "place_id": "ChIJzch01kZcwokRf3i8OD8qssg",
      "plus_code": {
        "compound_code": "M3JV+XH Brooklyn, NY, USA",
        "global_code": "87G8M3JV+XH"
      },
      "rating": 3.7,
      "reference": "ChIJzch01kZcwokRf3i8OD8qssg",
      "scope": "GOOGLE",
      "types": [
        "car_repair",
        "point_of_interest",
        "establishment"
      ],
      "user_ratings_total": 26,
      "vicinity": "1520 Bushwick Avenue, Brooklyn"
    },
    {
      "business_status": "OPERATIONAL",
      "geometry": {
        "location": {
          "lat": 40.6825235,
          "lng": -73.9092648
        },
        "viewport": {
          "northeast": {
            "lat": 40.6837652302915,
            "lng": -73.90798666970849
          },
          "southwest": {
            "lat": 40.6810672697085,
            "lng": -73.9106846302915
          }
        }
      },
      "icon": "https://maps.gstatic.com/mapfiles/place_api/icons/v1/png_71/generic_business-71.png",
      "icon_background_color": "#7B9EB0",
      "icon_mask_base_uri": "https://maps.gstatic.com/mapfiles/place_api/icons/v2/generic_pinlet",
      "name": "MoneyGram",
      "opening_hours": {
        "open_now": true
      },
      "place_id": "ChIJe9syAUFcwokRY1a1s9EK1Uo",
      "plus_code": {
        "compound_code": "M3MR+27 Brooklyn, NY, USA",
        "global_code": "87G8M3MR+27"
      },
      "rating": 3,
      "reference": "ChIJe9syAUFcwokRY1a1s9EK1Uo",
      "scope": "GOOGLE",
      "types": [
        "finance",
        "point_of_interest",
        "establishment"
      ],
      "user_ratings_total": 3,
      "vicinity": "1781 Broadway, Brooklyn"
    },
    {
      "business_status": "OPERATIONAL",
      "geometry": {
        "location": {
          "lat": 40.6820926,
          "lng": -73.90552319999999
        },
        "viewport": {
          "northeast": {
            "lat": 40.6835123302915,
            "lng": -73.9042333197085
          },
          "southwest": {
            "lat": 40.6808143697085,
            "lng": -73.9069312802915
          }
        }
      },
      "icon": "https://maps.gstatic.com/mapfiles/place_api/icons/v1/png_71/gas_station-71.png",
      "icon_background_color": "#909CE1",
      "icon_mask_base_uri": "https://maps.gstatic.com/mapfiles/place_api/icons/v2/gas_pinlet",
      "name": "Shell",
      "opening_hours": {
        "open_now": true
      },
      "photos": [
        {
          "height": 3024,
          "html_attributions": [
            "<a href=\"https://maps.google.com/maps/contrib/113079186152754654033\">Tyler Wilson</a>"
          ],
          "photo_reference": "AeJbb3c_GjAhtIo9sZ6RLvEghKt891F-rbIZVTAXvRxb5oq0sgD3U0cqvB6HUwKsB7z_BtF_1PSf05jwAr1MbGi7FnMW-wIMnA7ne0V93-vtomjhEBaBw4qSIwPe7B4qlSgqdbug7YUyWsatj2VDU6pngEf9Q1A8EiJ9GtNCCToDlKdXvIGN",
          "width": 4032
        }
      ],
      "place_id": "ChIJGzEx2UZcwokRS1oIjIzLAIs",
      "plus_code": {
        "compound_code": "M3JV+RQ New York, NY, USA",
        "global_code": "87G8M3JV+RQ"
      },
      "price_level": 2,
      "rating": 3.7,
      "reference": "ChIJGzEx2UZcwokRS1oIjIzLAIs",
      "scope": "GOOGLE",
      "types": [
        "gas_station",
        "atm",
        "finance",
        "point_of_interest",
        "establishment"
      ],
      "user_ratings_total": 21,
      "vicinity": "1532 Bushwick Avenue, Brooklyn"
    },
    {
      "business_status": "OPERATIONAL",
      "geometry": {
        "location": {
          "lat": 40.6803646,
          "lng": -73.90555859999999
        },
        "viewport": {
          "northeast": {
            "lat": 40.68164858029149,
            "lng": -73.9043015697085
          },
          "southwest": {
            "lat": 40.67895061970849,
            "lng": -73.9069995302915
          }
        }
      },
      "icon": "https://maps.gstatic.com/mapfiles/place_api/icons/v1/png_71/shopping-71.png",
      "icon_background_color": "#4B96F3",
      "icon_mask_base_uri": "https://maps.gstatic.com/mapfiles/place_api/icons/v2/shopping_pinlet",
      "name": "MBJ Motors Inc.",
      "opening_hours": {
        "open_now": true
      },
      "place_id": "ChIJi-BLpEZcwokRZtW6ro7XznE",
      "plus_code": {
        "compound_code": "M3JV+4Q Brooklyn, NY, USA",
        "global_code": "87G8M3JV+4Q"
      },
      "rating": 4,
      "reference": "ChIJi-BLpEZcwokRZtW6ro7XznE",
      "scope": "GOOGLE",
      "types": [
        "car_dealer",
        "store",
        "point_of_interest",
        "establishment"
      ],
      "user_ratings_total": 5,
      "vicinity": "1913 Broadway, Brooklyn"
    },
    {
      "business_status": "OPERATIONAL",
      "geometry": {
        "location": {
          "lat": 40.6816417,
          "lng": -73.9100612
        },
        "viewport": {
          "northeast": {
            "lat": 40.68310663029149,
            "lng": -73.90873521970849
          },
          "southwest": {
            "lat": 40.6804086697085,
            "lng": -73.9114331802915
          }
        }
      },
      "icon": "https://maps.gstatic.com/mapfiles/place_api/icons/v1/png_71/school-71.png",
      "icon_background_color": "#7B9EB0",
      "icon_mask_base_uri": "https://maps.gstatic.com/mapfiles/place_api/icons/v2/school_pinlet",
      "name": "Bright Beginnings Learning Tree Inc",
      "place_id": "ChIJb5_0mEFcwokRZGy1jDArC-Y",
      "plus_code": {
        "compound_code": "M3JQ+MX Brooklyn, NY, USA",
        "global_code": "87G8M3JQ+MX"
      },
      "reference": "ChIJb5_0mEFcwokRZGy1jDArC-Y",
      "scope": "GOOGLE",
      "types": [
        "point_of_interest",
        "establishment"
      ],
      "vicinity": "482 Marion Street, Brooklyn"
    },
    {
      "business_status": "OPERATIONAL",
      "geometry": {
        "location": {
          "lat": 40.68255639999999,
          "lng": -73.90959219999999
        },
        "viewport": {
          "northeast": {
            "lat": 40.68385923029149,
            "lng": -73.9082883197085
          },
          "southwest": {
            "lat": 40.68116126970849,
            "lng": -73.91098628029151
          }
        }
      },
      "icon": "https://maps.gstatic.com/mapfiles/place_api/icons/v1/png_71/generic_business-71.png",
      "icon_background_color": "#7B9EB0",
      "icon_mask_base_uri": "https://maps.gstatic.com/mapfiles/place_api/icons/v2/generic_pinlet",
      "name": "Fiesta Adult Day Care",
      "opening_hours": {
        "open_now": false
      },
      "photos": [
        {
          "height": 1280,
          "html_attributions": [
            "<a href=\"https://maps.google.com/maps/contrib/108836100851014321852\">Lily Faublas</a>"
          ],
          "photo_reference": "AeJbb3c_8Km53xdGL8qoavINrdgnfaJE0d-We3bI51M--YSPGn0FESxYOUDTLgAR2S1gHN7MEYO6H3SU374_ecjGQ2X-TXMKxn7OXmHeiPh6uSodqmiytHXLLYAWDKco2qmlhx0X9xuMFQ3cz6XQ5uGU0-axdpniVsGWDLD8HPXsnBVDl2Pu",
          "width": 720
        }
      ],
      "place_id": "ChIJ6ZqnAEFcwokRAorThfa9uLE",
      "plus_code": {
        "compound_code": "M3MR+25 New York, NY, USA",
        "global_code": "87G8M3MR+25"
      },
      "rating": 4.7,
      "reference": "ChIJ6ZqnAEFcwokRAorThfa9uLE",
      "scope": "GOOGLE",
      "types": [
        "point_of_interest",
        "establishment"
      ],
      "user_ratings_total": 23,
      "vicinity": "1777 Broadway, Brooklyn"
    },
    {
      "business_status": "OPERATIONAL",
      "geometry": {
        "location": {
          "lat": 40.6806423,
          "lng": -73.9052449
        },
        "viewport": {
          "northeast": {
            "lat": 40.6819421302915,
            "lng": -73.9038092697085
          },
          "southwest": {
            "lat": 40.6792441697085,
            "lng": -73.90650723029151
          }
        }
      },
      "icon": "https://maps.gstatic.com/mapfiles/place_api/icons/v1/png_71/generic_business-71.png",
      "icon_background_color": "#7B9EB0",
      "icon_mask_base_uri": "https://maps.gstatic.com/mapfiles/place_api/icons/v2/generic_pinlet",
      "name": "Jofaz Transportation Inc.",
      "photos": [
        {
          "height": 4032,
          "html_attributions": [
            "<a href=\"https://maps.google.com/maps/contrib/109135160012889451102\">Monica Guerra</a>"
          ],
          "photo_reference": "AeJbb3cf6AmeGkoPsCQOiU9oZTYmlmoqN6mCot5ounqxXcr4MEfW8onxw-H2QIXDYctxa9NaCoYhqSxOXbh5LPQJ3oldujLolRCA5lVzyrmBLwgi8LcW3Ln4Y5XJrqS_6u_vbVs_v_hPU3KjsknpBcqkReOukF4reTwDLL-jvqf1zznq-h9p",
          "width": 3024
        }
      ],
      "place_id": "ChIJf1jGvUZcwokRElbTFejvfeo",
      "plus_code": {
        "compound_code": "M3JV+7W Brooklyn, NY, USA",
        "global_code": "87G8M3JV+7W"
      },
      "rating": 3.8,
      "reference": "ChIJf1jGvUZcwokRElbTFejvfeo",
      "scope": "GOOGLE",
      "types": [
        "point_of_interest",
        "establishment"
      ],
      "user_ratings_total": 30,
      "vicinity": "2031 Eastern Parkway, Brooklyn"
    },
    {
      "business_status": "OPERATIONAL",
      "geometry": {
        "location": {
          "lat": 40.682647,
          "lng": -73.909573
        },
        "viewport": {
          "northeast": {
            "lat": 40.6839169302915,
            "lng": -73.90830176970849
          },
          "southwest": {
            "lat": 40.6812189697085,
            "lng": -73.9109997302915
          }
        }
      },
      "icon": "https://maps.gstatic.com/mapfiles/place_api/icons/v1/png_71/pharmacy-71.png",
      "icon_background_color": "#F88181",
      "icon_mask_base_uri": "https://maps.gstatic.com/mapfiles/place_api/icons/v2/pharmacy_pinlet",
      "name": "Preferred Pharmacy",
      "opening_hours": {
        "open_now": true
      },
      "photos": [
        {
          "height": 3024,
          "html_attributions": [
            "<a href=\"https://maps.google.com/maps/contrib/109849544050959632007\">Luis Enrique Rivera Cuyar</a>"
          ],
          "photo_reference": "AeJbb3c-SDxZ-NURF87Jx65-8__u1rxYXd515CLTFGK8dbZIHdYDH3sCvXTFHY2YjokobmC4_cPEhCzzeYpqG7Tg-uMUNWpqVd1CWEuym3w4lYGChPsCmCmnsMHPfXGNr5w5D4zyQWs1nS4-DJ8jG7JJyKsEW7clcaniBUOikHw9d7_TQdZj",
          "width": 4032
        }
      ],
      "place_id": "ChIJ8YByqkFcwokRuiRbNVe50Ao",
      "plus_code": {
        "compound_code": "M3MR+35 Brooklyn, NY, USA",
        "global_code": "87G8M3MR+35"
      },
      "rating": 4.5,
      "reference": "ChIJ8YByqkFcwokRuiRbNVe50Ao",
      "scope": "GOOGLE",
      "types": [
        "pharmacy",
        "convenience_store",
        "finance",
        "health",
        "grocery_or_supermarket",
        "food",
        "store",
        "point_of_interest",
        "establishment"
      ],
      "user_ratings_total": 33,
      "vicinity": "1771 Broadway, Brooklyn"
    },
    {
      "business_status": "CLOSED_TEMPORARILY",
      "geometry": {
        "location": {
          "lat": 40.681555,
          "lng": -73.904992
        },
        "viewport": {
          "northeast": {
            "lat": 40.6829539302915,
            "lng": -73.90373241970849
          },
          "southwest": {
            "lat": 40.6802559697085,
            "lng": -73.9064303802915
          }
        }
      },
      "icon": "https://maps.gstatic.com/mapfiles/place_api/icons/v1/png_71/generic_business-71.png",
      "icon_background_color": "#7B9EB0",
      "icon_mask_base_uri": "https://maps.gstatic.com/mapfiles/place_api/icons/v2/generic_pinlet",
      "name": "DeirDebwan Scope",
      "permanently_closed": true,
      "place_id": "ChIJx8pv6EZcwokRFXwLxRtBhsw",
      "plus_code": {
        "compound_code": "M3JW+J2 Brooklyn, NY, USA",
        "global_code": "87G8M3JW+J2"
      },
      "reference": "ChIJx8pv6EZcwokRFXwLxRtBhsw",
      "scope": "GOOGLE",
      "types": [
        "point_of_interest",
        "establishment"
      ],
      "vicinity": "48 De Sales Place, Brooklyn"
    },
    {
      "business_status": "OPERATIONAL",
      "geometry": {
        "location": {
          "lat": 40.6826637,
          "lng": -73.9096091
        },
        "viewport": {
          "northeast": {
            "lat": 40.68393493029151,
            "lng": -73.9083360697085
          },
          "southwest": {
            "lat": 40.68123696970851,
            "lng": -73.9110340302915
          }
        }
      },
      "icon": "https://maps.gstatic.com/mapfiles/place_api/icons/v1/png_71/generic_business-71.png",
      "icon_background_color": "#7B9EB0",
      "icon_mask_base_uri": "https://maps.gstatic.com/mapfiles/place_api/icons/v2/generic_pinlet",
      "name": "MoneyGram",
      "opening_hours": {
        "open_now": true
      },
      "place_id": "ChIJ8YByqkFcwokR_5W7pxNbLXo",
      "plus_code": {
        "compound_code": "M3MR+35 New York, NY, USA",
        "global_code": "87G8M3MR+35"
      },
      "reference": "ChIJ8YByqkFcwokR_5W7pxNbLXo",
      "scope": "GOOGLE",
      "types": [
        "finance",
        "point_of_interest",
        "establishment"
      ],
      "vicinity": "1771 Broadway, Brooklyn"
    },
    {
      "business_status": "OPERATIONAL",
      "geometry": {
        "location": {
          "lat": 40.6818231,
          "lng": -73.90401229999999
        },
        "viewport": {
          "northeast": {
            "lat": 40.6830544302915,
            "lng": -73.90277801970849
          },
          "southwest": {
            "lat": 40.6803564697085,
            "lng": -73.90547598029151
          }
        }
      },
      "icon": "https://maps.gstatic.com/mapfiles/place_api/icons/v1/png_71/generic_business-71.png",
      "icon_background_color": "#7B9EB0",
      "icon_mask_base_uri": "https://maps.gstatic.com/mapfiles/place_api/icons/v2/generic_pinlet",
      "name": "APRA Energy Group Inc",
      "place_id": "ChIJqztB-kZcwokRlJt5so9PUWg",
      "plus_code": {
        "compound_code": "M3JW+P9 New York, NY, USA",
        "global_code": "87G8M3JW+P9"
      },
      "reference": "ChIJqztB-kZcwokRlJt5so9PUWg",
      "scope": "GOOGLE",
      "types": [
        "point_of_interest",
        "establishment"
      ],
      "vicinity": "1579 Bushwick Avenue, Brooklyn"
    },
    {
      "business_status": "OPERATIONAL",
      "geometry": {
        "location": {
          "lat": 40.68338899999999,
          "lng": -73.90848
        },
        "viewport": {
          "northeast": {
            "lat": 40.68467908029149,
            "lng": -73.9070264697085
          },
          "southwest": {
            "lat": 40.6819811197085,
            "lng": -73.9097244302915
          }
        }
      },
      "icon": "https://maps.gstatic.com/mapfiles/place_api/icons/v1/png_71/generic_business-71.png",
      "icon_background_color": "#7B9EB0",
      "icon_mask_base_uri": "https://maps.gstatic.com/mapfiles/place_api/icons/v2/generic_pinlet",
      "name": "Christopher Coppola Photography Inc.",
      "place_id": "ChIJ19lF70BcwokRNSXh6uLX0zk",
      "plus_code": {
        "compound_code": "M3MR+9J Brooklyn, NY, USA",
        "global_code": "87G8M3MR+9J"
      },
      "rating": 5,
      "reference": "ChIJ19lF70BcwokRNSXh6uLX0zk",
      "scope": "GOOGLE",
      "types": [
        "point_of_interest",
        "establishment"
      ],
      "user_ratings_total": 1,
      "vicinity": "41 Pilling Street #2, Brooklyn"
    },
    {
      "business_status": "OPERATIONAL",
      "geometry": {
        "location": {
          "lat": 40.682746,
          "lng": -73.909747
        },
        "viewport": {
          "northeast": {
            "lat": 40.6840157302915,
            "lng": -73.90847596970849
          },
          "southwest": {
            "lat": 40.6813177697085,
            "lng": -73.9111739302915
          }
        }
      },
      "icon": "https://maps.gstatic.com/mapfiles/place_api/icons/v1/png_71/generic_business-71.png",
      "icon_background_color": "#7B9EB0",
      "icon_mask_base_uri": "https://maps.gstatic.com/mapfiles/place_api/icons/v2/generic_pinlet",
      "name": "Physical Medicine & Rehabilitation of NY, P.C. - Workers Comp Doctor",
      "opening_hours": {
        "open_now": false
      },
      "photos": [
        {
          "height": 414,
          "html_attributions": [
            "<a href=\"https://maps.google.com/maps/contrib/108411212520571010303\">Physical Medicine &amp; Rehabilitation of NY, P.C. - Workers Comp Doctor</a>"
          ],
          "photo_reference": "AeJbb3cW3pcj7ImIRQoax4pYxQ8m0ezIcRuCseWejUBQScElK_ZLJGfSUNOvWZxzvM3VpbBfgm1x5arNfqFbRdaDfa0r_cAMcBW4f3rXL7JuBhVvG7Rdbo05mY773Te8xpYYqHMsDXQ6VLOMq-DSQkJ7Jhihc8vbmWmRZf6aVkGcp_kOE_M",
          "width": 470
        }
      ],
      "place_id": "ChIJz6YHq0FcwokR7VYFnhp1TLo",
      "plus_code": {
        "compound_code": "M3MR+34 Brooklyn, NY, USA",
        "global_code": "87G8M3MR+34"
      },
      "rating": 3.1,
      "reference": "ChIJz6YHq0FcwokR7VYFnhp1TLo",
      "scope": "GOOGLE",
      "types": [
        "doctor",
        "health",
        "point_of_interest",
        "establishment"
      ],
      "user_ratings_total": 19,
      "vicinity": "1765 Broadway, Brooklyn"
    },
    {
      "business_status": "OPERATIONAL",
      "geometry": {
        "location": {
          "lat": 40.68045039999999,
          "lng": -73.9049747
        },
        "viewport": {
          "northeast": {
            "lat": 40.6817856802915,
            "lng": -73.9035999197085
          },
          "southwest": {
            "lat": 40.6790877197085,
            "lng": -73.9062978802915
          }
        }
      },
      "icon": "https://maps.gstatic.com/mapfiles/place_api/icons/v1/png_71/generic_business-71.png",
      "icon_background_color": "#7B9EB0",
      "icon_mask_base_uri": "https://maps.gstatic.com/mapfiles/place_api/icons/v2/generic_pinlet",
      "name": "Y & M Transit Corp.",
      "place_id": "ChIJmxWjl0ZcwokRESBAXZgfOEM",
      "plus_code": {
        "compound_code": "M3JW+52 Brooklyn, NY, USA",
        "global_code": "87G8M3JW+52"
      },
      "rating": 4.3,
      "reference": "ChIJmxWjl0ZcwokRESBAXZgfOEM",
      "scope": "GOOGLE",
      "types": [
        "point_of_interest",
        "establishment"
      ],
      "user_ratings_total": 4,
      "vicinity": "2034 Eastern Parkway, Brooklyn"
    },
    {
      "business_status": "OPERATIONAL",
      "geometry": {
        "location": {
          "lat": 40.681351,
          "lng": -73.90330039999999
        },
        "viewport": {
          "northeast": {
            "lat": 40.68269288029149,
            "lng": -73.9018537697085
          },
          "southwest": {
            "lat": 40.67999491970849,
            "lng": -73.9045517302915
          }
        }
      },
      "icon": "https://maps.gstatic.com/mapfiles/place_api/icons/v1/png_71/shopping-71.png",
      "icon_background_color": "#4B96F3",
      "icon_mask_base_uri": "https://maps.gstatic.com/mapfiles/place_api/icons/v2/shopping_pinlet",
      "name": "Rodse Wine and Liquors",
      "opening_hours": {
        "open_now": true
      },
      "photos": [
        {
          "height": 668,
          "html_attributions": [
            "<a href=\"https://maps.google.com/maps/contrib/116442536417346510799\">Duane Rodriguez</a>"
          ],
          "photo_reference": "AeJbb3eCnf-YbUzauW0sdJtxJ9pDs_zZMD4qNopK-uovoMokI9TAX28XEQjwIqr04vZBnjiWwHahT61kEUgU16HnGvFUdtGD50HqsyeZUUunK9NYbC3chqy7enXEnO0DnI42Bg9fQjtCVjKJlGTLyv_FGX49xOBar6BY3QG1LwhwhAtJR2W7",
          "width": 1797
        }
      ],
      "place_id": "ChIJOXjUWUZcwokRDCIPUiyKSfM",
      "plus_code": {
        "compound_code": "M3JW+GM Brooklyn, NY, USA",
        "global_code": "87G8M3JW+GM"
      },
      "rating": 4,
      "reference": "ChIJOXjUWUZcwokRDCIPUiyKSfM",
      "scope": "GOOGLE",
      "types": [
        "liquor_store",
        "food",
        "store",
        "point_of_interest",
        "establishment"
      ],
      "user_ratings_total": 103,
      "vicinity": "1603 Bushwick Avenue, Brooklyn"
    },
    {
      "business_status": "OPERATIONAL",
      "geometry": {
        "location": {
          "lat": 40.679673,
          "lng": -73.90543600000001
        },
        "viewport": {
          "northeast": {
            "lat": 40.68114773029151,
            "lng": -73.90396516970851
          },
          "southwest": {
            "lat": 40.67844976970851,
            "lng": -73.90666313029152
          }
        }
      },
      "icon": "https://maps.gstatic.com/mapfiles/place_api/icons/v1/png_71/generic_business-71.png",
      "icon_background_color": "#7B9EB0",
      "icon_mask_base_uri": "https://maps.gstatic.com/mapfiles/place_api/icons/v2/generic_pinlet",
      "name": "Knight's Collision & Auto Care Center Inc.",
      "opening_hours": {
        "open_now": true
      },
      "photos": [
        {
          "height": 720,
          "html_attributions": [
            "<a href=\"https://maps.google.com/maps/contrib/106643781725319605532\">Knights Collision</a>"
          ],
          "photo_reference": "AeJbb3cPye9fghBQmDYx9p0PYXovPhTy56VWGnE7B71sO5cah3F2esDnU1HTgS0O8d9nLM75WCh5ljAV3RwW2FjzjENsp392UV1IdJ3pEIiNkE8d6EAYVic_Bek1A7hMPd7tqZUF0ASQeN3DHjSsedQjt_LUl3wRUFj9SAqclwDOIY2UAovE",
          "width": 960
        }
      ],
      "place_id": "ChIJdR1XHkRcwokRNYMn9pg-dgs",
      "plus_code": {
        "compound_code": "M3HV+VR Brooklyn, NY, USA",
        "global_code": "87G8M3HV+VR"
      },
      "rating": 4,
      "reference": "ChIJdR1XHkRcwokRNYMn9pg-dgs",
      "scope": "GOOGLE",
      "types": [
        "car_repair",
        "point_of_interest",
        "establishment"
      ],
      "user_ratings_total": 347,
      "vicinity": "2000 Eastern Parkway, Brooklyn"
    },
    {
      "business_status": "CLOSED_TEMPORARILY",
      "geometry": {
        "location": {
          "lat": 40.682956,
          "lng": -73.91006500000002
        },
        "viewport": {
          "northeast": {
            "lat": 40.68421843029151,
            "lng": -73.9088041697085
          },
          "southwest": {
            "lat": 40.68152046970851,
            "lng": -73.91150213029152
          }
        }
      },
      "icon": "https://maps.gstatic.com/mapfiles/place_api/icons/v1/png_71/restaurant-71.png",
      "icon_background_color": "#FF9E67",
      "icon_mask_base_uri": "https://maps.gstatic.com/mapfiles/place_api/icons/v2/restaurant_pinlet",
      "name": "Island Vybz",
      "permanently_closed": true,
      "photos": [
        {
          "height": 1685,
          "html_attributions": [
            "<a href=\"https://maps.google.com/maps/contrib/104760420657767897715\">EMPRESS</a>"
          ],
          "photo_reference": "AeJbb3dsjMYfG9iHgox4chbkZZwCVCuR9kAia84xl2bXteml2wpbUqUXlj0Yuoo_6TpBj4zznTZUQ3CqYIFi2COrHWFryL-69RjaQLO-T5VwdXxrrawqZqKD7qHS8wRiG1SJHiAzHfjxB9bsKbvVVOL-92qlGHkx8e0OOu7aDSsVsfoyOEKj",
          "width": 1693
        }
      ],
      "place_id": "ChIJF627rUFcwokR_9iHbIBjEV8",
      "plus_code": {
        "compound_code": "M3MQ+5X Brooklyn, NY, USA",
        "global_code": "87G8M3MQ+5X"
      },
      "price_level": 2,
      "rating": 4,
      "reference": "ChIJF627rUFcwokR_9iHbIBjEV8",
      "scope": "GOOGLE",
      "types": [
        "restaurant",
        "food",
        "point_of_interest",
        "establishment"
      ],
      "user_ratings_total": 7,
      "vicinity": "1759 Broadway, Brooklyn"
    },
    {
      "business_status": "OPERATIONAL",
      "geometry": {
        "location": {
          "lat": 40.6829869,
          "lng": -73.910125
        },
        "viewport": {
          "northeast": {
            "lat": 40.6842506802915,
            "lng": -73.90886281970849
          },
          "southwest": {
            "lat": 40.6815527197085,
            "lng": -73.91156078029151
          }
        }
      },
      "icon": "https://maps.gstatic.com/mapfiles/place_api/icons/v1/png_71/generic_business-71.png",
      "icon_background_color": "#7B9EB0",
      "icon_mask_base_uri": "https://maps.gstatic.com/mapfiles/place_api/icons/v2/generic_pinlet",
      "name": "A Plus Care HHA Agency",
      "opening_hours": {
        "open_now": false
      },
      "photos": [
        {
          "height": 2322,
          "html_attributions": [
            "<a href=\"https://maps.google.com/maps/contrib/104837774386515212400\">Carlos Souza</a>"
          ],
          "photo_reference": "AeJbb3eqltvbFEHuveaWFTa-ci4z7PvMBfdSIKdiyC4EtEPmRWO6f7L7wBPqgKhTDKMBq-L66fn0fEpBBypqF3UQIo9ulgV7ICKGmLJANk5-vlQJ2kculRQ0HXHR4dkT3VCTTBA46c5r0cvGg7DwdOEJkjSsFXyvshng_0vhVJ-6dpEpU7Iy",
          "width": 4128
        }
      ],
      "place_id": "ChIJ-8f0qQlcwokRPjYDw4S_EGc",
      "plus_code": {
        "compound_code": "M3MQ+5X Brooklyn, NY, USA",
        "global_code": "87G8M3MQ+5X"
      },
      "rating": 2.8,
      "reference": "ChIJ-8f0qQlcwokRPjYDw4S_EGc",
      "scope": "GOOGLE",
      "types": [
        "point_of_interest",
        "establishment"
      ],
      "user_ratings_total": 86,
      "vicinity": "1757 Broadway, Brooklyn"
    },
    {
      "business_status": "OPERATIONAL",
      "geometry": {
        "location": {
          "lat": 40.6830062,
          "lng": -73.9050445
        },
        "viewport": {
          "northeast": {
            "lat": 40.6844179802915,
            "lng": -73.9036364197085
          },
          "southwest": {
            "lat": 40.6817200197085,
            "lng": -73.90633438029151
          }
        }
      },
      "icon": "https://maps.gstatic.com/mapfiles/place_api/icons/v1/png_71/generic_business-71.png",
      "icon_background_color": "#7B9EB0",
      "icon_mask_base_uri": "https://maps.gstatic.com/mapfiles/place_api/icons/v2/generic_pinlet",
      "name": "Rudd Playground",
      "opening_hours": {
        "open_now": true
      },
      "photos": [
        {
          "height": 4000,
          "html_attributions": [
            "<a href=\"https://maps.google.com/maps/contrib/117979666275762910636\">Peter Magda</a>"
          ],
          "photo_reference": "AeJbb3eqkLm2_U5zItif8Nic9-SYV5nwVmMQvf4Ut1pLeJc_4w5HWSK4i_mxe_FYZ_L7iD4dSoG109X1Xe0tkraIuHjSbY1-fRTh3ydZHr5_XF_PfNIW7tNx_dP1-6ihoQVYKsprABPykdtJgmmEvbze09yLYQjeXG5Y3jlDc7RSyxtWq3z-",
          "width": 6000
        }
      ],
      "place_id": "ChIJO-jiPUdcwokR20jfUCSoiUE",
      "plus_code": {
        "compound_code": "M3MV+6X New York, NY, USA",
        "global_code": "87G8M3MV+6X"
      },
      "rating": 4.4,
      "reference": "ChIJO-jiPUdcwokR20jfUCSoiUE",
      "scope": "GOOGLE",
      "types": [
        "point_of_interest",
        "establishment"
      ],
      "user_ratings_total": 75,
      "vicinity": "55 Aberdeen Street, Brooklyn"
    },
    {
      "business_status": "OPERATIONAL",
      "geometry": {
        "location": {
          "lat": 40.6829927,
          "lng": -73.9101288
        },
        "viewport": {
          "northeast": {
            "lat": 40.6842542802915,
            "lng": -73.90884071970848
          },
          "southwest": {
            "lat": 40.6815563197085,
            "lng": -73.9115386802915
          }
        }
      },
      "icon": "https://maps.gstatic.com/mapfiles/place_api/icons/v1/png_71/shopping-71.png",
      "icon_background_color": "#4B96F3",
      "icon_mask_base_uri": "https://maps.gstatic.com/mapfiles/place_api/icons/v2/shopping_pinlet",
      "name": "Gripad",
      "opening_hours": {
        "open_now": false
      },
      "photos": [
        {
          "height": 1200,
          "html_attributions": [
            "<a href=\"https://maps.google.com/maps/contrib/109366554704279868381\">Gripad</a>"
          ],
          "photo_reference": "AeJbb3eUn6Cry2jcxWQ-TNQXHNUGL_JeAwgYj_6NT6gk0gVn8PRg6FPmT6HH30MMJXiwkdqfS5WEjX4FC0Mahzx3mVpn83B0Ixo5zJebFnzUWp3hO7nejoHNz8uvhBTSaavgJNvotNo2_eqMUJ1Kx2KEgqew6crTmGEaOgxWquyftTXB1qgy",
          "width": 1200
        }
      ],
      "place_id": "ChIJvQEiF-tbwokR_FxZOVL08pY",
      "plus_code": {
        "compound_code": "M3MQ+5W Brooklyn, NY, USA",
        "global_code": "87G8M3MQ+5W"
      },
      "rating": 5,
      "reference": "ChIJvQEiF-tbwokR_FxZOVL08pY",
      "scope": "GOOGLE",
      "types": [
        "store",
        "point_of_interest",
        "establishment"
      ],
      "user_ratings_total": 2,
      "vicinity": "1755 Broadway, Brooklyn"
    },
    {
      "business_status": "OPERATIONAL",
      "geometry": {
        "location": {
          "lat": 40.6829355,
          "lng": -73.9102596
        },
        "viewport": {
          "northeast": {
            "lat": 40.6842400302915,
            "lng": -73.9089558697085
          },
          "southwest": {
            "lat": 40.6815420697085,
            "lng": -73.91165383029151
          }
        }
      },
      "icon": "https://maps.gstatic.com/mapfiles/place_api/icons/v1/png_71/generic_business-71.png",
      "icon_background_color": "#7B9EB0",
      "icon_mask_base_uri": "https://maps.gstatic.com/mapfiles/place_api/icons/v2/generic_pinlet",
      "name": "Prestige Home Group LLC",
      "opening_hours": {
        "open_now": false
      },
      "place_id": "ChIJIcVXrUFcwokRTGk7RLTu1mI",
      "plus_code": {
        "compound_code": "M3MQ+5V Brooklyn, NY, USA",
        "global_code": "87G8M3MQ+5V"
      },
      "rating": 5,
      "reference": "ChIJIcVXrUFcwokRTGk7RLTu1mI",
      "scope": "GOOGLE",
      "types": [
        "general_contractor",
        "point_of_interest",
        "establishment"
      ],
      "user_ratings_total": 1,
      "vicinity": "1755 Broadway, Brooklyn"
    },
    {
      "business_status": "CLOSED_TEMPORARILY",
      "geometry": {
        "location": {
          "lat": 40.6816233,
          "lng": -73.9112435
        },
        "viewport": {
          "northeast": {
            "lat": 40.68295273029149,
            "lng": -73.91002301970849
          },
          "southwest": {
            "lat": 40.6802547697085,
            "lng": -73.91272098029151
          }
        }
      },
      "icon": "https://maps.gstatic.com/mapfiles/place_api/icons/v1/png_71/generic_business-71.png",
      "icon_background_color": "#7B9EB0",
      "icon_mask_base_uri": "https://maps.gstatic.com/mapfiles/place_api/icons/v2/generic_pinlet",
      "name": "Miraflores 1 Dely Grocery",
      "permanently_closed": true,
      "place_id": "ChIJOQFKpY1cwokRgtikBjZdguE",
      "plus_code": {
        "compound_code": "M3JQ+JG Brooklyn, NY, USA",
        "global_code": "87G8M3JQ+JG"
      },
      "rating": 5,
      "reference": "ChIJOQFKpY1cwokRgtikBjZdguE",
      "scope": "GOOGLE",
      "types": [
        "food",
        "point_of_interest",
        "establishment"
      ],
      "user_ratings_total": 3,
      "vicinity": "45 Rockaway Avenue, Brooklyn"
    }
  ],
  "status": "OK"
}