{
  "html_attributions": [],
  "results": [
    {
      "geometry": {
        "location": {
          "lat": 40.7127753,
          "lng": -74.0059728
        },
        "viewport": {
          "northeast": {
            "lat": 40.91757705070789,
            "lng": -73.70027206817629
          },
          "southwest": {
            "lat": 40.47739906045452,
            "lng": -74.25908991427882
          }
        }
      },
      "icon": "https://maps.gstatic.com/mapfiles/place_api/icons/v1/png_71/geocode-71.png",
      "icon_background_color": "#7B9EB0",
      "icon_mask_base_uri": "https://maps.gstatic.com/mapfiles/place_api/icons/v2/generic_pinlet",
      "name": "\u7d10\u7d04",
      "photos": [
        {
          "height": 600,
          "html_attributions": [
            "<a href=\"https://maps.google.com/maps/contrib/102389334567210814614\">Bukurie</a>"
          ],
          "photo_reference": "AeJbb3dNqRCknCUI5uBasydEC6HE3b7fs-JDcscKFLYxQzj3Cc4rh_QzFG4hG8YOucLwGQXeNvnDC614ADZhmpN6eusm2EJf30upaDrqzvpMfgbLzwzJO4JkpY714ZUBCmUAA8NgV1-SJjLZiZQ2w-ezUtx2LarHNvGnrA947ST7-t2ZK6rO",
          "width": 480
        }
      ],
      "place_id": "ChIJOwg_06VPwokRYv534QaPC8g",
      "reference": "ChIJOwg_06VPwokRYv534QaPC8g",
      "scope": "GOOGLE",
      "types": [
        "locality",
        "political"
      ],
      "vicinity": "\u7d10\u7d04"
    },
    {
      "business_status": "OPERATIONAL",
      "geometry": {
        "location": {
          "lat": 40.69583,
          "lng": -73.9048622
        },
        "viewport": {
          "northeast": {
            "lat": 40.69724628029149,
            "lng": -73.90364796970849
          },
          "southwest": {
            "lat": 40.6945483197085,
            "lng": -73.90634593029151
          }
        }
      },
      "icon": "https://maps.gstatic.com/mapfiles/place_api/icons/v1/png_71/lodging-71.png",
      "icon_background_color": "#909CE1",
      "icon_mask_base_uri": "https://maps.gstatic.com/mapfiles/place_api/icons/v2/hotel_pinlet",
      "name": "Red Carpet Inn Brooklyn, NY",
      "opening_hours": {
        "open_now": true
      },
      "photos": [
        {
          "height": 480,
          "html_attributions": [
            "<a href=\"https://maps.google.com/maps/contrib/105271198888988356533\">Red Carpet Inn Brooklyn, NY</a>"
          ],
          "photo_reference": "AeJbb3efdT1D-efEJ-yM9fF7KelOERgu4AWgki3LLZ87cy2C169LzNx65QqrsWZlw4F2FGchI9lSU6T3U8tHWBLvMrvhgDM7Z80LmLIlHxNzLKtx4dffpyqUsGybii2zO_G5yrRIs-J0QaYR-D2nmCYB_LSvWxzf3U3tCX35fsQWbOztW-uO",
          "width": 640
        }
      ],
      "place_id": "ChIJpxPWwSRcwokRrGgXmdvKboI",
      "plus_code": {
        "compound_code": "M3WW+83 \u7f8e\u570b\u7d10\u7d04",
        "global_code": "87G8M3WW+83"
      },
      "rating": 2.4,
      "reference": "ChIJpxPWwSRcwokRrGgXmdvKboI",
      "scope": "GOOGLE",
      "types": [
        "lodging",
        "point_of_interest",
        "establishment"
      ],
      "user_ratings_total": 201,
      "vicinity": "980 Wyckoff Avenue, Brooklyn"
    },
    {
      "business_status": "OPERATIONAL",
      "geometry": {
        "location": {
          "lat": 40.6954444,
          "lng": -73.9047077
        },
        "viewport": {
          "northeast": {
            "lat": 40.69676778029149,
            "lng": -73.9032837697085
          },
          "southwest": {
            "lat": 40.6940698197085,
            "lng": -73.9059817302915
          }
        }
      },
      "icon": "https://maps.gstatic.com/mapfiles/place_api/icons/v1/png_71/generic_business-71.png",
      "icon_background_color": "#13B5C7",
      "icon_mask_base_uri": "https://maps.gstatic.com/mapfiles/place_api/icons/v2/generic_pinlet",
      "name": "The Bushwick Starr",
      "photos": [
        {
          "height": 853,
          "html_attributions": [
            "<a href=\"https://maps.google.com/maps/contrib/102915452113754849147\">The Bushwick Starr</a>"
          ],
          "photo_reference": "AeJbb3fwXbM_BGKDr5jRyPgv_2ySGvYmTYvMjFlwoDZIjTwxO9XBJdpQYU1HwcKDO2k4YUusBOkPeUfHo0PPOYcOeLnwO7kSKwCNvaTQV3O12lNCLbV5OFt_Q4oJLiqYmscRpATgcx-56zJSukBLhKbXmD9ou0b25f701quBrTsFtYAnElDo",
          "width": 1280
        }
      ],
      "place_id": "ChIJzXfuJR1cwokR6uUfSH4a4Wk",
      "plus_code": {
        "compound_code": "M3WW+54 \u7f8e\u570b\u7d10\u7d04",
        "global_code": "87G8M3WW+54"
      },
      "rating": 4.7,
      "reference": "ChIJzXfuJR1cwokR6uUfSH4a4Wk",
      "scope": "GOOGLE",
      "types": [
        "point_of_interest",
        "establishment"
      ],
      "user_ratings_total": 62,
      "vicinity": "419 Eldert Street, Brooklyn"
    },
    {
      "business_status": "OPERATIONAL",
      "geometry": {
        "location": {
          "lat": 40.6937498,
          "lng": -73.9058156
        },
        "viewport": {
          "northeast": {
            "lat": 40.6951616802915,
            "lng": -73.9045777697085
          },
          "southwest": {
            "lat": 40.6924637197085,
            "lng": -73.9072757302915
          }
        }
      },
      "icon": "https://maps.gstatic.com/mapfiles/place_api/icons/v1/png_71/civic_building-71.png",
      "icon_background_color": "#7B9EB0",
      "icon_mask_base_uri": "https://maps.gstatic.com/mapfiles/place_api/icons/v2/civic-bldg_pinlet",
      "name": "Effulgent Exterminating & Home Inspection",
      "place_id": "ChIJqbNaKk5FwokR1401MjuP4x4",
      "plus_code": {
        "compound_code": "M3VV+FM \u7f8e\u570b\u7d10\u7d04\u5e03\u9c81\u514b\u6797",
        "global_code": "87G8M3VV+FM"
      },
      "reference": "ChIJqbNaKk5FwokR1401MjuP4x4",
      "scope": "GOOGLE",
      "types": [
        "home_goods_store",
        "store",
        "point_of_interest",
        "establishment"
      ],
      "vicinity": "342 Eldert Street #109, Brooklyn"
    },
    {
      "business_status": "OPERATIONAL",
      "geometry": {
        "location": {
          "lat": 40.6938055,
          "lng": -73.9058524
        },
        "viewport": {
          "northeast": {
            "lat": 40.6952007302915,
            "lng": -73.90458511970849
          },
          "southwest": {
            "lat": 40.6925027697085,
            "lng": -73.9072830802915
          }
        }
      },
      "icon": "https://maps.gstatic.com/mapfiles/place_api/icons/v1/png_71/generic_business-71.png",
      "icon_background_color": "#7B9EB0",
      "icon_mask_base_uri": "https://maps.gstatic.com/mapfiles/place_api/icons/v2/generic_pinlet",
      "name": "342 Eldert Lofts",
      "photos": [
        {
          "height": 1960,
          "html_attributions": [
            "<a href=\"https://maps.google.com/maps/contrib/107971418427901816654\">Scott Norris</a>"
          ],
          "photo_reference": "AeJbb3dHHM4y6-qKg25kOBEvKO6d_FB5YtXtRtcaxwmkRwb1NNrmOZ4x6kaiYwauVxEp5E8WS2DAz35w3JBiyXA-p95kn9ycPT0-g88k9-79SbpH2sb3rFQ2B6mJShscDbUQP5WH8mM_GGvJsP80QR1lSqgHVQUYw0VSAMvkUZpGyGxr06rZ",
          "width": 4032
        }
      ],
      "place_id": "ChIJM-JKQztcwokRkirOfvbfVRo",
      "plus_code": {
        "compound_code": "M3VV+GM \u7f8e\u570b\u7d10\u7d04\u5e03\u9c81\u514b\u6797",
        "global_code": "87G8M3VV+GM"
      },
      "rating": 3.9,
      "reference": "ChIJM-JKQztcwokRkirOfvbfVRo",
      "scope": "GOOGLE",
      "types": [
        "real_estate_agency",
        "point_of_interest",
        "establishment"
      ],
      "user_ratings_total": 28,
      "vicinity": "342 Eldert Street, Brooklyn"
    },
    {
      "business_status": "OPERATIONAL",
      "geometry": {
        "location": {
          "lat": 40.6914667,
          "lng": -73.9092701
        },
        "viewport": {
          "northeast": {
            "lat": 40.69278783029151,
            "lng": -73.9079724697085
          },
          "southwest": {
            "lat": 40.69008986970852,
            "lng": -73.9106704302915
          }
        }
      },
      "icon": "https://maps.gstatic.com/mapfiles/place_api/icons/v1/png_71/generic_business-71.png",
      "icon_background_color": "#7B9EB0",
      "icon_mask_base_uri": "https://maps.gstatic.com/mapfiles/place_api/icons/v2/generic_pinlet",
      "name": "Wilson Medical Center",
      "place_id": "ChIJOUD0NTxcwokRvDnfVEC_Tt4",
      "plus_code": {
        "compound_code": "M3RR+H7 \u7f8e\u570b\u7d10\u7d04\u5e03\u9c81\u514b\u6797",
        "global_code": "87G8M3RR+H7"
      },
      "rating": 2,
      "reference": "ChIJOUD0NTxcwokRvDnfVEC_Tt4",
      "scope": "GOOGLE",
      "types": [
        "doctor",
        "health",
        "point_of_interest",
        "establishment"
      ],
      "user_ratings_total": 1,
      "vicinity": "555 Wilson Avenue # 1, Brooklyn"
    },
    {
      "business_status": "OPERATIONAL",
      "geometry": {
        "location": {
          "lat": 40.69375429999999,
          "lng": -73.906043
        },
        "viewport": {
          "northeast": {
            "lat": 40.6951567302915,
            "lng": -73.9046796697085
          },
          "southwest": {
            "lat": 40.6924587697085,
            "lng": -73.9073776302915
          }
        }
      },
      "icon": "https://maps.gstatic.com/mapfiles/place_api/icons/v1/png_71/generic_business-71.png",
      "icon_background_color": "#7B9EB0",
      "icon_mask_base_uri": "https://maps.gstatic.com/mapfiles/place_api/icons/v2/generic_pinlet",
      "name": "550 Irving Lofts",
      "place_id": "ChIJTwf7WztcwokRKrthV7DTmDc",
      "plus_code": {
        "compound_code": "M3VV+GH \u7f8e\u570b\u7d10\u7d04\u5e03\u9c81\u514b\u6797",
        "global_code": "87G8M3VV+GH"
      },
      "rating": 2.3,
      "reference": "ChIJTwf7WztcwokRKrthV7DTmDc",
      "scope": "GOOGLE",
      "types": [
        "point_of_interest",
        "establishment"
      ],
      "user_ratings_total": 3,
      "vicinity": "550 Irving Avenue, Brooklyn"
    },
    {
      "business_status": "OPERATIONAL",
      "geometry": {
        "location": {
          "lat": 40.694553,
          "lng": -73.90970399999999
        },
        "viewport": {
          "northeast": {
            "lat": 40.6959777802915,
            "lng": -73.90846276970849
          },
          "southwest": {
            "lat": 40.6932798197085,
            "lng": -73.9111607302915
          }
        }
      },
      "icon": "https://maps.gstatic.com/mapfiles/place_api/icons/v1/png_71/worship_general-71.png",
      "icon_background_color": "#7B9EB0",
      "icon_mask_base_uri": "https://maps.gstatic.com/mapfiles/place_api/icons/v2/worship_christian_pinlet",
      "name": "Celestial Church of Christ New York Parish",
      "opening_hours": {
        "open_now": false
      },
      "photos": [
        {
          "height": 2448,
          "html_attributions": [
            "<a href=\"https://maps.google.com/maps/contrib/104806291476493246524\">Celestial Church of Christ New York Parish</a>"
          ],
          "photo_reference": "AeJbb3fgEheN6X0XJTgUyujeQNIaoscXEzElTheXwD2JOrMv-Klb0e9GkdvzZTvJQFKIe_Q0HxxApct2-igNPSUj8s5wM7nwTH7Vk55fH9oYGrlsb8Bc8w7Bw7q2wJevp60dKHOIc0ed8e7cfVILOLg-jlE0KqV7iFbTe2CxdUB-w2Ra18-8",
          "width": 2448
        }
      ],
      "place_id": "ChIJk2O1Jz1cwokRZLRAln0F3ww",
      "plus_code": {
        "compound_code": "M3VR+R4 \u7f8e\u570b\u7d10\u7d04\u5e03\u9c81\u514b\u6797",
        "global_code": "87G8M3VR+R4"
      },
      "rating": 4.6,
      "reference": "ChIJk2O1Jz1cwokRZLRAln0F3ww",
      "scope": "GOOGLE",
      "types": [
        "church",
        "place_of_worship",
        "point_of_interest",
        "establishment"
      ],
      "user_ratings_total": 17,
      "vicinity": "1380 Jefferson Avenue, Brooklyn"
    },
    {
      "business_status": "OPERATIONAL",
      "geometry": {
        "location": {
          "lat": 40.6953616,
          "lng": -73.9071739
        },
        "viewport": {
          "northeast": {
            "lat": 40.6966683802915,
            "lng": -73.90575006970849
          },
          "southwest": {
            "lat": 40.6939704197085,
            "lng": -73.90844803029151
          }
        }
      },
      "icon": "https://maps.gstatic.com/mapfiles/place_api/icons/v1/png_71/generic_business-71.png",
      "icon_background_color": "#7B9EB0",
      "icon_mask_base_uri": "https://maps.gstatic.com/mapfiles/place_api/icons/v2/generic_pinlet",
      "name": "Loft Creative Group - Creative Studio",
      "opening_hours": {
        "open_now": false
      },
      "photos": [
        {
          "height": 422,
          "html_attributions": [
            "<a href=\"https://maps.google.com/maps/contrib/110657220457910892370\">Loft Creative Group - Creative Studio</a>"
          ],
          "photo_reference": "AeJbb3cGV-xUBmeQpvX-pROHb-oqv6nJUFDJC3cDhDr3HN5AqCDwK7Ygg3awK3PSfU8cqMBrH_XzdI0x4Cdj9-0-czncKApMBb719EUKBB6C--PuCiFV239lG8U7Fi6TzI4Ri3_Avgdg_aRZusxzk8QV7kqQKXp5ZU6Knrq2pQTecXRrkPWi",
          "width": 750
        }
      ],
      "place_id": "ChIJh5QId1NYwokRj4R39EtohdI",
      "plus_code": {
        "compound_code": "M3WV+44 \u7f8e\u570b\u7d10\u7d04\u5e03\u9c81\u514b\u6797",
        "global_code": "87G8M3WV+44"
      },
      "reference": "ChIJh5QId1NYwokRj4R39EtohdI",
      "scope": "GOOGLE",
      "types": [
        "point_of_interest",
        "establishment"
      ],
      "vicinity": "367 Weirfield Street, Brooklyn"
    },
    {
      "business_status": "OPERATIONAL",
      "geometry": {
        "location": {
          "lat": 40.6967886,
          "lng": -73.9129798
        },
        "viewport": {
          "northeast": {
            "lat": 40.6980586802915,
            "lng": -73.9114932197085
          },
          "southwest": {
            "lat": 40.6953607197085,
            "lng": -73.91419118029151
          }
        }
      },
      "icon": "https://maps.gstatic.com/mapfiles/place_api/icons/v1/png_71/generic_business-71.png",
      "icon_background_color": "#7B9EB0",
      "icon_mask_base_uri": "https://maps.gstatic.com/mapfiles/place_api/icons/v2/generic_pinlet",
      "name": "Atelier DNA",
      "opening_hours": {
        "open_now": false
      },
      "place_id": "ChIJG-gSvYlZwokRmTUOROtbKQo",
      "plus_code": {
        "compound_code": "M3WP+PR \u7f8e\u570b\u7d10\u7d04\u5e03\u9c81\u514b\u6797",
        "global_code": "87G8M3WP+PR"
      },
      "reference": "ChIJG-gSvYlZwokRmTUOROtbKQo",
      "scope": "GOOGLE",
      "types": [
        "point_of_interest",
        "establishment"
      ],
      "vicinity": "311 Woodbine Street #1F, Brooklyn"
    },
    {
      "business_status": "OPERATIONAL",
      "geometry": {
        "location": {
          "lat": 40.694222,
          "lng": -73.909902
        },
        "viewport": {
          "northeast": {
            "lat": 40.6955062802915,
            "lng": -73.90863496970849
          },
          "southwest": {
            "lat": 40.6928083197085,
            "lng": -73.91133293029151
          }
        }
      },
      "icon": "https://maps.gstatic.com/mapfiles/place_api/icons/v1/png_71/restaurant-71.png",
      "icon_background_color": "#FF9E67",
      "icon_mask_base_uri": "https://maps.gstatic.com/mapfiles/place_api/icons/v2/restaurant_pinlet",
      "name": "Angela's Bakery",
      "opening_hours": {
        "open_now": true
      },
      "photos": [
        {
          "height": 3024,
          "html_attributions": [
            "<a href=\"https://maps.google.com/maps/contrib/103449283880676382542\">Kevin King</a>"
          ],
          "photo_reference": "AeJbb3cqd6iuNDbWkMWtu_WJDHn_agWvHHfr29YUPVoy-DUDy5tZPkKLRzA81xdjV4FhgmV6NXQL0t1CN1KTZ5fBm7mfsqPgiVPxkj4NeaJI1sOiB-sux4jyCoQuXKkZ4gcuiYDlKFV7LX8IU9vVmXjs3PuNMOWUovIYPhTuPcNxGxXazRPa",
          "width": 4032
        }
      ],
      "place_id": "ChIJGyMjIj1cwokROrKADz1WC4M",
      "plus_code": {
        "compound_code": "M3VR+M2 \u7f8e\u570b\u7d10\u7d04\u5e03\u9c81\u514b\u6797",
        "global_code": "87G8M3VR+M2"
      },
      "price_level": 1,
      "rating": 4.2,
      "reference": "ChIJGyMjIj1cwokROrKADz1WC4M",
      "scope": "GOOGLE",
      "types": [
        "bakery",
        "food",
        "store",
        "point_of_interest",
        "establishment"
      ],
      "user_ratings_total": 1021,
      "vicinity": "717 Knickerbocker Avenue, Brooklyn"
    },
    {
      "business_status": "OPERATIONAL",
      "geometry": {
        "location": {
          "lat": 40.69463389999999,
          "lng": -73.9090456
        },
        "viewport": {
          "northeast": {
            "lat": 40.6959412302915,
            "lng": -73.9076229697085
          },
          "southwest": {
            "lat": 40.6932432697085,
            "lng": -73.9103209302915
          }
        }
      },
      "icon": "https://maps.gstatic.com/mapfiles/place_api/icons/v1/png_71/generic_business-71.png",
      "icon_background_color": "#7B9EB0",
      "icon_mask_base_uri": "https://maps.gstatic.com/mapfiles/place_api/icons/v2/generic_pinlet",
      "name": "Coalition For Finding Feldman A New Shirt",
      "photos": [
        {
          "height": 2592,
          "html_attributions": [
            "<a href=\"https://maps.google.com/maps/contrib/118107005764169405681\">Walter Jimenez</a>"
          ],
          "photo_reference": "AeJbb3fNKg_zqfcP7dDPO5taFI95Dqcgq3Pst0uBCBKUKxg1gtnIM965yBvGqu3Y7Vce2RTVECMseB8JqvyV5QCAktw0MWQFB3owi4bSoKtwDyFJihxJ4gk7FwYjiek2PGKKQA9eOaBZxFT_xACInUviDDJ2Te1izI_28o9AOfUKio7VXxOf",
          "width": 1944
        }
      ],
      "place_id": "ChIJvbDN0DxcwokR4gsYV8bTZ0o",
      "plus_code": {
        "compound_code": "M3VR+V9 \u7f8e\u570b\u7d10\u7d04",
        "global_code": "87G8M3VR+V9"
      },
      "reference": "ChIJvbDN0DxcwokR4gsYV8bTZ0o",
      "scope": "GOOGLE",
      "types": [
        "point_of_interest",
        "establishment"
      ],
      "vicinity": "1345 Hancock Street, Brooklyn"
    },
    {
      "business_status": "CLOSED_TEMPORARILY",
      "geometry": {
        "location": {
          "lat": 40.6946474,
          "lng": -73.9073117
        },
        "viewport": {
          "northeast": {
            "lat": 40.6960534302915,
            "lng": -73.90606336970849
          },
          "southwest": {
            "lat": 40.69335546970851,
            "lng": -73.9087613302915
          }
        }
      },
      "icon": "https://maps.gstatic.com/mapfiles/place_api/icons/v1/png_71/generic_business-71.png",
      "icon_background_color": "#7B9EB0",
      "icon_mask_base_uri": "https://maps.gstatic.com/mapfiles/place_api/icons/v2/generic_pinlet",
      "name": "S.K.S Cleaning Service",
      "permanently_closed": true,
      "place_id": "ChIJgRb8rTxcwokRwPwM6FI1Oq4",
      "plus_code": {
        "compound_code": "M3VV+V3 \u7f8e\u570b\u7d10\u7d04\u5e03\u9c81\u514b\u6797",
        "global_code": "87G8M3VV+V3"
      },
      "reference": "ChIJgRb8rTxcwokRwPwM6FI1Oq4",
      "scope": "GOOGLE",
      "types": [
        "point_of_interest",
        "establishment"
      ],
      "vicinity": "332 Weirfield Street, Brooklyn"
    },
    {
      "business_status": "OPERATIONAL",
      "geometry": {
        "location": {
          "lat": 40.6939319,
          "lng": -73.909306
        },
        "viewport": {
          "northeast": {
            "lat": 40.69524988029149,
            "lng": -73.9080673197085
          },
          "southwest": {
            "lat": 40.6925519197085,
            "lng": -73.9107652802915
          }
        }
      },
      "icon": "https://maps.gstatic.com/mapfiles/place_api/icons/v1/png_71/shopping-71.png",
      "icon_background_color": "#4B96F3",
      "icon_mask_base_uri": "https://maps.gstatic.com/mapfiles/place_api/icons/v2/shopping_pinlet",
      "name": "Express Deli",
      "opening_hours": {
        "open_now": true
      },
      "photos": [
        {
          "height": 1960,
          "html_attributions": [
            "<a href=\"https://maps.google.com/maps/contrib/105186437885535707678\">you Next</a>"
          ],
          "photo_reference": "AeJbb3eZrgD3ehnad2nQ05bOSmdd1dOrOhvSI2gH1w8i4LI8jC6DRwTt6LIDD835fzOhT_2fD2szEYRhLBMGxW1HxYQBTMEoEAD-0tY8x8rVB3YK3t_OZ28WqAef4qq71gU3YGFd6ulvP0oNYta93XBpDRTzByT-Mm5_CnsmOGm7AyqHQ6D9",
          "width": 4032
        }
      ],
      "place_id": "ChIJ7W844DxcwokRnc16xbHXWB8",
      "plus_code": {
        "compound_code": "M3VR+H7 \u7f8e\u570b\u7d10\u7d04\u5e03\u9c81\u514b\u6797",
        "global_code": "87G8M3VR+H7"
      },
      "rating": 4,
      "reference": "ChIJ7W844DxcwokRnc16xbHXWB8",
      "scope": "GOOGLE",
      "types": [
        "food",
        "store",
        "point_of_interest",
        "establishment"
      ],
      "user_ratings_total": 10,
      "vicinity": "735 Knickerbocker Avenue, Brooklyn"
    },
    {
      "business_status": "OPERATIONAL",
      "geometry": {
        "location": {
          "lat": 40.6934664,
          "lng": -73.9093901
        },
        "viewport": {
          "northeast": {
            "lat": 40.6946914802915,
            "lng": -73.90786346970849
          },
          "southwest": {
            "lat": 40.6919935197085,
            "lng": -73.91056143029151
          }
        }
      },
      "icon": "https://maps.gstatic.com/mapfiles/place_api/icons/v1/png_71/worship_general-71.png",
      "icon_background_color": "#7B9EB0",
      "icon_mask_base_uri": "https://maps.gstatic.com/mapfiles/place_api/icons/v2/worship_christian_pinlet",
      "name": "St. Martin of Tours Roman Catholic Church",
      "opening_hours": {
        "open_now": false
      },
      "photos": [
        {
          "height": 4032,
          "html_attributions": [
            "<a href=\"https://maps.google.com/maps/contrib/108744001186393956824\">Javier Baez</a>"
          ],
          "photo_reference": "AeJbb3fZOdP1SET7ziXQulIuQGP3zXeH4fUCMhhxOKwXPXMpy3Px_71VUBHtNn5MtfyI_dr1uCgzUOJUxGTmPF8_fENDKyRWaHL-4C4B9MKctQsrRSkFw21xwPoOKEyjf59ZEBfB27XBzjdnSPK5EJ0LXMylPyPybZZPmVcxJShxrDuV92Q0",
          "width": 3024
        }
      ],
      "place_id": "ChIJqeMgAz1cwokRmeZ8PmbwHC8",
      "plus_code": {
        "compound_code": "M3VR+96 \u7f8e\u570b\u7d10\u7d04",
        "global_code": "87G8M3VR+96"
      },
      "rating": 4.7,
      "reference": "ChIJqeMgAz1cwokRmeZ8PmbwHC8",
      "scope": "GOOGLE",
      "types": [
        "church",
        "place_of_worship",
        "point_of_interest",
        "establishment"
      ],
      "user_ratings_total": 151,
      "vicinity": "1288 Hancock Street, Brooklyn"
    },
    {
      "business_status": "OPERATIONAL",
      "geometry": {
        "location": {
          "lat": 40.69319,
          "lng": -73.91058799999999
        },
        "viewport": {
          "northeast": {
            "lat": 40.6944743802915,
            "lng": -73.90912391970849
          },
          "southwest": {
            "lat": 40.6917764197085,
            "lng": -73.9118218802915
          }
        }
      },
      "icon": "https://maps.gstatic.com/mapfiles/place_api/icons/v1/png_71/generic_business-71.png",
      "icon_background_color": "#7B9EB0",
      "icon_mask_base_uri": "https://maps.gstatic.com/mapfiles/place_api/icons/v2/generic_pinlet",
      "name": "Conscious Wellbeing",
      "place_id": "ChIJV-5RCT1cwokRktTuDF5yXEE",
      "plus_code": {
        "compound_code": "M3VQ+7Q \u7f8e\u570b\u7d10\u7d04\u5e03\u9c81\u514b\u6797",
        "global_code": "87G8M3VQ+7Q"
      },
      "reference": "ChIJV-5RCT1cwokRktTuDF5yXEE",
      "scope": "GOOGLE",
      "types": [
        "health",
        "point_of_interest",
        "establishment"
      ],
      "vicinity": "1267 Hancock Street, Brooklyn"
    },
    {
      "business_status": "OPERATIONAL",
      "geometry": {
        "location": {
          "lat": 40.6925464,
          "lng": -73.9096306
        },
        "viewport": {
          "northeast": {
            "lat": 40.69390073029149,
            "lng": -73.90829116970849
          },
          "southwest": {
            "lat": 40.69120276970849,
            "lng": -73.9109891302915
          }
        }
      },
      "icon": "https://maps.gstatic.com/mapfiles/place_api/icons/v1/png_71/shopping-71.png",
      "icon_background_color": "#4B96F3",
      "icon_mask_base_uri": "https://maps.gstatic.com/mapfiles/place_api/icons/v2/shopping_pinlet",
      "name": "Fun Sound Studio",
      "photos": [
        {
          "height": 2206,
          "html_attributions": [
            "<a href=\"https://maps.google.com/maps/contrib/113999274612112307657\">Nate McCarthy</a>"
          ],
          "photo_reference": "AeJbb3f9A55_QhP9EE-0Th6CNWxKcH8jAR-EbZpwS8iGUQQPPFZGiqojXSQnevU3DYGZV7TB6SqV8Q90vVvILfWvypDNL65LPaE-1ovaD8S8lvndb6zoCQ0NINgQ53I5jJDaNJvaQHwhr5nQx7uZhyGe46IcRVv85ru-pIhE7MKvd-sYHwVB",
          "width": 2206
        }
      ],
      "place_id": "ChIJ-6wVqz1cwokRZWAAj_58mrs",
      "plus_code": {
        "compound_code": "M3VR+24 \u7f8e\u570b\u7d10\u7d04\u5e03\u9c81\u514b\u6797",
        "global_code": "87G8M3VR+24"
      },
      "rating": 3,
      "reference": "ChIJ-6wVqz1cwokRZWAAj_58mrs",
      "scope": "GOOGLE",
      "types": [
        "electronics_store",
        "home_goods_store",
        "store",
        "point_of_interest",
        "establishment"
      ],
      "user_ratings_total": 1,
      "vicinity": "Weirfield Street, Brooklyn"
    },
    {
      "business_status": "OPERATIONAL",
      "geometry": {
        "location": {
          "lat": 40.69382600000001,
          "lng": -73.9074316
        },
        "viewport": {
          "northeast": {
            "lat": 40.6951463802915,
            "lng": -73.90603176970849
          },
          "southwest": {
            "lat": 40.69244841970851,
            "lng": -73.90872973029151
          }
        }
      },
      "icon": "https://maps.gstatic.com/mapfiles/place_api/icons/v1/png_71/generic_business-71.png",
      "icon_background_color": "#7B9EB0",
      "icon_mask_base_uri": "https://maps.gstatic.com/mapfiles/place_api/icons/v2/generic_pinlet",
      "name": "Tripp Book",
      "place_id": "ChIJb29MvDxcwokR3hoH7aSmNiU",
      "plus_code": {
        "compound_code": "M3VV+G2 \u7f8e\u570b\u7d10\u7d04\u5e03\u9c81\u514b\u6797",
        "global_code": "87G8M3VV+G2"
      },
      "reference": "ChIJb29MvDxcwokR3hoH7aSmNiU",
      "scope": "GOOGLE",
      "types": [
        "point_of_interest",
        "establishment"
      ],
      "vicinity": "1235 Halsey Street, Brooklyn"
    },
    {
      "business_status": "OPERATIONAL",
      "geometry": {
        "location": {
          "lat": 40.6951188,
          "lng": -73.911496
        },
        "viewport": {
          "northeast": {
            "lat": 40.6964003302915,
            "lng": -73.9102137197085
          },
          "southwest": {
            "lat": 40.6937023697085,
            "lng": -73.9129116802915
          }
        }
      },
      "icon": "https://maps.gstatic.com/mapfiles/place_api/icons/v1/png_71/generic_business-71.png",
      "icon_background_color": "#7B9EB0",
      "icon_mask_base_uri": "https://maps.gstatic.com/mapfiles/place_api/icons/v2/generic_pinlet",
      "name": "William's Private Services, Inc.",
      "opening_hours": {
        "open_now": false
      },
      "photos": [
        {
          "height": 5312,
          "html_attributions": [
            "<a href=\"https://maps.google.com/maps/contrib/115478644853231781208\">VICTOR WILLIAM VILLAMAR</a>"
          ],
          "photo_reference": "AeJbb3dnkKk1MU7LdRKebdsRzTyJkuHY5zuYpPEZb7xZ0u-g1w9zw--_COMR6yQUDOLO1J7__NBxWGQx7wULUQtEocr788d3YjByZZfqLpajrPMQsVaEVNOcTVtatiHd5MY5J6UXgYLTNj4Llyes_tf2KoeT_lqp8PnIE8iFME2tmMhy4HID",
          "width": 2988
        }
      ],
      "place_id": "ChIJGV24Tj1cwokRJzGYXJoy-0U",
      "plus_code": {
        "compound_code": "M3WQ+2C \u7f8e\u570b\u7d10\u7d04\u5e03\u9c81\u514b\u6797",
        "global_code": "87G8M3WQ+2C"
      },
      "rating": 3.9,
      "reference": "ChIJGV24Tj1cwokRJzGYXJoy-0U",
      "scope": "GOOGLE",
      "types": [
        "finance",
        "point_of_interest",
        "establishment"
      ],
      "user_ratings_total": 8,
      "vicinity": "671 Knickerbocker Avenue, Brooklyn"
    },
    {
      "geometry": {
        "location": {
          "lat": 40.6781784,
          "lng": -73.9441579
        },
        "viewport": {
          "northeast": {
            "lat": 40.73944597129348,
            "lng": -73.83336505117123
          },
          "southwest": {
            "lat": 40.55104197967331,
            "lng": -74.05662998413648
          }
        }
      },
      "icon": "https://maps.gstatic.com/mapfiles/place_api/icons/v1/png_71/geocode-71.png",
      "icon_background_color": "#7B9EB0",
      "icon_mask_base_uri": "https://maps.gstatic.com/mapfiles/place_api/icons/v2/generic_pinlet",
      "name": "\u5e03\u9c81\u514b\u6797",
      "photos": [
        {
          "height": 3024,
          "html_attributions": [
            "<a href=\"https://maps.google.com/maps/contrib/114417859579881743500\">Chengxiang Yuan</a>"
          ],
          "photo_reference": "AeJbb3c9KDLjfla79oNtTvZpPJv6O1M_86dI8gMcQgsWyyxqxQr8MUyInfLetXZzzBqXrUHtDjq5Jv0VAWkTAR28ogaUajR3fZR7VuovhMKh_l8fY_8RYEWQakkErWYxXybdzVeBJH1qhnN25R0lQ_QzVf6IItiEoHMz5Vv-7aOd8O1buHqB",
          "width": 4032
        }
      ],
      "place_id": "ChIJCSF8lBZEwokRhngABHRcdoI",
      "reference": "ChIJCSF8lBZEwokRhngABHRcdoI",
      "scope": "GOOGLE",
      "types": [
        "sublocality_level_1",
        "sublocality",
        "political"
      ],
      "vicinity": "\u5e03\u9c81\u514b\u6797"
    },
    {
      "business_status": "OPERATIONAL",
      "geometry": {
        "location": {
          "lat": 40.69568019999999,
          "lng": -73.9104235
        },
        "viewport": {
          "northeast": {
            "lat": 40.6969749802915,
            "lng": -73.90897911970849
          },
          "southwest": {
            "lat": 40.6942770197085,
            "lng": -73.9116770802915
          }
        }
      },
      "icon": "https://maps.gstatic.com/mapfiles/place_api/icons/v1/png_71/generic_business-71.png",
      "icon_background_color": "#7B9EB0",
      "icon_mask_base_uri": "https://maps.gstatic.com/mapfiles/place_api/icons/v2/generic_pinlet",
      "name": "Boudoir by Andreea B Ballen Photography",
      "opening_hours": {
        "open_now": true
      },
      "photos": [
        {
          "height": 3600,
          "html_attributions": [
            "<a href=\"https://maps.google.com/maps/contrib/109003594174430741085\">Boudoir by Andreea B Ballen Photography</a>"
          ],
          "photo_reference": "AeJbb3dKlW27rHI4Yrl57jAFQD6j0WrB9aNoDnntHPOGZ3vk7kYlYI13BfQXEkYq09MrB0R-97Dn6K8rHCulQzUe4TuVRXifm314DbU9VnPHKx3tgSUzeR2rI9z85sKmAdBVDYLhBMfU2Tf8mRBEkLGuHcYiCQqbNlDPgj2YloxW9xsI9M-j",
          "width": 2400
        }
      ],
      "place_id": "ChIJE0l2ziJcwokRcd4ZzeyRe8o",
      "plus_code": {
        "compound_code": "M3WQ+7R Brooklyn, NY, USA",
        "global_code": "87G8M3WQ+7R"
      },
      "rating": 5,
      "reference": "ChIJE0l2ziJcwokRcd4ZzeyRe8o",
      "scope": "GOOGLE",
      "types": [
        "point_of_interest",
        "establishment"
      ],
      "user_ratings_total": 75,
      "vicinity": "331 Cornelia Street, Brooklyn"
    },
    {
      "business_status": "OPERATIONAL",
      "geometry": {
        "location": {
          "lat": 40.6925655,
          "lng": -73.91167000000002
        },
        "viewport": {
          "northeast": {
            "lat": 40.6940691302915,
            "lng": -73.9104780197085
          },
          "southwest": {
            "lat": 40.6913711697085,
            "lng": -73.91317598029151
          }
        }
      },
      "icon": "https://maps.gstatic.com/mapfiles/place_api/icons/v1/png_71/shopping-71.png",
      "icon_background_color": "#4B96F3",
      "icon_mask_base_uri": "https://maps.gstatic.com/mapfiles/place_api/icons/v2/shoppingcart_pinlet",
      "name": "Food Basics",
      "opening_hours": {
        "open_now": true
      },
      "photos": [
        {
          "height": 3024,
          "html_attributions": [
            "<a href=\"https://maps.google.com/maps/contrib/100269135986841907567\">Stephen Taylor</a>"
          ],
          "photo_reference": "AeJbb3erAzvPtBVwE1LggW_bFVrtg0scOt4qhMnBs77Lu83i8DriG4NhtxgoVT7HmDaHZYQV6w2s9xbByiE3KAFmI8q6J5WmmhIHMMniyKbNt8LOmYV82dauYHzl0xmySpoLUvdYdI412Kkkz16Vo66WGAriDef8dIOvYgx9ogcM9h1bC9wY",
          "width": 4032
        }
      ],
      "place_id": "ChIJNY0KhD1cwokRzemiJtiYRI8",
      "plus_code": {
        "compound_code": "M3VQ+28 New York, NY, USA",
        "global_code": "87G8M3VQ+28"
      },
      "rating": 4.3,
      "reference": "ChIJNY0KhD1cwokRzemiJtiYRI8",
      "scope": "GOOGLE",
      "types": [
        "grocery_or_supermarket",
        "food",
        "store",
        "point_of_interest",
        "establishment"
      ],
      "user_ratings_total": 74,
      "vicinity": "474 Wilson Avenue, Brooklyn"
    },
    {
      "business_status": "OPERATIONAL",
      "geometry": {
        "location": {
          "lat": 40.692711,
          "lng": -73.912037
        },
        "viewport": {
          "northeast": {
            "lat": 40.6941283302915,
            "lng": -73.91062696970849
          },
          "southwest": {
            "lat": 40.6914303697085,
            "lng": -73.91332493029151
          }
        }
      },
      "icon": "https://maps.gstatic.com/mapfiles/place_api/icons/v1/png_71/shopping-71.png",
      "icon_background_color": "#4B96F3",
      "icon_mask_base_uri": "https://maps.gstatic.com/mapfiles/place_api/icons/v2/shopping_pinlet",
      "name": "Your Deal Food Corporation",
      "opening_hours": {
        "open_now": true
      },
      "photos": [
        {
          "height": 4032,
          "html_attributions": [
            "<a href=\"https://maps.google.com/maps/contrib/103919812803298686196\">massimo</a>"
          ],
          "photo_reference": "AeJbb3eSpDoCRH0Yl9XNkQhfSsWRuaxTO_0CftVm997ZMXJt6_oee-2HltPrdTLBTtegJI97iq1hrJhulzTPaexg25Wylz5S2quWdYghlsiB4ilt_u6rR0ngZhd2RidKy-Q6L1RSRcapou6qR8j9oSGzcYxcS5u2PIdvHpCnmRj3EL74xzyV",
          "width": 3024
        }
      ],
      "place_id": "ChIJlyp-hj1cwokR9PsN3C17gZ0",
      "plus_code": {
        "compound_code": "M3VQ+35 Brooklyn, NY, USA",
        "global_code": "87G8M3VQ+35"
      },
      "rating": 4,
      "reference": "ChIJlyp-hj1cwokR9PsN3C17gZ0",
      "scope": "GOOGLE",
      "types": [
        "food",
        "store",
        "point_of_interest",
        "establishment"
      ],
      "user_ratings_total": 31,
      "vicinity": "472 Wilson Avenue, Brooklyn"
    },
    {
      "business_status": "OPERATIONAL",
      "geometry": {
        "location": {
          "lat": 40.6937006,
          "lng": -73.912685
        },
        "viewport": {
          "northeast": {
            "lat": 40.6951451802915,
            "lng": -73.9115239197085
          },
          "southwest": {
            "lat": 40.6924472197085,
            "lng": -73.91422188029152
          }
        }
      },
      "icon": "https://maps.gstatic.com/mapfiles/place_api/icons/v1/png_71/school-71.png",
      "icon_background_color": "#7B9EB0",
      "icon_mask_base_uri": "https://maps.gstatic.com/mapfiles/place_api/icons/v2/school_pinlet",
      "name": "P.S. 106 Edward Everett Hale",
      "photos": [
        {
          "height": 1920,
          "html_attributions": [
            "<a href=\"https://maps.google.com/maps/contrib/112563023632320392170\">Ariel Rodriguez</a>"
          ],
          "photo_reference": "AeJbb3efb_-MLo66nazGMkfzT16DDeQO4ZCldQOHVHU1WiuRveKR3Pd9MHVxWIOWNwJnGCdiU2HO-vfnIZq5IBREkRfmX-7ZRnDaN6f1t3avc1b_5oMYyv_1WlX8v3OObErjxHnq0iLA0IYbEHcTYKGau3Qlg6vQR9DT3nIy4Aqcht5TS0TB",
          "width": 1080
        }
      ],
      "place_id": "ChIJ2_WuNb1bwokR0ZqXXoRI4dU",
      "plus_code": {
        "compound_code": "M3VP+FW New York, NY, USA",
        "global_code": "87G8M3VP+FW"
      },
      "rating": 4.3,
      "reference": "ChIJ2_WuNb1bwokR0ZqXXoRI4dU",
      "scope": "GOOGLE",
      "types": [
        "school",
        "point_of_interest",
        "establishment"
      ],
      "user_ratings_total": 12,
      "vicinity": "1328 Putnam Avenue, Brooklyn"
    },
    {
      "business_status": "OPERATIONAL",
      "geometry": {
        "location": {
          "lat": 40.695945,
          "lng": -73.90851599999999
        },
        "viewport": {
          "northeast": {
            "lat": 40.6973158302915,
            "lng": -73.90723811970848
          },
          "southwest": {
            "lat": 40.6946178697085,
            "lng": -73.9099360802915
          }
        }
      },
      "icon": "https://maps.gstatic.com/mapfiles/place_api/icons/v1/png_71/generic_business-71.png",
      "icon_background_color": "#7B9EB0",
      "icon_mask_base_uri": "https://maps.gstatic.com/mapfiles/place_api/icons/v2/generic_pinlet",
      "name": "Cooling Fresh",
      "opening_hours": {
        "open_now": true
      },
      "photos": [
        {
          "height": 3024,
          "html_attributions": [
            "<a href=\"https://maps.google.com/maps/contrib/105335258684570265046\">Cooling Fresh</a>"
          ],
          "photo_reference": "AeJbb3fUZgWeH106l8suRsoTNwjCtOlUdXsflbkMZFIBm83IwDBX_GcHrT5iLjtLYR0iWon0iS84mGtSWfJu_2Exz88XhCHHD07skTsSni3S7nAJpiHxFXYfZ0fI-hGdkOKFllXyJOwnQNwutPGnaMY6-lN3nAxUKodMyi5S4dvUEn-zLoPF",
          "width": 4032
        }
      ],
      "place_id": "ChIJ4UvrOyNcwokRvG1ny7F02SQ",
      "plus_code": {
        "compound_code": "M3WR+9H Brooklyn, NY, USA",
        "global_code": "87G8M3WR+9H"
      },
      "rating": 5,
      "reference": "ChIJ4UvrOyNcwokRvG1ny7F02SQ",
      "scope": "GOOGLE",
      "types": [
        "point_of_interest",
        "establishment"
      ],
      "user_ratings_total": 2,
      "vicinity": "451 Irving Avenue, Brooklyn"
    },
    {
      "business_status": "OPERATIONAL",
      "geometry": {
        "location": {
          "lat": 40.694208,
          "lng": -73.906525
        },
        "viewport": {
          "northeast": {
            "lat": 40.69562498029151,
            "lng": -73.90529681970848
          },
          "southwest": {
            "lat": 40.69292701970851,
            "lng": -73.9079947802915
          }
        }
      },
      "icon": "https://maps.gstatic.com/mapfiles/place_api/icons/v1/png_71/generic_business-71.png",
      "icon_background_color": "#7B9EB0",
      "icon_mask_base_uri": "https://maps.gstatic.com/mapfiles/place_api/icons/v2/generic_pinlet",
      "name": "Roberto Ramos My Econ",
      "opening_hours": {
        "open_now": true
      },
      "photos": [
        {
          "height": 892,
          "html_attributions": [
            "<a href=\"https://maps.google.com/maps/contrib/104781929078809030639\">Roberto Ramos My Econ</a>"
          ],
          "photo_reference": "AeJbb3f_cTrCbMmsCFl2jER5SfTYczxtOfuNbfEw4W_VuxOv6f6kq-VV-c2tbY5VhS71we_MXbIiCV6VmZYUTumnFyUdjxeUe6CzAw818--XnEqmwJ147Ioh2c23j9cS-FeCShXXXVeSSp1D1QZxq7JlZjE5NaRIGPDtovloctnJo5zgrSKt",
          "width": 960
        }
      ],
      "place_id": "ChIJUZ_xVztcwokRLHgZ1MP6Jlg",
      "plus_code": {
        "compound_code": "M3VV+M9 Brooklyn, NY, USA",
        "global_code": "87G8M3VV+M9"
      },
      "reference": "ChIJUZ_xVztcwokRLHgZ1MP6Jlg",
      "scope": "GOOGLE",
      "types": [
        "finance",
        "point_of_interest",
        "establishment"
      ],
      "vicinity": "1326 Halsey Street #2l, Brooklyn"
    },
    {
      "business_status": "OPERATIONAL",
      "geometry": {
        "location": {
          "lat": 40.691691,
          "lng": -73.911351
        },
        "viewport": {
          "northeast": {
            "lat": 40.6931038802915,
            "lng": -73.91011461970848
          },
          "southwest": {
            "lat": 40.6904059197085,
            "lng": -73.9128125802915
          }
        }
      },
      "icon": "https://maps.gstatic.com/mapfiles/place_api/icons/v1/png_71/generic_business-71.png",
      "icon_background_color": "#7B9EB0",
      "icon_mask_base_uri": "https://maps.gstatic.com/mapfiles/place_api/icons/v2/generic_pinlet",
      "name": "Throne of String",
      "opening_hours": {
        "open_now": false
      },
      "place_id": "ChIJ2fpg6z1cwokRYRBKJdxLfIM",
      "plus_code": {
        "compound_code": "M3RQ+MF New York, NY, USA",
        "global_code": "87G8M3RQ+MF"
      },
      "rating": 4,
      "reference": "ChIJ2fpg6z1cwokRYRBKJdxLfIM",
      "scope": "GOOGLE",
      "types": [
        "storage",
        "point_of_interest",
        "establishment"
      ],
      "user_ratings_total": 6,
      "vicinity": "1214 Hancock Street, Brooklyn"
    },
    {
      "business_status": "OPERATIONAL",
      "geometry": {
        "location": {
          "lat": 40.6913247,
          "lng": -73.9098719
        },
        "viewport": {
          "northeast": {
            "lat": 40.6926469302915,
            "lng": -73.9084754197085
          },
          "southwest": {
            "lat": 40.6899489697085,
            "lng": -73.91117338029152
          }
        }
      },
      "icon": "https://maps.gstatic.com/mapfiles/place_api/icons/v1/png_71/shopping-71.png",
      "icon_background_color": "#4B96F3",
      "icon_mask_base_uri": "https://maps.gstatic.com/mapfiles/place_api/icons/v2/shopping_pinlet",
      "name": "Boardwalk Wine & Spirits",
      "opening_hours": {
        "open_now": true
      },
      "photos": [
        {
          "height": 1536,
          "html_attributions": [
            "<a href=\"https://maps.google.com/maps/contrib/100060965452527041958\">Lisa S</a>"
          ],
          "photo_reference": "AeJbb3dXfZ8u_y5Y2izZ80WV4-SJnioSAFeK20aE97awwsDZRXo1dSbPxpIus_bKpPjN0vTdVH-42AOIq3xnplPviStb57r8QQmpWT3FNUAx9k0EKM7KYqJbPq_aYLrg-ziA1Wr2WBwewmOx4C8pakpo3rOUIseth2y1wt-6VUmaZhXea8O9",
          "width": 2048
        }
      ],
      "place_id": "ChIJC8YIzD1cwokRctrQwT88Yxk",
      "plus_code": {
        "compound_code": "M3RR+G3 Brooklyn, NY, USA",
        "global_code": "87G8M3RR+G3"
      },
      "rating": 4.4,
      "reference": "ChIJC8YIzD1cwokRctrQwT88Yxk",
      "scope": "GOOGLE",
      "types": [
        "liquor_store",
        "food",
        "store",
        "point_of_interest",
        "establishment"
      ],
      "user_ratings_total": 57,
      "vicinity": "1195 Halsey Street, Brooklyn"
    },
    {
      "business_status": "CLOSED_TEMPORARILY",
      "geometry": {
        "location": {
          "lat": 40.691403,
          "lng": -73.90889299999999
        },
        "viewport": {
          "northeast": {
            "lat": 40.6926630302915,
            "lng": -73.9076280697085
          },
          "southwest": {
            "lat": 40.6899650697085,
            "lng": -73.9103260302915
          }
        }
      },
      "icon": "https://maps.gstatic.com/mapfiles/place_api/icons/v1/png_71/shopping-71.png",
      "icon_background_color": "#4B96F3",
      "icon_mask_base_uri": "https://maps.gstatic.com/mapfiles/place_api/icons/v2/shopping_pinlet",
      "name": "Super Store 8",
      "permanently_closed": true,
      "photos": [
        {
          "height": 2592,
          "html_attributions": [
            "<a href=\"https://maps.google.com/maps/contrib/114149148516793959241\">Super Store 8</a>"
          ],
          "photo_reference": "AeJbb3dkOj8PyYgJ7O0duHZbN8E7Q5ikuZAI5rOjXyFl0Ek2cbwC5BiGDCv-P973lSMF-mmejmzQBPySKRZIUDOzCNJjQwiJIZo18TPQMjerwD-YGrOhKRwcz2UVNXNlv3pDEBQ-3ggKZYQxPsqzKTmbN84-WW_XrveNZr5EcYGlVT9-NwDk",
          "width": 1936
        }
      ],
      "place_id": "ChIJucXdNzxcwokRtGaavTnE6h0",
      "plus_code": {
        "compound_code": "M3RR+HC Brooklyn, NY, USA",
        "global_code": "87G8M3RR+HC"
      },
      "rating": 5,
      "reference": "ChIJucXdNzxcwokRtGaavTnE6h0",
      "scope": "GOOGLE",
      "types": [
        "home_goods_store",
        "food",
        "store",
        "point_of_interest",
        "establishment"
      ],
      "user_ratings_total": 2,
      "vicinity": "563 Wilson Avenue, Brooklyn"
    },
    {
      "business_status": "OPERATIONAL",
      "geometry": {
        "location": {
          "lat": 40.6963425,
          "lng": -73.9092691
        },
        "viewport": {
          "northeast": {
            "lat": 40.6977282802915,
            "lng": -73.9079852697085
          },
          "southwest": {
            "lat": 40.6950303197085,
            "lng": -73.91068323029151
          }
        }
      },
      "icon": "https://maps.gstatic.com/mapfiles/place_api/icons/v1/png_71/civic_building-71.png",
      "icon_background_color": "#7B9EB0",
      "icon_mask_base_uri": "https://maps.gstatic.com/mapfiles/place_api/icons/v2/civic-bldg_pinlet",
      "name": "Member of Assembly Erik M. Dilan",
      "opening_hours": {
        "open_now": false
      },
      "place_id": "ChIJc43ZISNcwokR3ibbClpgLDg",
      "plus_code": {
        "compound_code": "M3WR+G7 Brooklyn, NY, USA",
        "global_code": "87G8M3WR+G7"
      },
      "rating": 4,
      "reference": "ChIJc43ZISNcwokR3ibbClpgLDg",
      "scope": "GOOGLE",
      "types": [
        "point_of_interest",
        "local_government_office",
        "establishment"
      ],
      "user_ratings_total": 1,
      "vicinity": "366 Cornelia Street, Brooklyn"
    },
    {
      "business_status": "OPERATIONAL",
      "geometry": {
        "location": {
          "lat": 40.693966,
          "lng": -73.906318
        },
        "viewport": {
          "northeast": {
            "lat": 40.69524793029151,
            "lng": -73.90485051970852
          },
          "southwest": {
            "lat": 40.69254996970851,
            "lng": -73.90754848029152
          }
        }
      },
      "icon": "https://maps.gstatic.com/mapfiles/place_api/icons/v1/png_71/shopping-71.png",
      "icon_background_color": "#4B96F3",
      "icon_mask_base_uri": "https://maps.gstatic.com/mapfiles/place_api/icons/v2/shopping_pinlet",
      "name": "Jack + G",
      "opening_hours": {
        "open_now": true
      },
      "photos": [
        {
          "height": 1454,
          "html_attributions": [
            "<a href=\"https://maps.google.com/maps/contrib/111126728706575638503\">Jack + G</a>"
          ],
          "photo_reference": "AeJbb3fj_F59GR2N6I8-Bxiw-eihXsrjjZ8ZIPOPXCZfrJKkm5aLmqCd7Z00CVNYD4x7yBusgDFnQwJAlZZI1foANpXB6c_kG-rJqj10LT4tIYdQc7IlV488PmR-oVNr-BzLNw67sVBr8JluDFesSjtH9jTfm6dclsiigu9UygsEE46zzhJ2",
          "width": 1454
        }
      ],
      "place_id": "ChIJKwlOujtcwokRsA3rPKiqjnU",
      "plus_code": {
        "compound_code": "M3VV+HF Brooklyn, NY, USA",
        "global_code": "87G8M3VV+HF"
      },
      "rating": 4.8,
      "reference": "ChIJKwlOujtcwokRsA3rPKiqjnU",
      "scope": "GOOGLE",
      "types": [
        "jewelry_store",
        "store",
        "point_of_interest",
        "establishment"
      ],
      "user_ratings_total": 17,
      "vicinity": "345 Eldert Street, Brooklyn"
    },
    {
      "business_status": "OPERATIONAL",
      "geometry": {
        "location": {
          "lat": 40.6964922,
          "lng": -73.9095222
        },
        "viewport": {
          "northeast": {
            "lat": 40.6977637802915,
            "lng": -73.90825011970848
          },
          "southwest": {
            "lat": 40.6950658197085,
            "lng": -73.91094808029149
          }
        }
      },
      "icon": "https://maps.gstatic.com/mapfiles/place_api/icons/v1/png_71/worship_general-71.png",
      "icon_background_color": "#7B9EB0",
      "icon_mask_base_uri": "https://maps.gstatic.com/mapfiles/place_api/icons/v2/worship_christian_pinlet",
      "name": "Faith Restoration Center Vision Keepers",
      "place_id": "ChIJcXHjHyNcwokR5S8Y2esPVsE",
      "plus_code": {
        "compound_code": "M3WR+H5 Brooklyn, NY, USA",
        "global_code": "87G8M3WR+H5"
      },
      "rating": 4.6,
      "reference": "ChIJcXHjHyNcwokR5S8Y2esPVsE",
      "scope": "GOOGLE",
      "types": [
        "church",
        "place_of_worship",
        "point_of_interest",
        "establishment"
      ],
      "user_ratings_total": 5,
      "vicinity": "429 Irving Avenue, Brooklyn"
    },
    {
      "business_status": "OPERATIONAL",
      "geometry": {
        "location": {
          "lat": 40.6933307,
          "lng": -73.9131793
        },
        "viewport": {
          "northeast": {
            "lat": 40.6947616802915,
            "lng": -73.9117657697085
          },
          "southwest": {
            "lat": 40.6920637197085,
            "lng": -73.9144637302915
          }
        }
      },
      "icon": "https://maps.gstatic.com/mapfiles/place_api/icons/v1/png_71/shopping-71.png",
      "icon_background_color": "#4B96F3",
      "icon_mask_base_uri": "https://maps.gstatic.com/mapfiles/place_api/icons/v2/shopping_pinlet",
      "name": "Zam Barrett Dialogue",
      "opening_hours": {
        "open_now": false
      },
      "photos": [
        {
          "height": 875,
          "html_attributions": [
            "<a href=\"https://maps.google.com/maps/contrib/115485315145016091126\">Zam Barrett Dialogue</a>"
          ],
          "photo_reference": "AeJbb3fj66Lt3FcS1DK49lwRMubSW0bevmg4uGknPO7uSkVEpADztdhBDDQLyx8X9pFPDYUQ_9ysJN4l91tOLR_CagOWejdT49wzzfxlbkbsamEfUa88lQGfOhsoo9v1qX8Nyj7Fjm9MXc1CxD0w5X7PfT0T4Iq0lI-zPqH67nIPkDY_01LM",
          "width": 1000
        }
      ],
      "place_id": "ChIJd2kta79awokRTYBfY_nzJrw",
      "plus_code": {
        "compound_code": "M3VP+8P Brooklyn, NY, USA",
        "global_code": "87G8M3VP+8P"
      },
      "rating": 4.9,
      "reference": "ChIJd2kta79awokRTYBfY_nzJrw",
      "scope": "GOOGLE",
      "types": [
        "clothing_store",
        "store",
        "point_of_interest",
        "establishment"
      ],
      "user_ratings_total": 7,
      "vicinity": "438 Wilson Avenue, Brooklyn"
    },
    {
      "business_status": "OPERATIONAL",
      "geometry": {
        "location": {
          "lat": 40.69116349999999,
          "lng": -73.910218
        },
        "viewport": {
          "northeast": {
            "lat": 40.6924515802915,
            "lng": -73.90876081970849
          },
          "southwest": {
            "lat": 40.6897536197085,
            "lng": -73.91145878029151
          }
        }
      },
      "icon": "https://maps.gstatic.com/mapfiles/place_api/icons/v1/png_71/generic_business-71.png",
      "icon_background_color": "#7B9EB0",
      "icon_mask_base_uri": "https://maps.gstatic.com/mapfiles/place_api/icons/v2/generic_pinlet",
      "name": "1187 Halsey Street",
      "place_id": "ChIJl9l5zz1cwokRt0kuqpkcL-4",
      "plus_code": {
        "compound_code": "M3RQ+FW New York, NY, USA",
        "global_code": "87G8M3RQ+FW"
      },
      "reference": "ChIJl9l5zz1cwokRt0kuqpkcL-4",
      "scope": "GOOGLE",
      "types": [
        "finance",
        "point_of_interest",
        "establishment"
      ],
      "vicinity": "1189 Halsey Street, Brooklyn"
    },
    {
      "business_status": "OPERATIONAL",
      "geometry": {
        "location": {
          "lat": 40.6938989,
          "lng": -73.90924079999999
        },
        "viewport": {
          "northeast": {
            "lat": 40.69516023029149,
            "lng": -73.90797831970849
          },
          "southwest": {
            "lat": 40.69246226970849,
            "lng": -73.91067628029151
          }
        }
      },
      "icon": "https://maps.gstatic.com/mapfiles/place_api/icons/v1/png_71/generic_business-71.png",
      "icon_background_color": "#7B9EB0",
      "icon_mask_base_uri": "https://maps.gstatic.com/mapfiles/place_api/icons/v2/generic_pinlet",
      "name": "Marlene M. Pitamber, Physician",
      "place_id": "ChIJ7ZaX4TxcwokRjZJa4b6P5rc",
      "plus_code": {
        "compound_code": "M3VR+H8 Brooklyn, NY, USA",
        "global_code": "87G8M3VR+H8"
      },
      "rating": 3.7,
      "reference": "ChIJ7ZaX4TxcwokRjZJa4b6P5rc",
      "scope": "GOOGLE",
      "types": [
        "doctor",
        "health",
        "point_of_interest",
        "establishment"
      ],
      "user_ratings_total": 3,
      "vicinity": "739 Knickerbocker Avenue, Brooklyn, NY 11221, Brooklyn"
    },
    {
      "business_status": "OPERATIONAL",
      "geometry": {
        "location": {
          "lat": 40.6966422,
          "lng": -73.91094389999999
        },
        "viewport": {
          "northeast": {
            "lat": 40.6983407302915,
            "lng": -73.9098998197085
          },
          "southwest": {
            "lat": 40.6956427697085,
            "lng": -73.9125977802915
          }
        }
      },
      "icon": "https://maps.gstatic.com/mapfiles/place_api/icons/v1/png_71/generic_business-71.png",
      "icon_background_color": "#7B9EB0",
      "icon_mask_base_uri": "https://maps.gstatic.com/mapfiles/place_api/icons/v2/generic_pinlet",
      "name": "Bushwick Campus Farm",
      "photos": [
        {
          "height": 1944,
          "html_attributions": [
            "<a href=\"https://maps.google.com/maps/contrib/102436687396911582434\">Bernab\u00e9 Loja</a>"
          ],
          "photo_reference": "AeJbb3dkLfLxgL3-jaC9woCrm5LtAdiZCzcSqrBatCyJbz9WKy065XIrc5cqxfy1leWmdBee_2oYxj-mSm_2N0LMV6ajyqoucgUm7Zf9sixMsfaoUwqRZ4rPD13X4sIkqVEsAynAlYevEkECgNfSK4qldITJZjb39lGNcWfkBC41KPSqS7GW",
          "width": 2592
        }
      ],
      "place_id": "ChIJr7DzlyJcwokR4r9ucb6HbWY",
      "plus_code": {
        "compound_code": "M3WQ+MJ Brooklyn, NY, USA",
        "global_code": "87G8M3WQ+MJ"
      },
      "rating": 3.9,
      "reference": "ChIJr7DzlyJcwokR4r9ucb6HbWY",
      "scope": "GOOGLE",
      "types": [
        "point_of_interest",
        "establishment"
      ],
      "user_ratings_total": 9,
      "vicinity": "400 Irving Avenue, Brooklyn"
    },
    {
      "business_status": "OPERATIONAL",
      "geometry": {
        "location": {
          "lat": 40.693355,
          "lng": -73.913611
        },
        "viewport": {
          "northeast": {
            "lat": 40.6947142802915,
            "lng": -73.91228026970849
          },
          "southwest": {
            "lat": 40.6920163197085,
            "lng": -73.9149782302915
          }
        }
      },
      "icon": "https://maps.gstatic.com/mapfiles/place_api/icons/v1/png_71/generic_business-71.png",
      "icon_background_color": "#7B9EB0",
      "icon_mask_base_uri": "https://maps.gstatic.com/mapfiles/place_api/icons/v2/generic_pinlet",
      "name": "Some People Understand Differently (SPUD.inc)",
      "opening_hours": {
        "open_now": true
      },
      "photos": [
        {
          "height": 3264,
          "html_attributions": [
            "<a href=\"https://maps.google.com/maps/contrib/116193972396973035033\">Some People Understand Differently (SPUD.inc)</a>"
          ],
          "photo_reference": "AeJbb3c3STaz1MJKKi7TlC8a4xZ5t2umMLOoKehefmq9QDoTR0ZVqY8SurtQGMjh0ZEdpj5PVAKLSQyPpy0-8GQ-c-ReU9SSUnFSf7Ba_k8rHBQx2jmTvvFhP1cvA698s8fngTkj3SnuZXsP6TsQ9oioBnuFVvFCNT8o8tFJUuPU61oi916b",
          "width": 2448
        }
      ],
      "place_id": "ChIJ8_NRyxdcwokRVcB9tD21O_w",
      "plus_code": {
        "compound_code": "M3VP+8H Brooklyn, NY, USA",
        "global_code": "87G8M3VP+8H"
      },
      "rating": 5,
      "reference": "ChIJ8_NRyxdcwokRVcB9tD21O_w",
      "scope": "GOOGLE",
      "types": [
        "point_of_interest",
        "establishment"
      ],
      "user_ratings_total": 1,
      "vicinity": "1317 Putnam Avenue 1st fl, Brooklyn"
    },
    {
      "business_status": "OPERATIONAL",
      "geometry": {
        "location": {
          "lat": 40.6908715,
          "lng": -73.9086736
        },
        "viewport": {
          "northeast": {
            "lat": 40.69227958029149,
            "lng": -73.9074285197085
          },
          "southwest": {
            "lat": 40.6895816197085,
            "lng": -73.91012648029151
          }
        }
      },
      "icon": "https://maps.gstatic.com/mapfiles/place_api/icons/v1/png_71/generic_business-71.png",
      "icon_background_color": "#7B9EB0",
      "icon_mask_base_uri": "https://maps.gstatic.com/mapfiles/place_api/icons/v2/generic_pinlet",
      "name": "Cleaning Service New York City",
      "opening_hours": {
        "open_now": true
      },
      "place_id": "ChIJH5XxgD5cwokRNCEY5HljUa8",
      "plus_code": {
        "compound_code": "M3RR+8G New York, NY, USA",
        "global_code": "87G8M3RR+8G"
      },
      "reference": "ChIJH5XxgD5cwokRNCEY5HljUa8",
      "scope": "GOOGLE",
      "types": [
        "point_of_interest",
        "establishment"
      ],
      "vicinity": "200 Eldert Street, Brooklyn"
    },
    {
      "business_status": "CLOSED_TEMPORARILY",
      "geometry": {
        "location": {
          "lat": 40.6942631,
          "lng": -73.9057648
        },
        "viewport": {
          "northeast": {
            "lat": 40.6955637302915,
            "lng": -73.90443646970849
          },
          "southwest": {
            "lat": 40.6928657697085,
            "lng": -73.90713443029149
          }
        }
      },
      "icon": "https://maps.gstatic.com/mapfiles/place_api/icons/v1/png_71/shopping-71.png",
      "icon_background_color": "#4B96F3",
      "icon_mask_base_uri": "https://maps.gstatic.com/mapfiles/place_api/icons/v2/shopping_pinlet",
      "name": "RIRO Muzik",
      "permanently_closed": true,
      "place_id": "ChIJvyINWTtcwokRAqABEKSHjVc",
      "plus_code": {
        "compound_code": "M3VV+PM New York, NY, USA",
        "global_code": "87G8M3VV+PM"
      },
      "rating": 5,
      "reference": "ChIJvyINWTtcwokRAqABEKSHjVc",
      "scope": "GOOGLE",
      "types": [
        "electronics_store",
        "home_goods_store",
        "store",
        "point_of_interest",
        "establishment"
      ],
      "user_ratings_total": 4,
      "vicinity": "345 Eldert Lofts, 345 Eldert Street, Brooklyn"
    },
    {
      "business_status": "OPERATIONAL",
      "geometry": {
        "location": {
          "lat": 40.6920452,
          "lng": -73.90613019999999
        },
        "viewport": {
          "northeast": {
            "lat": 40.6933381802915,
            "lng": -73.90485061970848
          },
          "southwest": {
            "lat": 40.6906402197085,
            "lng": -73.90754858029149
          }
        }
      },
      "icon": "https://maps.gstatic.com/mapfiles/place_api/icons/v1/png_71/generic_business-71.png",
      "icon_background_color": "#7B9EB0",
      "icon_mask_base_uri": "https://maps.gstatic.com/mapfiles/place_api/icons/v2/generic_pinlet",
      "name": "Falcon Bridge Inc",
      "opening_hours": {
        "open_now": false
      },
      "place_id": "ChIJmaO0gztcwokRacm_bygWQVQ",
      "plus_code": {
        "compound_code": "M3RV+RG New York, NY, USA",
        "global_code": "87G8M3RV+RG"
      },
      "reference": "ChIJmaO0gztcwokRacm_bygWQVQ",
      "scope": "GOOGLE",
      "types": [
        "general_contractor",
        "point_of_interest",
        "establishment"
      ],
      "vicinity": "839 Knickerbocker Avenue, Brooklyn"
    },
    {
      "business_status": "OPERATIONAL",
      "geometry": {
        "location": {
          "lat": 40.6968994,
          "lng": -73.91119379999999
        },
        "viewport": {
          "northeast": {
            "lat": 40.69846933029149,
            "lng": -73.91002476970849
          },
          "southwest": {
            "lat": 40.6957713697085,
            "lng": -73.91272273029149
          }
        }
      },
      "icon": "https://maps.gstatic.com/mapfiles/place_api/icons/v1/png_71/school-71.png",
      "icon_background_color": "#7B9EB0",
      "icon_mask_base_uri": "https://maps.gstatic.com/mapfiles/place_api/icons/v2/school_pinlet",
      "name": "The Brooklyn School for Social Justice",
      "opening_hours": {
        "open_now": false
      },
      "place_id": "ChIJ6Q6H7CJcwokRZShWlkgbiak",
      "plus_code": {
        "compound_code": "M3WQ+QG New York, NY, USA",
        "global_code": "87G8M3WQ+QG"
      },
      "rating": 3.6,
      "reference": "ChIJ6Q6H7CJcwokRZShWlkgbiak",
      "scope": "GOOGLE",
      "types": [
        "secondary_school",
        "school",
        "point_of_interest",
        "establishment"
      ],
      "user_ratings_total": 14,
      "vicinity": "400 Irving Avenue, Brooklyn"
    },
    {
      "business_status": "OPERATIONAL",
      "geometry": {
        "location": {
          "lat": 40.696834,
          "lng": -73.91170079999999
        },
        "viewport": {
          "northeast": {
            "lat": 40.6984366302915,
            "lng": -73.9102124697085
          },
          "southwest": {
            "lat": 40.6957386697085,
            "lng": -73.9129104302915
          }
        }
      },
      "icon": "https://maps.gstatic.com/mapfiles/place_api/icons/v1/png_71/school-71.png",
      "icon_background_color": "#7B9EB0",
      "icon_mask_base_uri": "https://maps.gstatic.com/mapfiles/place_api/icons/v2/school_pinlet",
      "name": "Bushwick High School",
      "place_id": "ChIJ99DtmSJcwokRTXDjvcGFP5s",
      "plus_code": {
        "compound_code": "M3WQ+P8 Brooklyn, NY, USA",
        "global_code": "87G8M3WQ+P8"
      },
      "rating": 4.1,
      "reference": "ChIJ99DtmSJcwokRTXDjvcGFP5s",
      "scope": "GOOGLE",
      "types": [
        "secondary_school",
        "school",
        "point_of_interest",
        "establishment"
      ],
      "user_ratings_total": 14,
      "vicinity": "400 Irving Avenue, Brooklyn"
    },
    {
      "business_status": "CLOSED_TEMPORARILY",
      "geometry": {
        "location": {
          "lat": 40.69457599999999,
          "lng": -73.90532999999999
        },
        "viewport": {
          "northeast": {
            "lat": 40.69570323029149,
            "lng": -73.90420776970848
          },
          "southwest": {
            "lat": 40.69300526970849,
            "lng": -73.9069057302915
          }
        }
      },
      "icon": "https://maps.gstatic.com/mapfiles/place_api/icons/v1/png_71/generic_business-71.png",
      "icon_background_color": "#7B9EB0",
      "icon_mask_base_uri": "https://maps.gstatic.com/mapfiles/place_api/icons/v2/generic_pinlet",
      "name": "brick by brick",
      "permanently_closed": true,
      "place_id": "ChIJtfOLG6hewokRTmnG3_ZUeZw",
      "plus_code": {
        "compound_code": "M3VV+RV Ridgewood, Queens, NY, USA",
        "global_code": "87G8M3VV+RV"
      },
      "rating": 5,
      "reference": "ChIJtfOLG6hewokRTmnG3_ZUeZw",
      "scope": "GOOGLE",
      "types": [
        "point_of_interest",
        "establishment"
      ],
      "user_ratings_total": 2,
      "vicinity": "1023 Irving Avenue, Ridgewood"
    },
    {
      "business_status": "OPERATIONAL",
      "geometry": {
        "location": {
          "lat": 40.6945755,
          "lng": -73.9053297
        },
        "viewport": {
          "northeast": {
            "lat": 40.69570298029149,
            "lng": -73.90420761970849
          },
          "southwest": {
            "lat": 40.6930050197085,
            "lng": -73.9069055802915
          }
        }
      },
      "icon": "https://maps.gstatic.com/mapfiles/place_api/icons/v1/png_71/generic_business-71.png",
      "icon_background_color": "#7B9EB0",
      "icon_mask_base_uri": "https://maps.gstatic.com/mapfiles/place_api/icons/v2/generic_pinlet",
      "name": "Dabit Industries",
      "place_id": "ChIJxTYkSztcwokRu8NkdaSOXpY",
      "plus_code": {
        "compound_code": "M3VV+RV Ridgewood, Queens, NY, USA",
        "global_code": "87G8M3VV+RV"
      },
      "reference": "ChIJxTYkSztcwokRu8NkdaSOXpY",
      "scope": "GOOGLE",
      "types": [
        "point_of_interest",
        "establishment"
      ],
      "vicinity": "1001 Irving Avenue, Ridgewood"
    },
    {
      "business_status": "OPERATIONAL",
      "geometry": {
        "location": {
          "lat": 40.69457299999999,
          "lng": -73.905266
        },
        "viewport": {
          "northeast": {
            "lat": 40.69570173029149,
            "lng": -73.9041757697085
          },
          "southwest": {
            "lat": 40.69300376970849,
            "lng": -73.90687373029151
          }
        }
      },
      "icon": "https://maps.gstatic.com/mapfiles/place_api/icons/v1/png_71/shopping-71.png",
      "icon_background_color": "#4B96F3",
      "icon_mask_base_uri": "https://maps.gstatic.com/mapfiles/place_api/icons/v2/shopping_pinlet",
      "name": "If And Only If Productions, Inc.",
      "opening_hours": {
        "open_now": true
      },
      "photos": [
        {
          "height": 1080,
          "html_attributions": [
            "<a href=\"https://maps.google.com/maps/contrib/116024141628276059339\">If And Only If Productions, Inc.</a>"
          ],
          "photo_reference": "AeJbb3cubmthnZ6dJQQKSVYvMKmfByPCNPPoYIBR8GW396YkrJ7NPStKScEj7GoHEE1xidBaC4PGsFqThH80SKFFsgxwHG6cVh_tdwD4zaBQ_tfLi2BjRrEQ9Y7KvXIJZNg9cC0dBUJZaxHRSlXZw_RzDYf_1mcFbb_4Xh5AbYwL9VMSlseI",
          "width": 1080
        }
      ],
      "place_id": "ChIJqeNfYEBcwokRC4Pla-Bw7pE",
      "plus_code": {
        "compound_code": "M3VV+RV Ridgewood, Queens, NY, USA",
        "global_code": "87G8M3VV+RV"
      },
      "rating": 5,
      "reference": "ChIJqeNfYEBcwokRC4Pla-Bw7pE",
      "scope": "GOOGLE",
      "types": [
        "electronics_store",
        "home_goods_store",
        "store",
        "point_of_interest",
        "establishment"
      ],
      "user_ratings_total": 14,
      "vicinity": "10-01 Irving Avenue, Ridgewood"
    },
    {
      "business_status": "OPERATIONAL",
      "geometry": {
        "location": {
          "lat": 40.6919096,
          "lng": -73.90590639999999
        },
        "viewport": {
          "northeast": {
            "lat": 40.6932050302915,
            "lng": -73.90462461970851
          },
          "southwest": {
            "lat": 40.6905070697085,
            "lng": -73.90732258029152
          }
        }
      },
      "icon": "https://maps.gstatic.com/mapfiles/place_api/icons/v1/png_71/generic_business-71.png",
      "icon_background_color": "#7B9EB0",
      "icon_mask_base_uri": "https://maps.gstatic.com/mapfiles/place_api/icons/v2/generic_pinlet",
      "name": "DINA INTERIOR CORP",
      "opening_hours": {
        "open_now": false
      },
      "photos": [
        {
          "height": 2048,
          "html_attributions": [
            "<a href=\"https://maps.google.com/maps/contrib/111390817924515341089\">Mario Ramon</a>"
          ],
          "photo_reference": "AeJbb3f07vWjD-wFMIpd5qdRyojaCrTG0sGQPrwNRMmrnlDJfs_FURPpB_p5rz0E2E-8LzlTQsm0hTcxcaB8EOmPt3z9ht7Gryj8JbK9qhuq6LITBz6E3kYpziIkc-_R7d6Nz8oBIUfeK-ZFNO3rTLhC9v4rOatScDILeKM16i58c5DwTiF4",
          "width": 1536
        }
      ],
      "place_id": "ChIJG3KmhDtcwokRZApfcqa38_k",
      "plus_code": {
        "compound_code": "M3RV+QJ Brooklyn, NY, USA",
        "global_code": "87G8M3RV+QJ"
      },
      "reference": "ChIJG3KmhDtcwokRZApfcqa38_k",
      "scope": "GOOGLE",
      "types": [
        "general_contractor",
        "point_of_interest",
        "establishment"
      ],
      "vicinity": "845 Knickerbocker Avenue, Brooklyn"
    },
    {
      "business_status": "OPERATIONAL",
      "geometry": {
        "location": {
          "lat": 40.69462759999999,
          "lng": -73.9052322
        },
        "viewport": {
          "northeast": {
            "lat": 40.69572903029149,
            "lng": -73.9041588697085
          },
          "southwest": {
            "lat": 40.69303106970849,
            "lng": -73.9068568302915
          }
        }
      },
      "icon": "https://maps.gstatic.com/mapfiles/place_api/icons/v1/png_71/shopping-71.png",
      "icon_background_color": "#4B96F3",
      "icon_mask_base_uri": "https://maps.gstatic.com/mapfiles/place_api/icons/v2/shopping_pinlet",
      "name": "727 Studios",
      "opening_hours": {
        "open_now": true
      },
      "photos": [
        {
          "height": 3648,
          "html_attributions": [
            "<a href=\"https://maps.google.com/maps/contrib/103723868626741631850\">727 Studios</a>"
          ],
          "photo_reference": "AeJbb3caPDl_W9HhtNz5Digv6GBb-ZbulJ7rw0L0a0fWKC8UYTmpiM_-Gqr2s_dQUgq9bWcHhDihc6vLiQIR7PwOedyE2okx4oDTDDxsgxTB8HzZRFx1MoBzU0zdWZ1THOvXaZn1UkVw3xtJEF3BKeqGrzYwqtDThAcqiTBuAZ5IflN3k-x4",
          "width": 5472
        }
      ],
      "place_id": "ChIJscV_NCVcwokR3T7On8QxB5o",
      "plus_code": {
        "compound_code": "M3VV+VW New York, NY, USA",
        "global_code": "87G8M3VV+VW"
      },
      "rating": 5,
      "reference": "ChIJscV_NCVcwokR3T7On8QxB5o",
      "scope": "GOOGLE",
      "types": [
        "electronics_store",
        "home_goods_store",
        "store",
        "point_of_interest",
        "establishment"
      ],
      "user_ratings_total": 9,
      "vicinity": "10-01 Irving Avenue, Queens"
    },
    {
      "business_status": "OPERATIONAL",
      "geometry": {
        "location": {
          "lat": 40.6971081,
          "lng": -73.9114706
        },
        "viewport": {
          "northeast": {
            "lat": 40.6985415302915,
            "lng": -73.9100791697085
          },
          "southwest": {
            "lat": 40.6958435697085,
            "lng": -73.9127771302915
          }
        }
      },
      "icon": "https://maps.gstatic.com/mapfiles/place_api/icons/v1/png_71/school-71.png",
      "icon_background_color": "#7B9EB0",
      "icon_mask_base_uri": "https://maps.gstatic.com/mapfiles/place_api/icons/v2/school_pinlet",
      "name": "The Brooklyn School for Math and Research",
      "opening_hours": {
        "open_now": false
      },
      "place_id": "ChIJCQiH7CJcwokRyQFmRkeCNKw",
      "plus_code": {
        "compound_code": "M3WQ+RC New York, NY, USA",
        "global_code": "87G8M3WQ+RC"
      },
      "rating": 4,
      "reference": "ChIJCQiH7CJcwokRyQFmRkeCNKw",
      "scope": "GOOGLE",
      "types": [
        "secondary_school",
        "school",
        "point_of_interest",
        "establishment"
      ],
      "user_ratings_total": 6,
      "vicinity": "400 Irving Avenue, Brooklyn"
    },
    {
      "business_status": "OPERATIONAL",
      "geometry": {
        "location": {
          "lat": 40.692441,
          "lng": -73.91411599999999
        },
        "viewport": {
          "northeast": {
            "lat": 40.6938568302915,
            "lng": -73.91288556970851
          },
          "southwest": {
            "lat": 40.6911588697085,
            "lng": -73.91558353029151
          }
        }
      },
      "icon": "https://maps.gstatic.com/mapfiles/place_api/icons/v1/png_71/generic_business-71.png",
      "icon_background_color": "#7B9EB0",
      "icon_mask_base_uri": "https://maps.gstatic.com/mapfiles/place_api/icons/v2/generic_pinlet",
      "name": "Voters For Animal Rights",
      "photos": [
        {
          "height": 315,
          "html_attributions": [
            "<a href=\"https://maps.google.com/maps/contrib/106157353799727696935\">Voters For Animal Rights</a>"
          ],
          "photo_reference": "AeJbb3d6QSZ7Ih-5M9e6UbLq2VnzmWbNMhkWhR-UFpvQAEoDKsUH_lU3t9C49Lzap5L5sNilPRRcsrZFdKmZNAIL9KBcAybWHMwUf5CpbYLVACxyw0bdldvz03ngoxnhvImcDi1dGFP-8_2C77XZWHj25v2xDWBC-pTGh1FCpCjEn-a3seld",
          "width": 828
        }
      ],
      "place_id": "ChIJVeq7knJcwokRSxEuKoINWoc",
      "plus_code": {
        "compound_code": "M3RP+X9 New York, NY, USA",
        "global_code": "87G8M3RP+X9"
      },
      "rating": 5,
      "reference": "ChIJVeq7knJcwokRSxEuKoINWoc",
      "scope": "GOOGLE",
      "types": [
        "point_of_interest",
        "establishment"
      ],
      "user_ratings_total": 2,
      "vicinity": "1276 Putnam Avenue, Brooklyn"
    },
    {
      "business_status": "CLOSED_TEMPORARILY",
      "geometry": {
        "location": {
          "lat": 40.694352,
          "lng": -73.9049749
        },
        "viewport": {
          "northeast": {
            "lat": 40.6954837802915,
            "lng": -73.9038438197085
          },
          "southwest": {
            "lat": 40.6927858197085,
            "lng": -73.9065417802915
          }
        }
      },
      "icon": "https://maps.gstatic.com/mapfiles/place_api/icons/v1/png_71/generic_business-71.png",
      "icon_background_color": "#13B5C7",
      "icon_mask_base_uri": "https://maps.gstatic.com/mapfiles/place_api/icons/v2/generic_pinlet",
      "name": "Broadway Stages",
      "permanently_closed": true,
      "photos": [
        {
          "height": 3120,
          "html_attributions": [
            "<a href=\"https://maps.google.com/maps/contrib/115126033970800354614\">Jeremiah Jones</a>"
          ],
          "photo_reference": "AeJbb3ccVpHJMT2CSBmwjcA-CBloF5tcXG2xhYQASu2zG5bMNMq5yzkGN9jH1VyCLf1FQ92Y5OfM-v-8PgAJgBQJpjbLPF3Zsvlg7Dq9odat069CN6elmM-ss1uX_m71UxJLmcKWibQ9R7_KiAIzkrN70Egvo97_6lo1wB_TJEWr6sol1zBU",
          "width": 3120
        }
      ],
      "place_id": "ChIJ16G3NTtcwokRb0MyH0P4bWc",
      "plus_code": {
        "compound_code": "M3VW+P2 Flushing, Queens, NY, USA",
        "global_code": "87G8M3VW+P2"
      },
      "rating": 4.6,
      "reference": "ChIJ16G3NTtcwokRb0MyH0P4bWc",
      "scope": "GOOGLE",
      "types": [
        "point_of_interest",
        "establishment"
      ],
      "user_ratings_total": 33,
      "vicinity": "10-19 Irving Avenue, Flushing"
    },
    {
      "business_status": "CLOSED_TEMPORARILY",
      "geometry": {
        "location": {
          "lat": 40.69698959999999,
          "lng": -73.90690560000002
        },
        "viewport": {
          "northeast": {
            "lat": 40.6984044302915,
            "lng": -73.9054924697085
          },
          "southwest": {
            "lat": 40.6957064697085,
            "lng": -73.90819043029151
          }
        }
      },
      "icon": "https://maps.gstatic.com/mapfiles/place_api/icons/v1/png_71/school-71.png",
      "icon_background_color": "#7B9EB0",
      "icon_mask_base_uri": "https://maps.gstatic.com/mapfiles/place_api/icons/v2/school_pinlet",
      "name": "Londyn Skye Dance Center",
      "permanently_closed": true,
      "place_id": "ChIJ95STfiNcwokRMkchitlr8xM",
      "plus_code": {
        "compound_code": "M3WV+Q6 Brooklyn, NY, USA",
        "global_code": "87G8M3WV+Q6"
      },
      "rating": 3,
      "reference": "ChIJ95STfiNcwokRMkchitlr8xM",
      "scope": "GOOGLE",
      "types": [
        "point_of_interest",
        "establishment"
      ],
      "user_ratings_total": 2,
      "vicinity": "890 Wyckoff Avenue, Brooklyn"
    },
    {
      "business_status": "OPERATIONAL",
      "geometry": {
        "location": {
          "lat": 40.6902686,
          "lng": -73.9110441
        },
        "viewport": {
          "northeast": {
            "lat": 40.6915478802915,
            "lng": -73.9097588697085
          },
          "southwest": {
            "lat": 40.6888499197085,
            "lng": -73.9124568302915
          }
        }
      },
      "icon": "https://maps.gstatic.com/mapfiles/place_api/icons/v1/png_71/atm-71.png",
      "icon_background_color": "#909CE1",
      "icon_mask_base_uri": "https://maps.gstatic.com/mapfiles/place_api/icons/v2/atm_pinlet",
      "name": "Cardtronics ATM",
      "opening_hours": {
        "open_now": true
      },
      "place_id": "ChIJ_x3EdD5cwokRGz0BGsGFgIY",
      "plus_code": {
        "compound_code": "M3RQ+4H Brooklyn, NY, USA",
        "global_code": "87G8M3RQ+4H"
      },
      "rating": 5,
      "reference": "ChIJ_x3EdD5cwokRGz0BGsGFgIY",
      "scope": "GOOGLE",
      "types": [
        "atm",
        "finance",
        "point_of_interest",
        "establishment"
      ],
      "user_ratings_total": 2,
      "vicinity": "545 Central Avenue, Brooklyn"
    },
    {
      "business_status": "OPERATIONAL",
      "geometry": {
        "location": {
          "lat": 40.69698959999999,
          "lng": -73.90690560000002
        },
        "viewport": {
          "northeast": {
            "lat": 40.6984044302915,
            "lng": -73.9054924697085
          },
          "southwest": {
            "lat": 40.6957064697085,
            "lng": -73.90819043029151
          }
        }
      },
      "icon": "https://maps.gstatic.com/mapfiles/place_api/icons/v1/png_71/generic_business-71.png",
      "icon_background_color": "#7B9EB0",
      "icon_mask_base_uri": "https://maps.gstatic.com/mapfiles/place_api/icons/v2/generic_pinlet",
      "name": "rodse",
      "place_id": "ChIJ30tqfiNcwokRaYCnwt3MkHs",
      "plus_code": {
        "compound_code": "M3WV+Q6 Brooklyn, NY, USA",
        "global_code": "87G8M3WV+Q6"
      },
      "reference": "ChIJ30tqfiNcwokRaYCnwt3MkHs",
      "scope": "GOOGLE",
      "types": [
        "point_of_interest",
        "establishment"
      ],
      "vicinity": "890 Wyckoff Avenue, Brooklyn"
    },
    {
      "business_status": "OPERATIONAL",
      "geometry": {
        "location": {
          "lat": 40.6960151,
          "lng": -73.9055247
        },
        "viewport": {
          "northeast": {
            "lat": 40.6973605802915,
            "lng": -73.90410866970849
          },
          "southwest": {
            "lat": 40.6946626197085,
            "lng": -73.9068066302915
          }
        }
      },
      "icon": "https://maps.gstatic.com/mapfiles/place_api/icons/v1/png_71/cafe-71.png",
      "icon_background_color": "#FF9E67",
      "icon_mask_base_uri": "https://maps.gstatic.com/mapfiles/place_api/icons/v2/cafe_pinlet",
      "name": "Dunkin'",
      "opening_hours": {
        "open_now": true
      },
      "photos": [
        {
          "height": 800,
          "html_attributions": [
            "<a href=\"https://maps.google.com/maps/contrib/113311736200526285539\">Dunkin&#39;</a>"
          ],
          "photo_reference": "AeJbb3c17lxKZOq4Qv72nHqdvOyJaQrF8trsTIXX5778NEKdDXAuaQnEiFBb1UcVtWySUjllF6zDGYy3a8VVBIB6r0ge_4sjFbIrAVOqwOfS0A1I2ipsTKQp4n3Z2eG5-5S9crYPmPldomNlgGtlkOascYhdFhhxusvOa2prv6DRIT9RFu0D",
          "width": 1143
        }
      ],
      "place_id": "ChIJL5f5uiZcwokRYucnEaKpz8Q",
      "plus_code": {
        "compound_code": "M3WV+CQ New York, NY, USA",
        "global_code": "87G8M3WV+CQ"
      },
      "price_level": 1,
      "rating": 3.4,
      "reference": "ChIJL5f5uiZcwokRYucnEaKpz8Q",
      "scope": "GOOGLE",
      "types": [
        "meal_takeaway",
        "cafe",
        "bakery",
        "restaurant",
        "store",
        "food",
        "point_of_interest",
        "establishment"
      ],
      "user_ratings_total": 160,
      "vicinity": "1379 Halsey Street, Brooklyn"
    },
    {
      "business_status": "OPERATIONAL",
      "geometry": {
        "location": {
          "lat": 40.6968649,
          "lng": -73.9067749
        },
        "viewport": {
          "northeast": {
            "lat": 40.6982964302915,
            "lng": -73.9053455197085
          },
          "southwest": {
            "lat": 40.6955984697085,
            "lng": -73.90804348029151
          }
        }
      },
      "icon": "https://maps.gstatic.com/mapfiles/place_api/icons/v1/png_71/generic_business-71.png",
      "icon_background_color": "#7B9EB0",
      "icon_mask_base_uri": "https://maps.gstatic.com/mapfiles/place_api/icons/v2/generic_pinlet",
      "name": "Merchan & Son Brokerage",
      "opening_hours": {
        "open_now": false
      },
      "photos": [
        {
          "height": 475,
          "html_attributions": [
            "<a href=\"https://maps.google.com/maps/contrib/117540477679602149998\">Merchan &amp; Son Brokerage</a>"
          ],
          "photo_reference": "AeJbb3cFZIIlrIlU-XewCxOCd-xdyPgXfxt29OBvk1NcY5s170Wo2QGOIYlMpSW_8Vl85mX8ka_K1WhOWQL8MidPg1BPTXx_G5vEMCcxBeCN8Ik5_WpsXnRglK8z3dNmuUrWzvhW_-ScS8JUY0vcxC9E2jqTG0nQZt5IfPqHZtYHWeItacnU",
          "width": 750
        }
      ],
      "place_id": "ChIJn6KM3iFcwokRaRCocaKHCbY",
      "plus_code": {
        "compound_code": "M3WV+P7 Brooklyn, NY, USA",
        "global_code": "87G8M3WV+P7"
      },
      "rating": 4,
      "reference": "ChIJn6KM3iFcwokRaRCocaKHCbY",
      "scope": "GOOGLE",
      "types": [
        "insurance_agency",
        "accounting",
        "finance",
        "point_of_interest",
        "establishment"
      ],
      "user_ratings_total": 5,
      "vicinity": "896 Wyckoff Avenue, Brooklyn"
    },
    {
      "business_status": "OPERATIONAL",
      "geometry": {
        "location": {
          "lat": 40.6969208,
          "lng": -73.90678799999999
        },
        "viewport": {
          "northeast": {
            "lat": 40.6983366302915,
            "lng": -73.90537391970848
          },
          "southwest": {
            "lat": 40.6956386697085,
            "lng": -73.9080718802915
          }
        }
      },
      "icon": "https://maps.gstatic.com/mapfiles/place_api/icons/v1/png_71/generic_business-71.png",
      "icon_background_color": "#7B9EB0",
      "icon_mask_base_uri": "https://maps.gstatic.com/mapfiles/place_api/icons/v2/generic_pinlet",
      "name": "TAX RITE SOLUTIONS",
      "opening_hours": {
        "open_now": true
      },
      "place_id": "ChIJMYw1fCNcwokRPJNkUIEUnSA",
      "plus_code": {
        "compound_code": "M3WV+Q7 Brooklyn, NY, USA",
        "global_code": "87G8M3WV+Q7"
      },
      "reference": "ChIJMYw1fCNcwokRPJNkUIEUnSA",
      "scope": "GOOGLE",
      "types": [
        "finance",
        "point_of_interest",
        "establishment"
      ],
      "vicinity": "894 Wyckoff Avenue, Brooklyn"
    },
    {
      "business_status": "OPERATIONAL",
      "geometry": {
        "location": {
          "lat": 40.6936421,
          "lng": -73.904696
        },
        "viewport": {
          "northeast": {
            "lat": 40.69494828029149,
            "lng": -73.90338921970849
          },
          "southwest": {
            "lat": 40.6922503197085,
            "lng": -73.90608718029151
          }
        }
      },
      "icon": "https://maps.gstatic.com/mapfiles/place_api/icons/v1/png_71/generic_business-71.png",
      "icon_background_color": "#7B9EB0",
      "icon_mask_base_uri": "https://maps.gstatic.com/mapfiles/place_api/icons/v2/generic_pinlet",
      "name": "Forest Building Supply",
      "photos": [
        {
          "height": 3000,
          "html_attributions": [
            "<a href=\"https://maps.google.com/maps/contrib/109438549721118640284\">Michael Hodurski</a>"
          ],
          "photo_reference": "AeJbb3engtbQqnPkIWEIDf2svp5sEU9ZaFKeUb_vKUTcNeP8as0F_r_QFhrz5SQljG4YBY3CeD7_o0XXrBBAVE_IvrFc5PW-qJPXCHswt3b_55uw-B43WpFreqIMDbPpdspSsimu1O7J23uYe4BV5Ly-hC2olHQC_lzXDHC3DVVzPsRfxeoP",
          "width": 4000
        }
      ],
      "place_id": "ChIJuTfwOztcwokRcJkUODR6vao",
      "plus_code": {
        "compound_code": "M3VW+F4 Flushing, Queens, NY, USA",
        "global_code": "87G8M3VW+F4"
      },
      "rating": 3.9,
      "reference": "ChIJuTfwOztcwokRcJkUODR6vao",
      "scope": "GOOGLE",
      "types": [
        "general_contractor",
        "point_of_interest",
        "establishment"
      ],
      "user_ratings_total": 14,
      "vicinity": "1047 Irving Avenue, Flushing"
    },
    {
      "business_status": "OPERATIONAL",
      "geometry": {
        "location": {
          "lat": 40.696926,
          "lng": -73.906731
        },
        "viewport": {
          "northeast": {
            "lat": 40.69832978029151,
            "lng": -73.9053425197085
          },
          "southwest": {
            "lat": 40.69563181970851,
            "lng": -73.9080404802915
          }
        }
      },
      "icon": "https://maps.gstatic.com/mapfiles/place_api/icons/v1/png_71/shopping-71.png",
      "icon_background_color": "#4B96F3",
      "icon_mask_base_uri": "https://maps.gstatic.com/mapfiles/place_api/icons/v2/shopping_pinlet",
      "name": "NY Heart and Dagger",
      "opening_hours": {
        "open_now": true
      },
      "photos": [
        {
          "height": 4032,
          "html_attributions": [
            "<a href=\"https://maps.google.com/maps/contrib/115689007140029897259\">NY Heart and Dagger</a>"
          ],
          "photo_reference": "AeJbb3cfYXaXwenflmslBBZwKsMoojsWZsXAFkzOZP84g0LLoi8H8yp9XvzDzSzRESk4iNFHBPDJqQqYcwztG4nD56yAKpJwZ6P-WM51P9GyfgysS8ZrBFg_ArOGNjE_mMieksQ_iJh-X22JhKKsQD1YQmhrNc-mGYp-qyn4yJQd04gw075X",
          "width": 2268
        }
      ],
      "place_id": "ChIJj-3pQ1VEwokRzk2z5njRhrA",
      "plus_code": {
        "compound_code": "M3WV+Q8 New York, NY, USA",
        "global_code": "87G8M3WV+Q8"
      },
      "rating": 4.5,
      "reference": "ChIJj-3pQ1VEwokRzk2z5njRhrA",
      "scope": "GOOGLE",
      "types": [
        "store",
        "point_of_interest",
        "establishment"
      ],
      "user_ratings_total": 43,
      "vicinity": "896 Wyckoff Avenue 2 Floor, Brooklyn"
    },
    {
      "business_status": "CLOSED_TEMPORARILY",
      "geometry": {
        "location": {
          "lat": 40.697143,
          "lng": -73.9070197
        },
        "viewport": {
          "northeast": {
            "lat": 40.6985284802915,
            "lng": -73.90563571970851
          },
          "southwest": {
            "lat": 40.6958305197085,
            "lng": -73.90833368029152
          }
        }
      },
      "icon": "https://maps.gstatic.com/mapfiles/place_api/icons/v1/png_71/school-71.png",
      "icon_background_color": "#7B9EB0",
      "icon_mask_base_uri": "https://maps.gstatic.com/mapfiles/place_api/icons/v2/school_pinlet",
      "name": "GNOSIS BROOKLYN",
      "permanently_closed": true,
      "photos": [
        {
          "height": 326,
          "html_attributions": [
            "<a href=\"https://maps.google.com/maps/contrib/112760555130890443889\">Antonio **************</a>"
          ],
          "photo_reference": "AeJbb3dkXnbnyaCWxlcvmiFJbSF0qS76WBoHZI_ac8d2jMNDMYfokw9-E7hjFuSpmKdrRREPj5ox9xN4Pw9v8XorePfKcrpIQP8UIIpjpukP88YJiqZmzPQnLzWzHgGE_3RNNsvgnrPwoOlICQCoqebDbkAm2sT_-LLvyUxDDPPDr8oOFPI9",
          "width": 800
        }
      ],
      "place_id": "ChIJMYw1fCNcwokRdr_ubVvjq4c",
      "plus_code": {
        "compound_code": "M3WV+V5 New York, NY, USA",
        "global_code": "87G8M3WV+V5"
      },
      "rating": 3.7,
      "reference": "ChIJMYw1fCNcwokRdr_ubVvjq4c",
      "scope": "GOOGLE",
      "types": [
        "school",
        "point_of_interest",
        "establishment"
      ],
      "user_ratings_total": 3,
      "vicinity": "894 Wyckoff Avenue, Brooklyn"
    },
    {
      "business_status": "OPERATIONAL",
      "geometry": {
        "location": {
          "lat": 40.6970779,
          "lng": -73.9125876
        },
        "viewport": {
          "northeast": {
            "lat": 40.6983709302915,
            "lng": -73.91113166970848
          },
          "southwest": {
            "lat": 40.6956729697085,
            "lng": -73.9138296302915
          }
        }
      },
      "icon": "https://maps.gstatic.com/mapfiles/place_api/icons/v1/png_71/generic_business-71.png",
      "icon_background_color": "#7B9EB0",
      "icon_mask_base_uri": "https://maps.gstatic.com/mapfiles/place_api/icons/v2/generic_pinlet",
      "name": "Project Heart",
      "photos": [
        {
          "height": 980,
          "html_attributions": [
            "<a href=\"https://maps.google.com/maps/contrib/113259717586132074746\">Project Heart</a>"
          ],
          "photo_reference": "AeJbb3eqcT5O80dY-ymVjl_X7l73LQPMfkIdAkMSpcS329d4n82dnwOYsrSg9_pd3WBqoCZ4lv7QNWYmejRxgf3HucRS1H_iDUZBt4LGO-5BZb8dVGHWwHRH44tqQ4HtX2ys3foIBgJ5BmPm_zF2_j7PCGGBvqrUEN83PLGkH0A_0R-h9g-z",
          "width": 900
        }
      ],
      "place_id": "ChIJo2ekdRhcwokRRCPIU9T9H2Y",
      "plus_code": {
        "compound_code": "M3WP+RX Brooklyn, NY, USA",
        "global_code": "87G8M3WP+RX"
      },
      "rating": 5,
      "reference": "ChIJo2ekdRhcwokRRCPIU9T9H2Y",
      "scope": "GOOGLE",
      "types": [
        "point_of_interest",
        "establishment"
      ],
      "user_ratings_total": 1,
      "vicinity": "329 Woodbine Street, Brooklyn"
    }
  ],
  "status": "OK"
}