{
  "html_attributions": [],
  "results": [
    {
      "geometry": {
        "location": {
          "lat": 40.7127753,
          "lng": -74.0059728
        },
        "viewport": {
          "northeast": {
            "lat": 40.91757705070789,
            "lng": -73.70027206817629
          },
          "southwest": {
            "lat": 40.47739906045452,
            "lng": -74.25908991427882
          }
        }
      },
      "icon": "https://maps.gstatic.com/mapfiles/place_api/icons/v1/png_71/geocode-71.png",
      "icon_background_color": "#7B9EB0",
      "icon_mask_base_uri": "https://maps.gstatic.com/mapfiles/place_api/icons/v2/generic_pinlet",
      "name": "\u7d10\u7d04",
      "photos": [
        {
          "height": 600,
          "html_attributions": [
            "<a href=\"https://maps.google.com/maps/contrib/102389334567210814614\">Bukurie</a>"
          ],
          "photo_reference": "AeJbb3dAuj0tL9HxTmgn0C3U5osf6gZ0ljwAywEs91Xr8shvGY-NiwGH9f1ujBiaiTTiMIEdsZdFSxthpbKK3P5BPcG8TS9PWifEB9rvJpH5ZXBOanrD8KHKJsybNqZwqYF3LJL25wuAaauzrTcqjGom8rfGO8188Rtt3bK7nBvCMkQEisxs",
          "width": 480
        }
      ],
      "place_id": "ChIJOwg_06VPwokRYv534QaPC8g",
      "reference": "ChIJOwg_06VPwokRYv534QaPC8g",
      "scope": "GOOGLE",
      "types": [
        "locality",
        "political"
      ],
      "vicinity": "\u7d10\u7d04"
    },
    {
      "business_status": "OPERATIONAL",
      "geometry": {
        "location": {
          "lat": 40.6889301,
          "lng": -73.91035459999999
        },
        "viewport": {
          "northeast": {
            "lat": 40.6901686802915,
            "lng": -73.90880256970848
          },
          "southwest": {
            "lat": 40.6874707197085,
            "lng": -73.9115005302915
          }
        }
      },
      "icon": "https://maps.gstatic.com/mapfiles/place_api/icons/v1/png_71/school-71.png",
      "icon_background_color": "#7B9EB0",
      "icon_mask_base_uri": "https://maps.gstatic.com/mapfiles/place_api/icons/v2/school_pinlet",
      "name": "Achievement First Bushwick Charter School Elementary School",
      "opening_hours": {
        "open_now": false
      },
      "photos": [
        {
          "height": 4480,
          "html_attributions": [
            "<a href=\"https://maps.google.com/maps/contrib/110905023749577594594\">Achievement First Bushwick Elementary School</a>"
          ],
          "photo_reference": "AeJbb3dTU9ttW6_CP_ZWAbWYdMXtfyo7XzDq5kxrdXtpywuxVZitA2G9NMC4fkYEN5CN0LPslDL0yJCJ_sMf5OlXJwOWqp-kVGzzlx56px1FNp4ROw2_OpBHKu-QpMOXLiWA4JCQAVPL14Ctm5WFZb4BxDMAX1BoC987DqVgGMhJnW5RZHG_",
          "width": 6720
        }
      ],
      "place_id": "ChIJu2hzXD5cwokR2LbDXfFb8J4",
      "plus_code": {
        "compound_code": "M3QQ+HV \u7f8e\u570b\u7d10\u7d04",
        "global_code": "87G8M3QQ+HV"
      },
      "rating": 3.7,
      "reference": "ChIJu2hzXD5cwokR2LbDXfFb8J4",
      "scope": "GOOGLE",
      "types": [
        "school",
        "point_of_interest",
        "establishment"
      ],
      "user_ratings_total": 13,
      "vicinity": "125 Covert Street, Brooklyn"
    },
    {
      "business_status": "CLOSED_TEMPORARILY",
      "geometry": {
        "location": {
          "lat": 40.6889123,
          "lng": -73.9102637
        },
        "viewport": {
          "northeast": {
            "lat": 40.6901701802915,
            "lng": -73.9087472197085
          },
          "southwest": {
            "lat": 40.6874722197085,
            "lng": -73.91144518029151
          }
        }
      },
      "icon": "https://maps.gstatic.com/mapfiles/place_api/icons/v1/png_71/school-71.png",
      "icon_background_color": "#7B9EB0",
      "icon_mask_base_uri": "https://maps.gstatic.com/mapfiles/place_api/icons/v2/school_pinlet",
      "name": "Darryl Parente School",
      "permanently_closed": true,
      "place_id": "ChIJu2hzXD5cwokRlgHbQWJgZnM",
      "plus_code": {
        "compound_code": "M3QQ+HV \u7f8e\u570b\u7d10\u7d04",
        "global_code": "87G8M3QQ+HV"
      },
      "reference": "ChIJu2hzXD5cwokRlgHbQWJgZnM",
      "scope": "GOOGLE",
      "types": [
        "school",
        "point_of_interest",
        "establishment"
      ],
      "vicinity": "125 Covert Street, Brooklyn"
    },
    {
      "business_status": "OPERATIONAL",
      "geometry": {
        "location": {
          "lat": 40.6914667,
          "lng": -73.9092701
        },
        "viewport": {
          "northeast": {
            "lat": 40.69278783029151,
            "lng": -73.9079724697085
          },
          "southwest": {
            "lat": 40.69008986970852,
            "lng": -73.9106704302915
          }
        }
      },
      "icon": "https://maps.gstatic.com/mapfiles/place_api/icons/v1/png_71/generic_business-71.png",
      "icon_background_color": "#7B9EB0",
      "icon_mask_base_uri": "https://maps.gstatic.com/mapfiles/place_api/icons/v2/generic_pinlet",
      "name": "Wilson Medical Center",
      "place_id": "ChIJOUD0NTxcwokRvDnfVEC_Tt4",
      "plus_code": {
        "compound_code": "M3RR+H7 \u7f8e\u570b\u7d10\u7d04\u5e03\u9c81\u514b\u6797",
        "global_code": "87G8M3RR+H7"
      },
      "rating": 2,
      "reference": "ChIJOUD0NTxcwokRvDnfVEC_Tt4",
      "scope": "GOOGLE",
      "types": [
        "doctor",
        "point_of_interest",
        "health",
        "establishment"
      ],
      "user_ratings_total": 1,
      "vicinity": "555 Wilson Avenue # 1, Brooklyn"
    },
    {
      "business_status": "OPERATIONAL",
      "geometry": {
        "location": {
          "lat": 40.6889123,
          "lng": -73.9102637
        },
        "viewport": {
          "northeast": {
            "lat": 40.6901701802915,
            "lng": -73.9087472197085
          },
          "southwest": {
            "lat": 40.6874722197085,
            "lng": -73.91144518029151
          }
        }
      },
      "icon": "https://maps.gstatic.com/mapfiles/place_api/icons/v1/png_71/generic_business-71.png",
      "icon_background_color": "#7B9EB0",
      "icon_mask_base_uri": "https://maps.gstatic.com/mapfiles/place_api/icons/v2/generic_pinlet",
      "name": "Ridgewood Bushwick",
      "opening_hours": {
        "open_now": false
      },
      "place_id": "ChIJu2hzXD5cwokR-eG-tadCUDw",
      "plus_code": {
        "compound_code": "M3QQ+HV \u7f8e\u570b\u7d10\u7d04",
        "global_code": "87G8M3QQ+HV"
      },
      "reference": "ChIJu2hzXD5cwokR-eG-tadCUDw",
      "scope": "GOOGLE",
      "types": [
        "point_of_interest",
        "establishment"
      ],
      "vicinity": "125 Covert Street, Brooklyn"
    },
    {
      "business_status": "OPERATIONAL",
      "geometry": {
        "location": {
          "lat": 40.6892251,
          "lng": -73.91726589999999
        },
        "viewport": {
          "northeast": {
            "lat": 40.69050178029149,
            "lng": -73.9159898197085
          },
          "southwest": {
            "lat": 40.6878038197085,
            "lng": -73.91868778029152
          }
        }
      },
      "icon": "https://maps.gstatic.com/mapfiles/place_api/icons/v1/png_71/worship_general-71.png",
      "icon_background_color": "#7B9EB0",
      "icon_mask_base_uri": "https://maps.gstatic.com/mapfiles/place_api/icons/v2/worship_christian_pinlet",
      "name": "The Salvation Army Brooklyn Bushwick Corps Community Center",
      "photos": [
        {
          "height": 4160,
          "html_attributions": [
            "<a href=\"https://maps.google.com/maps/contrib/114825692226694427007\">Yudelka Gracia</a>"
          ],
          "photo_reference": "AeJbb3exewQU1u1DdU_zYDIlrbyBRmOqNzKLWq6icfIXOArlQX2xmdOiw3NKFpZT8KI_I9xu1vhu8CrxDBmBAyzt6S8SwmMyTIqIKMaK9tnDFpScv9md4JTtrL7vJa563YDE1X9WfYpdWiXTIZjqPEhS-jOp_7f7pOE1XFdEKYr-OoVzKlvT",
          "width": 3120
        }
      ],
      "place_id": "ChIJDbX5YxRcwokRgsra26M3Xjg",
      "plus_code": {
        "compound_code": "M3QM+M3 \u7f8e\u570b\u7d10\u7d04\u5e03\u9c81\u514b\u6797",
        "global_code": "87G8M3QM+M3"
      },
      "rating": 4.3,
      "reference": "ChIJDbX5YxRcwokRgsra26M3Xjg",
      "scope": "GOOGLE",
      "types": [
        "church",
        "place_of_worship",
        "point_of_interest",
        "establishment"
      ],
      "user_ratings_total": 82,
      "vicinity": "1151 Bushwick Avenue, Brooklyn"
    },
    {
      "business_status": "OPERATIONAL",
      "geometry": {
        "location": {
          "lat": 40.6902686,
          "lng": -73.9110441
        },
        "viewport": {
          "northeast": {
            "lat": 40.6915478802915,
            "lng": -73.9097588697085
          },
          "southwest": {
            "lat": 40.6888499197085,
            "lng": -73.9124568302915
          }
        }
      },
      "icon": "https://maps.gstatic.com/mapfiles/place_api/icons/v1/png_71/atm-71.png",
      "icon_background_color": "#909CE1",
      "icon_mask_base_uri": "https://maps.gstatic.com/mapfiles/place_api/icons/v2/atm_pinlet",
      "name": "Cardtronics ATM",
      "opening_hours": {
        "open_now": true
      },
      "place_id": "ChIJ_x3EdD5cwokRGz0BGsGFgIY",
      "plus_code": {
        "compound_code": "M3RQ+4H \u7f8e\u570b\u7d10\u7d04\u5e03\u9c81\u514b\u6797",
        "global_code": "87G8M3RQ+4H"
      },
      "rating": 5,
      "reference": "ChIJ_x3EdD5cwokRGz0BGsGFgIY",
      "scope": "GOOGLE",
      "types": [
        "atm",
        "finance",
        "point_of_interest",
        "establishment"
      ],
      "user_ratings_total": 2,
      "vicinity": "545 Central Avenue, Brooklyn"
    },
    {
      "business_status": "OPERATIONAL",
      "geometry": {
        "location": {
          "lat": 40.69132150000001,
          "lng": -73.9147132
        },
        "viewport": {
          "northeast": {
            "lat": 40.6926154802915,
            "lng": -73.9132669197085
          },
          "southwest": {
            "lat": 40.6899175197085,
            "lng": -73.91596488029151
          }
        }
      },
      "icon": "https://maps.gstatic.com/mapfiles/place_api/icons/v1/png_71/generic_business-71.png",
      "icon_background_color": "#7B9EB0",
      "icon_mask_base_uri": "https://maps.gstatic.com/mapfiles/place_api/icons/v2/generic_pinlet",
      "name": "Travis Chantar Photography",
      "photos": [
        {
          "height": 1024,
          "html_attributions": [
            "<a href=\"https://maps.google.com/maps/contrib/105803068290121418934\">Travis Chantar Photography</a>"
          ],
          "photo_reference": "AeJbb3drI5xNs5QlnsAOGrqa15EbDPb5ky8KuOgCu4zUwJE0r01TqOfByaETeaKoK6W2iEGO-YjnJPPECkHSKwMob7SqplmatLxDF6HSm9QuikFATt5sXWoI0-GigT2qxZd6fZ7qswfvuhrTZSi81fp_pf_26n-HNYPTux2LmxYgiALsgzUu",
          "width": 1024
        }
      ],
      "place_id": "ChIJg1mBx4Un9ocRX28DBvUhND4",
      "plus_code": {
        "compound_code": "M3RP+G4 \u7f8e\u570b\u7d10\u7d04\u5e03\u9c81\u514b\u6797",
        "global_code": "87G8M3RP+G4"
      },
      "rating": 5,
      "reference": "ChIJg1mBx4Un9ocRX28DBvUhND4",
      "scope": "GOOGLE",
      "types": [
        "point_of_interest",
        "establishment"
      ],
      "user_ratings_total": 4,
      "vicinity": "153 Cornelia Street #1, Brooklyn"
    },
    {
      "business_status": "OPERATIONAL",
      "geometry": {
        "location": {
          "lat": 40.691691,
          "lng": -73.911351
        },
        "viewport": {
          "northeast": {
            "lat": 40.6931038802915,
            "lng": -73.91011461970848
          },
          "southwest": {
            "lat": 40.6904059197085,
            "lng": -73.9128125802915
          }
        }
      },
      "icon": "https://maps.gstatic.com/mapfiles/place_api/icons/v1/png_71/generic_business-71.png",
      "icon_background_color": "#7B9EB0",
      "icon_mask_base_uri": "https://maps.gstatic.com/mapfiles/place_api/icons/v2/generic_pinlet",
      "name": "Throne of String",
      "opening_hours": {
        "open_now": false
      },
      "place_id": "ChIJ2fpg6z1cwokRYRBKJdxLfIM",
      "plus_code": {
        "compound_code": "M3RQ+MF \u7f8e\u570b\u7d10\u7d04",
        "global_code": "87G8M3RQ+MF"
      },
      "rating": 4,
      "reference": "ChIJ2fpg6z1cwokRYRBKJdxLfIM",
      "scope": "GOOGLE",
      "types": [
        "storage",
        "point_of_interest",
        "establishment"
      ],
      "user_ratings_total": 6,
      "vicinity": "1214 Hancock Street, Brooklyn"
    },
    {
      "business_status": "OPERATIONAL",
      "geometry": {
        "location": {
          "lat": 40.68937899999999,
          "lng": -73.912448
        },
        "viewport": {
          "northeast": {
            "lat": 40.69079288029149,
            "lng": -73.91121366970849
          },
          "southwest": {
            "lat": 40.68809491970849,
            "lng": -73.91391163029151
          }
        }
      },
      "icon": "https://maps.gstatic.com/mapfiles/place_api/icons/v1/png_71/school-71.png",
      "icon_background_color": "#7B9EB0",
      "icon_mask_base_uri": "https://maps.gstatic.com/mapfiles/place_api/icons/v2/school_pinlet",
      "name": "My Second Home 2 Daycare",
      "opening_hours": {
        "open_now": false
      },
      "place_id": "ChIJ97x0ID5cwokRZ6zTW5MA_5Y",
      "plus_code": {
        "compound_code": "M3QQ+Q2 \u7f8e\u570b\u7d10\u7d04\u5e03\u9c81\u514b\u6797",
        "global_code": "87G8M3QQ+Q2"
      },
      "rating": 5,
      "reference": "ChIJ97x0ID5cwokRZ6zTW5MA_5Y",
      "scope": "GOOGLE",
      "types": [
        "school",
        "point_of_interest",
        "establishment"
      ],
      "user_ratings_total": 2,
      "vicinity": "136 Weirfield Street, Brooklyn"
    },
    {
      "business_status": "OPERATIONAL",
      "geometry": {
        "location": {
          "lat": 40.69116349999999,
          "lng": -73.910218
        },
        "viewport": {
          "northeast": {
            "lat": 40.6924515802915,
            "lng": -73.90876081970849
          },
          "southwest": {
            "lat": 40.6897536197085,
            "lng": -73.91145878029151
          }
        }
      },
      "icon": "https://maps.gstatic.com/mapfiles/place_api/icons/v1/png_71/generic_business-71.png",
      "icon_background_color": "#7B9EB0",
      "icon_mask_base_uri": "https://maps.gstatic.com/mapfiles/place_api/icons/v2/generic_pinlet",
      "name": "1187 Halsey Street",
      "place_id": "ChIJl9l5zz1cwokRt0kuqpkcL-4",
      "plus_code": {
        "compound_code": "M3RQ+FW \u7f8e\u570b\u7d10\u7d04",
        "global_code": "87G8M3RQ+FW"
      },
      "reference": "ChIJl9l5zz1cwokRt0kuqpkcL-4",
      "scope": "GOOGLE",
      "types": [
        "finance",
        "point_of_interest",
        "establishment"
      ],
      "vicinity": "1189 Halsey Street, Brooklyn"
    },
    {
      "business_status": "OPERATIONAL",
      "geometry": {
        "location": {
          "lat": 40.6911969,
          "lng": -73.9136495
        },
        "viewport": {
          "northeast": {
            "lat": 40.6924935302915,
            "lng": -73.9122078697085
          },
          "southwest": {
            "lat": 40.6897955697085,
            "lng": -73.91490583029152
          }
        }
      },
      "icon": "https://maps.gstatic.com/mapfiles/place_api/icons/v1/png_71/generic_business-71.png",
      "icon_background_color": "#13B5C7",
      "icon_mask_base_uri": "https://maps.gstatic.com/mapfiles/place_api/icons/v2/generic_pinlet",
      "name": "Arolla Piano Co",
      "opening_hours": {
        "open_now": true
      },
      "photos": [
        {
          "height": 2564,
          "html_attributions": [
            "<a href=\"https://maps.google.com/maps/contrib/114039268108122428826\">Arolla Piano Co</a>"
          ],
          "photo_reference": "AeJbb3fr2mcfhQQdi3JZSEL9oG2DQNwM7ZXt816hiUSH0AR_Z_RM93Ma05uTQJUADGwGnN3GWRARTtPFEaVWMxMa5SU-9e9cVtrbj1fiRSN0VfFIybU7oCheoWM38IrhtAuyMbwDunb9hTtCkXo5wvOa73mKOqb4N_6hl-QqGUBXUZIj4YMK",
          "width": 1922
        }
      ],
      "place_id": "ChIJWWw54eNawokRBRIL7VtOWk0",
      "plus_code": {
        "compound_code": "M3RP+FG \u7f8e\u570b\u7d10\u7d04",
        "global_code": "87G8M3RP+FG"
      },
      "rating": 5,
      "reference": "ChIJWWw54eNawokRBRIL7VtOWk0",
      "scope": "GOOGLE",
      "types": [
        "point_of_interest",
        "establishment"
      ],
      "user_ratings_total": 47,
      "vicinity": "1219 Jefferson Avenue Apt 3, Brooklyn"
    },
    {
      "business_status": "OPERATIONAL",
      "geometry": {
        "location": {
          "lat": 40.6913247,
          "lng": -73.9098719
        },
        "viewport": {
          "northeast": {
            "lat": 40.6926469302915,
            "lng": -73.9084754197085
          },
          "southwest": {
            "lat": 40.6899489697085,
            "lng": -73.91117338029152
          }
        }
      },
      "icon": "https://maps.gstatic.com/mapfiles/place_api/icons/v1/png_71/shopping-71.png",
      "icon_background_color": "#4B96F3",
      "icon_mask_base_uri": "https://maps.gstatic.com/mapfiles/place_api/icons/v2/shopping_pinlet",
      "name": "Boardwalk Wine & Spirits",
      "opening_hours": {
        "open_now": true
      },
      "photos": [
        {
          "height": 1536,
          "html_attributions": [
            "<a href=\"https://maps.google.com/maps/contrib/100060965452527041958\">Lisa S</a>"
          ],
          "photo_reference": "AeJbb3dFlUdG5fwYcdY8xccEwErSqINnUEF89sNj4-C1WZnF9QJMpYBn_cH04Z3jyh0IloMo9rNzNyvhqYTrjoyEBd-SDCkLgv7ctZouDoP9B7FH2zHr7S-sU_vriMyStCuEuGv_iY9HsQGdfZIw8zGRjgwW_omBXnxI0m-gKDRMjmaiyUld",
          "width": 2048
        }
      ],
      "place_id": "ChIJC8YIzD1cwokRctrQwT88Yxk",
      "plus_code": {
        "compound_code": "M3RR+G3 \u7f8e\u570b\u7d10\u7d04\u5e03\u9c81\u514b\u6797",
        "global_code": "87G8M3RR+G3"
      },
      "rating": 4.4,
      "reference": "ChIJC8YIzD1cwokRctrQwT88Yxk",
      "scope": "GOOGLE",
      "types": [
        "liquor_store",
        "store",
        "food",
        "point_of_interest",
        "establishment"
      ],
      "user_ratings_total": 57,
      "vicinity": "1195 Halsey Street, Brooklyn"
    },
    {
      "business_status": "OPERATIONAL",
      "geometry": {
        "location": {
          "lat": 40.6877976,
          "lng": -73.9099298
        },
        "viewport": {
          "northeast": {
            "lat": 40.6890997802915,
            "lng": -73.9084979197085
          },
          "southwest": {
            "lat": 40.6864018197085,
            "lng": -73.91119588029152
          }
        }
      },
      "icon": "https://maps.gstatic.com/mapfiles/place_api/icons/v1/png_71/shopping-71.png",
      "icon_background_color": "#4B96F3",
      "icon_mask_base_uri": "https://maps.gstatic.com/mapfiles/place_api/icons/v2/shopping_pinlet",
      "name": "CAYBE LLC",
      "opening_hours": {
        "open_now": true
      },
      "photos": [
        {
          "height": 448,
          "html_attributions": [
            "<a href=\"https://maps.google.com/maps/contrib/103548352441488300156\">CAYBE LLC</a>"
          ],
          "photo_reference": "AeJbb3dmE18tJN_OyxtcwHVYow6BfPatYzKF-t7doLlTWnj-jedLiztg3Qi4jehSCVJHfEH21r4R8MXHCqqFceTafUC2BdInptmTQ9oUYaZJeZR3KZmhHOm0lCyXf0VYjnQTs_g09b7_0tIYuk9DsTaNWOnYwZ0MBmODQJqJHjQrql_vJNzV",
          "width": 720
        }
      ],
      "place_id": "ChIJc9zDrD9cwokRNpe-_ObC040",
      "plus_code": {
        "compound_code": "M3QR+42 \u7f8e\u570b\u7d10\u7d04",
        "global_code": "87G8M3QR+42"
      },
      "rating": 1,
      "reference": "ChIJc9zDrD9cwokRNpe-_ObC040",
      "scope": "GOOGLE",
      "types": [
        "store",
        "point_of_interest",
        "establishment"
      ],
      "user_ratings_total": 2,
      "vicinity": "111 Schaefer Street, Brooklyn"
    },
    {
      "business_status": "OPERATIONAL",
      "geometry": {
        "location": {
          "lat": 40.6925655,
          "lng": -73.91167000000002
        },
        "viewport": {
          "northeast": {
            "lat": 40.6940691302915,
            "lng": -73.9104780197085
          },
          "southwest": {
            "lat": 40.6913711697085,
            "lng": -73.91317598029151
          }
        }
      },
      "icon": "https://maps.gstatic.com/mapfiles/place_api/icons/v1/png_71/shopping-71.png",
      "icon_background_color": "#4B96F3",
      "icon_mask_base_uri": "https://maps.gstatic.com/mapfiles/place_api/icons/v2/shoppingcart_pinlet",
      "name": "Food Basics",
      "opening_hours": {
        "open_now": true
      },
      "photos": [
        {
          "height": 3024,
          "html_attributions": [
            "<a href=\"https://maps.google.com/maps/contrib/100269135986841907567\">Stephen Taylor</a>"
          ],
          "photo_reference": "AeJbb3d9o1-NvhNcnfziR9uQEHAs9Yuld6Ix_fY3x4i1LzyKqXwVDg5sbBQ1eDSv1BS87zoh8J1lN8Ogfe63Vu0Cf9n_UZPXUjcAWaHQ1hMG010-gRxtna1AkfSTU32IDKhw77HASjd-zMeW2DzxiuAlsZRrRLw7wKSbTac9aRRbZNO_ATzy",
          "width": 4032
        }
      ],
      "place_id": "ChIJNY0KhD1cwokRzemiJtiYRI8",
      "plus_code": {
        "compound_code": "M3VQ+28 \u7f8e\u570b\u7d10\u7d04",
        "global_code": "87G8M3VQ+28"
      },
      "rating": 4.3,
      "reference": "ChIJNY0KhD1cwokRzemiJtiYRI8",
      "scope": "GOOGLE",
      "types": [
        "grocery_or_supermarket",
        "store",
        "food",
        "point_of_interest",
        "establishment"
      ],
      "user_ratings_total": 74,
      "vicinity": "474 Wilson Avenue, Brooklyn"
    },
    {
      "business_status": "OPERATIONAL",
      "geometry": {
        "location": {
          "lat": 40.6908715,
          "lng": -73.9086736
        },
        "viewport": {
          "northeast": {
            "lat": 40.69227958029149,
            "lng": -73.9074285197085
          },
          "southwest": {
            "lat": 40.6895816197085,
            "lng": -73.91012648029151
          }
        }
      },
      "icon": "https://maps.gstatic.com/mapfiles/place_api/icons/v1/png_71/generic_business-71.png",
      "icon_background_color": "#7B9EB0",
      "icon_mask_base_uri": "https://maps.gstatic.com/mapfiles/place_api/icons/v2/generic_pinlet",
      "name": "Cleaning Service New York City",
      "opening_hours": {
        "open_now": true
      },
      "place_id": "ChIJH5XxgD5cwokRNCEY5HljUa8",
      "plus_code": {
        "compound_code": "M3RR+8G \u7f8e\u570b\u7d10\u7d04",
        "global_code": "87G8M3RR+8G"
      },
      "reference": "ChIJH5XxgD5cwokRNCEY5HljUa8",
      "scope": "GOOGLE",
      "types": [
        "point_of_interest",
        "establishment"
      ],
      "vicinity": "200 Eldert Street, Brooklyn"
    },
    {
      "business_status": "OPERATIONAL",
      "geometry": {
        "location": {
          "lat": 40.68898189999999,
          "lng": -73.9098817
        },
        "viewport": {
          "northeast": {
            "lat": 40.6902436802915,
            "lng": -73.9085494697085
          },
          "southwest": {
            "lat": 40.6875457197085,
            "lng": -73.91124743029151
          }
        }
      },
      "icon": "https://maps.gstatic.com/mapfiles/place_api/icons/v1/png_71/school-71.png",
      "icon_background_color": "#7B9EB0",
      "icon_mask_base_uri": "https://maps.gstatic.com/mapfiles/place_api/icons/v2/school_pinlet",
      "name": "K562 Evergreen Middle School for Urban Exploration",
      "opening_hours": {
        "open_now": false
      },
      "place_id": "ChIJ52JzXD5cwokRTDoBmq3WsRA",
      "plus_code": {
        "compound_code": "M3QR+H2 \u7f8e\u570b\u7d10\u7d04",
        "global_code": "87G8M3QR+H2"
      },
      "rating": 4.7,
      "reference": "ChIJ52JzXD5cwokRTDoBmq3WsRA",
      "scope": "GOOGLE",
      "types": [
        "school",
        "point_of_interest",
        "establishment"
      ],
      "user_ratings_total": 13,
      "vicinity": "125 Covert Street, Brooklyn"
    },
    {
      "business_status": "OPERATIONAL",
      "geometry": {
        "location": {
          "lat": 40.692711,
          "lng": -73.912037
        },
        "viewport": {
          "northeast": {
            "lat": 40.6941283302915,
            "lng": -73.91062696970849
          },
          "southwest": {
            "lat": 40.6914303697085,
            "lng": -73.91332493029151
          }
        }
      },
      "icon": "https://maps.gstatic.com/mapfiles/place_api/icons/v1/png_71/shopping-71.png",
      "icon_background_color": "#4B96F3",
      "icon_mask_base_uri": "https://maps.gstatic.com/mapfiles/place_api/icons/v2/shopping_pinlet",
      "name": "Your Deal Food Corporation",
      "opening_hours": {
        "open_now": true
      },
      "photos": [
        {
          "height": 4032,
          "html_attributions": [
            "<a href=\"https://maps.google.com/maps/contrib/103919812803298686196\">massimo</a>"
          ],
          "photo_reference": "AeJbb3ezVxZc0U_0tR2ZWuWGCMlDNFfAps78WmJ1bN-hUHiofNFtsdSzv-vxYmKW0K-E2dqn9EL9svoFaonOp-LdUw_2gpJKu_S-1cXfNL1c-ozIf5rIJtOYAlkeurMwSc36xTJuLs3-BphZVmvoXutL63rzmiLBwMF7VONtkwpoHwUQg6M5",
          "width": 3024
        }
      ],
      "place_id": "ChIJlyp-hj1cwokR9PsN3C17gZ0",
      "plus_code": {
        "compound_code": "M3VQ+35 \u7f8e\u570b\u7d10\u7d04\u5e03\u9c81\u514b\u6797",
        "global_code": "87G8M3VQ+35"
      },
      "rating": 4,
      "reference": "ChIJlyp-hj1cwokR9PsN3C17gZ0",
      "scope": "GOOGLE",
      "types": [
        "store",
        "food",
        "point_of_interest",
        "establishment"
      ],
      "user_ratings_total": 31,
      "vicinity": "472 Wilson Avenue, Brooklyn"
    },
    {
      "business_status": "OPERATIONAL",
      "geometry": {
        "location": {
          "lat": 40.688396,
          "lng": -73.9129449
        },
        "viewport": {
          "northeast": {
            "lat": 40.6896823302915,
            "lng": -73.9114835197085
          },
          "southwest": {
            "lat": 40.6869843697085,
            "lng": -73.9141814802915
          }
        }
      },
      "icon": "https://maps.gstatic.com/mapfiles/place_api/icons/v1/png_71/worship_general-71.png",
      "icon_background_color": "#7B9EB0",
      "icon_mask_base_uri": "https://maps.gstatic.com/mapfiles/place_api/icons/v2/worship_christian_pinlet",
      "name": "Bible Life Holiness Ministry",
      "place_id": "ChIJRb5GghVcwokR3Q81Fzgp_N8",
      "plus_code": {
        "compound_code": "M3QP+9R \u7f8e\u570b\u7d10\u7d04\u5e03\u9c81\u514b\u6797",
        "global_code": "87G8M3QP+9R"
      },
      "reference": "ChIJRb5GghVcwokR3Q81Fzgp_N8",
      "scope": "GOOGLE",
      "types": [
        "church",
        "place_of_worship",
        "point_of_interest",
        "establishment"
      ],
      "vicinity": "1075 Halsey Street, Brooklyn"
    },
    {
      "geometry": {
        "location": {
          "lat": 40.6781784,
          "lng": -73.9441579
        },
        "viewport": {
          "northeast": {
            "lat": 40.73944597129348,
            "lng": -73.83336505117123
          },
          "southwest": {
            "lat": 40.55104197967331,
            "lng": -74.05662998413648
          }
        }
      },
      "icon": "https://maps.gstatic.com/mapfiles/place_api/icons/v1/png_71/geocode-71.png",
      "icon_background_color": "#7B9EB0",
      "icon_mask_base_uri": "https://maps.gstatic.com/mapfiles/place_api/icons/v2/generic_pinlet",
      "name": "\u5e03\u9c81\u514b\u6797",
      "photos": [
        {
          "height": 3024,
          "html_attributions": [
            "<a href=\"https://maps.google.com/maps/contrib/114417859579881743500\">Chengxiang Yuan</a>"
          ],
          "photo_reference": "AeJbb3cUUmkaWpemtSCMGZqVg68pDcMGTcGDndjN7niCsoLnLnKRZxZAlwiMFiel-b96BXsiYGBoWrI0U6vOsljYBVc3yjHtFh7ftlD8HCICfWochapbC86ToGYLa5X2x_SmmiAXFYLn5QtXHl-n9fNCzJ9TupSGdtfk3m8QcLVPGQ6lej5Z",
          "width": 4032
        }
      ],
      "place_id": "ChIJCSF8lBZEwokRhngABHRcdoI",
      "reference": "ChIJCSF8lBZEwokRhngABHRcdoI",
      "scope": "GOOGLE",
      "types": [
        "sublocality_level_1",
        "sublocality",
        "political"
      ],
      "vicinity": "\u5e03\u9c81\u514b\u6797"
    },
    {
      "business_status": "CLOSED_TEMPORARILY",
      "geometry": {
        "location": {
          "lat": 40.691403,
          "lng": -73.90889299999999
        },
        "viewport": {
          "northeast": {
            "lat": 40.6926630302915,
            "lng": -73.9076280697085
          },
          "southwest": {
            "lat": 40.6899650697085,
            "lng": -73.9103260302915
          }
        }
      },
      "icon": "https://maps.gstatic.com/mapfiles/place_api/icons/v1/png_71/shopping-71.png",
      "icon_background_color": "#4B96F3",
      "icon_mask_base_uri": "https://maps.gstatic.com/mapfiles/place_api/icons/v2/shopping_pinlet",
      "name": "Super Store 8",
      "permanently_closed": true,
      "photos": [
        {
          "height": 2592,
          "html_attributions": [
            "<a href=\"https://maps.google.com/maps/contrib/114149148516793959241\">Super Store 8</a>"
          ],
          "photo_reference": "AeJbb3dfbHz76VFqd5ra4pRaG-ZCxm8vMvl_S5jxw7bxtAw4DJU6MtDYfhwHzr6eRdmckDlDfvD9dJ1Iu0tSg5SAtYwlxAmRtDtdQkbJQ_HLTb0OdsUc_gOFOeMfQpFb28EWkC4qtcfBmzlc8wr1vuy3PUJp__ivBOYOiVaGqYjzquGdF2_P",
          "width": 1936
        }
      ],
      "place_id": "ChIJucXdNzxcwokRtGaavTnE6h0",
      "plus_code": {
        "compound_code": "M3RR+HC Brooklyn, NY, USA",
        "global_code": "87G8M3RR+HC"
      },
      "rating": 5,
      "reference": "ChIJucXdNzxcwokRtGaavTnE6h0",
      "scope": "GOOGLE",
      "types": [
        "food",
        "point_of_interest",
        "home_goods_store",
        "store",
        "establishment"
      ],
      "user_ratings_total": 2,
      "vicinity": "563 Wilson Avenue, Brooklyn"
    },
    {
      "business_status": "OPERATIONAL",
      "geometry": {
        "location": {
          "lat": 40.692441,
          "lng": -73.91411599999999
        },
        "viewport": {
          "northeast": {
            "lat": 40.6938568302915,
            "lng": -73.91288556970851
          },
          "southwest": {
            "lat": 40.6911588697085,
            "lng": -73.91558353029151
          }
        }
      },
      "icon": "https://maps.gstatic.com/mapfiles/place_api/icons/v1/png_71/generic_business-71.png",
      "icon_background_color": "#7B9EB0",
      "icon_mask_base_uri": "https://maps.gstatic.com/mapfiles/place_api/icons/v2/generic_pinlet",
      "name": "Voters For Animal Rights",
      "photos": [
        {
          "height": 315,
          "html_attributions": [
            "<a href=\"https://maps.google.com/maps/contrib/106157353799727696935\">Voters For Animal Rights</a>"
          ],
          "photo_reference": "AeJbb3dr_LcDyxS68-0orDsdorUN5UTDWGymem2e4nmgyA8yWGBZJTauGy6D6xHwIBdKvH4Z_CXSUzL0NMF6PonPbWXgLPprrN7kMwWmVVE7M7sXSxdXZqRh6b-c1Y7OcnBR1TxNySUWuvO0mu7HsrGCDeB7WyS7olD8PZxLWJnM5UV76t4C",
          "width": 828
        }
      ],
      "place_id": "ChIJVeq7knJcwokRSxEuKoINWoc",
      "plus_code": {
        "compound_code": "M3RP+X9 New York, NY, USA",
        "global_code": "87G8M3RP+X9"
      },
      "rating": 5,
      "reference": "ChIJVeq7knJcwokRSxEuKoINWoc",
      "scope": "GOOGLE",
      "types": [
        "point_of_interest",
        "establishment"
      ],
      "user_ratings_total": 2,
      "vicinity": "1276 Putnam Avenue, Brooklyn"
    },
    {
      "business_status": "OPERATIONAL",
      "geometry": {
        "location": {
          "lat": 40.6925464,
          "lng": -73.9096306
        },
        "viewport": {
          "northeast": {
            "lat": 40.69390073029149,
            "lng": -73.90829116970849
          },
          "southwest": {
            "lat": 40.69120276970849,
            "lng": -73.9109891302915
          }
        }
      },
      "icon": "https://maps.gstatic.com/mapfiles/place_api/icons/v1/png_71/shopping-71.png",
      "icon_background_color": "#4B96F3",
      "icon_mask_base_uri": "https://maps.gstatic.com/mapfiles/place_api/icons/v2/shopping_pinlet",
      "name": "Fun Sound Studio",
      "photos": [
        {
          "height": 2206,
          "html_attributions": [
            "<a href=\"https://maps.google.com/maps/contrib/113999274612112307657\">Nate McCarthy</a>"
          ],
          "photo_reference": "AeJbb3ekG4mIMrQzsiKgJjLvUqkgex_hnzK7pABS3kxOjqyuokNZrVgaenZ1uzx3XsBS7WaZ1vvT0EdkqV8-GW6BqTLorpDfbNRQotfgDcUIeqFozPcVeuPXY84Uhpc4Znoau-Eurmpl26L5AGw-gU-Mz4_6SMRup_Auz6TglQDe7r7P5Agu",
          "width": 2206
        }
      ],
      "place_id": "ChIJ-6wVqz1cwokRZWAAj_58mrs",
      "plus_code": {
        "compound_code": "M3VR+24 Brooklyn, NY, USA",
        "global_code": "87G8M3VR+24"
      },
      "rating": 3,
      "reference": "ChIJ-6wVqz1cwokRZWAAj_58mrs",
      "scope": "GOOGLE",
      "types": [
        "electronics_store",
        "point_of_interest",
        "home_goods_store",
        "store",
        "establishment"
      ],
      "user_ratings_total": 1,
      "vicinity": "Weirfield Street, Brooklyn"
    },
    {
      "business_status": "OPERATIONAL",
      "geometry": {
        "location": {
          "lat": 40.69191589999999,
          "lng": -73.9147107
        },
        "viewport": {
          "northeast": {
            "lat": 40.69333683029149,
            "lng": -73.9132903197085
          },
          "southwest": {
            "lat": 40.69063886970849,
            "lng": -73.9159882802915
          }
        }
      },
      "icon": "https://maps.gstatic.com/mapfiles/place_api/icons/v1/png_71/generic_business-71.png",
      "icon_background_color": "#7B9EB0",
      "icon_mask_base_uri": "https://maps.gstatic.com/mapfiles/place_api/icons/v2/generic_pinlet",
      "name": "Homeland Property Group",
      "opening_hours": {
        "open_now": false
      },
      "place_id": "ChIJ7VSLZRZcwokRMflNpOMhr1o",
      "plus_code": {
        "compound_code": "M3RP+Q4 New York, NY, USA",
        "global_code": "87G8M3RP+Q4"
      },
      "reference": "ChIJ7VSLZRZcwokRMflNpOMhr1o",
      "scope": "GOOGLE",
      "types": [
        "point_of_interest",
        "establishment"
      ],
      "vicinity": "476 Central Avenue, Brooklyn"
    },
    {
      "business_status": "OPERATIONAL",
      "geometry": {
        "location": {
          "lat": 40.6922073,
          "lng": -73.9145113
        },
        "viewport": {
          "northeast": {
            "lat": 40.69350473029149,
            "lng": -73.9132294697085
          },
          "southwest": {
            "lat": 40.69080676970849,
            "lng": -73.9159274302915
          }
        }
      },
      "icon": "https://maps.gstatic.com/mapfiles/place_api/icons/v1/png_71/cafe-71.png",
      "icon_background_color": "#FF9E67",
      "icon_mask_base_uri": "https://maps.gstatic.com/mapfiles/place_api/icons/v2/cafe_pinlet",
      "name": "Caffeine Underground",
      "opening_hours": {
        "open_now": true
      },
      "photos": [
        {
          "height": 1152,
          "html_attributions": [
            "<a href=\"https://maps.google.com/maps/contrib/111875613437136366362\">Caffeine Underground</a>"
          ],
          "photo_reference": "AeJbb3ewZr3v3ceHl7sY9oStqGcpzknglnSa3Q3MDfEnP68ttB6izrSpXNp69kGHV8JGmNf0bo_x8AyNbqskNRV7p83FQV2fc-2T-HSCYG2HsH1zKGEcUHToOiVxAWEx9EEiKa03NOQJ4Ws0DkUoupTmATnLYcXsIaOMrWpTgJxL6VzzXrRE",
          "width": 2048
        }
      ],
      "place_id": "ChIJV1NkQhZcwokR5LQjm_wqNwQ",
      "plus_code": {
        "compound_code": "M3RP+V5 New York, NY, USA",
        "global_code": "87G8M3RP+V5"
      },
      "price_level": 1,
      "rating": 4.7,
      "reference": "ChIJV1NkQhZcwokR5LQjm_wqNwQ",
      "scope": "GOOGLE",
      "types": [
        "cafe",
        "restaurant",
        "food",
        "point_of_interest",
        "store",
        "establishment"
      ],
      "user_ratings_total": 318,
      "vicinity": "447 Central Avenue Suite A, Brooklyn"
    },
    {
      "business_status": "OPERATIONAL",
      "geometry": {
        "location": {
          "lat": 40.689058,
          "lng": -73.90885399999999
        },
        "viewport": {
          "northeast": {
            "lat": 40.69033658029149,
            "lng": -73.90759961970849
          },
          "southwest": {
            "lat": 40.68763861970849,
            "lng": -73.9102975802915
          }
        }
      },
      "icon": "https://maps.gstatic.com/mapfiles/place_api/icons/v1/png_71/school-71.png",
      "icon_background_color": "#7B9EB0",
      "icon_mask_base_uri": "https://maps.gstatic.com/mapfiles/place_api/icons/v2/school_pinlet",
      "name": "Asacollege",
      "place_id": "ChIJi0ZujT5cwokRDSrMWY4D0OY",
      "plus_code": {
        "compound_code": "M3QR+JF Brooklyn, NY, USA",
        "global_code": "87G8M3QR+JF"
      },
      "rating": 5,
      "reference": "ChIJi0ZujT5cwokRDSrMWY4D0OY",
      "scope": "GOOGLE",
      "types": [
        "university",
        "point_of_interest",
        "establishment"
      ],
      "user_ratings_total": 1,
      "vicinity": "597 Central Avenue, Brooklyn"
    },
    {
      "business_status": "OPERATIONAL",
      "geometry": {
        "location": {
          "lat": 40.69319,
          "lng": -73.91058799999999
        },
        "viewport": {
          "northeast": {
            "lat": 40.6944743802915,
            "lng": -73.90912391970849
          },
          "southwest": {
            "lat": 40.6917764197085,
            "lng": -73.9118218802915
          }
        }
      },
      "icon": "https://maps.gstatic.com/mapfiles/place_api/icons/v1/png_71/generic_business-71.png",
      "icon_background_color": "#7B9EB0",
      "icon_mask_base_uri": "https://maps.gstatic.com/mapfiles/place_api/icons/v2/generic_pinlet",
      "name": "Conscious Wellbeing",
      "place_id": "ChIJV-5RCT1cwokRktTuDF5yXEE",
      "plus_code": {
        "compound_code": "M3VQ+7Q Brooklyn, NY, USA",
        "global_code": "87G8M3VQ+7Q"
      },
      "reference": "ChIJV-5RCT1cwokRktTuDF5yXEE",
      "scope": "GOOGLE",
      "types": [
        "point_of_interest",
        "health",
        "establishment"
      ],
      "vicinity": "1267 Hancock Street, Brooklyn"
    },
    {
      "business_status": "OPERATIONAL",
      "geometry": {
        "location": {
          "lat": 40.6874968,
          "lng": -73.9120196
        },
        "viewport": {
          "northeast": {
            "lat": 40.6888995302915,
            "lng": -73.91076526970849
          },
          "southwest": {
            "lat": 40.6862015697085,
            "lng": -73.9134632302915
          }
        }
      },
      "icon": "https://maps.gstatic.com/mapfiles/place_api/icons/v1/png_71/worship_general-71.png",
      "icon_background_color": "#7B9EB0",
      "icon_mask_base_uri": "https://maps.gstatic.com/mapfiles/place_api/icons/v2/worship_christian_pinlet",
      "name": "Williams Kermitt",
      "place_id": "ChIJt7Q32j9cwokRWAk72nAua0w",
      "plus_code": {
        "compound_code": "M3PQ+X5 New York, NY, USA",
        "global_code": "87G8M3PQ+X5"
      },
      "reference": "ChIJt7Q32j9cwokRWAk72nAua0w",
      "scope": "GOOGLE",
      "types": [
        "church",
        "place_of_worship",
        "point_of_interest",
        "establishment"
      ],
      "vicinity": "94 Eldert Street, Brooklyn"
    },
    {
      "business_status": "OPERATIONAL",
      "geometry": {
        "location": {
          "lat": 40.6933307,
          "lng": -73.9131793
        },
        "viewport": {
          "northeast": {
            "lat": 40.6947616802915,
            "lng": -73.9117657697085
          },
          "southwest": {
            "lat": 40.6920637197085,
            "lng": -73.9144637302915
          }
        }
      },
      "icon": "https://maps.gstatic.com/mapfiles/place_api/icons/v1/png_71/shopping-71.png",
      "icon_background_color": "#4B96F3",
      "icon_mask_base_uri": "https://maps.gstatic.com/mapfiles/place_api/icons/v2/shopping_pinlet",
      "name": "Zam Barrett Dialogue",
      "opening_hours": {
        "open_now": false
      },
      "photos": [
        {
          "height": 875,
          "html_attributions": [
            "<a href=\"https://maps.google.com/maps/contrib/115485315145016091126\">Zam Barrett Dialogue</a>"
          ],
          "photo_reference": "AeJbb3eJp3jDgDGGwKaw1SDXsbkR9EjTKFb2aoegwFh4jdMdsudOSHlWys1sFlQBEHKJEogrYlW9dsu2dSdy1MT9IDuy2Bxnrm8ssczK-o-h4Q4-nGez-uIBBjhiwEebiXsjktNcuUmVVY8-UVYh_oL0B1t4NJcOttGJu0Ac8SkzV4-UOXli",
          "width": 1000
        }
      ],
      "place_id": "ChIJd2kta79awokRTYBfY_nzJrw",
      "plus_code": {
        "compound_code": "M3VP+8P Brooklyn, NY, USA",
        "global_code": "87G8M3VP+8P"
      },
      "rating": 4.9,
      "reference": "ChIJd2kta79awokRTYBfY_nzJrw",
      "scope": "GOOGLE",
      "types": [
        "clothing_store",
        "point_of_interest",
        "store",
        "establishment"
      ],
      "user_ratings_total": 7,
      "vicinity": "438 Wilson Avenue, Brooklyn"
    },
    {
      "business_status": "OPERATIONAL",
      "geometry": {
        "location": {
          "lat": 40.692227,
          "lng": -73.915191
        },
        "viewport": {
          "northeast": {
            "lat": 40.6936367802915,
            "lng": -73.9137860197085
          },
          "southwest": {
            "lat": 40.6909388197085,
            "lng": -73.9164839802915
          }
        }
      },
      "icon": "https://maps.gstatic.com/mapfiles/place_api/icons/v1/png_71/shopping-71.png",
      "icon_background_color": "#4B96F3",
      "icon_mask_base_uri": "https://maps.gstatic.com/mapfiles/place_api/icons/v2/shopping_pinlet",
      "name": "Brooklyn Dragons Lair",
      "opening_hours": {
        "open_now": true
      },
      "photos": [
        {
          "height": 723,
          "html_attributions": [
            "<a href=\"https://maps.google.com/maps/contrib/113968812283145818648\">Brooklyn Dragons Lair</a>"
          ],
          "photo_reference": "AeJbb3eCbbCLUILZsy7SpMMHwVERyS2SGRj-r4BcMH88vh0zN2eQCNLEDlerp3wAylOitbIVxqsbPqR-H7ih73cAkJXetvX0a-kJVaz4Z6EzrwAiSlC9qw9hfS_6Dtm32pcxGipan_j_YM8l4duyJtcKFfPGphvuHUbfNtWKka-3Jfd9fzKr",
          "width": 1284
        }
      ],
      "place_id": "ChIJ19fzYBZcwokRBRDtVBTfuKQ",
      "plus_code": {
        "compound_code": "M3RM+VW Brooklyn, NY, USA",
        "global_code": "87G8M3RM+VW"
      },
      "rating": 5,
      "reference": "ChIJ19fzYBZcwokRBRDtVBTfuKQ",
      "scope": "GOOGLE",
      "types": [
        "electronics_store",
        "point_of_interest",
        "home_goods_store",
        "store",
        "establishment"
      ],
      "user_ratings_total": 106,
      "vicinity": "464 Central Avenue Apt 2A, Brooklyn"
    },
    {
      "business_status": "OPERATIONAL",
      "geometry": {
        "location": {
          "lat": 40.6874653,
          "lng": -73.91210869999999
        },
        "viewport": {
          "northeast": {
            "lat": 40.68884483029151,
            "lng": -73.9108482697085
          },
          "southwest": {
            "lat": 40.68614686970851,
            "lng": -73.9135462302915
          }
        }
      },
      "icon": "https://maps.gstatic.com/mapfiles/place_api/icons/v1/png_71/worship_general-71.png",
      "icon_background_color": "#7B9EB0",
      "icon_mask_base_uri": "https://maps.gstatic.com/mapfiles/place_api/icons/v2/worship_christian_pinlet",
      "name": "Agape Sabbath Day Church",
      "photos": [
        {
          "height": 4032,
          "html_attributions": [
            "<a href=\"https://maps.google.com/maps/contrib/109309442414677435523\">Robert Beale Jr.</a>"
          ],
          "photo_reference": "AeJbb3fz4bFiGjIZpCQDM4OoQ8ttXAcdHVp4MalupwiulfsxJZzDXxIlwKOyYLnTOSqxvJfm374rQqIoJqmlN7PsgJpYVU2ozjiS9b-_A9BQYz-Hc3C05jrtUFKj0Pwo66RtQu2lQRlOx0xPO9BXvQx1P3Kvzc22sN6CLVCy5f6WjzRUPL3a",
          "width": 1960
        }
      ],
      "place_id": "ChIJAaHQ2z9cwokRl5D9bL2SYc8",
      "plus_code": {
        "compound_code": "M3PQ+X5 Brooklyn, NY, USA",
        "global_code": "87G8M3PQ+X5"
      },
      "rating": 4.9,
      "reference": "ChIJAaHQ2z9cwokRl5D9bL2SYc8",
      "scope": "GOOGLE",
      "types": [
        "church",
        "place_of_worship",
        "point_of_interest",
        "establishment"
      ],
      "user_ratings_total": 11,
      "vicinity": "92 Eldert Street, Brooklyn"
    },
    {
      "business_status": "OPERATIONAL",
      "geometry": {
        "location": {
          "lat": 40.6909804,
          "lng": -73.9161963
        },
        "viewport": {
          "northeast": {
            "lat": 40.6922363802915,
            "lng": -73.9149390197085
          },
          "southwest": {
            "lat": 40.68953841970851,
            "lng": -73.9176369802915
          }
        }
      },
      "icon": "https://maps.gstatic.com/mapfiles/place_api/icons/v1/png_71/generic_business-71.png",
      "icon_background_color": "#7B9EB0",
      "icon_mask_base_uri": "https://maps.gstatic.com/mapfiles/place_api/icons/v2/generic_pinlet",
      "name": "CVV Iron Work Inc",
      "place_id": "ChIJ5a8aJhRcwokRdiH6XAt2C4g",
      "plus_code": {
        "compound_code": "M3RM+9G New York, NY, USA",
        "global_code": "87G8M3RM+9G"
      },
      "reference": "ChIJ5a8aJhRcwokRdiH6XAt2C4g",
      "scope": "GOOGLE",
      "types": [
        "general_contractor",
        "point_of_interest",
        "establishment"
      ],
      "vicinity": "501 Evergreen Avenue, Brooklyn"
    },
    {
      "business_status": "OPERATIONAL",
      "geometry": {
        "location": {
          "lat": 40.693355,
          "lng": -73.913611
        },
        "viewport": {
          "northeast": {
            "lat": 40.6947142802915,
            "lng": -73.91228026970849
          },
          "southwest": {
            "lat": 40.6920163197085,
            "lng": -73.9149782302915
          }
        }
      },
      "icon": "https://maps.gstatic.com/mapfiles/place_api/icons/v1/png_71/generic_business-71.png",
      "icon_background_color": "#7B9EB0",
      "icon_mask_base_uri": "https://maps.gstatic.com/mapfiles/place_api/icons/v2/generic_pinlet",
      "name": "Some People Understand Differently (SPUD.inc)",
      "opening_hours": {
        "open_now": true
      },
      "photos": [
        {
          "height": 3264,
          "html_attributions": [
            "<a href=\"https://maps.google.com/maps/contrib/116193972396973035033\">Some People Understand Differently (SPUD.inc)</a>"
          ],
          "photo_reference": "AeJbb3d2zPpKMt2zq7oDAd53qyJtSveEZUNxKs6fsVsgLJlrhNyvhggFRAAveqsHJBMgU7zGOC_dipjC_yRpqwrSLl4ZqBCn4oa9_8L9zGtJmFMvFb1do5LqIOWl9sM2yxqnuO10TGioO7JneMvc9drOEtPJpg2nVez9UkzoVVbwOi-DvsxB",
          "width": 2448
        }
      ],
      "place_id": "ChIJ8_NRyxdcwokRVcB9tD21O_w",
      "plus_code": {
        "compound_code": "M3VP+8H Brooklyn, NY, USA",
        "global_code": "87G8M3VP+8H"
      },
      "rating": 5,
      "reference": "ChIJ8_NRyxdcwokRVcB9tD21O_w",
      "scope": "GOOGLE",
      "types": [
        "point_of_interest",
        "establishment"
      ],
      "user_ratings_total": 1,
      "vicinity": "1317 Putnam Avenue 1st fl, Brooklyn"
    },
    {
      "business_status": "OPERATIONAL",
      "geometry": {
        "location": {
          "lat": 40.6937006,
          "lng": -73.912685
        },
        "viewport": {
          "northeast": {
            "lat": 40.6951451802915,
            "lng": -73.9115239197085
          },
          "southwest": {
            "lat": 40.6924472197085,
            "lng": -73.91422188029152
          }
        }
      },
      "icon": "https://maps.gstatic.com/mapfiles/place_api/icons/v1/png_71/school-71.png",
      "icon_background_color": "#7B9EB0",
      "icon_mask_base_uri": "https://maps.gstatic.com/mapfiles/place_api/icons/v2/school_pinlet",
      "name": "P.S. 106 Edward Everett Hale",
      "photos": [
        {
          "height": 1920,
          "html_attributions": [
            "<a href=\"https://maps.google.com/maps/contrib/112563023632320392170\">Ariel Rodriguez</a>"
          ],
          "photo_reference": "AeJbb3frGKErjgKiQeQ0tOxL6Vzjpo_nUtaIvwFKok2S2mjZNoLQDvqz0svVNeqLV2EVNQKeuozhoofNyTe5IjHKhtI_LTGIdrAJtOYXo32rsuDX2SDBZqvsvqK3gnqY0QHN4xd1zcfmZs8DbXZnWfvTDmtT5fixbuSgTw4zkzW1gDDnbs5C",
          "width": 1080
        }
      ],
      "place_id": "ChIJ2_WuNb1bwokR0ZqXXoRI4dU",
      "plus_code": {
        "compound_code": "M3VP+FW New York, NY, USA",
        "global_code": "87G8M3VP+FW"
      },
      "rating": 4.3,
      "reference": "ChIJ2_WuNb1bwokR0ZqXXoRI4dU",
      "scope": "GOOGLE",
      "types": [
        "school",
        "point_of_interest",
        "establishment"
      ],
      "user_ratings_total": 12,
      "vicinity": "1328 Putnam Avenue, Brooklyn"
    },
    {
      "business_status": "CLOSED_TEMPORARILY",
      "geometry": {
        "location": {
          "lat": 40.69263180000001,
          "lng": -73.9151713
        },
        "viewport": {
          "northeast": {
            "lat": 40.6939165302915,
            "lng": -73.91391396970852
          },
          "southwest": {
            "lat": 40.6912185697085,
            "lng": -73.91661193029152
          }
        }
      },
      "icon": "https://maps.gstatic.com/mapfiles/place_api/icons/v1/png_71/cafe-71.png",
      "icon_background_color": "#FF9E67",
      "icon_mask_base_uri": "https://maps.gstatic.com/mapfiles/place_api/icons/v2/cafe_pinlet",
      "name": "Aquino's",
      "permanently_closed": true,
      "photos": [
        {
          "height": 720,
          "html_attributions": [
            "<a href=\"https://maps.google.com/maps/contrib/104715258072476520719\">Henry Torres</a>"
          ],
          "photo_reference": "AeJbb3dPyIgE3OkY3kQ9wmTz6D23q4nHX5G5oVR5QowMGlgOS4VdLa8XnW68q0I25ZTFcvYdIT5oab7tJw6wBVw4XXGrqpQo7qulpGN7SCXyhfLeEKtZoK0zhYHt5mUdPqu9RRGNRiX9oT2A3haHs9LrmAL65kwEebJDe8ZwYNSgciJFyUE",
          "width": 1280
        }
      ],
      "place_id": "ChIJFd7RXhZcwokRqzq6qAYjYI4",
      "plus_code": {
        "compound_code": "M3VM+3W Brooklyn, NY, USA",
        "global_code": "87G8M3VM+3W"
      },
      "rating": 4.1,
      "reference": "ChIJFd7RXhZcwokRqzq6qAYjYI4",
      "scope": "GOOGLE",
      "types": [
        "cafe",
        "food",
        "point_of_interest",
        "establishment"
      ],
      "user_ratings_total": 15,
      "vicinity": "429 Central Avenue, Brooklyn"
    },
    {
      "business_status": "OPERATIONAL",
      "geometry": {
        "location": {
          "lat": 40.6904849,
          "lng": -73.91623659999999
        },
        "viewport": {
          "northeast": {
            "lat": 40.6919063802915,
            "lng": -73.9148145197085
          },
          "southwest": {
            "lat": 40.6892084197085,
            "lng": -73.9175124802915
          }
        }
      },
      "icon": "https://maps.gstatic.com/mapfiles/place_api/icons/v1/png_71/school-71.png",
      "icon_background_color": "#7B9EB0",
      "icon_mask_base_uri": "https://maps.gstatic.com/mapfiles/place_api/icons/v2/school_pinlet",
      "name": "Powrplnt",
      "place_id": "ChIJ6dtjOhRcwokR0bp7y8nr30Q",
      "plus_code": {
        "compound_code": "M3RM+5G Brooklyn, NY, USA",
        "global_code": "87G8M3RM+5G"
      },
      "rating": 5,
      "reference": "ChIJ6dtjOhRcwokR0bp7y8nr30Q",
      "scope": "GOOGLE",
      "types": [
        "school",
        "point_of_interest",
        "establishment"
      ],
      "user_ratings_total": 2,
      "vicinity": "562 Evergreen Avenue, Brooklyn"
    },
    {
      "business_status": "OPERATIONAL",
      "geometry": {
        "location": {
          "lat": 40.68857749999999,
          "lng": -73.90812989999999
        },
        "viewport": {
          "northeast": {
            "lat": 40.6898771802915,
            "lng": -73.90685256970849
          },
          "southwest": {
            "lat": 40.6871792197085,
            "lng": -73.9095505302915
          }
        }
      },
      "icon": "https://maps.gstatic.com/mapfiles/place_api/icons/v1/png_71/civic_building-71.png",
      "icon_background_color": "#7B9EB0",
      "icon_mask_base_uri": "https://maps.gstatic.com/mapfiles/place_api/icons/v2/civic-bldg_pinlet",
      "name": "FDNY Squad 252",
      "opening_hours": {
        "open_now": true
      },
      "photos": [
        {
          "height": 1063,
          "html_attributions": [
            "<a href=\"https://maps.google.com/maps/contrib/114091876196732354635\">Andy Daley</a>"
          ],
          "photo_reference": "AeJbb3e9ePkmyNRu-K2LIqRHOX4H7FDeCrGB0_70a3nbeiHLEn8zyp_WJvxgU0QsDbYZYBf7sV57EisKra4kjXAUn2ym-a9__7FYq9vlZh3rNy6PO1cSoh8IQ6qdzyRm5kleuzvxEkYFNB2rtyHbG4wnJLpLrhLWCw77CvCy9ODRhFoVAtL_",
          "width": 1600
        }
      ],
      "place_id": "ChIJi0UX6j5cwokRGbGgZJfuYsg",
      "plus_code": {
        "compound_code": "M3QR+CP New York, NY, USA",
        "global_code": "87G8M3QR+CP"
      },
      "rating": 4.5,
      "reference": "ChIJi0UX6j5cwokRGbGgZJfuYsg",
      "scope": "GOOGLE",
      "types": [
        "fire_station",
        "point_of_interest",
        "establishment"
      ],
      "user_ratings_total": 6,
      "vicinity": "617 Central Avenue, Brooklyn"
    },
    {
      "business_status": "OPERATIONAL",
      "geometry": {
        "location": {
          "lat": 40.6909767,
          "lng": -73.91637399999999
        },
        "viewport": {
          "northeast": {
            "lat": 40.6922661802915,
            "lng": -73.9150836697085
          },
          "southwest": {
            "lat": 40.68956821970851,
            "lng": -73.9177816302915
          }
        }
      },
      "icon": "https://maps.gstatic.com/mapfiles/place_api/icons/v1/png_71/generic_business-71.png",
      "icon_background_color": "#7B9EB0",
      "icon_mask_base_uri": "https://maps.gstatic.com/mapfiles/place_api/icons/v2/generic_pinlet",
      "name": "Positive Solutions Legal",
      "place_id": "ChIJHaJeJhRcwokREM8FxGibx90",
      "plus_code": {
        "compound_code": "M3RM+9F New York, NY, USA",
        "global_code": "87G8M3RM+9F"
      },
      "rating": 5,
      "reference": "ChIJHaJeJhRcwokREM8FxGibx90",
      "scope": "GOOGLE",
      "types": [
        "point_of_interest",
        "establishment"
      ],
      "user_ratings_total": 1,
      "vicinity": "497 Evergreen Avenue, Brooklyn"
    },
    {
      "business_status": "OPERATIONAL",
      "geometry": {
        "location": {
          "lat": 40.6934664,
          "lng": -73.9093901
        },
        "viewport": {
          "northeast": {
            "lat": 40.6946914802915,
            "lng": -73.90786346970849
          },
          "southwest": {
            "lat": 40.6919935197085,
            "lng": -73.91056143029151
          }
        }
      },
      "icon": "https://maps.gstatic.com/mapfiles/place_api/icons/v1/png_71/worship_general-71.png",
      "icon_background_color": "#7B9EB0",
      "icon_mask_base_uri": "https://maps.gstatic.com/mapfiles/place_api/icons/v2/worship_christian_pinlet",
      "name": "St. Martin of Tours Roman Catholic Church",
      "opening_hours": {
        "open_now": false
      },
      "photos": [
        {
          "height": 4032,
          "html_attributions": [
            "<a href=\"https://maps.google.com/maps/contrib/108744001186393956824\">Javier Baez</a>"
          ],
          "photo_reference": "AeJbb3cBmrKfz4t9uOm52W2sLcwd4OSGAV-8xRvvCY6PONztoqDl_43rgIfsQ-FBz18YyBwltoBUiWi4AElg9PIjCHVbGt1GjTenwqylWSysCSDHN-8QxEmmoPt94gA1hS_CfG5L2ub6W3QV698s4PumLTf-hQes_FbQh6MlvHzve1l_VGPd",
          "width": 3024
        }
      ],
      "place_id": "ChIJqeMgAz1cwokRmeZ8PmbwHC8",
      "plus_code": {
        "compound_code": "M3VR+96 New York, NY, USA",
        "global_code": "87G8M3VR+96"
      },
      "rating": 4.7,
      "reference": "ChIJqeMgAz1cwokRmeZ8PmbwHC8",
      "scope": "GOOGLE",
      "types": [
        "church",
        "place_of_worship",
        "point_of_interest",
        "establishment"
      ],
      "user_ratings_total": 151,
      "vicinity": "1288 Hancock Street, Brooklyn"
    },
    {
      "business_status": "OPERATIONAL",
      "geometry": {
        "location": {
          "lat": 40.694553,
          "lng": -73.90970399999999
        },
        "viewport": {
          "northeast": {
            "lat": 40.6959777802915,
            "lng": -73.90846276970849
          },
          "southwest": {
            "lat": 40.6932798197085,
            "lng": -73.9111607302915
          }
        }
      },
      "icon": "https://maps.gstatic.com/mapfiles/place_api/icons/v1/png_71/worship_general-71.png",
      "icon_background_color": "#7B9EB0",
      "icon_mask_base_uri": "https://maps.gstatic.com/mapfiles/place_api/icons/v2/worship_christian_pinlet",
      "name": "Celestial Church of Christ New York Parish",
      "opening_hours": {
        "open_now": false
      },
      "photos": [
        {
          "height": 2448,
          "html_attributions": [
            "<a href=\"https://maps.google.com/maps/contrib/104806291476493246524\">Celestial Church of Christ New York Parish</a>"
          ],
          "photo_reference": "AeJbb3doZ-OzyGHMv5Wiq9_xfWwP8SxPQYjFnuLmMj6-2WZF9Z00IrDZsmtXJ3mlqmamAhTeigjDCue7_IAT1EXbg3XJmy4KgP6OQOC5HzOFWIArWP5glK_qrhR0F2hJm7Djo8NOGBjZKrCc2qDZvHJwj9ueffQc17Xdt6jd00S0nJ4QmuLQ",
          "width": 2448
        }
      ],
      "place_id": "ChIJk2O1Jz1cwokRZLRAln0F3ww",
      "plus_code": {
        "compound_code": "M3VR+R4 Brooklyn, NY, USA",
        "global_code": "87G8M3VR+R4"
      },
      "rating": 4.6,
      "reference": "ChIJk2O1Jz1cwokRZLRAln0F3ww",
      "scope": "GOOGLE",
      "types": [
        "church",
        "place_of_worship",
        "point_of_interest",
        "establishment"
      ],
      "user_ratings_total": 17,
      "vicinity": "1380 Jefferson Avenue, Brooklyn"
    },
    {
      "business_status": "OPERATIONAL",
      "geometry": {
        "location": {
          "lat": 40.6870187,
          "lng": -73.9124993
        },
        "viewport": {
          "northeast": {
            "lat": 40.68842978029149,
            "lng": -73.91123601970848
          },
          "southwest": {
            "lat": 40.68573181970849,
            "lng": -73.91393398029149
          }
        }
      },
      "icon": "https://maps.gstatic.com/mapfiles/place_api/icons/v1/png_71/generic_business-71.png",
      "icon_background_color": "#7B9EB0",
      "icon_mask_base_uri": "https://maps.gstatic.com/mapfiles/place_api/icons/v2/generic_pinlet",
      "name": "Greg Keras Productions",
      "photos": [
        {
          "height": 2041,
          "html_attributions": [
            "<a href=\"https://maps.google.com/maps/contrib/101531257234542280679\">Greg Keras Productions</a>"
          ],
          "photo_reference": "AeJbb3eJsvMROtd1Z87K0PFqNLFjBGTp9bz6JELyiL97nqEXuDQz-Q4xzxGA5hCJyRpik18XkVk6d_kX0ceqoy4EszYIikGpybLxTvvWzb8mzWBam44FYOs94NMQzkQ49lnAl1La-Lw0Cur112z4ACnmXfw-meGKfsf3CULIsiN_8vs7jd5S",
          "width": 3629
        }
      ],
      "place_id": "ChIJj0BO6vRewokR6IxK0QejPfw",
      "plus_code": {
        "compound_code": "M3PQ+R2 Brooklyn, NY, USA",
        "global_code": "87G8M3PQ+R2"
      },
      "rating": 5,
      "reference": "ChIJj0BO6vRewokR6IxK0QejPfw",
      "scope": "GOOGLE",
      "types": [
        "point_of_interest",
        "establishment"
      ],
      "user_ratings_total": 1,
      "vicinity": "74 Eldert Street, Brooklyn"
    },
    {
      "business_status": "CLOSED_TEMPORARILY",
      "geometry": {
        "location": {
          "lat": 40.68883659999999,
          "lng": -73.9160443
        },
        "viewport": {
          "northeast": {
            "lat": 40.6901194302915,
            "lng": -73.91457816970849
          },
          "southwest": {
            "lat": 40.6874214697085,
            "lng": -73.9172761302915
          }
        }
      },
      "icon": "https://maps.gstatic.com/mapfiles/place_api/icons/v1/png_71/school-71.png",
      "icon_background_color": "#7B9EB0",
      "icon_mask_base_uri": "https://maps.gstatic.com/mapfiles/place_api/icons/v2/school_pinlet",
      "name": "SALVATION ARMY",
      "permanently_closed": true,
      "place_id": "ChIJ0em9VxRcwokRaTKr2LzRkU0",
      "plus_code": {
        "compound_code": "M3QM+GH Brooklyn, NY, USA",
        "global_code": "87G8M3QM+GH"
      },
      "price_level": 1,
      "reference": "ChIJ0em9VxRcwokRaTKr2LzRkU0",
      "scope": "GOOGLE",
      "types": [
        "school",
        "point_of_interest",
        "establishment"
      ],
      "vicinity": "1099 Jefferson Avenue, Brooklyn"
    },
    {
      "business_status": "OPERATIONAL",
      "geometry": {
        "location": {
          "lat": 40.6869363,
          "lng": -73.9125072
        },
        "viewport": {
          "northeast": {
            "lat": 40.6883530802915,
            "lng": -73.91127561970849
          },
          "southwest": {
            "lat": 40.68565511970851,
            "lng": -73.91397358029151
          }
        }
      },
      "icon": "https://maps.gstatic.com/mapfiles/place_api/icons/v1/png_71/worship_general-71.png",
      "icon_background_color": "#7B9EB0",
      "icon_mask_base_uri": "https://maps.gstatic.com/mapfiles/place_api/icons/v2/worship_christian_pinlet",
      "name": "Iglesia de Dios de la Profecia, Bushwick",
      "photos": [
        {
          "height": 2988,
          "html_attributions": [
            "<a href=\"https://maps.google.com/maps/contrib/114218729536364902011\">Jennifer Coats</a>"
          ],
          "photo_reference": "AeJbb3dInQ-jXdiUX9o0opgmrA_NrMAecGTTJnIDiEzTsvfKP7VCgVoZQd1fd39asOziyS7GurpSFBvVp9zXwCsEGICnGwb2MnApoEROF35vbtwG1q-qKNe6SzFepk0zjFoTCgNZVMYLhEiQRcRY4cMr8_rTnSkzb8Emha-8i_pTFwQvk1a9",
          "width": 5312
        }
      ],
      "place_id": "ChIJN0pL1T1cwokR4nDj0pDJIUc",
      "plus_code": {
        "compound_code": "M3PP+QX Brooklyn, NY, USA",
        "global_code": "87G8M3PP+QX"
      },
      "rating": 5,
      "reference": "ChIJN0pL1T1cwokR4nDj0pDJIUc",
      "scope": "GOOGLE",
      "types": [
        "church",
        "place_of_worship",
        "point_of_interest",
        "establishment"
      ],
      "user_ratings_total": 5,
      "vicinity": "70 Eldert Street, Brooklyn"
    },
    {
      "business_status": "OPERATIONAL",
      "geometry": {
        "location": {
          "lat": 40.689138,
          "lng": -73.9162691
        },
        "viewport": {
          "northeast": {
            "lat": 40.6905373802915,
            "lng": -73.91501911970849
          },
          "southwest": {
            "lat": 40.6878394197085,
            "lng": -73.9177170802915
          }
        }
      },
      "icon": "https://maps.gstatic.com/mapfiles/place_api/icons/v1/png_71/generic_business-71.png",
      "icon_background_color": "#7B9EB0",
      "icon_mask_base_uri": "https://maps.gstatic.com/mapfiles/place_api/icons/v2/generic_pinlet",
      "name": "Subway Realty Group",
      "opening_hours": {
        "open_now": false
      },
      "photos": [
        {
          "height": 505,
          "html_attributions": [
            "<a href=\"https://maps.google.com/maps/contrib/117664608006726157335\">Subway Realty Group</a>"
          ],
          "photo_reference": "AeJbb3fEDeYfBsmEesuFMRiorkstoKl_5yNSHevo3kwFWch8Gl08G-b-McaNOeb1-lJq1nJGpHs4oO2Odx8zyK_0_CmaB34h1umT9R0kVCT_Y4LQrvvRIggUEtwOHqfMLq0mPKZ3wpmIf7Zdbotv0QBWkG_tPpNRFXc43c5zX9eWsGwSgLBV",
          "width": 1171
        }
      ],
      "place_id": "ChIJBb_1WRRcwokR6gUrKgmX2_w",
      "plus_code": {
        "compound_code": "M3QM+MF New York, NY, USA",
        "global_code": "87G8M3QM+MF"
      },
      "rating": 3.9,
      "reference": "ChIJBb_1WRRcwokR6gUrKgmX2_w",
      "scope": "GOOGLE",
      "types": [
        "real_estate_agency",
        "point_of_interest",
        "establishment"
      ],
      "user_ratings_total": 33,
      "vicinity": "74 Cornelia Street, Brooklyn"
    },
    {
      "business_status": "OPERATIONAL",
      "geometry": {
        "location": {
          "lat": 40.68830740000001,
          "lng": -73.9156749
        },
        "viewport": {
          "northeast": {
            "lat": 40.6895914802915,
            "lng": -73.91440086970849
          },
          "southwest": {
            "lat": 40.68689351970851,
            "lng": -73.9170988302915
          }
        }
      },
      "icon": "https://maps.gstatic.com/mapfiles/place_api/icons/v1/png_71/generic_business-71.png",
      "icon_background_color": "#7B9EB0",
      "icon_mask_base_uri": "https://maps.gstatic.com/mapfiles/place_api/icons/v2/generic_pinlet",
      "name": "House of Jubilee Christian Inc",
      "place_id": "ChIJfbs6_BRcwokRKMKrVd8QRyQ",
      "plus_code": {
        "compound_code": "M3QM+8P New York, NY, USA",
        "global_code": "87G8M3QM+8P"
      },
      "rating": 4.8,
      "reference": "ChIJfbs6_BRcwokRKMKrVd8QRyQ",
      "scope": "GOOGLE",
      "types": [
        "point_of_interest",
        "establishment"
      ],
      "user_ratings_total": 4,
      "vicinity": "1205 Bushwick Avenue, Brooklyn"
    },
    {
      "business_status": "OPERATIONAL",
      "geometry": {
        "location": {
          "lat": 40.694222,
          "lng": -73.909902
        },
        "viewport": {
          "northeast": {
            "lat": 40.6955062802915,
            "lng": -73.90863496970849
          },
          "southwest": {
            "lat": 40.6928083197085,
            "lng": -73.91133293029151
          }
        }
      },
      "icon": "https://maps.gstatic.com/mapfiles/place_api/icons/v1/png_71/restaurant-71.png",
      "icon_background_color": "#FF9E67",
      "icon_mask_base_uri": "https://maps.gstatic.com/mapfiles/place_api/icons/v2/restaurant_pinlet",
      "name": "Angela's Bakery",
      "opening_hours": {
        "open_now": true
      },
      "photos": [
        {
          "height": 3024,
          "html_attributions": [
            "<a href=\"https://maps.google.com/maps/contrib/103449283880676382542\">Kevin King</a>"
          ],
          "photo_reference": "AeJbb3erq7TsvBTYCGEtneBzyrcg3m9RsMDsRgN8ef2C04RDhFb_LeM0WYfPa769ulBUo31h1dLUn6HYbhSkPzgmYAzJgPqw35p8N8cSC0n7Bu6yuaCAO4i4lYdU6C2IlW7A5Yo-LB-92FRlpXvzSAgYUEKulmyvxHzxVDNR0dDPb21ZWZia",
          "width": 4032
        }
      ],
      "place_id": "ChIJGyMjIj1cwokROrKADz1WC4M",
      "plus_code": {
        "compound_code": "M3VR+M2 Brooklyn, NY, USA",
        "global_code": "87G8M3VR+M2"
      },
      "price_level": 1,
      "rating": 4.2,
      "reference": "ChIJGyMjIj1cwokROrKADz1WC4M",
      "scope": "GOOGLE",
      "types": [
        "bakery",
        "food",
        "point_of_interest",
        "store",
        "establishment"
      ],
      "user_ratings_total": 1021,
      "vicinity": "717 Knickerbocker Avenue, Brooklyn"
    },
    {
      "business_status": "OPERATIONAL",
      "geometry": {
        "location": {
          "lat": 40.6902494,
          "lng": -73.9069308
        },
        "viewport": {
          "northeast": {
            "lat": 40.69152493029149,
            "lng": -73.9056553697085
          },
          "southwest": {
            "lat": 40.68882696970849,
            "lng": -73.9083533302915
          }
        }
      },
      "icon": "https://maps.gstatic.com/mapfiles/place_api/icons/v1/png_71/bar-71.png",
      "icon_background_color": "#FF9E67",
      "icon_mask_base_uri": "https://maps.gstatic.com/mapfiles/place_api/icons/v2/bar_pinlet",
      "name": "Father Knows Best",
      "opening_hours": {
        "open_now": true
      },
      "photos": [
        {
          "height": 1468,
          "html_attributions": [
            "<a href=\"https://maps.google.com/maps/contrib/101402742053998645364\">dL S</a>"
          ],
          "photo_reference": "AeJbb3fFRZjQOYExafFA6Nk3BNiAmp4J6kF5bTj1DzDQqTmQPpM3GSmGKfpgiujah8T63TRjYjrA6QcUMw9FJZXYFfo2Xjtvb4GyR4FgwnmDMhNgpHZnToQPPNxIO6QRBtChISURIZ9hA5N2YoH_zCNqr43GeNGcivdmFvp_yjwBkAoKAc8i",
          "width": 3264
        }
      ],
      "place_id": "ChIJwZHjAzxcwokROh4zFWUlWlE",
      "plus_code": {
        "compound_code": "M3RV+36 New York, NY, USA",
        "global_code": "87G8M3RV+36"
      },
      "price_level": 2,
      "rating": 4.4,
      "reference": "ChIJwZHjAzxcwokROh4zFWUlWlE",
      "scope": "GOOGLE",
      "types": [
        "bar",
        "cafe",
        "restaurant",
        "food",
        "point_of_interest",
        "establishment"
      ],
      "user_ratings_total": 798,
      "vicinity": "611A Wilson Avenue, Brooklyn"
    },
    {
      "business_status": "OPERATIONAL",
      "geometry": {
        "location": {
          "lat": 40.6911426,
          "lng": -73.9166473
        },
        "viewport": {
          "northeast": {
            "lat": 40.6924285802915,
            "lng": -73.91536046970849
          },
          "southwest": {
            "lat": 40.6897306197085,
            "lng": -73.91805843029151
          }
        }
      },
      "icon": "https://maps.gstatic.com/mapfiles/place_api/icons/v1/png_71/shopping-71.png",
      "icon_background_color": "#4B96F3",
      "icon_mask_base_uri": "https://maps.gstatic.com/mapfiles/place_api/icons/v2/shopping_pinlet",
      "name": "The NYC Mariachi Inc",
      "opening_hours": {
        "open_now": true
      },
      "photos": [
        {
          "height": 1153,
          "html_attributions": [
            "<a href=\"https://maps.google.com/maps/contrib/105685518584088883165\">The NYC Mariachi Inc</a>"
          ],
          "photo_reference": "AeJbb3dkNUg6FcWePhPRru9q4CAFitpINdsu_Niu8Mi7GirEig5MXoaMCv7c_Ea7WPK5rXr_hG6Vz5HMyMhYDg7xcho1LgMtwz3S6-dJgjksz-5YIab24_ZeSjQ6XP07GylGof9livooFGzjfmWNxNZCX8yN77XG1cKVmeu7b2WL1zlsHCJM",
          "width": 2048
        }
      ],
      "place_id": "ChIJj3XEIBRcwokRj1utSaE3xbU",
      "plus_code": {
        "compound_code": "M3RM+F8 Brooklyn, NY, USA",
        "global_code": "87G8M3RM+F8"
      },
      "rating": 4.8,
      "reference": "ChIJj3XEIBRcwokRj1utSaE3xbU",
      "scope": "GOOGLE",
      "types": [
        "school",
        "point_of_interest",
        "electronics_store",
        "home_goods_store",
        "store",
        "establishment"
      ],
      "user_ratings_total": 59,
      "vicinity": "487 Evergreen Avenue, Brooklyn"
    },
    {
      "business_status": "OPERATIONAL",
      "geometry": {
        "location": {
          "lat": 40.6901422,
          "lng": -73.9067218
        },
        "viewport": {
          "northeast": {
            "lat": 40.69141398029149,
            "lng": -73.90544846970849
          },
          "southwest": {
            "lat": 40.6887160197085,
            "lng": -73.9081464302915
          }
        }
      },
      "icon": "https://maps.gstatic.com/mapfiles/place_api/icons/v1/png_71/restaurant-71.png",
      "icon_background_color": "#FF9E67",
      "icon_mask_base_uri": "https://maps.gstatic.com/mapfiles/place_api/icons/v2/restaurant_pinlet",
      "name": "Empire Taco",
      "opening_hours": {
        "open_now": true
      },
      "photos": [
        {
          "height": 500,
          "html_attributions": [
            "<a href=\"https://maps.google.com/maps/contrib/101523293730959956425\">Dave Cook</a>"
          ],
          "photo_reference": "AeJbb3dyQeQpDtixc9-xcDaLdPYhoqZRMhSF9F7kjIX88pZlcEsheFQZgOK_AMVuGwHmxR0C6bbjH1-KeJwPhydwc9lmsZYq5zRQx9oF2v7wSfxGnYCKNd7xKSbi4lBa09GwKscz2SWvoBgaOu36un4gD9tSOkLnZb-WMMspYpbqYg4kbvof",
          "width": 750
        }
      ],
      "place_id": "ChIJbyHbADxcwokR5v4Rjp1sui4",
      "plus_code": {
        "compound_code": "M3RV+38 New York, NY, USA",
        "global_code": "87G8M3RV+38"
      },
      "price_level": 1,
      "rating": 3.5,
      "reference": "ChIJbyHbADxcwokR5v4Rjp1sui4",
      "scope": "GOOGLE",
      "types": [
        "meal_delivery",
        "restaurant",
        "food",
        "point_of_interest",
        "establishment"
      ],
      "user_ratings_total": 70,
      "vicinity": "617 Wilson Avenue, Brooklyn"
    },
    {
      "business_status": "OPERATIONAL",
      "geometry": {
        "location": {
          "lat": 40.686948,
          "lng": -73.913201
        },
        "viewport": {
          "northeast": {
            "lat": 40.6882133302915,
            "lng": -73.9119347197085
          },
          "southwest": {
            "lat": 40.6855153697085,
            "lng": -73.91463268029152
          }
        }
      },
      "icon": "https://maps.gstatic.com/mapfiles/place_api/icons/v1/png_71/generic_business-71.png",
      "icon_background_color": "#7B9EB0",
      "icon_mask_base_uri": "https://maps.gstatic.com/mapfiles/place_api/icons/v2/generic_pinlet",
      "name": "Space Heater Gallery",
      "photos": [
        {
          "height": 2560,
          "html_attributions": [
            "<a href=\"https://maps.google.com/maps/contrib/108921650441625232102\">Herman Smith</a>"
          ],
          "photo_reference": "AeJbb3clMxlpsyfz-T4hJxy8L2cuWOcyqYilxbRp0_5aKcpsX2eHkPRqUmgONl8nmChzhbZg9rYzA7kP2rPSR_MwEgrN7SF2OZH4x0FgMHXpuA4r34qu9VUMy5UkCVg55k_iVm02fK0cTRVyPFJtkz4FRAFg8l28JK2CRcc1T2p9t1DdcPLX",
          "width": 1536
        }
      ],
      "place_id": "ChIJ-80qXRVcwokRRHxhahOQgcM",
      "plus_code": {
        "compound_code": "M3PP+QP Brooklyn, NY, USA",
        "global_code": "87G8M3PP+QP"
      },
      "rating": 4.5,
      "reference": "ChIJ-80qXRVcwokRRHxhahOQgcM",
      "scope": "GOOGLE",
      "types": [
        "art_gallery",
        "point_of_interest",
        "establishment"
      ],
      "user_ratings_total": 8,
      "vicinity": "1283 Bushwick Avenue, Brooklyn"
    },
    {
      "business_status": "OPERATIONAL",
      "geometry": {
        "location": {
          "lat": 40.6939319,
          "lng": -73.909306
        },
        "viewport": {
          "northeast": {
            "lat": 40.69524988029149,
            "lng": -73.9080673197085
          },
          "southwest": {
            "lat": 40.6925519197085,
            "lng": -73.9107652802915
          }
        }
      },
      "icon": "https://maps.gstatic.com/mapfiles/place_api/icons/v1/png_71/shopping-71.png",
      "icon_background_color": "#4B96F3",
      "icon_mask_base_uri": "https://maps.gstatic.com/mapfiles/place_api/icons/v2/shopping_pinlet",
      "name": "Express Deli",
      "opening_hours": {
        "open_now": true
      },
      "photos": [
        {
          "height": 1960,
          "html_attributions": [
            "<a href=\"https://maps.google.com/maps/contrib/105186437885535707678\">you Next</a>"
          ],
          "photo_reference": "AeJbb3cON9f4FfkUCqeLFBgI6tn9kU_cBOqhnro0aJ0gUxLs6DYADMq1JfsbERjLLFGMVHKzzgJHBokyp3G-jVvthEM8RW1WOuKqtRmzQJZ-b5KvnNVnZc-vbvslwDHPU1c1N46Vzb4uKVxkbhVhOCWJIbSaCAZdGp9ktn6Fg1BZydF8Echr",
          "width": 4032
        }
      ],
      "place_id": "ChIJ7W844DxcwokRnc16xbHXWB8",
      "plus_code": {
        "compound_code": "M3VR+H7 Brooklyn, NY, USA",
        "global_code": "87G8M3VR+H7"
      },
      "rating": 4,
      "reference": "ChIJ7W844DxcwokRnc16xbHXWB8",
      "scope": "GOOGLE",
      "types": [
        "food",
        "point_of_interest",
        "store",
        "establishment"
      ],
      "user_ratings_total": 10,
      "vicinity": "735 Knickerbocker Avenue, Brooklyn"
    },
    {
      "business_status": "OPERATIONAL",
      "geometry": {
        "location": {
          "lat": 40.6938989,
          "lng": -73.90924079999999
        },
        "viewport": {
          "northeast": {
            "lat": 40.69516023029149,
            "lng": -73.90797831970849
          },
          "southwest": {
            "lat": 40.69246226970849,
            "lng": -73.91067628029151
          }
        }
      },
      "icon": "https://maps.gstatic.com/mapfiles/place_api/icons/v1/png_71/generic_business-71.png",
      "icon_background_color": "#7B9EB0",
      "icon_mask_base_uri": "https://maps.gstatic.com/mapfiles/place_api/icons/v2/generic_pinlet",
      "name": "Marlene M. Pitamber, Physician",
      "place_id": "ChIJ7ZaX4TxcwokRjZJa4b6P5rc",
      "plus_code": {
        "compound_code": "M3VR+H8 Brooklyn, NY, USA",
        "global_code": "87G8M3VR+H8"
      },
      "rating": 3.7,
      "reference": "ChIJ7ZaX4TxcwokRjZJa4b6P5rc",
      "scope": "GOOGLE",
      "types": [
        "doctor",
        "health",
        "point_of_interest",
        "establishment"
      ],
      "user_ratings_total": 3,
      "vicinity": "739 Knickerbocker Avenue, Brooklyn, NY 11221, Brooklyn"
    },
    {
      "business_status": "CLOSED_TEMPORARILY",
      "geometry": {
        "location": {
          "lat": 40.6872457,
          "lng": -73.91472949999999
        },
        "viewport": {
          "northeast": {
            "lat": 40.6886629802915,
            "lng": -73.9133567197085
          },
          "southwest": {
            "lat": 40.6859650197085,
            "lng": -73.91605468029151
          }
        }
      },
      "icon": "https://maps.gstatic.com/mapfiles/place_api/icons/v1/png_71/shopping-71.png",
      "icon_background_color": "#4B96F3",
      "icon_mask_base_uri": "https://maps.gstatic.com/mapfiles/place_api/icons/v2/shopping_pinlet",
      "name": "Dark World Production",
      "permanently_closed": true,
      "photos": [
        {
          "height": 460,
          "html_attributions": [
            "<a href=\"https://maps.google.com/maps/contrib/101900582512154538381\">Dark World Production</a>"
          ],
          "photo_reference": "AeJbb3dTvlTRmlYK5HBKLwO_pfrcSyVBLclac5gAS7t4kU9_sUGc-RnPJFTN7LgbsFdy6pXgPV-wfHup0SdC4qImkA_K9Rzz4gy3Lwrl4PlXuNt7UGxUtmhLHoXW03ROxTZNpOpcRv9AaDLKLJZV1Qk2VzmE_Gd8wlTXDzr1GuOPm2ZiUjIW",
          "width": 637
        }
      ],
      "place_id": "ChIJb5i0IhVcwokROJhjmdJZLMM",
      "plus_code": {
        "compound_code": "M3PP+V4 New York, NY, USA",
        "global_code": "87G8M3PP+V4"
      },
      "reference": "ChIJb5i0IhVcwokROJhjmdJZLMM",
      "scope": "GOOGLE",
      "types": [
        "point_of_interest",
        "electronics_store",
        "home_goods_store",
        "store",
        "establishment"
      ],
      "vicinity": "1244 Bushwick Avenue, Brooklyn"
    },
    {
      "business_status": "OPERATIONAL",
      "geometry": {
        "location": {
          "lat": 40.6887059,
          "lng": -73.90910819999999
        },
        "viewport": {
          "northeast": {
            "lat": 40.69013408029149,
            "lng": -73.90768046970848
          },
          "southwest": {
            "lat": 40.6874361197085,
            "lng": -73.91037843029149
          }
        }
      },
      "icon": "https://maps.gstatic.com/mapfiles/place_api/icons/v1/png_71/worship_general-71.png",
      "icon_background_color": "#7B9EB0",
      "icon_mask_base_uri": "https://maps.gstatic.com/mapfiles/place_api/icons/v2/worship_christian_pinlet",
      "name": "Pilgrim Baptist Cathedral",
      "photos": [
        {
          "height": 1080,
          "html_attributions": [
            "<a href=\"https://maps.google.com/maps/contrib/116010428491424749367\">Xaviel Aybar</a>"
          ],
          "photo_reference": "AeJbb3f5xWSe94fVLgwpa4YzTlSvQtD4XRNUCOtxyGzUlyB4VVEA_85bILepAxylm91X3PRYrYtfWSflpQlKrEKWm8ZEzlGtvEhgH1QbG8H2maEGss6OHEvhBDlMK7_lgbA38d2xj05ibxYXK5nuo7ZfigmLZAszJ_HQUPAyBF9dMUs_lqBg",
          "width": 1920
        }
      ],
      "place_id": "ChIJRWZ48j5cwokRKMBBQxd7Zf0",
      "plus_code": {
        "compound_code": "M3QR+F9 Brooklyn, NY, USA",
        "global_code": "87G8M3QR+F9"
      },
      "rating": 4.8,
      "reference": "ChIJRWZ48j5cwokRKMBBQxd7Zf0",
      "scope": "GOOGLE",
      "types": [
        "church",
        "place_of_worship",
        "point_of_interest",
        "establishment"
      ],
      "user_ratings_total": 36,
      "vicinity": "628 Central Avenue, Brooklyn"
    },
    {
      "business_status": "CLOSED_TEMPORARILY",
      "geometry": {
        "location": {
          "lat": 40.6929339,
          "lng": -73.9114799
        },
        "viewport": {
          "northeast": {
            "lat": 40.6942998302915,
            "lng": -73.9101884697085
          },
          "southwest": {
            "lat": 40.6916018697085,
            "lng": -73.91288643029151
          }
        }
      },
      "icon": "https://maps.gstatic.com/mapfiles/place_api/icons/v1/png_71/generic_business-71.png",
      "icon_background_color": "#7B9EB0",
      "icon_mask_base_uri": "https://maps.gstatic.com/mapfiles/place_api/icons/v2/generic_pinlet",
      "name": "Hollywood Event Hall",
      "permanently_closed": true,
      "photos": [
        {
          "height": 3024,
          "html_attributions": [
            "<a href=\"https://maps.google.com/maps/contrib/102471224462076960862\">Karolyn salcedo</a>"
          ],
          "photo_reference": "AeJbb3e3SPdpXaarkUxG2S4mXjoywBUcdHh-9jR7FP9ws8_U_OWK_2osIGHZQDS4TJyjdWVG4Sb2E_31hx6Vo2PskzgPqomtEVXoSjqM60jpqGmBFli4K3T8WLXeV69yws0R7HFYmcNjNkQ0sFfX0GZUGjAw5Hx7NYP1aqxrzVjszv8fKTNt",
          "width": 4032
        }
      ],
      "place_id": "ChIJs7tlmz1cwokRjopOPMTyOkE",
      "plus_code": {
        "compound_code": "M3VQ+5C New York, NY, USA",
        "global_code": "87G8M3VQ+5C"
      },
      "rating": 4.6,
      "reference": "ChIJs7tlmz1cwokRjopOPMTyOkE",
      "scope": "GOOGLE",
      "types": [
        "beauty_salon",
        "point_of_interest",
        "establishment"
      ],
      "user_ratings_total": 26,
      "vicinity": "467 Wilson Avenue, Brooklyn"
    },
    {
      "business_status": "OPERATIONAL",
      "geometry": {
        "location": {
          "lat": 40.6893276,
          "lng": -73.9172258
        },
        "viewport": {
          "northeast": {
            "lat": 40.6905645802915,
            "lng": -73.91598976970849
          },
          "southwest": {
            "lat": 40.6878666197085,
            "lng": -73.91868773029151
          }
        }
      },
      "icon": "https://maps.gstatic.com/mapfiles/place_api/icons/v1/png_71/school-71.png",
      "icon_background_color": "#7B9EB0",
      "icon_mask_base_uri": "https://maps.gstatic.com/mapfiles/place_api/icons/v2/school_pinlet",
      "name": "Salvation Army Day Care Center",
      "place_id": "ChIJDbX5YxRcwokR7Cbqr-mK0DE",
      "plus_code": {
        "compound_code": "M3QM+P4 Brooklyn, NY, USA",
        "global_code": "87G8M3QM+P4"
      },
      "price_level": 1,
      "rating": 4,
      "reference": "ChIJDbX5YxRcwokR7Cbqr-mK0DE",
      "scope": "GOOGLE",
      "types": [
        "point_of_interest",
        "establishment"
      ],
      "user_ratings_total": 4,
      "vicinity": "1151 Bushwick Avenue, Brooklyn"
    },
    {
      "business_status": "CLOSED_TEMPORARILY",
      "geometry": {
        "location": {
          "lat": 40.6893986,
          "lng": -73.9136454
        },
        "viewport": {
          "northeast": {
            "lat": 40.6908040302915,
            "lng": -73.9123964697085
          },
          "southwest": {
            "lat": 40.6881060697085,
            "lng": -73.9150944302915
          }
        }
      },
      "icon": "https://maps.gstatic.com/mapfiles/place_api/icons/v1/png_71/generic_business-71.png",
      "icon_background_color": "#7B9EB0",
      "icon_mask_base_uri": "https://maps.gstatic.com/mapfiles/place_api/icons/v2/generic_pinlet",
      "name": "famappsny",
      "permanently_closed": true,
      "place_id": "ChIJOzN1lRVcwokRid7Zse9yh5k",
      "plus_code": {
        "compound_code": "M3QP+QG Brooklyn, NY, USA",
        "global_code": "87G8M3QP+QG"
      },
      "reference": "ChIJOzN1lRVcwokRid7Zse9yh5k",
      "scope": "GOOGLE",
      "types": [
        "point_of_interest",
        "establishment"
      ],
      "vicinity": "1100 Hancock Street, Brooklyn"
    },
    {
      "business_status": "OPERATIONAL",
      "geometry": {
        "location": {
          "lat": 40.6881095,
          "lng": -73.91313339999999
        },
        "viewport": {
          "northeast": {
            "lat": 40.6894318802915,
            "lng": -73.9116860697085
          },
          "southwest": {
            "lat": 40.6867339197085,
            "lng": -73.9143840302915
          }
        }
      },
      "icon": "https://maps.gstatic.com/mapfiles/place_api/icons/v1/png_71/generic_business-71.png",
      "icon_background_color": "#7B9EB0",
      "icon_mask_base_uri": "https://maps.gstatic.com/mapfiles/place_api/icons/v2/generic_pinlet",
      "name": "RFC Productions",
      "place_id": "ChIJq6rGeRVcwokRnGupzwY5_NU",
      "plus_code": {
        "compound_code": "M3QP+6P New York, NY, USA",
        "global_code": "87G8M3QP+6P"
      },
      "reference": "ChIJq6rGeRVcwokRnGupzwY5_NU",
      "scope": "GOOGLE",
      "types": [
        "point_of_interest",
        "establishment"
      ],
      "vicinity": "1065 Halsey Street, Brooklyn"
    },
    {
      "business_status": "CLOSED_TEMPORARILY",
      "geometry": {
        "location": {
          "lat": 40.6922073,
          "lng": -73.9145113
        },
        "viewport": {
          "northeast": {
            "lat": 40.6934988802915,
            "lng": -73.9132192697085
          },
          "southwest": {
            "lat": 40.6908009197085,
            "lng": -73.91591723029151
          }
        }
      },
      "icon": "https://maps.gstatic.com/mapfiles/place_api/icons/v1/png_71/shopping-71.png",
      "icon_background_color": "#4B96F3",
      "icon_mask_base_uri": "https://maps.gstatic.com/mapfiles/place_api/icons/v2/shopping_pinlet",
      "name": "Flower Power Coffee",
      "permanently_closed": true,
      "place_id": "ChIJq6ouaBZcwokR0OyUgjceLzc",
      "plus_code": {
        "compound_code": "M3RP+V5 Brooklyn, NY, USA",
        "global_code": "87G8M3RP+V5"
      },
      "reference": "ChIJq6ouaBZcwokR0OyUgjceLzc",
      "scope": "GOOGLE",
      "types": [
        "florist",
        "point_of_interest",
        "store",
        "establishment"
      ],
      "vicinity": "447 Central Avenue, Brooklyn"
    },
    {
      "business_status": "CLOSED_TEMPORARILY",
      "geometry": {
        "location": {
          "lat": 40.69059409999999,
          "lng": -73.91565949999999
        },
        "viewport": {
          "northeast": {
            "lat": 40.6918741302915,
            "lng": -73.91437391970848
          },
          "southwest": {
            "lat": 40.6891761697085,
            "lng": -73.9170718802915
          }
        }
      },
      "icon": "https://maps.gstatic.com/mapfiles/place_api/icons/v1/png_71/generic_business-71.png",
      "icon_background_color": "#7B9EB0",
      "icon_mask_base_uri": "https://maps.gstatic.com/mapfiles/place_api/icons/v2/generic_pinlet",
      "name": "MEMORIES EVENT SPACE",
      "permanently_closed": true,
      "place_id": "ChIJVVWRLRRcwokRT0gEzyllcsc",
      "plus_code": {
        "compound_code": "M3RM+6P Brooklyn, NY, USA",
        "global_code": "87G8M3RM+6P"
      },
      "rating": 5,
      "reference": "ChIJVVWRLRRcwokRT0gEzyllcsc",
      "scope": "GOOGLE",
      "types": [
        "point_of_interest",
        "establishment"
      ],
      "user_ratings_total": 3,
      "vicinity": "515 Evergreen Avenue, Brooklyn"
    }
  ],
  "status": "OK"
}