{
  "html_attributions": [],
  "results": [
    {
      "geometry": {
        "location": {
          "lat": 40.7127753,
          "lng": -74.0059728
        },
        "viewport": {
          "northeast": {
            "lat": 40.91757705070789,
            "lng": -73.70027206817629
          },
          "southwest": {
            "lat": 40.47739906045452,
            "lng": -74.25908991427882
          }
        }
      },
      "icon": "https://maps.gstatic.com/mapfiles/place_api/icons/v1/png_71/geocode-71.png",
      "icon_background_color": "#7B9EB0",
      "icon_mask_base_uri": "https://maps.gstatic.com/mapfiles/place_api/icons/v2/generic_pinlet",
      "name": "\u7d10\u7d04",
      "photos": [
        {
          "height": 600,
          "html_attributions": [
            "<a href=\"https://maps.google.com/maps/contrib/102389334567210814614\">Bukurie</a>"
          ],
          "photo_reference": "AeJbb3f1XzjjMDxfKH6DtnssiIDFkHcENWRhRHhEewrOmo_XI8fT4o3woXEOfZ1NbZQmzXcvYbds8grGNeJmGhi3KVRzOk7fPvt1XDG8Tsco_cOqj61PBfMFw2Y0epGt0l_ZfkWNRRADDUHi9Pg0G68IPpt2aePdnbshpTnClv-qxMVWCPgp",
          "width": 480
        }
      ],
      "place_id": "ChIJOwg_06VPwokRYv534QaPC8g",
      "reference": "ChIJOwg_06VPwokRYv534QaPC8g",
      "scope": "GOOGLE",
      "types": [
        "locality",
        "political"
      ],
      "vicinity": "\u7d10\u7d04"
    },
    {
      "business_status": "OPERATIONAL",
      "geometry": {
        "location": {
          "lat": 40.7259768,
          "lng": -73.9418488
        },
        "viewport": {
          "northeast": {
            "lat": 40.72727713029149,
            "lng": -73.9404712197085
          },
          "southwest": {
            "lat": 40.7245791697085,
            "lng": -73.94316918029152
          }
        }
      },
      "icon": "https://maps.gstatic.com/mapfiles/place_api/icons/v1/png_71/restaurant-71.png",
      "icon_background_color": "#FF9E67",
      "icon_mask_base_uri": "https://maps.gstatic.com/mapfiles/place_api/icons/v2/restaurant_pinlet",
      "name": "Nonna's Pizzeria",
      "opening_hours": {
        "open_now": true
      },
      "photos": [
        {
          "height": 3024,
          "html_attributions": [
            "<a href=\"https://maps.google.com/maps/contrib/115553927011317599517\">Nonna&#39;s Pizzeria</a>"
          ],
          "photo_reference": "AeJbb3eek32fLD_A87-DqGCJ0_jjZFDxNG6xe3H9zD0rH5wtYKVOCk2YEpHJwPNA7TDR9LBbEC-0-dI1SNl2GKt9fWWgBGWEWverOzt38hpCVy4TdIk0UK_aCRlpn63G6jcThVyCey8EpbDvuFdbD-zJFB2aX000W6kEfWax8cCdfLwpRhXD",
          "width": 4032
        }
      ],
      "place_id": "ChIJNXR730tZwokRsOHZsUU3rd4",
      "plus_code": {
        "compound_code": "P3G5+97 \u7f8e\u570b\u7d10\u7d04\u5e03\u9c81\u514b\u6797",
        "global_code": "87G8P3G5+97"
      },
      "price_level": 1,
      "rating": 4.3,
      "reference": "ChIJNXR730tZwokRsOHZsUU3rd4",
      "scope": "GOOGLE",
      "types": [
        "meal_delivery",
        "meal_takeaway",
        "restaurant",
        "point_of_interest",
        "food",
        "establishment"
      ],
      "user_ratings_total": 322,
      "vicinity": "253 Nassau Avenue, Brooklyn"
    },
    {
      "business_status": "OPERATIONAL",
      "geometry": {
        "location": {
          "lat": 40.72655229999999,
          "lng": -73.9401489
        },
        "viewport": {
          "northeast": {
            "lat": 40.72791418029149,
            "lng": -73.9386678697085
          },
          "southwest": {
            "lat": 40.72521621970849,
            "lng": -73.9413658302915
          }
        }
      },
      "icon": "https://maps.gstatic.com/mapfiles/place_api/icons/v1/png_71/generic_business-71.png",
      "icon_background_color": "#7B9EB0",
      "icon_mask_base_uri": "https://maps.gstatic.com/mapfiles/place_api/icons/v2/generic_pinlet",
      "name": "MCM Productions Inc.",
      "opening_hours": {
        "open_now": false
      },
      "photos": [
        {
          "height": 626,
          "html_attributions": [
            "<a href=\"https://maps.google.com/maps/contrib/100533483367272098837\">MCM Productions Inc.</a>"
          ],
          "photo_reference": "AeJbb3cGyqqg8JNpxKC6uWORh80IZGtO7etermr0RoyixukSIrWEaFC_JysDWJ3_kzCN2U-YnKKWIq06bPwV2SnNkl5K1iq5XsqXaHCVx6RQOCN2A0ZpN2S7IKdGzw4hWPAK_88G4wtreol4DrbdaImbYvTEFQ7mzvctqIVXDZ-atXiGiKey",
          "width": 940
        }
      ],
      "place_id": "ChIJ5Z2oLbZZwokRRJQ1XxDAfcQ",
      "plus_code": {
        "compound_code": "P3G5+JW \u7f8e\u570b\u7d10\u7d04\u5e03\u9c81\u514b\u6797",
        "global_code": "87G8P3G5+JW"
      },
      "rating": 5,
      "reference": "ChIJ5Z2oLbZZwokRRJQ1XxDAfcQ",
      "scope": "GOOGLE",
      "types": [
        "point_of_interest",
        "establishment"
      ],
      "user_ratings_total": 5,
      "vicinity": "649 Morgan Avenue #B8, Brooklyn"
    },
    {
      "business_status": "OPERATIONAL",
      "geometry": {
        "location": {
          "lat": 40.72774829999999,
          "lng": -73.9445451
        },
        "viewport": {
          "northeast": {
            "lat": 40.72897938029149,
            "lng": -73.94317721970849
          },
          "southwest": {
            "lat": 40.7262814197085,
            "lng": -73.94587518029151
          }
        }
      },
      "icon": "https://maps.gstatic.com/mapfiles/place_api/icons/v1/png_71/generic_business-71.png",
      "icon_background_color": "#7B9EB0",
      "icon_mask_base_uri": "https://maps.gstatic.com/mapfiles/place_api/icons/v2/generic_pinlet",
      "name": "DONIA",
      "opening_hours": {
        "open_now": false
      },
      "place_id": "ChIJI3aq-BZawokRXiWv5bUVdAA",
      "plus_code": {
        "compound_code": "P3H4+35 \u7f8e\u570b\u7d10\u7d04\u5e03\u9c81\u514b\u6797",
        "global_code": "87G8P3H4+35"
      },
      "reference": "ChIJI3aq-BZawokRXiWv5bUVdAA",
      "scope": "GOOGLE",
      "types": [
        "finance",
        "point_of_interest",
        "establishment"
      ],
      "vicinity": "231 Norman Avenue #110, Brooklyn"
    },
    {
      "business_status": "OPERATIONAL",
      "geometry": {
        "location": {
          "lat": 40.72228299999999,
          "lng": -73.939168
        },
        "viewport": {
          "northeast": {
            "lat": 40.72362123029149,
            "lng": -73.93805586970849
          },
          "southwest": {
            "lat": 40.72092326970849,
            "lng": -73.9407538302915
          }
        }
      },
      "icon": "https://maps.gstatic.com/mapfiles/place_api/icons/v1/png_71/shopping-71.png",
      "icon_background_color": "#4B96F3",
      "icon_mask_base_uri": "https://maps.gstatic.com/mapfiles/place_api/icons/v2/shopping_pinlet",
      "name": "Staples",
      "opening_hours": {
        "open_now": true
      },
      "photos": [
        {
          "height": 1440,
          "html_attributions": [
            "<a href=\"https://maps.google.com/maps/contrib/100067153964468983572\">jose fernandez</a>"
          ],
          "photo_reference": "AeJbb3e3PUKvDX7DHM9Ql7AOGTZ0lYDDBz053svhymJap-TP2_eJ81buchv2e5q4FMIG2XxbthiDF5MuSD7Lfsq8eDO_XEhQ7vcT_lgCgkvXImDxpo9DDfg-etWGlbDzUDbxfXDEM7T1YHNk8jokZ0cJGH_-90Naak_6LtnLmsO_GJJnYGB9",
          "width": 2560
        }
      ],
      "place_id": "ChIJ9ZMf9kxZwokReidfOiEFDOg",
      "plus_code": {
        "compound_code": "P3C6+W8 \u7f8e\u570b\u7d10\u7d04",
        "global_code": "87G8P3C6+W8"
      },
      "price_level": 2,
      "rating": 3.7,
      "reference": "ChIJ9ZMf9kxZwokReidfOiEFDOg",
      "scope": "GOOGLE",
      "types": [
        "furniture_store",
        "electronics_store",
        "home_goods_store",
        "store",
        "point_of_interest",
        "establishment"
      ],
      "user_ratings_total": 246,
      "vicinity": "535 Morgan Avenue, Brooklyn"
    },
    {
      "business_status": "OPERATIONAL",
      "geometry": {
        "location": {
          "lat": 40.72671919999999,
          "lng": -73.9416808
        },
        "viewport": {
          "northeast": {
            "lat": 40.72824293029149,
            "lng": -73.94043381970849
          },
          "southwest": {
            "lat": 40.72554496970849,
            "lng": -73.94313178029151
          }
        }
      },
      "icon": "https://maps.gstatic.com/mapfiles/place_api/icons/v1/png_71/generic_business-71.png",
      "icon_background_color": "#7B9EB0",
      "icon_mask_base_uri": "https://maps.gstatic.com/mapfiles/place_api/icons/v2/generic_pinlet",
      "name": "Windmill Studios",
      "opening_hours": {
        "open_now": true
      },
      "photos": [
        {
          "height": 933,
          "html_attributions": [
            "<a href=\"https://maps.google.com/maps/contrib/115213300327503654800\">Windmill Studios</a>"
          ],
          "photo_reference": "AeJbb3cKa3xJcG-oLFVl4lq_eX3I-Ak6O_sb1wzH77M1Vz8zwq5rW38JKUX1i03e0N0u4i4FCQyIa-vdLGEpH4srL4qpjr35wZHjQ-zxE2yeV1XTB8tHe2S85wk5b9hPEjBmaWibeQYi9mFzbYaNAt578G6FhVChqUeNhYZiuw8yuI4PbGTz",
          "width": 1140
        }
      ],
      "place_id": "ChIJ2cYvbDhZwokRfYZEl5o-arQ",
      "plus_code": {
        "compound_code": "P3G5+M8 \u7f8e\u570b\u7d10\u7d04\u5e03\u9c81\u514b\u6797",
        "global_code": "87G8P3G5+M8"
      },
      "rating": 4.8,
      "reference": "ChIJ2cYvbDhZwokRfYZEl5o-arQ",
      "scope": "GOOGLE",
      "types": [
        "point_of_interest",
        "establishment"
      ],
      "user_ratings_total": 32,
      "vicinity": "300 Kingsland Avenue, Brooklyn"
    },
    {
      "business_status": "OPERATIONAL",
      "geometry": {
        "location": {
          "lat": 40.72657949999999,
          "lng": -73.9405215
        },
        "viewport": {
          "northeast": {
            "lat": 40.7279139802915,
            "lng": -73.93932926970851
          },
          "southwest": {
            "lat": 40.7252160197085,
            "lng": -73.94202723029152
          }
        }
      },
      "icon": "https://maps.gstatic.com/mapfiles/place_api/icons/v1/png_71/shopping-71.png",
      "icon_background_color": "#4B96F3",
      "icon_mask_base_uri": "https://maps.gstatic.com/mapfiles/place_api/icons/v2/shopping_pinlet",
      "name": "HEAVY LEATHER NYC",
      "place_id": "ChIJ7ZJLzktZwokRfuH6KhpEJa8",
      "plus_code": {
        "compound_code": "P3G5+JQ \u7f8e\u570b\u7d10\u7d04\u5e03\u9c81\u514b\u6797",
        "global_code": "87G8P3G5+JQ"
      },
      "rating": 4,
      "reference": "ChIJ7ZJLzktZwokRfuH6KhpEJa8",
      "scope": "GOOGLE",
      "types": [
        "store",
        "point_of_interest",
        "establishment"
      ],
      "user_ratings_total": 1,
      "vicinity": "100 Sutton Street, Brooklyn"
    },
    {
      "business_status": "OPERATIONAL",
      "geometry": {
        "location": {
          "lat": 40.72447630000001,
          "lng": -73.9433497
        },
        "viewport": {
          "northeast": {
            "lat": 40.72708829999999,
            "lng": -73.94115575
          },
          "southwest": {
            "lat": 40.72184910000002,
            "lng": -73.94546715
          }
        }
      },
      "icon": "https://maps.gstatic.com/mapfiles/place_api/icons/v1/png_71/park-71.png",
      "icon_background_color": "#4DB546",
      "icon_mask_base_uri": "https://maps.gstatic.com/mapfiles/place_api/icons/v2/tree_pinlet",
      "name": "Msgr. McGolrick Park",
      "opening_hours": {
        "open_now": true
      },
      "photos": [
        {
          "height": 1800,
          "html_attributions": [
            "<a href=\"https://maps.google.com/maps/contrib/103836284119757789222\">Msgr. McGolrick Park</a>"
          ],
          "photo_reference": "AeJbb3dlZAMBMuWEZtEzEnC-9HUGOVdawBnCcv3HVcBrNQJ04vQaq9Ci7blLvIR85IgQDUZ7CNxtgzh7K2EzTPH-4cK3giIv3lxyYJFyv4NFyfrMirf6LZL393vasKVwpjVKPlEybLTijr35R239vuyQqDICUzcZx9TYFbIvh1gV_HNNEK4",
          "width": 2704
        }
      ],
      "place_id": "ChIJqez4yU5ZwokRnkUzp7dhLFA",
      "plus_code": {
        "compound_code": "P3F4+QM \u7f8e\u570b\u7d10\u7d04\u5e03\u9c81\u514b\u6797",
        "global_code": "87G8P3F4+QM"
      },
      "rating": 4.5,
      "reference": "ChIJqez4yU5ZwokRnkUzp7dhLFA",
      "scope": "GOOGLE",
      "types": [
        "park",
        "tourist_attraction",
        "point_of_interest",
        "establishment"
      ],
      "user_ratings_total": 984,
      "vicinity": "Russell Street &, Nassau Avenue, Brooklyn"
    },
    {
      "business_status": "OPERATIONAL",
      "geometry": {
        "location": {
          "lat": 40.72764269999999,
          "lng": -73.94426779999999
        },
        "viewport": {
          "northeast": {
            "lat": 40.72893843029149,
            "lng": -73.94291026970849
          },
          "southwest": {
            "lat": 40.72624046970849,
            "lng": -73.9456082302915
          }
        }
      },
      "icon": "https://maps.gstatic.com/mapfiles/place_api/icons/v1/png_71/generic_business-71.png",
      "icon_background_color": "#7B9EB0",
      "icon_mask_base_uri": "https://maps.gstatic.com/mapfiles/place_api/icons/v2/generic_pinlet",
      "name": "Screen Process",
      "opening_hours": {
        "open_now": false
      },
      "place_id": "ChIJlywdqUlZwokR27aTtrODvP8",
      "plus_code": {
        "compound_code": "P3H4+37 \u7f8e\u570b\u7d10\u7d04\u5e03\u9c81\u514b\u6797",
        "global_code": "87G8P3H4+37"
      },
      "reference": "ChIJlywdqUlZwokR27aTtrODvP8",
      "scope": "GOOGLE",
      "types": [
        "store",
        "point_of_interest",
        "establishment"
      ],
      "vicinity": "231 Norman Avenue, Brooklyn"
    },
    {
      "business_status": "CLOSED_TEMPORARILY",
      "geometry": {
        "location": {
          "lat": 40.72776479999999,
          "lng": -73.9445535
        },
        "viewport": {
          "northeast": {
            "lat": 40.72898738029149,
            "lng": -73.9431842197085
          },
          "southwest": {
            "lat": 40.72628941970849,
            "lng": -73.9458821802915
          }
        }
      },
      "icon": "https://maps.gstatic.com/mapfiles/place_api/icons/v1/png_71/shopping-71.png",
      "icon_background_color": "#4B96F3",
      "icon_mask_base_uri": "https://maps.gstatic.com/mapfiles/place_api/icons/v2/shopping_pinlet",
      "name": "Dead Cities Clothing",
      "permanently_closed": true,
      "place_id": "ChIJlywdqUlZwokRMLortrwa39U",
      "plus_code": {
        "compound_code": "P3H4+45 \u7f8e\u570b\u7d10\u7d04\u5e03\u9c81\u514b\u6797",
        "global_code": "87G8P3H4+45"
      },
      "reference": "ChIJlywdqUlZwokRMLortrwa39U",
      "scope": "GOOGLE",
      "types": [
        "clothing_store",
        "store",
        "point_of_interest",
        "establishment"
      ],
      "vicinity": "231 Norman Avenue STE 408, Brooklyn"
    },
    {
      "business_status": "OPERATIONAL",
      "geometry": {
        "location": {
          "lat": 40.7280212,
          "lng": -73.9440705
        },
        "viewport": {
          "northeast": {
            "lat": 40.7293790302915,
            "lng": -73.9426619197085
          },
          "southwest": {
            "lat": 40.7266810697085,
            "lng": -73.9453598802915
          }
        }
      },
      "icon": "https://maps.gstatic.com/mapfiles/place_api/icons/v1/png_71/lodging-71.png",
      "icon_background_color": "#909CE1",
      "icon_mask_base_uri": "https://maps.gstatic.com/mapfiles/place_api/icons/v2/hotel_pinlet",
      "name": "Henry Norman Hotel",
      "opening_hours": {
        "open_now": true
      },
      "photos": [
        {
          "height": 1366,
          "html_attributions": [
            "<a href=\"https://maps.google.com/maps/contrib/110869596461619655749\">Henry Norman Hotel</a>"
          ],
          "photo_reference": "AeJbb3doZ4hL6v9Pa9Ax0miYxxAll3LwrQ2LKRqOJPEDqdRUQHNX8Mhdwb_uLUJQgWqGQy0gHoLhERmZD2eo15VYz9D4jgWDDkFjuAb8cOqg3RNCecrTLuwwrHNkG3WKTVn46jFyqw4t-CLtSv41ywFtDuV6cV47Pi2_fX9Vg-ZmOp-66TN7",
          "width": 2048
        }
      ],
      "place_id": "ChIJmRctsElZwokRzkQuM3qRO3E",
      "plus_code": {
        "compound_code": "P3H4+69 \u7f8e\u570b\u7d10\u7d04",
        "global_code": "87G8P3H4+69"
      },
      "rating": 4.5,
      "reference": "ChIJmRctsElZwokRzkQuM3qRO3E",
      "scope": "GOOGLE",
      "types": [
        "lodging",
        "point_of_interest",
        "establishment"
      ],
      "user_ratings_total": 301,
      "vicinity": "239 North Henry Street, Brooklyn"
    },
    {
      "business_status": "OPERATIONAL",
      "geometry": {
        "location": {
          "lat": 40.7265808,
          "lng": -73.94016119999999
        },
        "viewport": {
          "northeast": {
            "lat": 40.72794133029149,
            "lng": -73.93867656970849
          },
          "southwest": {
            "lat": 40.72524336970849,
            "lng": -73.9413745302915
          }
        }
      },
      "icon": "https://maps.gstatic.com/mapfiles/place_api/icons/v1/png_71/shopping-71.png",
      "icon_background_color": "#4B96F3",
      "icon_mask_base_uri": "https://maps.gstatic.com/mapfiles/place_api/icons/v2/shopping_pinlet",
      "name": "Twinjo NYC",
      "opening_hours": {
        "open_now": false
      },
      "photos": [
        {
          "height": 2304,
          "html_attributions": [
            "<a href=\"https://maps.google.com/maps/contrib/118223530370532087019\">Twinjo NYC</a>"
          ],
          "photo_reference": "AeJbb3eaR0n0EiocvWzz6yssHw8-Xld0c-GrX_OpR66mobDVuHdKN2_X2a_XcOQM5agrvzb5ctDpLC_v5JLviy1OTJj5olefBWOxDDvmFbQ1_Hckzt7SpVf75FobvsXVqwyTYtfNhK3JUITKEZdTwDY8cpIVflMK94vfxJVbAcHFWXTNTEdS",
          "width": 4096
        }
      ],
      "place_id": "ChIJI5yds0tZwokRBgQWOHH4l28",
      "plus_code": {
        "compound_code": "P3G5+JW \u7f8e\u570b\u7d10\u7d04\u5e03\u9c81\u514b\u6797",
        "global_code": "87G8P3G5+JW"
      },
      "reference": "ChIJI5yds0tZwokRBgQWOHH4l28",
      "scope": "GOOGLE",
      "types": [
        "electronics_store",
        "home_goods_store",
        "store",
        "point_of_interest",
        "establishment"
      ],
      "vicinity": "649 Morgan Avenue b3, Brooklyn"
    },
    {
      "business_status": "OPERATIONAL",
      "geometry": {
        "location": {
          "lat": 40.7216465,
          "lng": -73.94220539999999
        },
        "viewport": {
          "northeast": {
            "lat": 40.7229585802915,
            "lng": -73.94079566970849
          },
          "southwest": {
            "lat": 40.7202606197085,
            "lng": -73.9434936302915
          }
        }
      },
      "icon": "https://maps.gstatic.com/mapfiles/place_api/icons/v1/png_71/restaurant-71.png",
      "icon_background_color": "#FF9E67",
      "icon_mask_base_uri": "https://maps.gstatic.com/mapfiles/place_api/icons/v2/restaurant_pinlet",
      "name": "Sunset Diner",
      "opening_hours": {
        "open_now": true
      },
      "photos": [
        {
          "height": 2112,
          "html_attributions": [
            "<a href=\"https://maps.google.com/maps/contrib/101408599427719381927\">mcLa twofivesix</a>"
          ],
          "photo_reference": "AeJbb3cdLcWudTaKPvpCvrM46ngc72ZhT4edK4_t9kqdbHq12ij3NmJP0_cyvA14WYn60wkxXJtKxVOBSK5t1p4Zp3fX821n_E_oHcTK5PLtC8xWdtHkWE3JMmM1pHU2emvpX2BpZhtrJRiMtIDp0ks8R9bAnsm4riS6KB2dCrz8R6w0d9VN",
          "width": 4608
        }
      ],
      "place_id": "ChIJoRaBeU5ZwokRXbto2YMgj6Q",
      "plus_code": {
        "compound_code": "P3C5+M4 \u7f8e\u570b\u7d10\u7d04",
        "global_code": "87G8P3C5+M4"
      },
      "price_level": 1,
      "rating": 3.9,
      "reference": "ChIJoRaBeU5ZwokRXbto2YMgj6Q",
      "scope": "GOOGLE",
      "types": [
        "restaurant",
        "point_of_interest",
        "food",
        "establishment"
      ],
      "user_ratings_total": 627,
      "vicinity": "593 Meeker Avenue, Brooklyn"
    },
    {
      "business_status": "OPERATIONAL",
      "geometry": {
        "location": {
          "lat": 40.7231606,
          "lng": -73.94197790000001
        },
        "viewport": {
          "northeast": {
            "lat": 40.7245760802915,
            "lng": -73.9406384197085
          },
          "southwest": {
            "lat": 40.72187811970851,
            "lng": -73.94333638029151
          }
        }
      },
      "icon": "https://maps.gstatic.com/mapfiles/place_api/icons/v1/png_71/restaurant-71.png",
      "icon_background_color": "#FF9E67",
      "icon_mask_base_uri": "https://maps.gstatic.com/mapfiles/place_api/icons/v2/restaurant_pinlet",
      "name": "Pie Corps",
      "opening_hours": {
        "open_now": true
      },
      "photos": [
        {
          "height": 3024,
          "html_attributions": [
            "<a href=\"https://maps.google.com/maps/contrib/108233325525555348383\">Philip Salen</a>"
          ],
          "photo_reference": "AeJbb3foEPOjxAuChZ9at8SSslp7RzIpqdtUwA75O-3DdHBAzfNvI0YBMhTpAyovnCq8PVhlw6hc7F7wB-Nr6Tp5pipn92Ad-TZUUUwFDd6XLpy1EPQOsVRCqIed8wm6LMk-CvObKV41KJGS1B-VGpwP1tsXPYjCIHELa8nArfCMNSgtpjCL",
          "width": 4032
        }
      ],
      "place_id": "ChIJsT3An05ZwokR-bO5r2-zy7w",
      "plus_code": {
        "compound_code": "P3F5+76 \u7f8e\u570b\u7d10\u7d04",
        "global_code": "87G8P3F5+76"
      },
      "price_level": 2,
      "rating": 4.2,
      "reference": "ChIJsT3An05ZwokR-bO5r2-zy7w",
      "scope": "GOOGLE",
      "types": [
        "cafe",
        "bakery",
        "store",
        "point_of_interest",
        "food",
        "establishment"
      ],
      "user_ratings_total": 126,
      "vicinity": "77 Driggs Avenue, Brooklyn"
    },
    {
      "business_status": "OPERATIONAL",
      "geometry": {
        "location": {
          "lat": 40.7252898,
          "lng": -73.945603
        },
        "viewport": {
          "northeast": {
            "lat": 40.7267166802915,
            "lng": -73.9443116697085
          },
          "southwest": {
            "lat": 40.7240187197085,
            "lng": -73.94700963029152
          }
        }
      },
      "icon": "https://maps.gstatic.com/mapfiles/place_api/icons/v1/png_71/restaurant-71.png",
      "icon_background_color": "#FF9E67",
      "icon_mask_base_uri": "https://maps.gstatic.com/mapfiles/place_api/icons/v2/restaurant_pinlet",
      "name": "Brooklyn Standard Deli",
      "opening_hours": {
        "open_now": true
      },
      "photos": [
        {
          "height": 810,
          "html_attributions": [
            "<a href=\"https://maps.google.com/maps/contrib/116538988435697537904\">Brooklyn Standard Deli</a>"
          ],
          "photo_reference": "AeJbb3fufMqyFJTKDHaVkJGf9mZFJt8oIrN_9SOrCje6CsL2VpIl1c4SRa29wPoFVrAPJXGGWnoYkhEH3vA1-29neABBPD9MztXbT62xV1QSWrvwARXs044LULF-Jr3k5TyYEm209NFrxCZ_w7iC_VQvaFXIKgjJIdvQdQvwkH4yw-DSuBnC",
          "width": 1170
        }
      ],
      "place_id": "ChIJjRx1zkhZwokRUlwKKZkbTLQ",
      "plus_code": {
        "compound_code": "P3G3+4Q \u7f8e\u570b\u7d10\u7d04",
        "global_code": "87G8P3G3+4Q"
      },
      "price_level": 2,
      "rating": 3.9,
      "reference": "ChIJjRx1zkhZwokRUlwKKZkbTLQ",
      "scope": "GOOGLE",
      "types": [
        "cafe",
        "health",
        "store",
        "restaurant",
        "point_of_interest",
        "food",
        "establishment"
      ],
      "user_ratings_total": 208,
      "vicinity": "188 Nassau Avenue, Brooklyn"
    },
    {
      "business_status": "OPERATIONAL",
      "geometry": {
        "location": {
          "lat": 40.7284756,
          "lng": -73.9415389
        },
        "viewport": {
          "northeast": {
            "lat": 40.7295572302915,
            "lng": -73.94012891970849
          },
          "southwest": {
            "lat": 40.7268592697085,
            "lng": -73.94282688029149
          }
        }
      },
      "icon": "https://maps.gstatic.com/mapfiles/place_api/icons/v1/png_71/generic_business-71.png",
      "icon_background_color": "#7B9EB0",
      "icon_mask_base_uri": "https://maps.gstatic.com/mapfiles/place_api/icons/v2/generic_pinlet",
      "name": "A2 Global Shipping",
      "opening_hours": {
        "open_now": true
      },
      "photos": [
        {
          "height": 467,
          "html_attributions": [
            "<a href=\"https://maps.google.com/maps/contrib/114625143657691055909\">A2 Global Shipping</a>"
          ],
          "photo_reference": "AeJbb3dqm4eEVTIBpJkD7wSvQsTsFDfrbhM2cFNpjtZB7GazxMAu53ywYexFtyCt28c5_f1e8IaACsGHzD06SDdcwY7GBtuAD0lBRft2sBh2eEfmG1Rn62wLk_y1EujckiHo6pZSvqmyOFl_kTTNlMIoGyjFoPhHYGrrtn_CeNwHK1HE3XnI",
          "width": 700
        }
      ],
      "place_id": "ChIJby3CI0pZwokR1obAplmRwfs",
      "plus_code": {
        "compound_code": "P3H5+99 \u7f8e\u570b\u7d10\u7d04",
        "global_code": "87G8P3H5+99"
      },
      "reference": "ChIJby3CI0pZwokR1obAplmRwfs",
      "scope": "GOOGLE",
      "types": [
        "moving_company",
        "storage",
        "airport",
        "finance",
        "point_of_interest",
        "establishment"
      ],
      "vicinity": "271 Norman Avenue #13h, Brooklyn"
    },
    {
      "business_status": "OPERATIONAL",
      "geometry": {
        "location": {
          "lat": 40.72267919999999,
          "lng": -73.940795
        },
        "viewport": {
          "northeast": {
            "lat": 40.7239916802915,
            "lng": -73.9393727197085
          },
          "southwest": {
            "lat": 40.7212937197085,
            "lng": -73.94207068029151
          }
        }
      },
      "icon": "https://maps.gstatic.com/mapfiles/place_api/icons/v1/png_71/generic_business-71.png",
      "icon_background_color": "#7B9EB0",
      "icon_mask_base_uri": "https://maps.gstatic.com/mapfiles/place_api/icons/v2/generic_pinlet",
      "name": "Todays Handyman Service",
      "photos": [
        {
          "height": 3264,
          "html_attributions": [
            "<a href=\"https://maps.google.com/maps/contrib/110182455888943960336\">Rafael Arias</a>"
          ],
          "photo_reference": "AeJbb3fHdoEsUK-OiJ0-Bx07J9cUa7ZvXiw-Pfmz2GMoxvVwE-q-cweSM1r0hn-yb9tm_A8V9qqQmME6hrVoJX3i7bx0NZ9JeUCQM9AKv__OgSpk5MaLGovJwv1S2qcqgao0sSSLzmGveTrVHKVOzf_iX9tX4Ki7cf85m5Y-1PzBcGNm8JrV",
          "width": 2448
        }
      ],
      "place_id": "ChIJ12WPOUxZwokR6C5cT8GeSwo",
      "plus_code": {
        "compound_code": "P3F5+3M \u7f8e\u570b\u7d10\u7d04",
        "global_code": "87G8P3F5+3M"
      },
      "reference": "ChIJ12WPOUxZwokR6C5cT8GeSwo",
      "scope": "GOOGLE",
      "types": [
        "general_contractor",
        "point_of_interest",
        "establishment"
      ],
      "vicinity": "657 Meeker Avenue, Brooklyn"
    },
    {
      "business_status": "OPERATIONAL",
      "geometry": {
        "location": {
          "lat": 40.7261283,
          "lng": -73.93781249999999
        },
        "viewport": {
          "northeast": {
            "lat": 40.72746823029149,
            "lng": -73.9365135197085
          },
          "southwest": {
            "lat": 40.7247702697085,
            "lng": -73.9392114802915
          }
        }
      },
      "icon": "https://maps.gstatic.com/mapfiles/place_api/icons/v1/png_71/generic_business-71.png",
      "icon_background_color": "#7B9EB0",
      "icon_mask_base_uri": "https://maps.gstatic.com/mapfiles/place_api/icons/v2/generic_pinlet",
      "name": "G.T. Rentals",
      "opening_hours": {
        "open_now": true
      },
      "photos": [
        {
          "height": 3264,
          "html_attributions": [
            "<a href=\"https://maps.google.com/maps/contrib/106943662923664252288\">G.T. Rentals</a>"
          ],
          "photo_reference": "AeJbb3ex0uLLiZ0Am2A7TL1DqzQogG8vZ4KEUGzuFeqvlB3Z6sjnU50gHD3SGFCazyNKGTStbHyav8TDO-bFaDgONy5sYnLiNRgaziriZ_xBxdPMaZjmRg7aS_62ZNBWDj00hGL4eL488u2NhhbVNPl-v7QOY12TkBmL5WX5AzI_OSaL-dc",
          "width": 4928
        }
      ],
      "place_id": "ChIJd9GtHktZwokRiv63KRcBuhY",
      "plus_code": {
        "compound_code": "P3G6+FV \u7f8e\u570b\u7d10\u7d04",
        "global_code": "87G8P3G6+FV"
      },
      "rating": 4.5,
      "reference": "ChIJd9GtHktZwokRiv63KRcBuhY",
      "scope": "GOOGLE",
      "types": [
        "store",
        "point_of_interest",
        "establishment"
      ],
      "user_ratings_total": 110,
      "vicinity": "310 Nassau Avenue, Brooklyn"
    },
    {
      "business_status": "OPERATIONAL",
      "geometry": {
        "location": {
          "lat": 40.7220662,
          "lng": -73.9404479
        },
        "viewport": {
          "northeast": {
            "lat": 40.7233251302915,
            "lng": -73.9392243197085
          },
          "southwest": {
            "lat": 40.72062716970851,
            "lng": -73.94192228029151
          }
        }
      },
      "icon": "https://maps.gstatic.com/mapfiles/place_api/icons/v1/png_71/restaurant-71.png",
      "icon_background_color": "#FF9E67",
      "icon_mask_base_uri": "https://maps.gstatic.com/mapfiles/place_api/icons/v2/restaurant_pinlet",
      "name": "McDonald's",
      "opening_hours": {
        "open_now": true
      },
      "photos": [
        {
          "height": 1737,
          "html_attributions": [
            "<a href=\"https://maps.google.com/maps/contrib/115669779561965803211\">Kin Tsui</a>"
          ],
          "photo_reference": "AeJbb3cjZpLsm43zj3DbhiRNWywKgLVN13Y8qbam9fm9Bw__ErNP0jX5BtZo-vgAdgKLRFh0RGFqPvqY4YTRcl7eEiqcxRcMNMcD7zDWdHERg9sKRsP45kZGCFHu-4J_E1Cy1cKzDgWmm_qdVBVbTiHr57S9FzeIXjznGhNs8ujJn6LxVkp_",
          "width": 2534
        }
      ],
      "place_id": "ChIJP6V-M0xZwokRTBwFXivdlEE",
      "plus_code": {
        "compound_code": "P3C5+RR \u7f8e\u570b\u7d10\u7d04",
        "global_code": "87G8P3C5+RR"
      },
      "price_level": 1,
      "rating": 3.7,
      "reference": "ChIJP6V-M0xZwokRTBwFXivdlEE",
      "scope": "GOOGLE",
      "types": [
        "cafe",
        "store",
        "restaurant",
        "point_of_interest",
        "food",
        "establishment"
      ],
      "user_ratings_total": 2022,
      "vicinity": "652 Meeker Avenue, Brooklyn"
    },
    {
      "geometry": {
        "location": {
          "lat": 40.6781784,
          "lng": -73.9441579
        },
        "viewport": {
          "northeast": {
            "lat": 40.73944597129348,
            "lng": -73.83336505117123
          },
          "southwest": {
            "lat": 40.55104197967331,
            "lng": -74.05662998413648
          }
        }
      },
      "icon": "https://maps.gstatic.com/mapfiles/place_api/icons/v1/png_71/geocode-71.png",
      "icon_background_color": "#7B9EB0",
      "icon_mask_base_uri": "https://maps.gstatic.com/mapfiles/place_api/icons/v2/generic_pinlet",
      "name": "\u5e03\u9c81\u514b\u6797",
      "photos": [
        {
          "height": 3024,
          "html_attributions": [
            "<a href=\"https://maps.google.com/maps/contrib/114417859579881743500\">Chengxiang Yuan</a>"
          ],
          "photo_reference": "AeJbb3drdvigli-CmHAFkjk4dzjzIpaMybB75hxDRA084ai_ZYuuuhtH7zhGlPxdJhR2YT55kq30Vq3yRPT1EVz0DUxXH3T5i3rspLKKAvEzlGdMlrKxPZ5Kqfz6k6WFwes7RvK-6yEwyWVXMkh7w1rqria2kbkmw5Iy4aA9U19cY51h2N3E",
          "width": 4032
        }
      ],
      "place_id": "ChIJCSF8lBZEwokRhngABHRcdoI",
      "reference": "ChIJCSF8lBZEwokRhngABHRcdoI",
      "scope": "GOOGLE",
      "types": [
        "sublocality_level_1",
        "sublocality",
        "political"
      ],
      "vicinity": "\u5e03\u9c81\u514b\u6797"
    },
    {
      "business_status": "OPERATIONAL",
      "geometry": {
        "location": {
          "lat": 40.72814030000001,
          "lng": -73.9405578
        },
        "viewport": {
          "northeast": {
            "lat": 40.72936453029151,
            "lng": -73.9391882697085
          },
          "southwest": {
            "lat": 40.72666656970851,
            "lng": -73.9418862302915
          }
        }
      },
      "icon": "https://maps.gstatic.com/mapfiles/place_api/icons/v1/png_71/generic_business-71.png",
      "icon_background_color": "#7B9EB0",
      "icon_mask_base_uri": "https://maps.gstatic.com/mapfiles/place_api/icons/v2/generic_pinlet",
      "name": "MV Transportation Inc",
      "photos": [
        {
          "height": 3480,
          "html_attributions": [
            "<a href=\"https://maps.google.com/maps/contrib/110749548626541028511\">K C</a>"
          ],
          "photo_reference": "AeJbb3ek4CZ30KH5DpUwxRuyxQcMJMKint1-FuGRZathTJbmDw1UFjztKav-G6JBFxGb3iG4TEMsveO7D6eGjlqEKoO_D_kb76VdPhHam-tS8PjqSYV3GYXJfKSDWvtIMKjAHcvEJul91ckLCB4bWHZDR9KqZHVlzlVj6lY2xx6apLlyU1u9",
          "width": 4640
        }
      ],
      "place_id": "ChIJVwNJQEpZwokRRd2Ly_pZUOU",
      "plus_code": {
        "compound_code": "P3H5+7Q Brooklyn, NY, USA",
        "global_code": "87G8P3H5+7Q"
      },
      "rating": 2.7,
      "reference": "ChIJVwNJQEpZwokRRd2Ly_pZUOU",
      "scope": "GOOGLE",
      "types": [
        "point_of_interest",
        "establishment"
      ],
      "user_ratings_total": 101,
      "vicinity": "297 Norman Avenue, Brooklyn"
    },
    {
      "business_status": "OPERATIONAL",
      "geometry": {
        "location": {
          "lat": 40.726263,
          "lng": -73.943017
        },
        "viewport": {
          "northeast": {
            "lat": 40.7276261802915,
            "lng": -73.94151721970849
          },
          "southwest": {
            "lat": 40.7249282197085,
            "lng": -73.94421518029151
          }
        }
      },
      "icon": "https://maps.gstatic.com/mapfiles/place_api/icons/v1/png_71/generic_business-71.png",
      "icon_background_color": "#7B9EB0",
      "icon_mask_base_uri": "https://maps.gstatic.com/mapfiles/place_api/icons/v2/generic_pinlet",
      "name": "Sparrow Massage",
      "opening_hours": {
        "open_now": true
      },
      "photos": [
        {
          "height": 374,
          "html_attributions": [
            "<a href=\"https://maps.google.com/maps/contrib/108350873658475059934\">Sparrow Massage</a>"
          ],
          "photo_reference": "AeJbb3cxUmH9u8h80a19keAdWiSAwVlhcz8TJTFPMkFNRBswiP0oI1MX6vc5Kq94IQKJWxiQKUtzLavOmOaL90hYe-QFBpgkaykx-9KI5ckJ5yLt7sS8KBSTnLxhvfKsyOnu6dtZlcTcaTmbJhbUVk1nzaQmm_3fMhp9ZyhehK89uPGxDq1k",
          "width": 565
        }
      ],
      "place_id": "ChIJS3lMJkRZwokR7YpkrY2KqnM",
      "plus_code": {
        "compound_code": "P3G4+GQ New York, NY, USA",
        "global_code": "87G8P3G4+GQ"
      },
      "rating": 4.6,
      "reference": "ChIJS3lMJkRZwokR7YpkrY2KqnM",
      "scope": "GOOGLE",
      "types": [
        "spa",
        "point_of_interest",
        "establishment"
      ],
      "user_ratings_total": 7,
      "vicinity": "199 Monitor Street, Brooklyn"
    },
    {
      "business_status": "CLOSED_TEMPORARILY",
      "geometry": {
        "location": {
          "lat": 40.727797,
          "lng": -73.9380149
        },
        "viewport": {
          "northeast": {
            "lat": 40.7291372802915,
            "lng": -73.93675826970849
          },
          "southwest": {
            "lat": 40.7264393197085,
            "lng": -73.9394562302915
          }
        }
      },
      "icon": "https://maps.gstatic.com/mapfiles/place_api/icons/v1/png_71/generic_business-71.png",
      "icon_background_color": "#7B9EB0",
      "icon_mask_base_uri": "https://maps.gstatic.com/mapfiles/place_api/icons/v2/generic_pinlet",
      "name": "Ivy Supply Inc",
      "permanently_closed": true,
      "place_id": "ChIJX3bhkkpZwokRceJWdaPK0Q4",
      "plus_code": {
        "compound_code": "P3H6+4Q New York, NY, USA",
        "global_code": "87G8P3H6+4Q"
      },
      "reference": "ChIJX3bhkkpZwokRceJWdaPK0Q4",
      "scope": "GOOGLE",
      "types": [
        "food",
        "point_of_interest",
        "establishment"
      ],
      "vicinity": "94 Apollo Street, Brooklyn"
    },
    {
      "business_status": "OPERATIONAL",
      "geometry": {
        "location": {
          "lat": 40.72575,
          "lng": -73.943066
        },
        "viewport": {
          "northeast": {
            "lat": 40.7271310302915,
            "lng": -73.9417224697085
          },
          "southwest": {
            "lat": 40.7244330697085,
            "lng": -73.9444204302915
          }
        }
      },
      "icon": "https://maps.gstatic.com/mapfiles/place_api/icons/v1/png_71/generic_business-71.png",
      "icon_background_color": "#7B9EB0",
      "icon_mask_base_uri": "https://maps.gstatic.com/mapfiles/place_api/icons/v2/generic_pinlet",
      "name": "ERA Interiors",
      "opening_hours": {
        "open_now": false
      },
      "place_id": "ChIJTQjjz9dYwokR7MHmrBa9A5Q",
      "plus_code": {
        "compound_code": "P3G4+8Q Brooklyn, NY, USA",
        "global_code": "87G8P3G4+8Q"
      },
      "reference": "ChIJTQjjz9dYwokR7MHmrBa9A5Q",
      "scope": "GOOGLE",
      "types": [
        "general_contractor",
        "furniture_store",
        "home_goods_store",
        "store",
        "point_of_interest",
        "establishment"
      ],
      "vicinity": "Nassau Avenue, Brooklyn"
    },
    {
      "business_status": "OPERATIONAL",
      "geometry": {
        "location": {
          "lat": 40.72587989999999,
          "lng": -73.94345919999999
        },
        "viewport": {
          "northeast": {
            "lat": 40.72714693029149,
            "lng": -73.9420963197085
          },
          "southwest": {
            "lat": 40.7244489697085,
            "lng": -73.9447942802915
          }
        }
      },
      "icon": "https://maps.gstatic.com/mapfiles/place_api/icons/v1/png_71/generic_business-71.png",
      "icon_background_color": "#7B9EB0",
      "icon_mask_base_uri": "https://maps.gstatic.com/mapfiles/place_api/icons/v2/generic_pinlet",
      "name": "Jane Chrostowski: Allstate Insurance",
      "opening_hours": {
        "open_now": false
      },
      "photos": [
        {
          "height": 608,
          "html_attributions": [
            "<a href=\"https://maps.google.com/maps/contrib/106062923410605855321\">Jane Chrostowski: Allstate Insurance</a>"
          ],
          "photo_reference": "AeJbb3eZZTw0xsfxAZqNXehW8MzEQKkZoDIKx4ZxvUIud_zQ5byyhtdItuzEgG5jQvLTDH_U-fW4DVl1219fd0KIQChcnJW1v3CjisqiA3HzQEpIbAbhBd3MQOUpPDPqcx2Iil9s4BTVjrObmnfdpvZmraBTLdtcKZ9yrvGU3KPDoKLFgx9J",
          "width": 1080
        }
      ],
      "place_id": "ChIJHwDUPklZwokRw-fofALladU",
      "plus_code": {
        "compound_code": "P3G4+9J New York, NY, USA",
        "global_code": "87G8P3G4+9J"
      },
      "rating": 4.6,
      "reference": "ChIJHwDUPklZwokRw-fofALladU",
      "scope": "GOOGLE",
      "types": [
        "insurance_agency",
        "point_of_interest",
        "establishment"
      ],
      "user_ratings_total": 11,
      "vicinity": "223 Nassau Avenue, Brooklyn"
    },
    {
      "business_status": "OPERATIONAL",
      "geometry": {
        "location": {
          "lat": 40.72487899999999,
          "lng": -73.9408168
        },
        "viewport": {
          "northeast": {
            "lat": 40.72623988029149,
            "lng": -73.93934356970848
          },
          "southwest": {
            "lat": 40.7235419197085,
            "lng": -73.9420415302915
          }
        }
      },
      "icon": "https://maps.gstatic.com/mapfiles/place_api/icons/v1/png_71/worship_general-71.png",
      "icon_background_color": "#7B9EB0",
      "icon_mask_base_uri": "https://maps.gstatic.com/mapfiles/place_api/icons/v2/worship_christian_pinlet",
      "name": "First Polish Baptist Church",
      "place_id": "ChIJ2-n_8ktZwokRu_KaNKJY6zc",
      "plus_code": {
        "compound_code": "P3F5+XM New York, NY, USA",
        "global_code": "87G8P3F5+XM"
      },
      "rating": 4.8,
      "reference": "ChIJ2-n_8ktZwokRu_KaNKJY6zc",
      "scope": "GOOGLE",
      "types": [
        "church",
        "place_of_worship",
        "point_of_interest",
        "establishment"
      ],
      "user_ratings_total": 5,
      "vicinity": "55 Sutton Street, Brooklyn"
    },
    {
      "business_status": "OPERATIONAL",
      "geometry": {
        "location": {
          "lat": 40.7276304,
          "lng": -73.9445166
        },
        "viewport": {
          "northeast": {
            "lat": 40.7289208802915,
            "lng": -73.9431582197085
          },
          "southwest": {
            "lat": 40.7262229197085,
            "lng": -73.9458561802915
          }
        }
      },
      "icon": "https://maps.gstatic.com/mapfiles/place_api/icons/v1/png_71/shopping-71.png",
      "icon_background_color": "#4B96F3",
      "icon_mask_base_uri": "https://maps.gstatic.com/mapfiles/place_api/icons/v2/shopping_pinlet",
      "name": "Excello",
      "opening_hours": {
        "open_now": true
      },
      "place_id": "ChIJAU-uZlhZwokRunKkFDJPmLE",
      "plus_code": {
        "compound_code": "P3H4+35 Brooklyn, NY, USA",
        "global_code": "87G8P3H4+35"
      },
      "reference": "ChIJAU-uZlhZwokRunKkFDJPmLE",
      "scope": "GOOGLE",
      "types": [
        "electronics_store",
        "home_goods_store",
        "store",
        "point_of_interest",
        "establishment"
      ],
      "vicinity": "231 Norman Avenue, Brooklyn"
    },
    {
      "business_status": "OPERATIONAL",
      "geometry": {
        "location": {
          "lat": 40.7251505,
          "lng": -73.9459688
        },
        "viewport": {
          "northeast": {
            "lat": 40.72658998029149,
            "lng": -73.9446671197085
          },
          "southwest": {
            "lat": 40.72389201970849,
            "lng": -73.9473650802915
          }
        }
      },
      "icon": "https://maps.gstatic.com/mapfiles/place_api/icons/v1/png_71/shopping-71.png",
      "icon_background_color": "#4B96F3",
      "icon_mask_base_uri": "https://maps.gstatic.com/mapfiles/place_api/icons/v2/shopping_pinlet",
      "name": "Irys Florist",
      "opening_hours": {
        "open_now": true
      },
      "photos": [
        {
          "height": 4032,
          "html_attributions": [
            "<a href=\"https://maps.google.com/maps/contrib/100837385180897519929\">Moria Fahima</a>"
          ],
          "photo_reference": "AeJbb3cUI85nFWA1EJv6QfCS0hSizkzH6MP7a7GJgUMiHADAX75OB8MV63iUqy1qUzvCedzkIw4fLPd654DguFVYwoNPVqa5ioQzY4XMd1CFyNpAPtDC--YyJelP4mPLQfojlJA9dmM1sRAUj-HYo1XGVXSkinKGmTzkDLRCvH5WD8M8SNto",
          "width": 3024
        }
      ],
      "place_id": "ChIJQ9qyNE9ZwokRDwrcBsWFctE",
      "plus_code": {
        "compound_code": "P3G3+3J Brooklyn, NY, USA",
        "global_code": "87G8P3G3+3J"
      },
      "rating": 3.8,
      "reference": "ChIJQ9qyNE9ZwokRDwrcBsWFctE",
      "scope": "GOOGLE",
      "types": [
        "florist",
        "store",
        "point_of_interest",
        "establishment"
      ],
      "user_ratings_total": 9,
      "vicinity": "180 Nassau Avenue, Brooklyn"
    },
    {
      "business_status": "OPERATIONAL",
      "geometry": {
        "location": {
          "lat": 40.72339229999999,
          "lng": -73.9400771
        },
        "viewport": {
          "northeast": {
            "lat": 40.72478298029149,
            "lng": -73.9387394197085
          },
          "southwest": {
            "lat": 40.72208501970849,
            "lng": -73.9414373802915
          }
        }
      },
      "icon": "https://maps.gstatic.com/mapfiles/place_api/icons/v1/png_71/generic_business-71.png",
      "icon_background_color": "#7B9EB0",
      "icon_mask_base_uri": "https://maps.gstatic.com/mapfiles/place_api/icons/v2/generic_pinlet",
      "name": "Pemco Associates",
      "place_id": "ChIJRZDUa0xZwokR3LXhXx1gCOA",
      "plus_code": {
        "compound_code": "P3F5+9X Brooklyn, NY, USA",
        "global_code": "87G8P3F5+9X"
      },
      "rating": 5,
      "reference": "ChIJRZDUa0xZwokR3LXhXx1gCOA",
      "scope": "GOOGLE",
      "types": [
        "general_contractor",
        "point_of_interest",
        "establishment"
      ],
      "user_ratings_total": 1,
      "vicinity": "33 Driggs Avenue # 1, Brooklyn"
    },
    {
      "business_status": "OPERATIONAL",
      "geometry": {
        "location": {
          "lat": 40.7273442,
          "lng": -73.94318559999999
        },
        "viewport": {
          "northeast": {
            "lat": 40.7288377802915,
            "lng": -73.94186121970849
          },
          "southwest": {
            "lat": 40.7261398197085,
            "lng": -73.9445591802915
          }
        }
      },
      "icon": "https://maps.gstatic.com/mapfiles/place_api/icons/v1/png_71/generic_business-71.png",
      "icon_background_color": "#7B9EB0",
      "icon_mask_base_uri": "https://maps.gstatic.com/mapfiles/place_api/icons/v2/generic_pinlet",
      "name": "Big Orange Consulting Inc",
      "opening_hours": {
        "open_now": false
      },
      "place_id": "ChIJlywdqUlZwokRcEky2s08ido",
      "plus_code": {
        "compound_code": "P3G4+WP New York, NY, USA",
        "global_code": "87G8P3G4+WP"
      },
      "rating": 4.4,
      "reference": "ChIJlywdqUlZwokRcEky2s08ido",
      "scope": "GOOGLE",
      "types": [
        "point_of_interest",
        "establishment"
      ],
      "user_ratings_total": 5,
      "vicinity": "231 Norman Avenue STE 210, Brooklyn"
    },
    {
      "business_status": "OPERATIONAL",
      "geometry": {
        "location": {
          "lat": 40.72774099999999,
          "lng": -73.944553
        },
        "viewport": {
          "northeast": {
            "lat": 40.7289753302915,
            "lng": -73.94318561970849
          },
          "southwest": {
            "lat": 40.7262773697085,
            "lng": -73.94588358029151
          }
        }
      },
      "icon": "https://maps.gstatic.com/mapfiles/place_api/icons/v1/png_71/shopping-71.png",
      "icon_background_color": "#4B96F3",
      "icon_mask_base_uri": "https://maps.gstatic.com/mapfiles/place_api/icons/v2/shopping_pinlet",
      "name": "Cowboy Technical Services",
      "opening_hours": {
        "open_now": true
      },
      "place_id": "ChIJId2_P99bwokRQqHWiGBB11Q",
      "plus_code": {
        "compound_code": "P3H4+35 Brooklyn, NY, USA",
        "global_code": "87G8P3H4+35"
      },
      "rating": 5,
      "reference": "ChIJId2_P99bwokRQqHWiGBB11Q",
      "scope": "GOOGLE",
      "types": [
        "electronics_store",
        "home_goods_store",
        "store",
        "point_of_interest",
        "establishment"
      ],
      "user_ratings_total": 2,
      "vicinity": "231 Norman Avenue, Brooklyn"
    },
    {
      "business_status": "OPERATIONAL",
      "geometry": {
        "location": {
          "lat": 40.7249521,
          "lng": -73.94467569999999
        },
        "viewport": {
          "northeast": {
            "lat": 40.7263140802915,
            "lng": -73.94318641970848
          },
          "southwest": {
            "lat": 40.7236161197085,
            "lng": -73.9458843802915
          }
        }
      },
      "icon": "https://maps.gstatic.com/mapfiles/place_api/icons/v1/png_71/generic_business-71.png",
      "icon_background_color": "#7B9EB0",
      "icon_mask_base_uri": "https://maps.gstatic.com/mapfiles/place_api/icons/v2/generic_pinlet",
      "name": "Harris Electric Co.",
      "opening_hours": {
        "open_now": true
      },
      "photos": [
        {
          "height": 968,
          "html_attributions": [
            "<a href=\"https://maps.google.com/maps/contrib/114360569122048889399\">Harris Electric Co.</a>"
          ],
          "photo_reference": "AeJbb3es_sNLhs4eVO5BK4lUeMlloR5L5DFbaOEZtmwkkATE6V0jcBqDGylb62vbApCJcoN4C2tver-2uBhXk37g0EKPEg2WuWw4txyFbg8QsOkZXAGLyp7t2Tt-jHsg9e8hktfDTWAxqao-B6Y4uYdNSN8nCUJw29GomiLwTTzsaopiATNN",
          "width": 2048
        }
      ],
      "place_id": "ChIJbwU01U5ZwokRvOWdib4T6Ng",
      "plus_code": {
        "compound_code": "P3F4+X4 New York, NY, USA",
        "global_code": "87G8P3F4+X4"
      },
      "reference": "ChIJbwU01U5ZwokRvOWdib4T6Ng",
      "scope": "GOOGLE",
      "types": [
        "electrician",
        "point_of_interest",
        "establishment"
      ],
      "vicinity": "135 Russell Street, Brooklyn"
    },
    {
      "business_status": "OPERATIONAL",
      "geometry": {
        "location": {
          "lat": 40.7254216,
          "lng": -73.9390016
        },
        "viewport": {
          "northeast": {
            "lat": 40.7267822802915,
            "lng": -73.9375315197085
          },
          "southwest": {
            "lat": 40.72408431970851,
            "lng": -73.9402294802915
          }
        }
      },
      "icon": "https://maps.gstatic.com/mapfiles/place_api/icons/v1/png_71/generic_business-71.png",
      "icon_background_color": "#7B9EB0",
      "icon_mask_base_uri": "https://maps.gstatic.com/mapfiles/place_api/icons/v2/generic_pinlet",
      "name": "Painthome Painting & Decorating Services",
      "opening_hours": {
        "open_now": true
      },
      "photos": [
        {
          "height": 289,
          "html_attributions": [
            "<a href=\"https://maps.google.com/maps/contrib/110466796971756483878\">Painthome Painting &amp; Decorating Services</a>"
          ],
          "photo_reference": "AeJbb3dAY1FRj1VP9dhFNuS09-3r6aGQ6E_X0Oto_nJaukdRkelaBH9by7HyKATl_Hc9lb1VkOMkmlggqc6JcPYtYrgvdE93d5KNYiti93QtKRq4tK4NLKBeUAdG7fkTSyEE1KboeqCGJESPrziwO3liHqqaFRHH6oip9Ornq_2_GOFBTbrK",
          "width": 477
        }
      ],
      "place_id": "ChIJaRyaCktZwokRU5lKZ7i9YDk",
      "plus_code": {
        "compound_code": "P3G6+59 New York, NY, USA",
        "global_code": "87G8P3G6+59"
      },
      "reference": "ChIJaRyaCktZwokRU5lKZ7i9YDk",
      "scope": "GOOGLE",
      "types": [
        "painter",
        "point_of_interest",
        "establishment"
      ],
      "vicinity": "57 Hausman Street, Brooklyn"
    },
    {
      "business_status": "OPERATIONAL",
      "geometry": {
        "location": {
          "lat": 40.7267373,
          "lng": -73.9381737
        },
        "viewport": {
          "northeast": {
            "lat": 40.7281514302915,
            "lng": -73.93676306970849
          },
          "southwest": {
            "lat": 40.7254534697085,
            "lng": -73.9394610302915
          }
        }
      },
      "icon": "https://maps.gstatic.com/mapfiles/place_api/icons/v1/png_71/generic_business-71.png",
      "icon_background_color": "#7B9EB0",
      "icon_mask_base_uri": "https://maps.gstatic.com/mapfiles/place_api/icons/v2/generic_pinlet",
      "name": "Upgrade Contracting",
      "opening_hours": {
        "open_now": false
      },
      "photos": [
        {
          "height": 3024,
          "html_attributions": [
            "<a href=\"https://maps.google.com/maps/contrib/112005156079632637506\">Erwin Sarce\u00f1o</a>"
          ],
          "photo_reference": "AeJbb3c2oJtcwNV6niMsp5VVc8FO6yyatsKHkYyNUZgVtYmb3kTnavBRpzL2KpnnUKITyc3xf5ZJDtN08eqYwtRpwgOovqgBY3Xh513RXWGUBvS1NVEVUaQKvJhDl15NrkwFiUvSQykMAac8a8IkNV1uAD-dcg8_sbfi39G1ZrgJn7Fk89qT",
          "width": 4032
        }
      ],
      "place_id": "ChIJseKa5EpZwokRTa13usWTENU",
      "plus_code": {
        "compound_code": "P3G6+MP Brooklyn, NY, USA",
        "global_code": "87G8P3G6+MP"
      },
      "rating": 4.8,
      "reference": "ChIJseKa5EpZwokRTa13usWTENU",
      "scope": "GOOGLE",
      "types": [
        "general_contractor",
        "point_of_interest",
        "establishment"
      ],
      "user_ratings_total": 6,
      "vicinity": "81 Apollo Street, Brooklyn"
    },
    {
      "business_status": "CLOSED_TEMPORARILY",
      "geometry": {
        "location": {
          "lat": 40.7231862,
          "lng": -73.941886
        },
        "viewport": {
          "northeast": {
            "lat": 40.7245931802915,
            "lng": -73.94054561970849
          },
          "southwest": {
            "lat": 40.72189521970851,
            "lng": -73.9432435802915
          }
        }
      },
      "icon": "https://maps.gstatic.com/mapfiles/place_api/icons/v1/png_71/generic_business-71.png",
      "icon_background_color": "#7B9EB0",
      "icon_mask_base_uri": "https://maps.gstatic.com/mapfiles/place_api/icons/v2/generic_pinlet",
      "name": "New York Makeup Artist Stella Kae",
      "permanently_closed": true,
      "place_id": "ChIJu9qdIExZwokRmeWAU7jN-nw",
      "plus_code": {
        "compound_code": "P3F5+76 New York, NY, USA",
        "global_code": "87G8P3F5+76"
      },
      "reference": "ChIJu9qdIExZwokRmeWAU7jN-nw",
      "scope": "GOOGLE",
      "types": [
        "beauty_salon",
        "point_of_interest",
        "establishment"
      ],
      "vicinity": "75 Driggs Avenue, Brooklyn"
    },
    {
      "business_status": "OPERATIONAL",
      "geometry": {
        "location": {
          "lat": 40.726562,
          "lng": -73.941497
        },
        "viewport": {
          "northeast": {
            "lat": 40.7279038802915,
            "lng": -73.94030041970849
          },
          "southwest": {
            "lat": 40.7252059197085,
            "lng": -73.9429983802915
          }
        }
      },
      "icon": "https://maps.gstatic.com/mapfiles/place_api/icons/v1/png_71/generic_business-71.png",
      "icon_background_color": "#7B9EB0",
      "icon_mask_base_uri": "https://maps.gstatic.com/mapfiles/place_api/icons/v2/generic_pinlet",
      "name": "Descience Laboratories",
      "opening_hours": {
        "open_now": false
      },
      "photos": [
        {
          "height": 1000,
          "html_attributions": [
            "<a href=\"https://maps.google.com/maps/contrib/103548436291263309051\">Descience Laboratories</a>"
          ],
          "photo_reference": "AeJbb3cZ9WSaTINSAwVNmxmqhvkO5tGXATgQWz03LwONi7D3xMCJEZ8q50iHuymC7fkw00PyEdlRPLswvIQsdevCWyf4lgRmxLkbMb6y8OauSZlahRbZG3K15-NHbr98uo-30q8JgnpbXYZu4XgRa5UkbYMxWD3h1-jAvFjzonHXOjwN9aRG",
          "width": 1500
        }
      ],
      "place_id": "ChIJEV5i1ktZwokRmxuL8UEVAmk",
      "plus_code": {
        "compound_code": "P3G5+JC Brooklyn, NY, USA",
        "global_code": "87G8P3G5+JC"
      },
      "rating": 5,
      "reference": "ChIJEV5i1ktZwokRmxuL8UEVAmk",
      "scope": "GOOGLE",
      "types": [
        "general_contractor",
        "point_of_interest",
        "establishment"
      ],
      "user_ratings_total": 2,
      "vicinity": "284 Kingsland Avenue, Brooklyn"
    },
    {
      "business_status": "OPERATIONAL",
      "geometry": {
        "location": {
          "lat": 40.72643,
          "lng": -73.941013
        },
        "viewport": {
          "northeast": {
            "lat": 40.7277879802915,
            "lng": -73.93956671970851
          },
          "southwest": {
            "lat": 40.7250900197085,
            "lng": -73.94226468029152
          }
        }
      },
      "icon": "https://maps.gstatic.com/mapfiles/place_api/icons/v1/png_71/generic_business-71.png",
      "icon_background_color": "#7B9EB0",
      "icon_mask_base_uri": "https://maps.gstatic.com/mapfiles/place_api/icons/v2/generic_pinlet",
      "name": "Jacob Pritchard Photography",
      "photos": [
        {
          "height": 3000,
          "html_attributions": [
            "<a href=\"https://maps.google.com/maps/contrib/109183371659720280199\">Jacob Pritchard Photography</a>"
          ],
          "photo_reference": "AeJbb3fD3RbeLO0BQzJPpL11BFyTIjeuuek51Gc8Lhu3vlMniX2FfXrv7142zy3JvmFwHxcRa5bqe49HmkH6pNhTTDiJyuQA5uybxd3PnVkCISA9o0E-glO2aDFcHWu5ND90Ynaqc2-LTB5et381VcJc3MeQMluiikeIylWTJdSsXOrnrOhO",
          "width": 2400
        }
      ],
      "place_id": "ChIJDa-0z0tZwokR4iY0nbn5L7E",
      "plus_code": {
        "compound_code": "P3G5+HH Brooklyn, NY, USA",
        "global_code": "87G8P3G5+HH"
      },
      "reference": "ChIJDa-0z0tZwokR4iY0nbn5L7E",
      "scope": "GOOGLE",
      "types": [
        "point_of_interest",
        "establishment"
      ],
      "vicinity": "99 Sutton Street no 423, Brooklyn"
    },
    {
      "business_status": "OPERATIONAL",
      "geometry": {
        "location": {
          "lat": 40.7265278,
          "lng": -73.94113329999999
        },
        "viewport": {
          "northeast": {
            "lat": 40.72783368029149,
            "lng": -73.93961841970848
          },
          "southwest": {
            "lat": 40.7251357197085,
            "lng": -73.9423163802915
          }
        }
      },
      "icon": "https://maps.gstatic.com/mapfiles/place_api/icons/v1/png_71/lodging-71.png",
      "icon_background_color": "#909CE1",
      "icon_mask_base_uri": "https://maps.gstatic.com/mapfiles/place_api/icons/v2/hotel_pinlet",
      "name": "Habitat 101 Brooklyn",
      "photos": [
        {
          "height": 1920,
          "html_attributions": [
            "<a href=\"https://maps.google.com/maps/contrib/115704826061594305497\">Nordin Kraan</a>"
          ],
          "photo_reference": "AeJbb3fR3wjZAk99HUHPhgot7VP8GIg85axQnDIja05Kg9KgsZy1zC_I8gkail4MHkS4MBsCMUHJtmYwWud7W21v9O-D5J4DoeekgU-lG5kYE-gbz0IvOM0u9kLmMHZTxXfzX3TD6ShzLxqp2ZJGA3q36VRwKzf6EfhrK0SGOnKtiVy5BLBb",
          "width": 1080
        }
      ],
      "place_id": "ChIJf-InzktZwokRTV2V7G4fSDI",
      "plus_code": {
        "compound_code": "P3G5+JG New York, NY, USA",
        "global_code": "87G8P3G5+JG"
      },
      "rating": 4.1,
      "reference": "ChIJf-InzktZwokRTV2V7G4fSDI",
      "scope": "GOOGLE",
      "types": [
        "lodging",
        "point_of_interest",
        "establishment"
      ],
      "user_ratings_total": 36,
      "vicinity": "101 Sutton Street, Brooklyn"
    },
    {
      "business_status": "CLOSED_TEMPORARILY",
      "geometry": {
        "location": {
          "lat": 40.7265808,
          "lng": -73.94016119999999
        },
        "viewport": {
          "northeast": {
            "lat": 40.72794133029149,
            "lng": -73.93867656970849
          },
          "southwest": {
            "lat": 40.72524336970849,
            "lng": -73.9413745302915
          }
        }
      },
      "icon": "https://maps.gstatic.com/mapfiles/place_api/icons/v1/png_71/generic_business-71.png",
      "icon_background_color": "#7B9EB0",
      "icon_mask_base_uri": "https://maps.gstatic.com/mapfiles/place_api/icons/v2/generic_pinlet",
      "name": "Maplewing Photo Studio",
      "permanently_closed": true,
      "place_id": "ChIJI5yds0tZwokRVSp9_EELwYU",
      "plus_code": {
        "compound_code": "P3G5+JW New York, NY, USA",
        "global_code": "87G8P3G5+JW"
      },
      "reference": "ChIJI5yds0tZwokRVSp9_EELwYU",
      "scope": "GOOGLE",
      "types": [
        "point_of_interest",
        "establishment"
      ],
      "vicinity": "649 Morgan Avenue, Brooklyn"
    },
    {
      "business_status": "OPERATIONAL",
      "geometry": {
        "location": {
          "lat": 40.72539,
          "lng": -73.9451761
        },
        "viewport": {
          "northeast": {
            "lat": 40.7268139302915,
            "lng": -73.94384091970849
          },
          "southwest": {
            "lat": 40.7241159697085,
            "lng": -73.9465388802915
          }
        }
      },
      "icon": "https://maps.gstatic.com/mapfiles/place_api/icons/v1/png_71/generic_business-71.png",
      "icon_background_color": "#13B5C7",
      "icon_mask_base_uri": "https://maps.gstatic.com/mapfiles/place_api/icons/v2/generic_pinlet",
      "name": "DBI Productions",
      "opening_hours": {
        "open_now": true
      },
      "photos": [
        {
          "height": 332,
          "html_attributions": [
            "<a href=\"https://maps.google.com/maps/contrib/105178378426592256526\">DBI Productions</a>"
          ],
          "photo_reference": "AeJbb3fSHubiIlC_s9lUxLQp7_z1DDQuZOqtNP76o-gNtZeeeq80WnYcj3Y-MbrTefIpMzSp4QCj01uPJ-K_-FA8t8Op2bzCzhyVhyu-lybz4XSEPvfDG422ckyYW0IuiOrBrZPsG_oLzai6gShlIgL1Pzz_tjM5Jr1oLiXXT9FCkgO8jhdn",
          "width": 332
        }
      ],
      "place_id": "ChIJfVMlS8tfwokR1xHBu2dYQ14",
      "plus_code": {
        "compound_code": "P3G3+5W Brooklyn, NY, USA",
        "global_code": "87G8P3G3+5W"
      },
      "reference": "ChIJfVMlS8tfwokR1xHBu2dYQ14",
      "scope": "GOOGLE",
      "types": [
        "point_of_interest",
        "establishment"
      ],
      "vicinity": "194 Nassau Avenue, Brooklyn"
    },
    {
      "business_status": "OPERATIONAL",
      "geometry": {
        "location": {
          "lat": 40.72570369999999,
          "lng": -73.9448129
        },
        "viewport": {
          "northeast": {
            "lat": 40.72699263029149,
            "lng": -73.9434528697085
          },
          "southwest": {
            "lat": 40.7242946697085,
            "lng": -73.9461508302915
          }
        }
      },
      "icon": "https://maps.gstatic.com/mapfiles/place_api/icons/v1/png_71/generic_business-71.png",
      "icon_background_color": "#7B9EB0",
      "icon_mask_base_uri": "https://maps.gstatic.com/mapfiles/place_api/icons/v2/generic_pinlet",
      "name": "Dr. Albert Eliav, DDS",
      "place_id": "ChIJzUmKJ0lZwokRaF7qkGP3KIc",
      "plus_code": {
        "compound_code": "P3G4+73 New York, NY, USA",
        "global_code": "87G8P3G4+73"
      },
      "rating": 4.2,
      "reference": "ChIJzUmKJ0lZwokRaF7qkGP3KIc",
      "scope": "GOOGLE",
      "types": [
        "dentist",
        "health",
        "point_of_interest",
        "establishment"
      ],
      "user_ratings_total": 15,
      "vicinity": "203 Nassau Avenue, Brooklyn"
    },
    {
      "business_status": "OPERATIONAL",
      "geometry": {
        "location": {
          "lat": 40.7274878,
          "lng": -73.9392357
        },
        "viewport": {
          "northeast": {
            "lat": 40.72890563029149,
            "lng": -73.93781606970849
          },
          "southwest": {
            "lat": 40.72620766970849,
            "lng": -73.94051403029151
          }
        }
      },
      "icon": "https://maps.gstatic.com/mapfiles/place_api/icons/v1/png_71/generic_business-71.png",
      "icon_background_color": "#7B9EB0",
      "icon_mask_base_uri": "https://maps.gstatic.com/mapfiles/place_api/icons/v2/generic_pinlet",
      "name": "Liffey Sheet Metal",
      "place_id": "ChIJ5fc_WUpZwokRpJTFpyNxB6g",
      "plus_code": {
        "compound_code": "P3G6+X8 New York, NY, USA",
        "global_code": "87G8P3G6+X8"
      },
      "rating": 5,
      "reference": "ChIJ5fc_WUpZwokRpJTFpyNxB6g",
      "scope": "GOOGLE",
      "types": [
        "general_contractor",
        "point_of_interest",
        "establishment"
      ],
      "user_ratings_total": 1,
      "vicinity": "117 Hausman Street, Brooklyn"
    },
    {
      "business_status": "OPERATIONAL",
      "geometry": {
        "location": {
          "lat": 40.7259006,
          "lng": -73.94318059999999
        },
        "viewport": {
          "northeast": {
            "lat": 40.72717083029148,
            "lng": -73.9418182197085
          },
          "southwest": {
            "lat": 40.72447286970849,
            "lng": -73.9445161802915
          }
        }
      },
      "icon": "https://maps.gstatic.com/mapfiles/place_api/icons/v1/png_71/atm-71.png",
      "icon_background_color": "#909CE1",
      "icon_mask_base_uri": "https://maps.gstatic.com/mapfiles/place_api/icons/v2/atm_pinlet",
      "name": "Cardtronics ATM",
      "place_id": "ChIJDVBYQElZwokR0qpDHzdJ-Wo",
      "plus_code": {
        "compound_code": "P3G4+9P Brooklyn, NY, USA",
        "global_code": "87G8P3G4+9P"
      },
      "rating": 3,
      "reference": "ChIJDVBYQElZwokR0qpDHzdJ-Wo",
      "scope": "GOOGLE",
      "types": [
        "atm",
        "finance",
        "point_of_interest",
        "establishment"
      ],
      "user_ratings_total": 2,
      "vicinity": "227 Nassau Avenue, Brooklyn"
    },
    {
      "business_status": "OPERATIONAL",
      "geometry": {
        "location": {
          "lat": 40.72570369999999,
          "lng": -73.9448129
        },
        "viewport": {
          "northeast": {
            "lat": 40.72699263029149,
            "lng": -73.9434528697085
          },
          "southwest": {
            "lat": 40.7242946697085,
            "lng": -73.9461508302915
          }
        }
      },
      "icon": "https://maps.gstatic.com/mapfiles/place_api/icons/v1/png_71/generic_business-71.png",
      "icon_background_color": "#7B9EB0",
      "icon_mask_base_uri": "https://maps.gstatic.com/mapfiles/place_api/icons/v2/generic_pinlet",
      "name": "Eliav Radion G DDS",
      "place_id": "ChIJzUmKJ0lZwokRPsb26XKKU0s",
      "plus_code": {
        "compound_code": "P3G4+73 New York, NY, USA",
        "global_code": "87G8P3G4+73"
      },
      "rating": 3.7,
      "reference": "ChIJzUmKJ0lZwokRPsb26XKKU0s",
      "scope": "GOOGLE",
      "types": [
        "dentist",
        "health",
        "point_of_interest",
        "establishment"
      ],
      "user_ratings_total": 3,
      "vicinity": "203 Nassau Avenue, Brooklyn"
    },
    {
      "business_status": "OPERATIONAL",
      "geometry": {
        "location": {
          "lat": 40.7285608,
          "lng": -73.943666
        },
        "viewport": {
          "northeast": {
            "lat": 40.7298921802915,
            "lng": -73.94250036970848
          },
          "southwest": {
            "lat": 40.7271942197085,
            "lng": -73.94519833029149
          }
        }
      },
      "icon": "https://maps.gstatic.com/mapfiles/place_api/icons/v1/png_71/generic_business-71.png",
      "icon_background_color": "#7B9EB0",
      "icon_mask_base_uri": "https://maps.gstatic.com/mapfiles/place_api/icons/v2/generic_pinlet",
      "name": "Tracking Shot",
      "opening_hours": {
        "open_now": false
      },
      "photos": [
        {
          "height": 640,
          "html_attributions": [
            "<a href=\"https://maps.google.com/maps/contrib/100540355883088612485\">Tracking Shot</a>"
          ],
          "photo_reference": "AeJbb3fadb3QLSzEQfM1TJgh9yTYeHC536F_WT872QgkRqa-ooRh8u6qC-C2pY_IO_RmGI2o9QWnkiWbAI9dSkdAKJYhbEibuaR3RSKSyli4z99O2eGNs91RYCicLjcuNP0eqTbb0GVvj1rPEuM-gU3hRba1u4pCi7n_P3fgiR1ylg-fR_OB",
          "width": 480
        }
      ],
      "place_id": "ChIJlZ-b2UdZwokRLhrrMef7a9k",
      "plus_code": {
        "compound_code": "P3H4+CG Brooklyn, NY, USA",
        "global_code": "87G8P3H4+CG"
      },
      "rating": 4.9,
      "reference": "ChIJlZ-b2UdZwokRLhrrMef7a9k",
      "scope": "GOOGLE",
      "types": [
        "point_of_interest",
        "establishment"
      ],
      "user_ratings_total": 7,
      "vicinity": "272 North Henry Street, Brooklyn"
    },
    {
      "business_status": "OPERATIONAL",
      "geometry": {
        "location": {
          "lat": 40.725929,
          "lng": -73.9427719
        },
        "viewport": {
          "northeast": {
            "lat": 40.7272023302915,
            "lng": -73.94144066970848
          },
          "southwest": {
            "lat": 40.7245043697085,
            "lng": -73.94413863029149
          }
        }
      },
      "icon": "https://maps.gstatic.com/mapfiles/place_api/icons/v1/png_71/restaurant-71.png",
      "icon_background_color": "#FF9E67",
      "icon_mask_base_uri": "https://maps.gstatic.com/mapfiles/place_api/icons/v2/restaurant_pinlet",
      "name": "Peking Express",
      "opening_hours": {
        "open_now": true
      },
      "photos": [
        {
          "height": 1884,
          "html_attributions": [
            "<a href=\"https://maps.google.com/maps/contrib/109503844651938293487\">Ceci S</a>"
          ],
          "photo_reference": "AeJbb3d8HkPUiaNxqSbB6N5uBYxEJp9Ha5GksAYCe-RDl38cYYYrI75h066qZXHVhs3WOuNCjvzzQjl4Xv0deMbTU9nh_oWwWiWG_Vt-NPBTkZ5ISDP4Ak6mj-gBt3qpz-Mcch7ORtWfTz0z66XieOdufQzqLN-ejIYNHJq9DQQxqldsKRXy",
          "width": 2268
        }
      ],
      "place_id": "ChIJIbfFaUlZwokR7QeqHwSoJYY",
      "plus_code": {
        "compound_code": "P3G4+9V New York, NY, USA",
        "global_code": "87G8P3G4+9V"
      },
      "price_level": 1,
      "rating": 4,
      "reference": "ChIJIbfFaUlZwokR7QeqHwSoJYY",
      "scope": "GOOGLE",
      "types": [
        "meal_delivery",
        "restaurant",
        "food",
        "point_of_interest",
        "establishment"
      ],
      "user_ratings_total": 139,
      "vicinity": "237 Nassau Avenue, Brooklyn"
    },
    {
      "business_status": "CLOSED_TEMPORARILY",
      "geometry": {
        "location": {
          "lat": 40.7257275,
          "lng": -73.9450212
        },
        "viewport": {
          "northeast": {
            "lat": 40.7269939802915,
            "lng": -73.94366146970849
          },
          "southwest": {
            "lat": 40.7242960197085,
            "lng": -73.94635943029151
          }
        }
      },
      "icon": "https://maps.gstatic.com/mapfiles/place_api/icons/v1/png_71/generic_business-71.png",
      "icon_background_color": "#7B9EB0",
      "icon_mask_base_uri": "https://maps.gstatic.com/mapfiles/place_api/icons/v2/generic_pinlet",
      "name": "HTTC Web Design",
      "permanently_closed": true,
      "place_id": "ChIJYbra2UhZwokRPOoOwQ2pOsI",
      "plus_code": {
        "compound_code": "P3G3+7X Brooklyn, NY, USA",
        "global_code": "87G8P3G3+7X"
      },
      "reference": "ChIJYbra2UhZwokRPOoOwQ2pOsI",
      "scope": "GOOGLE",
      "types": [
        "point_of_interest",
        "establishment"
      ],
      "vicinity": "197 Nassau Avenue #1, Brooklyn"
    },
    {
      "business_status": "CLOSED_TEMPORARILY",
      "geometry": {
        "location": {
          "lat": 40.7265808,
          "lng": -73.94016119999999
        },
        "viewport": {
          "northeast": {
            "lat": 40.72794133029149,
            "lng": -73.93867656970849
          },
          "southwest": {
            "lat": 40.72524336970849,
            "lng": -73.9413745302915
          }
        }
      },
      "icon": "https://maps.gstatic.com/mapfiles/place_api/icons/v1/png_71/generic_business-71.png",
      "icon_background_color": "#7B9EB0",
      "icon_mask_base_uri": "https://maps.gstatic.com/mapfiles/place_api/icons/v2/generic_pinlet",
      "name": "MH8 Associates",
      "permanently_closed": true,
      "place_id": "ChIJC22cs0tZwokRtnQ8EeycRno",
      "plus_code": {
        "compound_code": "P3G5+JW Brooklyn, NY, USA",
        "global_code": "87G8P3G5+JW"
      },
      "reference": "ChIJC22cs0tZwokRtnQ8EeycRno",
      "scope": "GOOGLE",
      "types": [
        "point_of_interest",
        "establishment"
      ],
      "vicinity": "649 Morgan Avenue, Brooklyn"
    },
    {
      "business_status": "OPERATIONAL",
      "geometry": {
        "location": {
          "lat": 40.7265276,
          "lng": -73.940648
        },
        "viewport": {
          "northeast": {
            "lat": 40.7278682302915,
            "lng": -73.9393893197085
          },
          "southwest": {
            "lat": 40.7251702697085,
            "lng": -73.9420872802915
          }
        }
      },
      "icon": "https://maps.gstatic.com/mapfiles/place_api/icons/v1/png_71/generic_business-71.png",
      "icon_background_color": "#7B9EB0",
      "icon_mask_base_uri": "https://maps.gstatic.com/mapfiles/place_api/icons/v2/generic_pinlet",
      "name": "Counts Studio",
      "opening_hours": {
        "open_now": false
      },
      "place_id": "ChIJIZdhyUtZwokRdcgv8lyxThM",
      "plus_code": {
        "compound_code": "P3G5+JP Brooklyn, NY, USA",
        "global_code": "87G8P3G5+JP"
      },
      "reference": "ChIJIZdhyUtZwokRdcgv8lyxThM",
      "scope": "GOOGLE",
      "types": [
        "general_contractor",
        "point_of_interest",
        "establishment"
      ],
      "vicinity": "100 Sutton Street, Brooklyn"
    },
    {
      "business_status": "CLOSED_TEMPORARILY",
      "geometry": {
        "location": {
          "lat": 40.7265276,
          "lng": -73.940648
        },
        "viewport": {
          "northeast": {
            "lat": 40.7278682302915,
            "lng": -73.9393893197085
          },
          "southwest": {
            "lat": 40.7251702697085,
            "lng": -73.9420872802915
          }
        }
      },
      "icon": "https://maps.gstatic.com/mapfiles/place_api/icons/v1/png_71/generic_business-71.png",
      "icon_background_color": "#7B9EB0",
      "icon_mask_base_uri": "https://maps.gstatic.com/mapfiles/place_api/icons/v2/generic_pinlet",
      "name": "Shangri-La Studios",
      "permanently_closed": true,
      "place_id": "ChIJIZdhyUtZwokRmFnc-e3rV9s",
      "plus_code": {
        "compound_code": "P3G5+JP Brooklyn, NY, USA",
        "global_code": "87G8P3G5+JP"
      },
      "rating": 3,
      "reference": "ChIJIZdhyUtZwokRmFnc-e3rV9s",
      "scope": "GOOGLE",
      "types": [
        "point_of_interest",
        "establishment"
      ],
      "user_ratings_total": 2,
      "vicinity": "100 Sutton Street, Brooklyn"
    },
    {
      "business_status": "OPERATIONAL",
      "geometry": {
        "location": {
          "lat": 40.72462,
          "lng": -73.942251
        },
        "viewport": {
          "northeast": {
            "lat": 40.7259600302915,
            "lng": -73.94099661970849
          },
          "southwest": {
            "lat": 40.7232620697085,
            "lng": -73.94369458029149
          }
        }
      },
      "icon": "https://maps.gstatic.com/mapfiles/place_api/icons/v1/png_71/generic_business-71.png",
      "icon_background_color": "#7B9EB0",
      "icon_mask_base_uri": "https://maps.gstatic.com/mapfiles/place_api/icons/v2/generic_pinlet",
      "name": "Olivier's Trails DMC | NYC & North America Tours",
      "opening_hours": {
        "open_now": true
      },
      "photos": [
        {
          "height": 1367,
          "html_attributions": [
            "<a href=\"https://maps.google.com/maps/contrib/100652942077666617449\">Olivier&#39;s Trails DMC | NYC &amp; North America Tours</a>"
          ],
          "photo_reference": "AeJbb3fBpZZVU8X3KRs5nFUQb-T3xLhR4sZSwzSVXcV6J_Cgq6nisuvwLKPY3Oq-RucCWJ19qRXSUWmbZSq3LAdymcZRxM5cULkjC7Okp_D--MrhSAEYmPEfCLyGrsnc3TFtAGIZNwlLtRxayLh2Imo1fSqBC7L2OeTL3S5AwpWTc7hSQt03",
          "width": 2048
        }
      ],
      "place_id": "ChIJecQZs05ZwokROJUVZwOIQII",
      "plus_code": {
        "compound_code": "P3F5+R3 Brooklyn, NY, USA",
        "global_code": "87G8P3F5+R3"
      },
      "rating": 5,
      "reference": "ChIJecQZs05ZwokROJUVZwOIQII",
      "scope": "GOOGLE",
      "types": [
        "travel_agency",
        "point_of_interest",
        "establishment"
      ],
      "user_ratings_total": 32,
      "vicinity": "159 Monitor Street, Brooklyn"
    },
    {
      "business_status": "CLOSED_TEMPORARILY",
      "geometry": {
        "location": {
          "lat": 40.72453999999999,
          "lng": -73.941778
        },
        "viewport": {
          "northeast": {
            "lat": 40.7259027802915,
            "lng": -73.9402780697085
          },
          "southwest": {
            "lat": 40.7232048197085,
            "lng": -73.9429760302915
          }
        }
      },
      "icon": "https://maps.gstatic.com/mapfiles/place_api/icons/v1/png_71/generic_business-71.png",
      "icon_background_color": "#7B9EB0",
      "icon_mask_base_uri": "https://maps.gstatic.com/mapfiles/place_api/icons/v2/generic_pinlet",
      "name": "KNAPOL, Inc",
      "permanently_closed": true,
      "place_id": "ChIJDQ_1_0tZwokR8W0KMHPhcgA",
      "plus_code": {
        "compound_code": "P3F5+R7 Brooklyn, NY, USA",
        "global_code": "87G8P3F5+R7"
      },
      "reference": "ChIJDQ_1_0tZwokR8W0KMHPhcgA",
      "scope": "GOOGLE",
      "types": [
        "point_of_interest",
        "establishment"
      ],
      "vicinity": "241 Kingsland Avenue, Brooklyn"
    },
    {
      "business_status": "OPERATIONAL",
      "geometry": {
        "location": {
          "lat": 40.726502,
          "lng": -73.940189
        },
        "viewport": {
          "northeast": {
            "lat": 40.7278825302915,
            "lng": -73.93868401970849
          },
          "southwest": {
            "lat": 40.7251845697085,
            "lng": -73.9413819802915
          }
        }
      },
      "icon": "https://maps.gstatic.com/mapfiles/place_api/icons/v1/png_71/generic_business-71.png",
      "icon_background_color": "#7B9EB0",
      "icon_mask_base_uri": "https://maps.gstatic.com/mapfiles/place_api/icons/v2/generic_pinlet",
      "name": "MC2",
      "place_id": "ChIJBcEttEtZwokRkgu2HA1jMkE",
      "plus_code": {
        "compound_code": "P3G5+JW Brooklyn, NY, USA",
        "global_code": "87G8P3G5+JW"
      },
      "reference": "ChIJBcEttEtZwokRkgu2HA1jMkE",
      "scope": "GOOGLE",
      "types": [
        "point_of_interest",
        "establishment"
      ],
      "vicinity": "649 Morgan Avenue, Brooklyn"
    },
    {
      "business_status": "OPERATIONAL",
      "geometry": {
        "location": {
          "lat": 40.7263423,
          "lng": -73.94006329999999
        },
        "viewport": {
          "northeast": {
            "lat": 40.7276436802915,
            "lng": -73.93859791970849
          },
          "southwest": {
            "lat": 40.7249457197085,
            "lng": -73.94129588029149
          }
        }
      },
      "icon": "https://maps.gstatic.com/mapfiles/place_api/icons/v1/png_71/generic_business-71.png",
      "icon_background_color": "#7B9EB0",
      "icon_mask_base_uri": "https://maps.gstatic.com/mapfiles/place_api/icons/v2/generic_pinlet",
      "name": "Christina R. Karlowski, LCSW - Northside Psychotherapy & Counseling Services",
      "opening_hours": {
        "open_now": false
      },
      "photos": [
        {
          "height": 636,
          "html_attributions": [
            "<a href=\"https://maps.google.com/maps/contrib/111111597385996129219\">Christina R. Karlowski, LCSW - Northside Psychotherapy &amp; Counseling Services</a>"
          ],
          "photo_reference": "AeJbb3c22VIXCU5GX_ar_-KvK4vPrQqWUyb3cc7z5gQ747qsNHs91Ycleb_sj8qDxwrSfuCv3cOJwB65PjKd9NGKZEaudDmc8ECSSzCBnOWHS8vp6K8IK5AZwYNvXkQidDXfzxQ0ghdoV_BSrYdBFWe_P05N3A_tYN88yIdobxoYoZEt8ziw",
          "width": 745
        }
      ],
      "place_id": "ChIJs7XQwkNZwokRx-PTzp0dHeg",
      "plus_code": {
        "compound_code": "P3G5+GX New York, NY, USA",
        "global_code": "87G8P3G5+GX"
      },
      "reference": "ChIJs7XQwkNZwokRx-PTzp0dHeg",
      "scope": "GOOGLE",
      "types": [
        "health",
        "point_of_interest",
        "establishment"
      ],
      "vicinity": "645 Morgan Avenue Suite 1, Brooklyn"
    },
    {
      "business_status": "OPERATIONAL",
      "geometry": {
        "location": {
          "lat": 40.726583,
          "lng": -73.940201
        },
        "viewport": {
          "northeast": {
            "lat": 40.7279440302915,
            "lng": -73.93869691970849
          },
          "southwest": {
            "lat": 40.7252460697085,
            "lng": -73.94139488029151
          }
        }
      },
      "icon": "https://maps.gstatic.com/mapfiles/place_api/icons/v1/png_71/generic_business-71.png",
      "icon_background_color": "#7B9EB0",
      "icon_mask_base_uri": "https://maps.gstatic.com/mapfiles/place_api/icons/v2/generic_pinlet",
      "name": "Mojo Video Tech Inc",
      "opening_hours": {
        "open_now": true
      },
      "photos": [
        {
          "height": 720,
          "html_attributions": [
            "<a href=\"https://maps.google.com/maps/contrib/110924216498054911181\">Mojo Video Tech Inc</a>"
          ],
          "photo_reference": "AeJbb3e-yHwG23sCLIm6MXQj9BfXika3XhIDl7iL0mSna7vWVBUM4fQ6ZgPrCQpC8rCGPC-8_lx350shxKXOspVsjZkERKEPLCyPA91CfLhNQMrxAiwO7rCVNKbi1m1Fa8pSfbKAWxjKiQz8cXACc9ftDDZRPIzc3O_W3Pi0JFb6IXFbIiQ9",
          "width": 960
        }
      ],
      "place_id": "ChIJBcEttEtZwokRkedyvbcQt98",
      "plus_code": {
        "compound_code": "P3G5+JW Brooklyn, NY, USA",
        "global_code": "87G8P3G5+JW"
      },
      "rating": 5,
      "reference": "ChIJBcEttEtZwokRkedyvbcQt98",
      "scope": "GOOGLE",
      "types": [
        "point_of_interest",
        "establishment"
      ],
      "user_ratings_total": 1,
      "vicinity": "649 Morgan Avenue suite 4E3, Brooklyn"
    },
    {
      "business_status": "OPERATIONAL",
      "geometry": {
        "location": {
          "lat": 40.7265679,
          "lng": -73.94017560000002
        },
        "viewport": {
          "northeast": {
            "lat": 40.7279309802915,
            "lng": -73.93868271970851
          },
          "southwest": {
            "lat": 40.7252330197085,
            "lng": -73.94138068029152
          }
        }
      },
      "icon": "https://maps.gstatic.com/mapfiles/place_api/icons/v1/png_71/shopping-71.png",
      "icon_background_color": "#4B96F3",
      "icon_mask_base_uri": "https://maps.gstatic.com/mapfiles/place_api/icons/v2/shopping_pinlet",
      "name": "RUG KYLYM",
      "opening_hours": {
        "open_now": true
      },
      "photos": [
        {
          "height": 440,
          "html_attributions": [
            "<a href=\"https://maps.google.com/maps/contrib/112073545760074418639\">RUG KYLYM</a>"
          ],
          "photo_reference": "AeJbb3chotzq56lsmM4sOSm7r5TImwfr140MCb-UCkIIlbqPTE0rgF-QTYjLlbMmCl6H9zK5YvEih6HQ0faHSo_Wnm0NU6jT0oG1iyb08BUZN_eh7yAxOP6KwpE5TMkzNYiZ7cW9xXxsBZOoS8qSTuCwNVEj_jLEVQOJk3pJcJCFMDc8RMha",
          "width": 1270
        }
      ],
      "place_id": "ChIJhzNOtEtZwokR-7NOz86fnqI",
      "plus_code": {
        "compound_code": "P3G5+JW New York, NY, USA",
        "global_code": "87G8P3G5+JW"
      },
      "rating": 5,
      "reference": "ChIJhzNOtEtZwokR-7NOz86fnqI",
      "scope": "GOOGLE",
      "types": [
        "home_goods_store",
        "store",
        "point_of_interest",
        "establishment"
      ],
      "user_ratings_total": 2,
      "vicinity": "649 Morgan Avenue #2G, Brooklyn"
    },
    {
      "business_status": "OPERATIONAL",
      "geometry": {
        "location": {
          "lat": 40.7265785,
          "lng": -73.94017389999999
        },
        "viewport": {
          "northeast": {
            "lat": 40.7279404302915,
            "lng": -73.9386827197085
          },
          "southwest": {
            "lat": 40.7252424697085,
            "lng": -73.9413806802915
          }
        }
      },
      "icon": "https://maps.gstatic.com/mapfiles/place_api/icons/v1/png_71/generic_business-71.png",
      "icon_background_color": "#7B9EB0",
      "icon_mask_base_uri": "https://maps.gstatic.com/mapfiles/place_api/icons/v2/generic_pinlet",
      "name": "Magnetic Kitchen",
      "place_id": "ChIJBcEttEtZwokRLLQbQwNRYyY",
      "plus_code": {
        "compound_code": "P3G5+JW Brooklyn, NY, USA",
        "global_code": "87G8P3G5+JW"
      },
      "reference": "ChIJBcEttEtZwokRLLQbQwNRYyY",
      "scope": "GOOGLE",
      "types": [
        "point_of_interest",
        "establishment"
      ],
      "vicinity": "649 Morgan Avenue #1s, Brooklyn"
    },
    {
      "business_status": "OPERATIONAL",
      "geometry": {
        "location": {
          "lat": 40.7265785,
          "lng": -73.94017389999999
        },
        "viewport": {
          "northeast": {
            "lat": 40.7279404302915,
            "lng": -73.9386827197085
          },
          "southwest": {
            "lat": 40.7252424697085,
            "lng": -73.9413806802915
          }
        }
      },
      "icon": "https://maps.gstatic.com/mapfiles/place_api/icons/v1/png_71/generic_business-71.png",
      "icon_background_color": "#7B9EB0",
      "icon_mask_base_uri": "https://maps.gstatic.com/mapfiles/place_api/icons/v2/generic_pinlet",
      "name": "Alberto Oviedo",
      "opening_hours": {
        "open_now": true
      },
      "photos": [
        {
          "height": 1000,
          "html_attributions": [
            "<a href=\"https://maps.google.com/maps/contrib/110312038538990610586\">Alberto Oviedo</a>"
          ],
          "photo_reference": "AeJbb3f0q43NSUQJ_MkZSF6-dkYkrDu-voc6Lzw-fag1kwfhH9-U1Ca36Yjdq4ueRxkVxvhS-io8M9a06Amky7qr8hItZi_CXAYz1XHx6--3Wz5vFLcEx2OkrW_XcykOzj8O-xqFd6swNPOGvNJwOlpiC1OcnxnJXyb6-CSG_b0rq_wlxDZa",
          "width": 1500
        }
      ],
      "place_id": "ChIJMTROtEtZwokRyNk2MAvbtdI",
      "plus_code": {
        "compound_code": "P3G5+JW Brooklyn, NY, USA",
        "global_code": "87G8P3G5+JW"
      },
      "reference": "ChIJMTROtEtZwokRyNk2MAvbtdI",
      "scope": "GOOGLE",
      "types": [
        "point_of_interest",
        "establishment"
      ],
      "vicinity": "649 Morgan Avenue #1g, Brooklyn"
    },
    {
      "business_status": "OPERATIONAL",
      "geometry": {
        "location": {
          "lat": 40.7265531,
          "lng": -73.9401499
        },
        "viewport": {
          "northeast": {
            "lat": 40.7279150302915,
            "lng": -73.93866841970849
          },
          "southwest": {
            "lat": 40.7252170697085,
            "lng": -73.94136638029151
          }
        }
      },
      "icon": "https://maps.gstatic.com/mapfiles/place_api/icons/v1/png_71/school-71.png",
      "icon_background_color": "#7B9EB0",
      "icon_mask_base_uri": "https://maps.gstatic.com/mapfiles/place_api/icons/v2/school_pinlet",
      "name": "French AnyWay",
      "opening_hours": {
        "open_now": true
      },
      "photos": [
        {
          "height": 574,
          "html_attributions": [
            "<a href=\"https://maps.google.com/maps/contrib/116941223899661728372\">French AnyWay</a>"
          ],
          "photo_reference": "AeJbb3cE_ldVL1bpsk_6ji8ArHWoDPEvTEwF9wB8BN5pU17OVpCSVvt47ALKQQePoeroe0XpnYIOVlzc5MUmyAbBTafN6aVA7fEmtGtCDo00zT09B4MQjdFOmx9i0IEFpZo6-dvI6AMvttAYiTz6eaQz3VS6Ygi9o2lzuD4dgCr_NbzXOa2f",
          "width": 860
        }
      ],
      "place_id": "ChIJO6NWSnNZwokRTr_wIAkVjz4",
      "plus_code": {
        "compound_code": "P3G5+JW Brooklyn, NY, USA",
        "global_code": "87G8P3G5+JW"
      },
      "rating": 5,
      "reference": "ChIJO6NWSnNZwokRTr_wIAkVjz4",
      "scope": "GOOGLE",
      "types": [
        "point_of_interest",
        "establishment"
      ],
      "user_ratings_total": 4,
      "vicinity": "649 Morgan Avenue - Suite 1R3, Brooklyn"
    },
    {
      "business_status": "OPERATIONAL",
      "geometry": {
        "location": {
          "lat": 40.7265808,
          "lng": -73.94016119999999
        },
        "viewport": {
          "northeast": {
            "lat": 40.72794133029149,
            "lng": -73.93867656970849
          },
          "southwest": {
            "lat": 40.72524336970849,
            "lng": -73.9413745302915
          }
        }
      },
      "icon": "https://maps.gstatic.com/mapfiles/place_api/icons/v1/png_71/generic_business-71.png",
      "icon_background_color": "#7B9EB0",
      "icon_mask_base_uri": "https://maps.gstatic.com/mapfiles/place_api/icons/v2/generic_pinlet",
      "name": "Joy Muller",
      "place_id": "ChIJBcEttEtZwokRbnEmYM5KVqY",
      "plus_code": {
        "compound_code": "P3G5+JW New York, NY, USA",
        "global_code": "87G8P3G5+JW"
      },
      "reference": "ChIJBcEttEtZwokRbnEmYM5KVqY",
      "scope": "GOOGLE",
      "types": [
        "health",
        "point_of_interest",
        "establishment"
      ],
      "vicinity": "649 Morgan Avenue, Brooklyn"
    }
  ],
  "status": "OK"
}