{
  "html_attributions": [],
  "results": [
    {
      "geometry": {
        "location": {
          "lat": 40.7127753,
          "lng": -74.0059728
        },
        "viewport": {
          "northeast": {
            "lat": 40.91757705070789,
            "lng": -73.70027206817629
          },
          "southwest": {
            "lat": 40.47739906045452,
            "lng": -74.25908991427882
          }
        }
      },
      "icon": "https://maps.gstatic.com/mapfiles/place_api/icons/v1/png_71/geocode-71.png",
      "icon_background_color": "#7B9EB0",
      "icon_mask_base_uri": "https://maps.gstatic.com/mapfiles/place_api/icons/v2/generic_pinlet",
      "name": "\u7d10\u7d04",
      "photos": [
        {
          "height": 600,
          "html_attributions": [
            "<a href=\"https://maps.google.com/maps/contrib/102389334567210814614\">Bukurie</a>"
          ],
          "photo_reference": "AeJbb3fDTrgY23KzeCk9W8d5AoUpKC80gBTmPnzAOLbwP9UO3qNEwSWQQ6_eP1UwdG2Z7ZlnqNp2HFPgyAsuz7xCNbMHH4bjESqqPKjCdJteF4eKNN0DrCVeuHmfw6e33aLL_1NTwobfp6Mf_VojxuGtMX00xe1o0Ti2WZlT3eW-oqncltKd",
          "width": 480
        }
      ],
      "place_id": "ChIJOwg_06VPwokRYv534QaPC8g",
      "reference": "ChIJOwg_06VPwokRYv534QaPC8g",
      "scope": "GOOGLE",
      "types": [
        "locality",
        "political"
      ],
      "vicinity": "\u7d10\u7d04"
    },
    {
      "business_status": "OPERATIONAL",
      "geometry": {
        "location": {
          "lat": 40.7006564,
          "lng": -73.9012916
        },
        "viewport": {
          "northeast": {
            "lat": 40.7019215302915,
            "lng": -73.8999187197085
          },
          "southwest": {
            "lat": 40.69922356970851,
            "lng": -73.90261668029152
          }
        }
      },
      "icon": "https://maps.gstatic.com/mapfiles/place_api/icons/v1/png_71/bank-71.png",
      "icon_background_color": "#909CE1",
      "icon_mask_base_uri": "https://maps.gstatic.com/mapfiles/place_api/icons/v2/bank-intl_pinlet",
      "name": "TD Bank",
      "opening_hours": {
        "open_now": false
      },
      "photos": [
        {
          "height": 1920,
          "html_attributions": [
            "<a href=\"https://maps.google.com/maps/contrib/116792455493509159874\">Kira Marie</a>"
          ],
          "photo_reference": "AeJbb3ctDpJE2PMJlEE6yQN73cif7kNu-6gRS29GcalTdGBJyzxL8F-gADoer10-YZ8qYZRl79CeO_FHQ30waok2_21wniKWEKGZeEuEi21ytX6epLyL290aGVEH18IVfAaaigpVAR9MtVSsBO3aQ6_8w0EbuKdkVZsUlNfbo-rEu685dyur",
          "width": 1080
        }
      ],
      "place_id": "ChIJ74X3JCZcwokRnOd3LTBuspI",
      "plus_code": {
        "compound_code": "P32X+7F \u7f8e\u570b\u7d10\u7d04",
        "global_code": "87G8P32X+7F"
      },
      "rating": 2.6,
      "reference": "ChIJ74X3JCZcwokRnOd3LTBuspI",
      "scope": "GOOGLE",
      "types": [
        "bank",
        "atm",
        "finance",
        "point_of_interest",
        "establishment"
      ],
      "user_ratings_total": 125,
      "vicinity": "5801 Myrtle Avenue, Queens"
    },
    {
      "business_status": "OPERATIONAL",
      "geometry": {
        "location": {
          "lat": 40.70037929999999,
          "lng": -73.9013748
        },
        "viewport": {
          "northeast": {
            "lat": 40.7017501302915,
            "lng": -73.90005891970848
          },
          "southwest": {
            "lat": 40.6990521697085,
            "lng": -73.9027568802915
          }
        }
      },
      "icon": "https://maps.gstatic.com/mapfiles/place_api/icons/v1/png_71/restaurant-71.png",
      "icon_background_color": "#FF9E67",
      "icon_mask_base_uri": "https://maps.gstatic.com/mapfiles/place_api/icons/v2/restaurant_pinlet",
      "name": "Tasty's",
      "opening_hours": {
        "open_now": true
      },
      "photos": [
        {
          "height": 3024,
          "html_attributions": [
            "<a href=\"https://maps.google.com/maps/contrib/115589254795630732430\">jaamal daley</a>"
          ],
          "photo_reference": "AeJbb3fWoG6AnKW78G3wCOzauaoHS1GgoeK58EFnB4h2pnnQRhdQcDbE17TvQjT-w22kv6E7FVRTfuDrRhnaJ38FYGsfWK0SCHlehAfgWDrQHHoTgde7NgqnZZlgiZJMjIoDaeJixmrfErJSTeMvg8pL_BXB_DB-wqGitxyZhzvflUUsp6wp",
          "width": 4032
        }
      ],
      "place_id": "ChIJX5c4IyZcwokRuOczPGS_VFI",
      "plus_code": {
        "compound_code": "P32X+5F \u7f8e\u570b\u7d10\u7d04",
        "global_code": "87G8P32X+5F"
      },
      "price_level": 2,
      "rating": 4.1,
      "reference": "ChIJX5c4IyZcwokRuOczPGS_VFI",
      "scope": "GOOGLE",
      "types": [
        "restaurant",
        "food",
        "point_of_interest",
        "establishment"
      ],
      "user_ratings_total": 582,
      "vicinity": "58-02 Myrtle Avenue, Queens"
    },
    {
      "business_status": "OPERATIONAL",
      "geometry": {
        "location": {
          "lat": 40.6991348,
          "lng": -73.9020567
        },
        "viewport": {
          "northeast": {
            "lat": 40.70061183029149,
            "lng": -73.9006336197085
          },
          "southwest": {
            "lat": 40.6979138697085,
            "lng": -73.9033315802915
          }
        }
      },
      "icon": "https://maps.gstatic.com/mapfiles/place_api/icons/v1/png_71/school-71.png",
      "icon_background_color": "#7B9EB0",
      "icon_mask_base_uri": "https://maps.gstatic.com/mapfiles/place_api/icons/v2/school_pinlet",
      "name": "Joseph F. Quinn Intermediate School 77",
      "opening_hours": {
        "open_now": false
      },
      "place_id": "ChIJA-0vcyZcwokRoKqH4QyX32M",
      "plus_code": {
        "compound_code": "M3XX+M5 \u7f8e\u570b\u7d10\u7d04",
        "global_code": "87G8M3XX+M5"
      },
      "rating": 4.3,
      "reference": "ChIJA-0vcyZcwokRoKqH4QyX32M",
      "scope": "GOOGLE",
      "types": [
        "school",
        "point_of_interest",
        "establishment"
      ],
      "user_ratings_total": 47,
      "vicinity": "976 Seneca Avenue, Queens"
    },
    {
      "business_status": "OPERATIONAL",
      "geometry": {
        "location": {
          "lat": 40.7018819,
          "lng": -73.89996049999999
        },
        "viewport": {
          "northeast": {
            "lat": 40.7032750302915,
            "lng": -73.8986337197085
          },
          "southwest": {
            "lat": 40.7005770697085,
            "lng": -73.9013316802915
          }
        }
      },
      "icon": "https://maps.gstatic.com/mapfiles/place_api/icons/v1/png_71/generic_business-71.png",
      "icon_background_color": "#7B9EB0",
      "icon_mask_base_uri": "https://maps.gstatic.com/mapfiles/place_api/icons/v2/generic_pinlet",
      "name": "Eye Institute",
      "place_id": "ChIJ1zXWZChcwokR-JZBeq0LTnM",
      "plus_code": {
        "compound_code": "P422+Q2 \u7f8e\u570b\u7d10\u7d04\u6cd5\u62c9\u76db",
        "global_code": "87G8P422+Q2"
      },
      "reference": "ChIJ1zXWZChcwokR-JZBeq0LTnM",
      "scope": "GOOGLE",
      "types": [
        "doctor",
        "health",
        "point_of_interest",
        "establishment"
      ],
      "vicinity": "5918 69th Avenue #1, Flushing"
    },
    {
      "business_status": "OPERATIONAL",
      "geometry": {
        "location": {
          "lat": 40.7021687,
          "lng": -73.8952659
        },
        "viewport": {
          "northeast": {
            "lat": 40.70351258029149,
            "lng": -73.89381216970848
          },
          "southwest": {
            "lat": 40.7008146197085,
            "lng": -73.8965101302915
          }
        }
      },
      "icon": "https://maps.gstatic.com/mapfiles/place_api/icons/v1/png_71/generic_business-71.png",
      "icon_background_color": "#7B9EB0",
      "icon_mask_base_uri": "https://maps.gstatic.com/mapfiles/place_api/icons/v2/generic_pinlet",
      "name": "Shiel Medical Laboratory",
      "place_id": "ChIJbRgtDIJewokRyB4OmK0YtAE",
      "plus_code": {
        "compound_code": "P423+VV \u7f8e\u570b\u7d10\u7d04",
        "global_code": "87G8P423+VV"
      },
      "reference": "ChIJbRgtDIJewokRyB4OmK0YtAE",
      "scope": "GOOGLE",
      "types": [
        "health",
        "point_of_interest",
        "establishment"
      ],
      "vicinity": "6852 Fresh Pond Road, Queens"
    },
    {
      "business_status": "OPERATIONAL",
      "geometry": {
        "location": {
          "lat": 40.70095910000001,
          "lng": -73.8950236
        },
        "viewport": {
          "northeast": {
            "lat": 40.70220613029151,
            "lng": -73.89367341970849
          },
          "southwest": {
            "lat": 40.69950816970851,
            "lng": -73.8963713802915
          }
        }
      },
      "icon": "https://maps.gstatic.com/mapfiles/place_api/icons/v1/png_71/restaurant-71.png",
      "icon_background_color": "#FF9E67",
      "icon_mask_base_uri": "https://maps.gstatic.com/mapfiles/place_api/icons/v2/restaurant_pinlet",
      "name": "Corato II Pizza",
      "opening_hours": {
        "open_now": true
      },
      "photos": [
        {
          "height": 3024,
          "html_attributions": [
            "<a href=\"https://maps.google.com/maps/contrib/110902404551428336544\">Maria Cabrera</a>"
          ],
          "photo_reference": "AeJbb3dLwZZaA6sZ9CxcbZ7tCGCSbW9cd_kwZ5Cii9tWLLBL4fVZNAXNSR4TMMqWYW76eGlLV5S7dOATE_FsPifRlBJhpnPhnk0GpoGW5tfjfLPEt2Fb13plXD9i268O_hzFFR71BlWOD5pNj3Q-SmNoWcv_DSta36DNG9mJEylUpFcazNGi",
          "width": 4032
        }
      ],
      "place_id": "ChIJQ1HohilcwokR10DoLW1gz4s",
      "plus_code": {
        "compound_code": "P423+9X \u7f8e\u570b\u7d10\u7d04",
        "global_code": "87G8P423+9X"
      },
      "price_level": 1,
      "rating": 4.1,
      "reference": "ChIJQ1HohilcwokR10DoLW1gz4s",
      "scope": "GOOGLE",
      "types": [
        "restaurant",
        "food",
        "point_of_interest",
        "establishment"
      ],
      "user_ratings_total": 270,
      "vicinity": "6091 Myrtle Avenue, Queens"
    },
    {
      "business_status": "OPERATIONAL",
      "geometry": {
        "location": {
          "lat": 40.7021687,
          "lng": -73.8952659
        },
        "viewport": {
          "northeast": {
            "lat": 40.7035282302915,
            "lng": -73.89381776970849
          },
          "southwest": {
            "lat": 40.7008302697085,
            "lng": -73.89651573029151
          }
        }
      },
      "icon": "https://maps.gstatic.com/mapfiles/place_api/icons/v1/png_71/generic_business-71.png",
      "icon_background_color": "#7B9EB0",
      "icon_mask_base_uri": "https://maps.gstatic.com/mapfiles/place_api/icons/v2/generic_pinlet",
      "name": "Kamler Kenneth MD",
      "place_id": "ChIJSY5f7JJiwokROkOVCFBEMFk",
      "plus_code": {
        "compound_code": "P423+VV Ridgewood, \u7d10\u7d04\u7f8e\u570b",
        "global_code": "87G8P423+VV"
      },
      "rating": 5,
      "reference": "ChIJSY5f7JJiwokROkOVCFBEMFk",
      "scope": "GOOGLE",
      "types": [
        "doctor",
        "health",
        "point_of_interest",
        "establishment"
      ],
      "user_ratings_total": 1,
      "vicinity": "6655 Fresh Pond Road, Ridgewood"
    },
    {
      "business_status": "OPERATIONAL",
      "geometry": {
        "location": {
          "lat": 40.69661759999999,
          "lng": -73.8979071
        },
        "viewport": {
          "northeast": {
            "lat": 40.69787273029149,
            "lng": -73.89665411970849
          },
          "southwest": {
            "lat": 40.69517476970849,
            "lng": -73.89935208029151
          }
        }
      },
      "icon": "https://maps.gstatic.com/mapfiles/place_api/icons/v1/png_71/generic_business-71.png",
      "icon_background_color": "#7B9EB0",
      "icon_mask_base_uri": "https://maps.gstatic.com/mapfiles/place_api/icons/v2/generic_pinlet",
      "name": "Teamcare",
      "place_id": "ChIJp7YLAy9cwokRylV-HAeUkTw",
      "plus_code": {
        "compound_code": "M4W2+JR Ridgewood, \u7d10\u7d04\u7f8e\u570b",
        "global_code": "87G8M4W2+JR"
      },
      "rating": 3.7,
      "reference": "ChIJp7YLAy9cwokRylV-HAeUkTw",
      "scope": "GOOGLE",
      "types": [
        "hospital",
        "insurance_agency",
        "health",
        "point_of_interest",
        "establishment"
      ],
      "user_ratings_total": 3,
      "vicinity": "11-40 Seneca Avenue, Ridgewood"
    },
    {
      "business_status": "OPERATIONAL",
      "geometry": {
        "location": {
          "lat": 40.7021687,
          "lng": -73.8952659
        },
        "viewport": {
          "northeast": {
            "lat": 40.7035282302915,
            "lng": -73.89381776970849
          },
          "southwest": {
            "lat": 40.7008302697085,
            "lng": -73.89651573029151
          }
        }
      },
      "icon": "https://maps.gstatic.com/mapfiles/place_api/icons/v1/png_71/generic_business-71.png",
      "icon_background_color": "#7B9EB0",
      "icon_mask_base_uri": "https://maps.gstatic.com/mapfiles/place_api/icons/v2/generic_pinlet",
      "name": "Dr. Joel E. Hershey, MD",
      "place_id": "ChIJhc2AmYNewokRBDCdwURrz8Y",
      "plus_code": {
        "compound_code": "P423+VV Ridgewood, \u7d10\u7d04\u7f8e\u570b",
        "global_code": "87G8P423+VV"
      },
      "rating": 3,
      "reference": "ChIJhc2AmYNewokRBDCdwURrz8Y",
      "scope": "GOOGLE",
      "types": [
        "doctor",
        "health",
        "point_of_interest",
        "establishment"
      ],
      "user_ratings_total": 2,
      "vicinity": "6655 Fresh Pond Road #1, Ridgewood"
    },
    {
      "business_status": "OPERATIONAL",
      "geometry": {
        "location": {
          "lat": 40.69688530000001,
          "lng": -73.8969236
        },
        "viewport": {
          "northeast": {
            "lat": 40.6981155302915,
            "lng": -73.89572926970848
          },
          "southwest": {
            "lat": 40.6954175697085,
            "lng": -73.89842723029149
          }
        }
      },
      "icon": "https://maps.gstatic.com/mapfiles/place_api/icons/v1/png_71/school-71.png",
      "icon_background_color": "#7B9EB0",
      "icon_mask_base_uri": "https://maps.gstatic.com/mapfiles/place_api/icons/v2/school_pinlet",
      "name": "P.S. 068 Cambridge",
      "photos": [
        {
          "height": 2576,
          "html_attributions": [
            "<a href=\"https://maps.google.com/maps/contrib/101315527370383749210\">jaida Alarcon</a>"
          ],
          "photo_reference": "AeJbb3eZDP2g2zy4qi4LsxJUv5wfeAOUxKysMGPmgLn9VzAlZYdgbOKUzynBcvpsw5qu1zEYUxw_4Pw0LEbGVcK32n9a3t2zQ98qpAy183dv1eyAESXVFBO-TDZkGB9Hff3N8-MxWHvy-RBgxtwbFSOH7F-Y2gbtutcISHx7MvHzOkGRjgFI",
          "width": 1932
        }
      ],
      "place_id": "ChIJZ9O35i5cwokRkT3PFr3n170",
      "plus_code": {
        "compound_code": "M4W3+Q6 \u7f8e\u570b\u7d10\u7d04",
        "global_code": "87G8M4W3+Q6"
      },
      "rating": 4.3,
      "reference": "ChIJZ9O35i5cwokRkT3PFr3n170",
      "scope": "GOOGLE",
      "types": [
        "primary_school",
        "school",
        "point_of_interest",
        "establishment"
      ],
      "user_ratings_total": 18,
      "vicinity": "59-09 Saint Felix Avenue, Queens"
    },
    {
      "business_status": "OPERATIONAL",
      "geometry": {
        "location": {
          "lat": 40.7007,
          "lng": -73.900932
        },
        "viewport": {
          "northeast": {
            "lat": 40.7019452802915,
            "lng": -73.8995444197085
          },
          "southwest": {
            "lat": 40.6992473197085,
            "lng": -73.90224238029151
          }
        }
      },
      "icon": "https://maps.gstatic.com/mapfiles/place_api/icons/v1/png_71/shopping-71.png",
      "icon_background_color": "#4B96F3",
      "icon_mask_base_uri": "https://maps.gstatic.com/mapfiles/place_api/icons/v2/shopping_pinlet",
      "name": "Telco Stores",
      "opening_hours": {
        "open_now": true
      },
      "photos": [
        {
          "height": 3024,
          "html_attributions": [
            "<a href=\"https://maps.google.com/maps/contrib/115888707897869182447\">Phillip Huang</a>"
          ],
          "photo_reference": "AeJbb3fZYZ9utHX7bq0tfRraaNmNZSMc8QlSDMMXckQcyKiECpU4qG1c3E_Vh6Agh-ePJbljBQyUB2uWCpv8Umayv5GZSO1lA_z_XE_cY2A1Iijdlo4Wxz3Mn8X5YisMQPwoEVkFNz1tyLXu6ZkmatdW0GAzNXtiRC7ydWqGB0yNTmoamYf7",
          "width": 4032
        }
      ],
      "place_id": "ChIJk8hIJiZcwokRJuO97qaqURA",
      "plus_code": {
        "compound_code": "P32X+7J \u7f8e\u570b\u7d10\u7d04",
        "global_code": "87G8P32X+7J"
      },
      "rating": 4.1,
      "reference": "ChIJk8hIJiZcwokRJuO97qaqURA",
      "scope": "GOOGLE",
      "types": [
        "department_store",
        "clothing_store",
        "store",
        "point_of_interest",
        "establishment"
      ],
      "user_ratings_total": 779,
      "vicinity": "58-09 Myrtle Avenue, Queens"
    },
    {
      "business_status": "OPERATIONAL",
      "geometry": {
        "location": {
          "lat": 40.70066669999999,
          "lng": -73.9021088
        },
        "viewport": {
          "northeast": {
            "lat": 40.70192138029149,
            "lng": -73.90076061970849
          },
          "southwest": {
            "lat": 40.6992234197085,
            "lng": -73.90345858029151
          }
        }
      },
      "icon": "https://maps.gstatic.com/mapfiles/place_api/icons/v1/png_71/shopping-71.png",
      "icon_background_color": "#4B96F3",
      "icon_mask_base_uri": "https://maps.gstatic.com/mapfiles/place_api/icons/v2/shopping_pinlet",
      "name": "The Children's Place",
      "opening_hours": {
        "open_now": true
      },
      "photos": [
        {
          "height": 1080,
          "html_attributions": [
            "<a href=\"https://maps.google.com/maps/contrib/116570594722014517229\">Olga Restea</a>"
          ],
          "photo_reference": "AeJbb3cPp-iNWX7bmRSnEqH9UWTzAUPoMCuc1eK1WttNWRczEPKuwmpQd0TSemCwf0J649JeN_ITTs0Wz7LtIF3w3b6YxLwEvmYhiibcK4GzrBUbSPyrTpyIcUyrqNGkrK2Pah3ysXk4QjxHdIpamwTrdfvtFtfoaNeIMDBvzo99_o_Aa6-5",
          "width": 1920
        }
      ],
      "place_id": "ChIJbyZcQCZcwokRq-Nbpfsk7B0",
      "plus_code": {
        "compound_code": "P32X+75 \u7f8e\u570b\u7d10\u7d04",
        "global_code": "87G8P32X+75"
      },
      "price_level": 1,
      "rating": 3.6,
      "reference": "ChIJbyZcQCZcwokRq-Nbpfsk7B0",
      "scope": "GOOGLE",
      "types": [
        "clothing_store",
        "store",
        "point_of_interest",
        "establishment"
      ],
      "user_ratings_total": 55,
      "vicinity": "57-37 Myrtle Avenue, Queens"
    },
    {
      "business_status": "OPERATIONAL",
      "geometry": {
        "location": {
          "lat": 40.69943,
          "lng": -73.90383299999999
        },
        "viewport": {
          "northeast": {
            "lat": 40.7006579302915,
            "lng": -73.90243896970848
          },
          "southwest": {
            "lat": 40.6979599697085,
            "lng": -73.90513693029149
          }
        }
      },
      "icon": "https://maps.gstatic.com/mapfiles/place_api/icons/v1/png_71/school-71.png",
      "icon_background_color": "#7B9EB0",
      "icon_mask_base_uri": "https://maps.gstatic.com/mapfiles/place_api/icons/v2/school_pinlet",
      "name": "P.S. 239Q",
      "opening_hours": {
        "open_now": false
      },
      "place_id": "ChIJ8bLKgSZcwokRFRwbs_bwgD8",
      "plus_code": {
        "compound_code": "M3XW+QF \u7f8e\u570b\u7d10\u7d04",
        "global_code": "87G8M3XW+QF"
      },
      "rating": 4.1,
      "reference": "ChIJ8bLKgSZcwokRFRwbs_bwgD8",
      "scope": "GOOGLE",
      "types": [
        "primary_school",
        "school",
        "point_of_interest",
        "establishment"
      ],
      "user_ratings_total": 16,
      "vicinity": "17-15 Weirfield Street, Queens"
    },
    {
      "business_status": "OPERATIONAL",
      "geometry": {
        "location": {
          "lat": 40.7008498,
          "lng": -73.8953982
        },
        "viewport": {
          "northeast": {
            "lat": 40.7021375302915,
            "lng": -73.89404071970851
          },
          "southwest": {
            "lat": 40.6994395697085,
            "lng": -73.89673868029152
          }
        }
      },
      "icon": "https://maps.gstatic.com/mapfiles/place_api/icons/v1/png_71/generic_business-71.png",
      "icon_background_color": "#7B9EB0",
      "icon_mask_base_uri": "https://maps.gstatic.com/mapfiles/place_api/icons/v2/generic_pinlet",
      "name": "Ambulatory Oral Surgery & Anesthesiology",
      "opening_hours": {
        "open_now": false
      },
      "photos": [
        {
          "height": 783,
          "html_attributions": [
            "<a href=\"https://maps.google.com/maps/contrib/106351732116236686357\">Ambulatory Oral Surgery &amp; Anesthesiology</a>"
          ],
          "photo_reference": "AeJbb3fQMDqXXEMWz_X4mC0U0vmlq8jmJPJpZj2HRLD6f-Mph2joXRuPrefYRuOZZzj-d6YIVOBeMJU43RfGQfPOBLmV_zR4qh3x-0mfNM23hoFJpabEBjG-Bn7hCAI-sqco4844mqIM_Oi3v6AJWkJw-e6EygZD6wY-lwnYVI0H_qFA4oY-",
          "width": 1392
        }
      ],
      "place_id": "ChIJHRZ5hClcwokRZr5FzEN-aGk",
      "plus_code": {
        "compound_code": "P423+8R \u7f8e\u570b\u7d10\u7d04",
        "global_code": "87G8P423+8R"
      },
      "rating": 3.6,
      "reference": "ChIJHRZ5hClcwokRZr5FzEN-aGk",
      "scope": "GOOGLE",
      "types": [
        "dentist",
        "health",
        "point_of_interest",
        "establishment"
      ],
      "user_ratings_total": 55,
      "vicinity": "60-83 Myrtle Avenue, Queens"
    },
    {
      "business_status": "OPERATIONAL",
      "geometry": {
        "location": {
          "lat": 40.70190090000001,
          "lng": -73.90241619999999
        },
        "viewport": {
          "northeast": {
            "lat": 40.7032177302915,
            "lng": -73.9010175197085
          },
          "southwest": {
            "lat": 40.7005197697085,
            "lng": -73.90371548029151
          }
        }
      },
      "icon": "https://maps.gstatic.com/mapfiles/place_api/icons/v1/png_71/worship_general-71.png",
      "icon_background_color": "#7B9EB0",
      "icon_mask_base_uri": "https://maps.gstatic.com/mapfiles/place_api/icons/v2/worship_christian_pinlet",
      "name": "St Matthias Roman Catholic Church",
      "photos": [
        {
          "height": 947,
          "html_attributions": [
            "<a href=\"https://maps.google.com/maps/contrib/117900148411508962092\">Michael Rossi</a>"
          ],
          "photo_reference": "AeJbb3dAv4cYPmxFkU5aG_njWlNsuSYX-6Ljy3T9oM3-M5ivlYxML5x3sc3v4qzzGbZUjn-H4AGp1z0L0s_bSy_ayTC7QhiB8XMEvBjeBTiqH0UeKu5JyeYMHfxlKJgkU_FXkXdNzEyvR8lErv1s3TGFiswanxPD7O3pRp2nGXklWnXTns4",
          "width": 1080
        }
      ],
      "place_id": "ChIJZQOhsydcwokRpkAFWWNHWms",
      "plus_code": {
        "compound_code": "P32X+Q2 \u7f8e\u570b\u7d10\u7d04",
        "global_code": "87G8P32X+Q2"
      },
      "rating": 4.6,
      "reference": "ChIJZQOhsydcwokRpkAFWWNHWms",
      "scope": "GOOGLE",
      "types": [
        "church",
        "place_of_worship",
        "point_of_interest",
        "establishment"
      ],
      "user_ratings_total": 121,
      "vicinity": "5815 Catalpa Avenue, Queens"
    },
    {
      "business_status": "OPERATIONAL",
      "geometry": {
        "location": {
          "lat": 40.700345,
          "lng": -73.9032922
        },
        "viewport": {
          "northeast": {
            "lat": 40.7017476802915,
            "lng": -73.90196441970849
          },
          "southwest": {
            "lat": 40.6990497197085,
            "lng": -73.9046623802915
          }
        }
      },
      "icon": "https://maps.gstatic.com/mapfiles/place_api/icons/v1/png_71/shopping-71.png",
      "icon_background_color": "#4B96F3",
      "icon_mask_base_uri": "https://maps.gstatic.com/mapfiles/place_api/icons/v2/shopping_pinlet",
      "name": "Mattress Firm Ridgewood",
      "opening_hours": {
        "open_now": true
      },
      "photos": [
        {
          "height": 2268,
          "html_attributions": [
            "<a href=\"https://maps.google.com/maps/contrib/105174555928559709749\">Mattress Firm Ridgewood</a>"
          ],
          "photo_reference": "AeJbb3e-jQa4fRa4f-HGl8NVVrG_LTkGxhYEH7p9YV_8KD1A5BPDfvIuovyJu0LylQXmlkM56XQcUVBhgSTl4hu7pNWUc6UoQRSmp39G7yjBqlwejggUA9kukAPCsEQZTmDnwrMNpP6aY9Ztt94Ez-3n5DHaZWez-PZihQNe8nXktaaM6GMv",
          "width": 3024
        }
      ],
      "place_id": "ChIJW1V3ZyZcwokRqvSZiKY9Mmc",
      "plus_code": {
        "compound_code": "P32W+4M \u7f8e\u570b\u7d10\u7d04",
        "global_code": "87G8P32W+4M"
      },
      "price_level": 1,
      "rating": 4.9,
      "reference": "ChIJW1V3ZyZcwokRqvSZiKY9Mmc",
      "scope": "GOOGLE",
      "types": [
        "furniture_store",
        "home_goods_store",
        "store",
        "point_of_interest",
        "establishment"
      ],
      "user_ratings_total": 670,
      "vicinity": "5714 Myrtle Avenue, Queens"
    },
    {
      "business_status": "OPERATIONAL",
      "geometry": {
        "location": {
          "lat": 40.7003073,
          "lng": -73.901412
        },
        "viewport": {
          "northeast": {
            "lat": 40.7016980802915,
            "lng": -73.9000824197085
          },
          "southwest": {
            "lat": 40.6990001197085,
            "lng": -73.9027803802915
          }
        }
      },
      "icon": "https://maps.gstatic.com/mapfiles/place_api/icons/v1/png_71/bank-71.png",
      "icon_background_color": "#909CE1",
      "icon_mask_base_uri": "https://maps.gstatic.com/mapfiles/place_api/icons/v2/bank-intl_pinlet",
      "name": "First Central Savings Bank",
      "opening_hours": {
        "open_now": false
      },
      "place_id": "ChIJCUP6r3hewokR8qGTDstV8oI",
      "plus_code": {
        "compound_code": "P32X+4C Ridgewood, \u7d10\u7d04\u7f8e\u570b",
        "global_code": "87G8P32X+4C"
      },
      "reference": "ChIJCUP6r3hewokR8qGTDstV8oI",
      "scope": "GOOGLE",
      "types": [
        "bank",
        "atm",
        "finance",
        "point_of_interest",
        "establishment"
      ],
      "vicinity": "58-02 Myrtle Avenue, Ridgewood"
    },
    {
      "business_status": "OPERATIONAL",
      "geometry": {
        "location": {
          "lat": 40.70066610000001,
          "lng": -73.9000495
        },
        "viewport": {
          "northeast": {
            "lat": 40.70193613029151,
            "lng": -73.89868556970849
          },
          "southwest": {
            "lat": 40.69923816970851,
            "lng": -73.9013835302915
          }
        }
      },
      "icon": "https://maps.gstatic.com/mapfiles/place_api/icons/v1/png_71/bank-71.png",
      "icon_background_color": "#909CE1",
      "icon_mask_base_uri": "https://maps.gstatic.com/mapfiles/place_api/icons/v2/bank-intl_pinlet",
      "name": "Bank of America Financial Center",
      "opening_hours": {
        "open_now": false
      },
      "photos": [
        {
          "height": 980,
          "html_attributions": [
            "<a href=\"https://maps.google.com/maps/contrib/117244935495911197144\">Bank of America Financial Center</a>"
          ],
          "photo_reference": "AeJbb3exmdVNow5DhyZH9f5NcclY0icje-EQ6z5EHRe4YMyRo0IFSEXUU__toeGUCOe8jNipeyvfwEO2zc23XEMPn5iUbGeAqOH7n3LQ-6R_bgJqRhKI-3MGiTwsW88294EQHUMHTJzSrFk5YsCEzZ-0IkBQV5r7sgqUnFlZ908UdUIUf9ut",
          "width": 1742
        }
      ],
      "place_id": "ChIJdcTGmihcwokRn0dkG1bNjQs",
      "plus_code": {
        "compound_code": "P32X+7X \u7f8e\u570b\u7d10\u7d04",
        "global_code": "87G8P32X+7X"
      },
      "rating": 2.4,
      "reference": "ChIJdcTGmihcwokRn0dkG1bNjQs",
      "scope": "GOOGLE",
      "types": [
        "bank",
        "finance",
        "point_of_interest",
        "establishment"
      ],
      "user_ratings_total": 69,
      "vicinity": "5901 Myrtle Avenue, Queens"
    },
    {
      "geometry": {
        "location": {
          "lat": 40.7016662,
          "lng": -73.8842219
        },
        "viewport": {
          "northeast": {
            "lat": 40.71336585461923,
            "lng": -73.85217340096503
          },
          "southwest": {
            "lat": 40.68131897558781,
            "lng": -73.90184395324307
          }
        }
      },
      "icon": "https://maps.gstatic.com/mapfiles/place_api/icons/v1/png_71/geocode-71.png",
      "icon_background_color": "#7B9EB0",
      "icon_mask_base_uri": "https://maps.gstatic.com/mapfiles/place_api/icons/v2/generic_pinlet",
      "name": "\u7687\u540e\u5340\u683c\u502b\u4ee3\u723e",
      "photos": [
        {
          "height": 3874,
          "html_attributions": [
            "<a href=\"https://maps.google.com/maps/contrib/104845254905499903843\">Rishat FamiLyZ &amp; FuNz</a>"
          ],
          "photo_reference": "AeJbb3eWq35xzExl9_nNbyafR7vHcQreKuIDgaBlUc5aTIpE7kJR4bn-bKwgAcVnCjM_ZsqpPy_SSODVB_OizQMD-fMzS3STW6Ec-bEw8oSYtedOJxocxH68uyuFeUD5dXePdxpaox6grgr-L3ZEHKTcWCWjeBTXiB3whLfaQjlBFPWPOPv1",
          "width": 11420
        }
      ],
      "place_id": "ChIJzxpbqNRdwokRei5U60d4x0Q",
      "reference": "ChIJzxpbqNRdwokRei5U60d4x0Q",
      "scope": "GOOGLE",
      "types": [
        "neighborhood",
        "political"
      ],
      "vicinity": "\u7687\u540e\u5340"
    },
    {
      "business_status": "OPERATIONAL",
      "geometry": {
        "location": {
          "lat": 40.700487,
          "lng": -73.8966635
        },
        "viewport": {
          "northeast": {
            "lat": 40.7018669302915,
            "lng": -73.8953771697085
          },
          "southwest": {
            "lat": 40.6991689697085,
            "lng": -73.8980751302915
          }
        }
      },
      "icon": "https://maps.gstatic.com/mapfiles/place_api/icons/v1/png_71/cafe-71.png",
      "icon_background_color": "#FF9E67",
      "icon_mask_base_uri": "https://maps.gstatic.com/mapfiles/place_api/icons/v2/cafe_pinlet",
      "name": "Dunkin'",
      "opening_hours": {
        "open_now": true
      },
      "photos": [
        {
          "height": 800,
          "html_attributions": [
            "<a href=\"https://maps.google.com/maps/contrib/106296622393660821703\">Dunkin&#39;</a>"
          ],
          "photo_reference": "AeJbb3d4UnSxHxFXpVTft_3-xFBiQ7UuKa1_LWsgg8Z2ghcs19QNdWiv-n9AuF44AcEcbL_uCcuQ9zKFO8B1iRtXL_GPf2QBiQcJtT0dhQMmASoeeNBU3Q910rPSE7HJ_GnU2V1MlSQl1gfo-XuDj4Rdb7Sfr3rIz8f1P3seBTaGiv1JtxEr",
          "width": 1143
        }
      ],
      "place_id": "ChIJsYMCDClcwokRGxp8NomXdoo",
      "plus_code": {
        "compound_code": "P423+58 New York, NY, USA",
        "global_code": "87G8P423+58"
      },
      "price_level": 1,
      "rating": 3.9,
      "reference": "ChIJsYMCDClcwokRGxp8NomXdoo",
      "scope": "GOOGLE",
      "types": [
        "cafe",
        "bakery",
        "meal_takeaway",
        "restaurant",
        "food",
        "point_of_interest",
        "store",
        "establishment"
      ],
      "user_ratings_total": 176,
      "vicinity": "6040 Myrtle Avenue, Queens"
    },
    {
      "business_status": "OPERATIONAL",
      "geometry": {
        "location": {
          "lat": 40.70068070000001,
          "lng": -73.90298969999999
        },
        "viewport": {
          "northeast": {
            "lat": 40.70192593029149,
            "lng": -73.9014260197085
          },
          "southwest": {
            "lat": 40.6992279697085,
            "lng": -73.9041239802915
          }
        }
      },
      "icon": "https://maps.gstatic.com/mapfiles/place_api/icons/v1/png_71/restaurant-71.png",
      "icon_background_color": "#FF9E67",
      "icon_mask_base_uri": "https://maps.gstatic.com/mapfiles/place_api/icons/v2/restaurant_pinlet",
      "name": "Taco Bell",
      "photos": [
        {
          "height": 3264,
          "html_attributions": [
            "<a href=\"https://maps.google.com/maps/contrib/113877894783482867279\">Abba Henrik</a>"
          ],
          "photo_reference": "AeJbb3e9idBozamex5oAc9nEzbrwfR7Gptv4OMIKYbcEXEVTIKvuEnTkyPIqU94N9Ur0FPTK5L1QwhpsNdOLYl0X5_4IRgbQwgYcEp8vM3IeEIYongH_VUCkvZyogtDOlFfu1BnuGLeGrYVcOVBSabbtopfYfJ2hPqcKR9M-8fpoglLB9gHl",
          "width": 2448
        }
      ],
      "place_id": "ChIJnyoyQiZcwokRYFKVDcn4spI",
      "plus_code": {
        "compound_code": "P32W+7R New York, NY, USA",
        "global_code": "87G8P32W+7R"
      },
      "price_level": 1,
      "rating": 3.8,
      "reference": "ChIJnyoyQiZcwokRYFKVDcn4spI",
      "scope": "GOOGLE",
      "types": [
        "meal_takeaway",
        "restaurant",
        "food",
        "point_of_interest",
        "establishment"
      ],
      "user_ratings_total": 875,
      "vicinity": "57-17 Myrtle Avenue, Queens"
    },
    {
      "business_status": "OPERATIONAL",
      "geometry": {
        "location": {
          "lat": 40.6978813,
          "lng": -73.89832009999999
        },
        "viewport": {
          "northeast": {
            "lat": 40.6992016302915,
            "lng": -73.89692166970848
          },
          "southwest": {
            "lat": 40.6965036697085,
            "lng": -73.8996196302915
          }
        }
      },
      "icon": "https://maps.gstatic.com/mapfiles/place_api/icons/v1/png_71/generic_business-71.png",
      "icon_background_color": "#7B9EB0",
      "icon_mask_base_uri": "https://maps.gstatic.com/mapfiles/place_api/icons/v2/generic_pinlet",
      "name": "Prisma Glass & Mirror Inc",
      "opening_hours": {
        "open_now": false
      },
      "photos": [
        {
          "height": 300,
          "html_attributions": [
            "<a href=\"https://maps.google.com/maps/contrib/107438451850521430213\">Prisma Glass &amp; Mirror Inc</a>"
          ],
          "photo_reference": "AeJbb3c99DSn33prIbTl2DSoGcoDPOrGE5PU6bwY0GNnrfgcJoNBZesHJYtVNu-eFGhBG1sfdxibIhL73LHzJju8tACeNZnalydQjAB-U8uZoO-5UcAAZTxfYm9qOy3ZiOIB0UEfmG3QlBRk3Z6psXar36k4Gb7OMPG23BrMNnx-HvmHYWXn",
          "width": 400
        }
      ],
      "place_id": "ChIJs29cJS9cwokRumxPmcSDLJ4",
      "plus_code": {
        "compound_code": "M4X2+5M Ridgewood, Queens, NY, USA",
        "global_code": "87G8M4X2+5M"
      },
      "rating": 4.6,
      "reference": "ChIJs29cJS9cwokRumxPmcSDLJ4",
      "scope": "GOOGLE",
      "types": [
        "point_of_interest",
        "establishment"
      ],
      "user_ratings_total": 13,
      "vicinity": "1815 Decatur Street #6017, Ridgewood"
    },
    {
      "business_status": "CLOSED_TEMPORARILY",
      "geometry": {
        "location": {
          "lat": 40.6968584,
          "lng": -73.8973882
        },
        "viewport": {
          "northeast": {
            "lat": 40.6980876302915,
            "lng": -73.8959545697085
          },
          "southwest": {
            "lat": 40.6953896697085,
            "lng": -73.8986525302915
          }
        }
      },
      "icon": "https://maps.gstatic.com/mapfiles/place_api/icons/v1/png_71/school-71.png",
      "icon_background_color": "#7B9EB0",
      "icon_mask_base_uri": "https://maps.gstatic.com/mapfiles/place_api/icons/v2/school_pinlet",
      "name": "Nyc Bd of Ed PS 68",
      "permanently_closed": true,
      "place_id": "ChIJZ9O35i5cwokR5vaDTUP_qK8",
      "plus_code": {
        "compound_code": "M4W3+P2 Glendale, Queens, NY, USA",
        "global_code": "87G8M4W3+P2"
      },
      "reference": "ChIJZ9O35i5cwokR5vaDTUP_qK8",
      "scope": "GOOGLE",
      "types": [
        "school",
        "point_of_interest",
        "establishment"
      ],
      "vicinity": "5909 Saint Felix Avenue, Glendale"
    },
    {
      "business_status": "CLOSED_TEMPORARILY",
      "geometry": {
        "location": {
          "lat": 40.7021687,
          "lng": -73.8952659
        },
        "viewport": {
          "northeast": {
            "lat": 40.7035282302915,
            "lng": -73.89381776970849
          },
          "southwest": {
            "lat": 40.7008302697085,
            "lng": -73.89651573029151
          }
        }
      },
      "icon": "https://maps.gstatic.com/mapfiles/place_api/icons/v1/png_71/generic_business-71.png",
      "icon_background_color": "#7B9EB0",
      "icon_mask_base_uri": "https://maps.gstatic.com/mapfiles/place_api/icons/v2/generic_pinlet",
      "name": "Okarma Czaplicka Esqs",
      "permanently_closed": true,
      "place_id": "ChIJ3aSinINewokRe09DSnUOhO0",
      "plus_code": {
        "compound_code": "P423+VV Ridgewood, Queens, NY, USA",
        "global_code": "87G8P423+VV"
      },
      "reference": "ChIJ3aSinINewokRe09DSnUOhO0",
      "scope": "GOOGLE",
      "types": [
        "lawyer",
        "point_of_interest",
        "establishment"
      ],
      "vicinity": "6645 Fresh Pond Road, Ridgewood"
    },
    {
      "business_status": "OPERATIONAL",
      "geometry": {
        "location": {
          "lat": 40.7012212,
          "lng": -73.8944192
        },
        "viewport": {
          "northeast": {
            "lat": 40.7025410802915,
            "lng": -73.89320951970849
          },
          "southwest": {
            "lat": 40.6998431197085,
            "lng": -73.8959074802915
          }
        }
      },
      "icon": "https://maps.gstatic.com/mapfiles/place_api/icons/v1/png_71/generic_business-71.png",
      "icon_background_color": "#7B9EB0",
      "icon_mask_base_uri": "https://maps.gstatic.com/mapfiles/place_api/icons/v2/generic_pinlet",
      "name": "Domenico's Unisex Hair Styling",
      "opening_hours": {
        "open_now": true
      },
      "place_id": "ChIJtfKxJSpcwokRCscM1EmjiWc",
      "plus_code": {
        "compound_code": "P424+F6 Ridgewood, Queens, NY, USA",
        "global_code": "87G8P424+F6"
      },
      "rating": 4.6,
      "reference": "ChIJtfKxJSpcwokRCscM1EmjiWc",
      "scope": "GOOGLE",
      "types": [
        "hair_care",
        "health",
        "point_of_interest",
        "establishment"
      ],
      "user_ratings_total": 12,
      "vicinity": "71-25 Fresh Pond Road, Ridgewood"
    },
    {
      "business_status": "OPERATIONAL",
      "geometry": {
        "location": {
          "lat": 40.7007111,
          "lng": -73.8975987
        },
        "viewport": {
          "northeast": {
            "lat": 40.7019796302915,
            "lng": -73.89623231970849
          },
          "southwest": {
            "lat": 40.6992816697085,
            "lng": -73.8989302802915
          }
        }
      },
      "icon": "https://maps.gstatic.com/mapfiles/place_api/icons/v1/png_71/restaurant-71.png",
      "icon_background_color": "#FF9E67",
      "icon_mask_base_uri": "https://maps.gstatic.com/mapfiles/place_api/icons/v2/restaurant_pinlet",
      "name": "Kum Wei Kitchen",
      "opening_hours": {
        "open_now": true
      },
      "photos": [
        {
          "height": 3968,
          "html_attributions": [
            "<a href=\"https://maps.google.com/maps/contrib/111548404398039131347\">James Hampton</a>"
          ],
          "photo_reference": "AeJbb3fImyDCUTqdevUfUaaXlx2Kyv0Mt5DKbRGmX_CKHtETXyMCGwHjnQB0uUEzVb19F0M1UDPqqLqrbKzMSSUO6ZNRwfsmiNM8zHxIt6olnL8SUTK6T0p1auOJutP64bQUkSsZaIgvWDBWrQfCHX6Ek2gN-Qdq4puY_Dfobyv5XXkUhHwD",
          "width": 2976
        }
      ],
      "place_id": "ChIJscSCASlcwokRYfXgGKSEVEc",
      "plus_code": {
        "compound_code": "P422+7X Ridgewood, Queens, NY, USA",
        "global_code": "87G8P422+7X"
      },
      "price_level": 1,
      "rating": 3.7,
      "reference": "ChIJscSCASlcwokRYfXgGKSEVEc",
      "scope": "GOOGLE",
      "types": [
        "meal_delivery",
        "restaurant",
        "food",
        "point_of_interest",
        "establishment"
      ],
      "user_ratings_total": 35,
      "vicinity": "60-19 Myrtle Avenue, Ridgewood"
    },
    {
      "business_status": "OPERATIONAL",
      "geometry": {
        "location": {
          "lat": 40.70041140000001,
          "lng": -73.8989399
        },
        "viewport": {
          "northeast": {
            "lat": 40.7018064302915,
            "lng": -73.89759236970849
          },
          "southwest": {
            "lat": 40.6991084697085,
            "lng": -73.90029033029151
          }
        }
      },
      "icon": "https://maps.gstatic.com/mapfiles/place_api/icons/v1/png_71/generic_business-71.png",
      "icon_background_color": "#7B9EB0",
      "icon_mask_base_uri": "https://maps.gstatic.com/mapfiles/place_api/icons/v2/generic_pinlet",
      "name": "Ridgewood Sewer & Drain Cleaning",
      "place_id": "ChIJtzGp9ChcwokRjQFSdwGNRNs",
      "plus_code": {
        "compound_code": "P422+5C Ridgewood, Queens, NY, USA",
        "global_code": "87G8P422+5C"
      },
      "reference": "ChIJtzGp9ChcwokRjQFSdwGNRNs",
      "scope": "GOOGLE",
      "types": [
        "plumber",
        "point_of_interest",
        "establishment"
      ],
      "vicinity": "5917 71st Avenue, Ridgewood"
    },
    {
      "business_status": "OPERATIONAL",
      "geometry": {
        "location": {
          "lat": 40.7021687,
          "lng": -73.8952659
        },
        "viewport": {
          "northeast": {
            "lat": 40.7035282302915,
            "lng": -73.89381776970849
          },
          "southwest": {
            "lat": 40.7008302697085,
            "lng": -73.89651573029151
          }
        }
      },
      "icon": "https://maps.gstatic.com/mapfiles/place_api/icons/v1/png_71/pharmacy-71.png",
      "icon_background_color": "#F88181",
      "icon_mask_base_uri": "https://maps.gstatic.com/mapfiles/place_api/icons/v2/pharmacy_pinlet",
      "name": "Angela Gong, SLP",
      "place_id": "ChIJ-98kmYNewokRRB2Soc5i4Ss",
      "plus_code": {
        "compound_code": "P423+VV Ridgewood, Queens, NY, USA",
        "global_code": "87G8P423+VV"
      },
      "reference": "ChIJ-98kmYNewokRRB2Soc5i4Ss",
      "scope": "GOOGLE",
      "types": [
        "pharmacy",
        "health",
        "point_of_interest",
        "store",
        "establishment"
      ],
      "vicinity": "6654 Fresh Pond Road, Ridgewood, NY 11385, Ridgewood"
    },
    {
      "business_status": "OPERATIONAL",
      "geometry": {
        "location": {
          "lat": 40.7021687,
          "lng": -73.8952659
        },
        "viewport": {
          "northeast": {
            "lat": 40.70351258029149,
            "lng": -73.89381216970848
          },
          "southwest": {
            "lat": 40.7008146197085,
            "lng": -73.8965101302915
          }
        }
      },
      "icon": "https://maps.gstatic.com/mapfiles/place_api/icons/v1/png_71/generic_business-71.png",
      "icon_background_color": "#7B9EB0",
      "icon_mask_base_uri": "https://maps.gstatic.com/mapfiles/place_api/icons/v2/generic_pinlet",
      "name": "Pavlica D DDS",
      "place_id": "ChIJhxUfR4JewokRYRF3pb22oOw",
      "plus_code": {
        "compound_code": "P423+VV New York, NY, USA",
        "global_code": "87G8P423+VV"
      },
      "reference": "ChIJhxUfR4JewokRYRF3pb22oOw",
      "scope": "GOOGLE",
      "types": [
        "dentist",
        "health",
        "point_of_interest",
        "establishment"
      ],
      "vicinity": "6806 Fresh Pond Road, Queens"
    },
    {
      "business_status": "CLOSED_TEMPORARILY",
      "geometry": {
        "location": {
          "lat": 40.7005206,
          "lng": -73.8958821
        },
        "viewport": {
          "northeast": {
            "lat": 40.70195298029149,
            "lng": -73.89454416970848
          },
          "southwest": {
            "lat": 40.6992550197085,
            "lng": -73.89724213029149
          }
        }
      },
      "icon": "https://maps.gstatic.com/mapfiles/place_api/icons/v1/png_71/shopping-71.png",
      "icon_background_color": "#4B96F3",
      "icon_mask_base_uri": "https://maps.gstatic.com/mapfiles/place_api/icons/v2/shopping_pinlet",
      "name": "12oclock.US",
      "permanently_closed": true,
      "photos": [
        {
          "height": 1152,
          "html_attributions": [
            "<a href=\"https://maps.google.com/maps/contrib/106577444383375911915\">12oclock.US</a>"
          ],
          "photo_reference": "AeJbb3cUrODnrFwZ6uJeZXmNJHEfi8zu5JIzBNtRNMjTbwbGzIHrQ-2LFegl-KTBRndwrvQxl-4rXGdABstzyydQW4tkbO3mrAO3eFGVgD_6OjAiJXl7xQGGfaq0qYwtpw8RlrZ9LL8Ks3qRrrMUEiJ7NmmoLmJfecgCCC4EnNMHpF041bhg",
          "width": 2048
        }
      ],
      "place_id": "ChIJ_f2j9INewokR5fAqN-_XEKI",
      "plus_code": {
        "compound_code": "P423+6J Ridgewood, Queens, NY, USA",
        "global_code": "87G8P423+6J"
      },
      "rating": 5,
      "reference": "ChIJ_f2j9INewokR5fAqN-_XEKI",
      "scope": "GOOGLE",
      "types": [
        "storage",
        "point_of_interest",
        "store",
        "establishment"
      ],
      "user_ratings_total": 2,
      "vicinity": "6060 Myrtle Avenue, Ridgewood"
    },
    {
      "business_status": "OPERATIONAL",
      "geometry": {
        "location": {
          "lat": 40.7021687,
          "lng": -73.8952659
        },
        "viewport": {
          "northeast": {
            "lat": 40.70351258029149,
            "lng": -73.89381216970848
          },
          "southwest": {
            "lat": 40.7008146197085,
            "lng": -73.8965101302915
          }
        }
      },
      "icon": "https://maps.gstatic.com/mapfiles/place_api/icons/v1/png_71/generic_business-71.png",
      "icon_background_color": "#7B9EB0",
      "icon_mask_base_uri": "https://maps.gstatic.com/mapfiles/place_api/icons/v2/generic_pinlet",
      "name": "Benedicto Figueroa Medical PC: Benedicto Milargros A MD",
      "place_id": "ChIJbRgtDIJewokRmQWzNuIBQ4A",
      "plus_code": {
        "compound_code": "P423+VV New York, NY, USA",
        "global_code": "87G8P423+VV"
      },
      "rating": 5,
      "reference": "ChIJbRgtDIJewokRmQWzNuIBQ4A",
      "scope": "GOOGLE",
      "types": [
        "doctor",
        "health",
        "point_of_interest",
        "establishment"
      ],
      "user_ratings_total": 1,
      "vicinity": "6852 Fresh Pond Road, Queens"
    },
    {
      "business_status": "OPERATIONAL",
      "geometry": {
        "location": {
          "lat": 40.7005213,
          "lng": -73.8958822
        },
        "viewport": {
          "northeast": {
            "lat": 40.7019533302915,
            "lng": -73.8945442197085
          },
          "southwest": {
            "lat": 40.6992553697085,
            "lng": -73.8972421802915
          }
        }
      },
      "icon": "https://maps.gstatic.com/mapfiles/place_api/icons/v1/png_71/shopping-71.png",
      "icon_background_color": "#4B96F3",
      "icon_mask_base_uri": "https://maps.gstatic.com/mapfiles/place_api/icons/v2/shopping_pinlet",
      "name": "Sapho Gallery Inc.",
      "opening_hours": {
        "open_now": false
      },
      "photos": [
        {
          "height": 1835,
          "html_attributions": [
            "<a href=\"https://maps.google.com/maps/contrib/105170431124683218627\">Marc Gonzalez</a>"
          ],
          "photo_reference": "AeJbb3fmyq_zyjFLZg-FntDDwmJNMUptpTGaFDXz4hmaMEbesm2HC01MNnKdQ1Veft_0MvrXt3plp7t0Debtt_ImB8ATSmA4k8rCxV6hWazb3cQnkxRiVazSjDT-DTWUB-5MLh4J_hJG-s90eLWNqFlgleDqhnnByZKMUUH6h9r7fI026dvr",
          "width": 1795
        }
      ],
      "place_id": "ChIJ64kACuRYwokRCv8TShV3UDQ",
      "plus_code": {
        "compound_code": "P423+6J New York, NY, USA",
        "global_code": "87G8P423+6J"
      },
      "rating": 5,
      "reference": "ChIJ64kACuRYwokRCv8TShV3UDQ",
      "scope": "GOOGLE",
      "types": [
        "point_of_interest",
        "home_goods_store",
        "store",
        "establishment"
      ],
      "user_ratings_total": 6,
      "vicinity": "6060 Myrtle Avenue #863990, Queens"
    },
    {
      "business_status": "CLOSED_TEMPORARILY",
      "geometry": {
        "location": {
          "lat": 40.7021687,
          "lng": -73.8952659
        },
        "viewport": {
          "northeast": {
            "lat": 40.7035282302915,
            "lng": -73.89381776970849
          },
          "southwest": {
            "lat": 40.7008302697085,
            "lng": -73.89651573029151
          }
        }
      },
      "icon": "https://maps.gstatic.com/mapfiles/place_api/icons/v1/png_71/shopping-71.png",
      "icon_background_color": "#4B96F3",
      "icon_mask_base_uri": "https://maps.gstatic.com/mapfiles/place_api/icons/v2/shopping_pinlet",
      "name": "Linden Convenience Deli Inc",
      "permanently_closed": true,
      "place_id": "ChIJL16Q9ilcwokRzqhN6Tf-CKY",
      "plus_code": {
        "compound_code": "P423+VV Ridgewood, Queens, NY, USA",
        "global_code": "87G8P423+VV"
      },
      "rating": 3.5,
      "reference": "ChIJL16Q9ilcwokRzqhN6Tf-CKY",
      "scope": "GOOGLE",
      "types": [
        "food",
        "point_of_interest",
        "store",
        "establishment"
      ],
      "user_ratings_total": 2,
      "vicinity": "6502 Fresh Pond Road #3, Ridgewood"
    },
    {
      "business_status": "OPERATIONAL",
      "geometry": {
        "location": {
          "lat": 40.7021687,
          "lng": -73.8952659
        },
        "viewport": {
          "northeast": {
            "lat": 40.70351258029149,
            "lng": -73.89381216970848
          },
          "southwest": {
            "lat": 40.7008146197085,
            "lng": -73.8965101302915
          }
        }
      },
      "icon": "https://maps.gstatic.com/mapfiles/place_api/icons/v1/png_71/generic_business-71.png",
      "icon_background_color": "#7B9EB0",
      "icon_mask_base_uri": "https://maps.gstatic.com/mapfiles/place_api/icons/v2/generic_pinlet",
      "name": "Locke & Locke",
      "place_id": "ChIJeUKTPIJewokR1YJb58vgP2w",
      "plus_code": {
        "compound_code": "P423+VV Ridgewood, Queens, NY, USA",
        "global_code": "87G8P423+VV"
      },
      "reference": "ChIJeUKTPIJewokR1YJb58vgP2w",
      "scope": "GOOGLE",
      "types": [
        "lawyer",
        "point_of_interest",
        "establishment"
      ],
      "vicinity": "6831 Fresh Pond Road, Ridgewood"
    },
    {
      "business_status": "OPERATIONAL",
      "geometry": {
        "location": {
          "lat": 40.701151,
          "lng": -73.89823
        },
        "viewport": {
          "northeast": {
            "lat": 40.7024136802915,
            "lng": -73.89683786970849
          },
          "southwest": {
            "lat": 40.6997157197085,
            "lng": -73.8995358302915
          }
        }
      },
      "icon": "https://maps.gstatic.com/mapfiles/place_api/icons/v1/png_71/generic_business-71.png",
      "icon_background_color": "#7B9EB0",
      "icon_mask_base_uri": "https://maps.gstatic.com/mapfiles/place_api/icons/v2/generic_pinlet",
      "name": "Sparkle Clean Team Inc",
      "opening_hours": {
        "open_now": true
      },
      "photos": [
        {
          "height": 420,
          "html_attributions": [
            "<a href=\"https://maps.google.com/maps/contrib/103417565470106234632\">Sparkle Clean Team Inc</a>"
          ],
          "photo_reference": "AeJbb3eqo6FexvwR0ujIaVpaCA7bFDIqTZDNvPS0_RdwO4_GeI5yLN9FabU1aEpVLcS4LTSl09hvEQDaDM75uoWfMkE5HTUO0LOQvurDn0IrjSbqM7K3_pa9W-jghwbeuLxAb5w9Q2puvoL_Dk3qzBhi_7WcaUGcpVShR8m9MdSlZ0rKtNoU",
          "width": 700
        }
      ],
      "place_id": "ChIJqXxdVihcwokRCzmGQnEoGtM",
      "plus_code": {
        "compound_code": "P422+FP Ridgewood, Queens, NY, USA",
        "global_code": "87G8P422+FP"
      },
      "rating": 5,
      "reference": "ChIJqXxdVihcwokRCzmGQnEoGtM",
      "scope": "GOOGLE",
      "types": [
        "point_of_interest",
        "establishment"
      ],
      "user_ratings_total": 2,
      "vicinity": "60-09 71st Avenue, Ridgewood"
    },
    {
      "business_status": "OPERATIONAL",
      "geometry": {
        "location": {
          "lat": 40.70088980000001,
          "lng": -73.8955532
        },
        "viewport": {
          "northeast": {
            "lat": 40.70215133029151,
            "lng": -73.8942018197085
          },
          "southwest": {
            "lat": 40.69945336970851,
            "lng": -73.8968997802915
          }
        }
      },
      "icon": "https://maps.gstatic.com/mapfiles/place_api/icons/v1/png_71/generic_business-71.png",
      "icon_background_color": "#7B9EB0",
      "icon_mask_base_uri": "https://maps.gstatic.com/mapfiles/place_api/icons/v2/generic_pinlet",
      "name": "Lee Kye L DDS",
      "place_id": "ChIJ-3NcgylcwokRI3jcKQzaOw8",
      "plus_code": {
        "compound_code": "P423+9Q New York, NY, USA",
        "global_code": "87G8P423+9Q"
      },
      "reference": "ChIJ-3NcgylcwokRI3jcKQzaOw8",
      "scope": "GOOGLE",
      "types": [
        "dentist",
        "health",
        "point_of_interest",
        "establishment"
      ],
      "vicinity": "6079 Myrtle Avenue, Queens"
    },
    {
      "business_status": "OPERATIONAL",
      "geometry": {
        "location": {
          "lat": 40.700958,
          "lng": -73.895139
        },
        "viewport": {
          "northeast": {
            "lat": 40.7022023302915,
            "lng": -73.8937712197085
          },
          "southwest": {
            "lat": 40.6995043697085,
            "lng": -73.89646918029152
          }
        }
      },
      "icon": "https://maps.gstatic.com/mapfiles/place_api/icons/v1/png_71/generic_business-71.png",
      "icon_background_color": "#7B9EB0",
      "icon_mask_base_uri": "https://maps.gstatic.com/mapfiles/place_api/icons/v2/generic_pinlet",
      "name": "Agenzia Italia Travel",
      "opening_hours": {
        "open_now": false
      },
      "place_id": "ChIJZ2C8hilcwokR11cZXMkDGXY",
      "plus_code": {
        "compound_code": "P423+9W New York, NY, USA",
        "global_code": "87G8P423+9W"
      },
      "rating": 2.4,
      "reference": "ChIJZ2C8hilcwokR11cZXMkDGXY",
      "scope": "GOOGLE",
      "types": [
        "travel_agency",
        "point_of_interest",
        "establishment"
      ],
      "user_ratings_total": 8,
      "vicinity": "6089 Myrtle Avenue, Queens"
    },
    {
      "business_status": "OPERATIONAL",
      "geometry": {
        "location": {
          "lat": 40.7017226,
          "lng": -73.8988121
        },
        "viewport": {
          "northeast": {
            "lat": 40.70303543029149,
            "lng": -73.8975123697085
          },
          "southwest": {
            "lat": 40.7003374697085,
            "lng": -73.9002103302915
          }
        }
      },
      "icon": "https://maps.gstatic.com/mapfiles/place_api/icons/v1/png_71/bar-71.png",
      "icon_background_color": "#FF9E67",
      "icon_mask_base_uri": "https://maps.gstatic.com/mapfiles/place_api/icons/v2/bar_pinlet",
      "name": "Cozy Corner Bar Cafe",
      "opening_hours": {
        "open_now": true
      },
      "photos": [
        {
          "height": 3024,
          "html_attributions": [
            "<a href=\"https://maps.google.com/maps/contrib/112051220945776733140\">Cozy Corner Bar Cafe</a>"
          ],
          "photo_reference": "AeJbb3f1xKczh3r7u3YMYo3YlImtjvcQ6twARijVuetYtfbrQO-t59f3hSqx3_JUdBzpRWQpEKLQyBg74Qk5Ff6wFPCZWTZG-XHbCiMd_kX1naHfrrr1ocGME0xx2P1uOiRb_wRZAg6qSW12gARg2Kl20k-hMmhJQOK_hbuj2rZGHdaxVGPk",
          "width": 4032
        }
      ],
      "place_id": "ChIJY2G7iYpYwokRRQiY4xFcdwQ",
      "plus_code": {
        "compound_code": "P422+MF New York, NY, USA",
        "global_code": "87G8P422+MF"
      },
      "price_level": 1,
      "rating": 4.6,
      "reference": "ChIJY2G7iYpYwokRRQiY4xFcdwQ",
      "scope": "GOOGLE",
      "types": [
        "cafe",
        "bar",
        "restaurant",
        "food",
        "point_of_interest",
        "store",
        "establishment"
      ],
      "user_ratings_total": 342,
      "vicinity": "60-01 70th Avenue, Queens"
    },
    {
      "business_status": "OPERATIONAL",
      "geometry": {
        "location": {
          "lat": 40.701047,
          "lng": -73.8996289
        },
        "viewport": {
          "northeast": {
            "lat": 40.7024452802915,
            "lng": -73.89830306970849
          },
          "southwest": {
            "lat": 40.6997473197085,
            "lng": -73.9010010302915
          }
        }
      },
      "icon": "https://maps.gstatic.com/mapfiles/place_api/icons/v1/png_71/generic_business-71.png",
      "icon_background_color": "#7B9EB0",
      "icon_mask_base_uri": "https://maps.gstatic.com/mapfiles/place_api/icons/v2/generic_pinlet",
      "name": "Ridgewood Older Adult Center",
      "opening_hours": {
        "open_now": false
      },
      "photos": [
        {
          "height": 1536,
          "html_attributions": [
            "<a href=\"https://maps.google.com/maps/contrib/107817336808949402997\">Dragan Dugandzija</a>"
          ],
          "photo_reference": "AeJbb3dGPWb96RLqFVim_XvDQgQwJHffTp_2i4ZUVdAJo4FcWvow4ffJSd5k13PW1wCrxcqFgNpMf67KWKQl_W9mLZfDxiSr7Dv_VHIOoASw_mL2YpZS25EFhWMbQoqrP6LI-6Pd6Vtq1cstaA-D2q8ARDMZkUKhEEx6n00OQClK4BxUvnh_",
          "width": 2048
        }
      ],
      "place_id": "ChIJrRITiShcwokR7cj0i5CQ1wE",
      "plus_code": {
        "compound_code": "P422+C4 Ridgewood, Queens, NY, USA",
        "global_code": "87G8P422+C4"
      },
      "rating": 4.7,
      "reference": "ChIJrRITiShcwokR7cj0i5CQ1wE",
      "scope": "GOOGLE",
      "types": [
        "point_of_interest",
        "establishment"
      ],
      "user_ratings_total": 15,
      "vicinity": "59-14 70th Avenue, Ridgewood"
    },
    {
      "business_status": "OPERATIONAL",
      "geometry": {
        "location": {
          "lat": 40.6990481,
          "lng": -73.8966098
        },
        "viewport": {
          "northeast": {
            "lat": 40.70046173029149,
            "lng": -73.89537181970849
          },
          "southwest": {
            "lat": 40.69776376970849,
            "lng": -73.89806978029151
          }
        }
      },
      "icon": "https://maps.gstatic.com/mapfiles/place_api/icons/v1/png_71/shopping-71.png",
      "icon_background_color": "#4B96F3",
      "icon_mask_base_uri": "https://maps.gstatic.com/mapfiles/place_api/icons/v2/shopping_pinlet",
      "name": "Provyde Inc",
      "opening_hours": {
        "open_now": true
      },
      "place_id": "ChIJpXOILilcwokRgaMX9GIzbk4",
      "plus_code": {
        "compound_code": "M4X3+J9 Ridgewood, Queens, NY, USA",
        "global_code": "87G8M4X3+J9"
      },
      "reference": "ChIJpXOILilcwokRgaMX9GIzbk4",
      "scope": "GOOGLE",
      "types": [
        "store",
        "point_of_interest",
        "establishment"
      ],
      "vicinity": "5900 Decatur Street, Ridgewood"
    },
    {
      "business_status": "OPERATIONAL",
      "geometry": {
        "location": {
          "lat": 40.7006915,
          "lng": -73.8986424
        },
        "viewport": {
          "northeast": {
            "lat": 40.7019494302915,
            "lng": -73.8972882697085
          },
          "southwest": {
            "lat": 40.69925146970851,
            "lng": -73.8999862302915
          }
        }
      },
      "icon": "https://maps.gstatic.com/mapfiles/place_api/icons/v1/png_71/generic_business-71.png",
      "icon_background_color": "#7B9EB0",
      "icon_mask_base_uri": "https://maps.gstatic.com/mapfiles/place_api/icons/v2/generic_pinlet",
      "name": "Phone Repair",
      "opening_hours": {
        "open_now": true
      },
      "photos": [
        {
          "height": 748,
          "html_attributions": [
            "<a href=\"https://maps.google.com/maps/contrib/107930822988436426588\">Phone Repair</a>"
          ],
          "photo_reference": "AeJbb3cvx5eFrEybX75ukFxvqLsAdHPbFMCdLWuyvLdNLsleC1mcKSGqfu0gu8Cjm2R6zS3_9O9Vd5mTb9aqK4-gR_EW6LDUICoqLVDTFjtZRu7uQrneNpEg46m1UrenOAoSOY7GZ_Y_Rn1v0j11pXX1RuVazLPHUwrFkFkt1sMhFr5vTI4w",
          "width": 1329
        }
      ],
      "place_id": "ChIJLUWkjChcwokR5PocTnlFUMk",
      "plus_code": {
        "compound_code": "P422+7G New York, NY, USA",
        "global_code": "87G8P422+7G"
      },
      "rating": 4,
      "reference": "ChIJLUWkjChcwokR5PocTnlFUMk",
      "scope": "GOOGLE",
      "types": [
        "point_of_interest",
        "establishment"
      ],
      "user_ratings_total": 49,
      "vicinity": "59-39 Myrtle Avenue, Queens"
    },
    {
      "business_status": "CLOSED_TEMPORARILY",
      "geometry": {
        "location": {
          "lat": 40.7021687,
          "lng": -73.8952659
        },
        "viewport": {
          "northeast": {
            "lat": 40.7035282302915,
            "lng": -73.89381776970849
          },
          "southwest": {
            "lat": 40.7008302697085,
            "lng": -73.89651573029151
          }
        }
      },
      "icon": "https://maps.gstatic.com/mapfiles/place_api/icons/v1/png_71/shopping-71.png",
      "icon_background_color": "#4B96F3",
      "icon_mask_base_uri": "https://maps.gstatic.com/mapfiles/place_api/icons/v2/shopping_pinlet",
      "name": "Sunrise ER Inc",
      "permanently_closed": true,
      "place_id": "ChIJ-1eehoRewokRRhQbbMWMcSw",
      "plus_code": {
        "compound_code": "P423+VV New York, NY, USA",
        "global_code": "87G8P423+VV"
      },
      "reference": "ChIJ-1eehoRewokRRhQbbMWMcSw",
      "scope": "GOOGLE",
      "types": [
        "food",
        "store",
        "point_of_interest",
        "establishment"
      ],
      "vicinity": "6609 Fresh Pond Road, Queens"
    },
    {
      "business_status": "CLOSED_TEMPORARILY",
      "geometry": {
        "location": {
          "lat": 40.70067129999999,
          "lng": -73.8947814
        },
        "viewport": {
          "northeast": {
            "lat": 40.70207068029149,
            "lng": -73.89343911970849
          },
          "southwest": {
            "lat": 40.69937271970849,
            "lng": -73.8961370802915
          }
        }
      },
      "icon": "https://maps.gstatic.com/mapfiles/place_api/icons/v1/png_71/school-71.png",
      "icon_background_color": "#7B9EB0",
      "icon_mask_base_uri": "https://maps.gstatic.com/mapfiles/place_api/icons/v2/school_pinlet",
      "name": "Ridgewood Martial Arts",
      "permanently_closed": true,
      "photos": [
        {
          "height": 2048,
          "html_attributions": [
            "<a href=\"https://maps.google.com/maps/contrib/114890856629477267420\">tony diaz</a>"
          ],
          "photo_reference": "AeJbb3dxolWcClP4PgDOcJLueR_sXX0QAMUOSsq7GpPt6vrsyEjpdxjGaH9xo6nLtCQARLs12Um-55dRFbIzyfMKqBPempwC_MyRBQIVRFnNnoTQlGrUs-iHmKlDxbUTdHekdIqUQDzrL_o7rKtStPV3-pm-7efgvOMCxgWI-YXPLqwzxbUD",
          "width": 1638
        }
      ],
      "place_id": "ChIJ68mZKipcwokRRuyu2ykKSZA",
      "plus_code": {
        "compound_code": "P424+73 Flushing, Queens, NY, USA",
        "global_code": "87G8P424+73"
      },
      "reference": "ChIJ68mZKipcwokRRuyu2ykKSZA",
      "scope": "GOOGLE",
      "types": [
        "gym",
        "health",
        "point_of_interest",
        "establishment"
      ],
      "vicinity": "60-90 Myrtle Avenue, Flushing"
    },
    {
      "business_status": "OPERATIONAL",
      "geometry": {
        "location": {
          "lat": 40.701417,
          "lng": -73.900363
        },
        "viewport": {
          "northeast": {
            "lat": 40.70274903029149,
            "lng": -73.89910001970848
          },
          "southwest": {
            "lat": 40.70005106970849,
            "lng": -73.90179798029149
          }
        }
      },
      "icon": "https://maps.gstatic.com/mapfiles/place_api/icons/v1/png_71/generic_business-71.png",
      "icon_background_color": "#7B9EB0",
      "icon_mask_base_uri": "https://maps.gstatic.com/mapfiles/place_api/icons/v2/generic_pinlet",
      "name": "Dr. Joanna Kowalewski D.D.S.",
      "opening_hours": {
        "open_now": false
      },
      "photos": [
        {
          "height": 900,
          "html_attributions": [
            "<a href=\"https://maps.google.com/maps/contrib/110085755716960906125\">Dr. Joanna Kowalewski D.D.S.</a>"
          ],
          "photo_reference": "AeJbb3c99BHLcJAqd5ap8U_x_4aI_M55nuKv93rMr4WOCX6faduCJ2boH532ueksOK2uiE_4wLxAN6xcWUH3CBkbwvCJLmdeYAt_h27z_YkhKQjj9h9z7J-lV--tPUj8L-mdD8gid_dzOtCfKylvQ_SsAC5wH8VuKADfdmyca6fJm_Z6cSgD",
          "width": 694
        }
      ],
      "place_id": "ChIJsXDCfShcwokRQbYfxg1DkjQ",
      "plus_code": {
        "compound_code": "P32X+HV Ridgewood, Queens, NY, USA",
        "global_code": "87G8P32X+HV"
      },
      "rating": 4.5,
      "reference": "ChIJsXDCfShcwokRQbYfxg1DkjQ",
      "scope": "GOOGLE",
      "types": [
        "dentist",
        "health",
        "point_of_interest",
        "establishment"
      ],
      "user_ratings_total": 21,
      "vicinity": "69-13 Forest Avenue, Ridgewood"
    },
    {
      "business_status": "OPERATIONAL",
      "geometry": {
        "location": {
          "lat": 40.70086879999999,
          "lng": -73.8952812
        },
        "viewport": {
          "northeast": {
            "lat": 40.70215153029149,
            "lng": -73.89391446970849
          },
          "southwest": {
            "lat": 40.6994535697085,
            "lng": -73.8966124302915
          }
        }
      },
      "icon": "https://maps.gstatic.com/mapfiles/place_api/icons/v1/png_71/generic_business-71.png",
      "icon_background_color": "#7B9EB0",
      "icon_mask_base_uri": "https://maps.gstatic.com/mapfiles/place_api/icons/v2/generic_pinlet",
      "name": "Putnam Family Dentistry",
      "opening_hours": {
        "open_now": false
      },
      "place_id": "ChIJHRZ5hClcwokRUsDB99ymp54",
      "plus_code": {
        "compound_code": "P423+8V Ridgewood, Queens, NY, USA",
        "global_code": "87G8P423+8V"
      },
      "rating": 3,
      "reference": "ChIJHRZ5hClcwokRUsDB99ymp54",
      "scope": "GOOGLE",
      "types": [
        "dentist",
        "health",
        "point_of_interest",
        "establishment"
      ],
      "user_ratings_total": 8,
      "vicinity": "6083 Myrtle Avenue, Ridgewood"
    },
    {
      "business_status": "OPERATIONAL",
      "geometry": {
        "location": {
          "lat": 40.7005563,
          "lng": -73.8954117
        },
        "viewport": {
          "northeast": {
            "lat": 40.7019887802915,
            "lng": -73.8940738197085
          },
          "southwest": {
            "lat": 40.6992908197085,
            "lng": -73.8967717802915
          }
        }
      },
      "icon": "https://maps.gstatic.com/mapfiles/place_api/icons/v1/png_71/generic_business-71.png",
      "icon_background_color": "#7B9EB0",
      "icon_mask_base_uri": "https://maps.gstatic.com/mapfiles/place_api/icons/v2/generic_pinlet",
      "name": "Ridgewood Local Dev Corporation",
      "opening_hours": {
        "open_now": false
      },
      "place_id": "ChIJq7_SCilcwokRyfFgri_hFjI",
      "plus_code": {
        "compound_code": "P423+6R Glendale, Queens, NY, USA",
        "global_code": "87G8P423+6R"
      },
      "rating": 5,
      "reference": "ChIJq7_SCilcwokRyfFgri_hFjI",
      "scope": "GOOGLE",
      "types": [
        "point_of_interest",
        "establishment"
      ],
      "user_ratings_total": 1,
      "vicinity": "62-14 Myrtle Avenue, Glendale"
    },
    {
      "business_status": "CLOSED_TEMPORARILY",
      "geometry": {
        "location": {
          "lat": 40.69672,
          "lng": -73.899681
        },
        "viewport": {
          "northeast": {
            "lat": 40.69800903029149,
            "lng": -73.89823321970849
          },
          "southwest": {
            "lat": 40.6953110697085,
            "lng": -73.9009311802915
          }
        }
      },
      "icon": "https://maps.gstatic.com/mapfiles/place_api/icons/v1/png_71/shopping-71.png",
      "icon_background_color": "#4B96F3",
      "icon_mask_base_uri": "https://maps.gstatic.com/mapfiles/place_api/icons/v2/shopping_pinlet",
      "name": "Social Sounds LLC",
      "permanently_closed": true,
      "place_id": "ChIJIS1mdi9cwokR_cZ3f9kvV34",
      "plus_code": {
        "compound_code": "M4W2+M4 Ridgewood, Queens, NY, USA",
        "global_code": "87G8M4W2+M4"
      },
      "reference": "ChIJIS1mdi9cwokR_cZ3f9kvV34",
      "scope": "GOOGLE",
      "types": [
        "electronics_store",
        "home_goods_store",
        "store",
        "point_of_interest",
        "establishment"
      ],
      "vicinity": "1715 Decatur Street, Ridgewood"
    },
    {
      "business_status": "CLOSED_TEMPORARILY",
      "geometry": {
        "location": {
          "lat": 40.6977887,
          "lng": -73.89589749999999
        },
        "viewport": {
          "northeast": {
            "lat": 40.6991467302915,
            "lng": -73.89443941970849
          },
          "southwest": {
            "lat": 40.6964487697085,
            "lng": -73.89713738029151
          }
        }
      },
      "icon": "https://maps.gstatic.com/mapfiles/place_api/icons/v1/png_71/generic_business-71.png",
      "icon_background_color": "#7B9EB0",
      "icon_mask_base_uri": "https://maps.gstatic.com/mapfiles/place_api/icons/v2/generic_pinlet",
      "name": "Tender Joy Celebrations",
      "permanently_closed": true,
      "place_id": "ChIJtS_SvC5cwokRTERbUXCllZI",
      "plus_code": {
        "compound_code": "M4X3+4J Glendale, Queens, NY, USA",
        "global_code": "87G8M4X3+4J"
      },
      "reference": "ChIJtS_SvC5cwokRTERbUXCllZI",
      "scope": "GOOGLE",
      "types": [
        "point_of_interest",
        "establishment"
      ],
      "vicinity": "60th Place, Glendale"
    },
    {
      "business_status": "CLOSED_TEMPORARILY",
      "geometry": {
        "location": {
          "lat": 40.69929779999999,
          "lng": -73.89639129999999
        },
        "viewport": {
          "northeast": {
            "lat": 40.70070513029149,
            "lng": -73.8951424197085
          },
          "southwest": {
            "lat": 40.69800716970849,
            "lng": -73.89784038029151
          }
        }
      },
      "icon": "https://maps.gstatic.com/mapfiles/place_api/icons/v1/png_71/shopping-71.png",
      "icon_background_color": "#4B96F3",
      "icon_mask_base_uri": "https://maps.gstatic.com/mapfiles/place_api/icons/v2/shopping_pinlet",
      "name": "Dorma Mills",
      "permanently_closed": true,
      "place_id": "ChIJpXOILilcwokR9FhK6uSpPNw",
      "plus_code": {
        "compound_code": "M4X3+PC Ridgewood, Queens, NY, USA",
        "global_code": "87G8M4X3+PC"
      },
      "reference": "ChIJpXOILilcwokR9FhK6uSpPNw",
      "scope": "GOOGLE",
      "types": [
        "clothing_store",
        "store",
        "point_of_interest",
        "establishment"
      ],
      "vicinity": "5900 Decatur Street #8, Ridgewood"
    },
    {
      "business_status": "OPERATIONAL",
      "geometry": {
        "location": {
          "lat": 40.700911,
          "lng": -73.89536679999999
        },
        "viewport": {
          "northeast": {
            "lat": 40.70216963029149,
            "lng": -73.89400581970848
          },
          "southwest": {
            "lat": 40.6994716697085,
            "lng": -73.8967037802915
          }
        }
      },
      "icon": "https://maps.gstatic.com/mapfiles/place_api/icons/v1/png_71/generic_business-71.png",
      "icon_background_color": "#7B9EB0",
      "icon_mask_base_uri": "https://maps.gstatic.com/mapfiles/place_api/icons/v2/generic_pinlet",
      "name": "Dr. Massimo M. Esposito, DDS",
      "opening_hours": {
        "open_now": true
      },
      "place_id": "ChIJHRZ5hClcwokRg6xzMbfCfbw",
      "plus_code": {
        "compound_code": "P423+9V Ridgewood, Queens, NY, USA",
        "global_code": "87G8P423+9V"
      },
      "rating": 4.4,
      "reference": "ChIJHRZ5hClcwokRg6xzMbfCfbw",
      "scope": "GOOGLE",
      "types": [
        "dentist",
        "health",
        "point_of_interest",
        "establishment"
      ],
      "user_ratings_total": 7,
      "vicinity": "6083 Myrtle Avenue, Ridgewood"
    },
    {
      "business_status": "OPERATIONAL",
      "geometry": {
        "location": {
          "lat": 40.6992376,
          "lng": -73.8977049
        },
        "viewport": {
          "northeast": {
            "lat": 40.70065153029149,
            "lng": -73.89647381970849
          },
          "southwest": {
            "lat": 40.6979535697085,
            "lng": -73.8991717802915
          }
        }
      },
      "icon": "https://maps.gstatic.com/mapfiles/place_api/icons/v1/png_71/worship_general-71.png",
      "icon_background_color": "#7B9EB0",
      "icon_mask_base_uri": "https://maps.gstatic.com/mapfiles/place_api/icons/v2/worship_christian_pinlet",
      "name": "Agape Christian Center",
      "photos": [
        {
          "height": 1920,
          "html_attributions": [
            "<a href=\"https://maps.google.com/maps/contrib/111724901951367201425\">Phenix Hall</a>"
          ],
          "photo_reference": "AeJbb3fvs4T8nYBY1xXxerqZ7iETY_0SOq4fVYQJ4vZ5ldQN2HbZDBzOdq2-zI3rprQRP9aqFmddp95pafgMDwRvj4n66aRoEAuaWug5eM9MIiXoXa9Akq8ysIBZ5pvl1bHiSIMVa15RbLoEI1ZwlHRLHnT8zaPErATEx38cu6uc0HAfMI91",
          "width": 1080
        }
      ],
      "place_id": "ChIJ_06QJylcwokR7178yxm3SGk",
      "plus_code": {
        "compound_code": "M4X2+MW Ridgewood, Queens, NY, USA",
        "global_code": "87G8M4X2+MW"
      },
      "rating": 4.5,
      "reference": "ChIJ_06QJylcwokR7178yxm3SGk",
      "scope": "GOOGLE",
      "types": [
        "church",
        "place_of_worship",
        "point_of_interest",
        "establishment"
      ],
      "user_ratings_total": 22,
      "vicinity": "59-02 Summerfield Street, Ridgewood"
    },
    {
      "business_status": "OPERATIONAL",
      "geometry": {
        "location": {
          "lat": 40.69857409999999,
          "lng": -73.8972063
        },
        "viewport": {
          "northeast": {
            "lat": 40.6999826802915,
            "lng": -73.8958456697085
          },
          "southwest": {
            "lat": 40.6972847197085,
            "lng": -73.89854363029151
          }
        }
      },
      "icon": "https://maps.gstatic.com/mapfiles/place_api/icons/v1/png_71/generic_business-71.png",
      "icon_background_color": "#7B9EB0",
      "icon_mask_base_uri": "https://maps.gstatic.com/mapfiles/place_api/icons/v2/generic_pinlet",
      "name": "Spatola & Spatola Corporation",
      "place_id": "ChIJqWxzLSlcwokRjkCOlLu1HWc",
      "plus_code": {
        "compound_code": "M4X3+C4 Ridgewood, Queens, NY, USA",
        "global_code": "87G8M4X3+C4"
      },
      "rating": 5,
      "reference": "ChIJqWxzLSlcwokRjkCOlLu1HWc",
      "scope": "GOOGLE",
      "types": [
        "point_of_interest",
        "establishment"
      ],
      "user_ratings_total": 2,
      "vicinity": "1852 Decatur Street, Ridgewood"
    },
    {
      "business_status": "CLOSED_TEMPORARILY",
      "geometry": {
        "location": {
          "lat": 40.699048,
          "lng": -73.89661
        },
        "viewport": {
          "northeast": {
            "lat": 40.70046163029149,
            "lng": -73.89537196970849
          },
          "southwest": {
            "lat": 40.69776366970849,
            "lng": -73.8980699302915
          }
        }
      },
      "icon": "https://maps.gstatic.com/mapfiles/place_api/icons/v1/png_71/generic_business-71.png",
      "icon_background_color": "#7B9EB0",
      "icon_mask_base_uri": "https://maps.gstatic.com/mapfiles/place_api/icons/v2/generic_pinlet",
      "name": "BAF Warehouse",
      "permanently_closed": true,
      "photos": [
        {
          "height": 579,
          "html_attributions": [
            "<a href=\"https://maps.google.com/maps/contrib/106339166994792896072\">dame lo</a>"
          ],
          "photo_reference": "AeJbb3fZQC0pnvkYDfwI__r-BlnlcFbRCpGX04eIy3a2JuzgI0EWshOl57YcS0DDNYkFP-4wqsNBp1t3mFJxAUxM_9vW8qwjOnpQXMNRJu7Qdl8PiXCZqW641nweL8GNJZG7UyrlzSiisz9EbBVd5iU5fp-j65Njtq68q1epCP8kCcp-covG",
          "width": 1000
        }
      ],
      "place_id": "ChIJa6qROSlcwokRL24TtLUyxc8",
      "plus_code": {
        "compound_code": "M4X3+J9 Ridgewood, Queens, NY, USA",
        "global_code": "87G8M4X3+J9"
      },
      "reference": "ChIJa6qROSlcwokRL24TtLUyxc8",
      "scope": "GOOGLE",
      "types": [
        "storage",
        "point_of_interest",
        "establishment"
      ],
      "vicinity": "5900 Decatur Street, Ridgewood"
    },
    {
      "business_status": "OPERATIONAL",
      "geometry": {
        "location": {
          "lat": 40.6981188,
          "lng": -73.8975994
        },
        "viewport": {
          "northeast": {
            "lat": 40.69953598029149,
            "lng": -73.89634226970848
          },
          "southwest": {
            "lat": 40.69683801970849,
            "lng": -73.8990402302915
          }
        }
      },
      "icon": "https://maps.gstatic.com/mapfiles/place_api/icons/v1/png_71/worship_general-71.png",
      "icon_background_color": "#7B9EB0",
      "icon_mask_base_uri": "https://maps.gstatic.com/mapfiles/place_api/icons/v2/worship_christian_pinlet",
      "name": "Mount Moriah Seventh-Day Adventist Church",
      "photos": [
        {
          "height": 1080,
          "html_attributions": [
            "<a href=\"https://maps.google.com/maps/contrib/111724901951367201425\">Phenix Hall</a>"
          ],
          "photo_reference": "AeJbb3cR-emxFN43k9wY3zXlg1Qr9Ii_OxRVplJSY1FyEh93TmDNar0inA_bXCMD5AlJm0ebZ80OBtBHxFOsKkzZoW-Xox_EKcRudAnB3rRAQOPc6y_WsPNej6LYU2fevorO9qQ6PYZcQ9qGQjMG5ciEck4EDG_Lm8GiVlr6eGdFnrjFii-F",
          "width": 1920
        }
      ],
      "place_id": "ChIJW9-mKS9cwokRh5n5A-2uiq4",
      "plus_code": {
        "compound_code": "M4X2+6X New York, NY, USA",
        "global_code": "87G8M4X2+6X"
      },
      "rating": 5,
      "reference": "ChIJW9-mKS9cwokRh5n5A-2uiq4",
      "scope": "GOOGLE",
      "types": [
        "church",
        "place_of_worship",
        "point_of_interest",
        "establishment"
      ],
      "user_ratings_total": 12,
      "vicinity": "18-34 Decatur Street, Queens"
    },
    {
      "business_status": "OPERATIONAL",
      "geometry": {
        "location": {
          "lat": 40.699788,
          "lng": -73.8965939
        },
        "viewport": {
          "northeast": {
            "lat": 40.7010452302915,
            "lng": -73.8951473697085
          },
          "southwest": {
            "lat": 40.6983472697085,
            "lng": -73.8978453302915
          }
        }
      },
      "icon": "https://maps.gstatic.com/mapfiles/place_api/icons/v1/png_71/generic_business-71.png",
      "icon_background_color": "#7B9EB0",
      "icon_mask_base_uri": "https://maps.gstatic.com/mapfiles/place_api/icons/v2/generic_pinlet",
      "name": "FOUR ACES PLUMBING & HEATING INC.",
      "opening_hours": {
        "open_now": true
      },
      "place_id": "ChIJFxo-FClcwokRl0_NOrWl7_k",
      "plus_code": {
        "compound_code": "M4X3+W9 Ridgewood, Queens, NY, USA",
        "global_code": "87G8M4X3+W9"
      },
      "rating": 4.5,
      "reference": "ChIJFxo-FClcwokRl0_NOrWl7_k",
      "scope": "GOOGLE",
      "types": [
        "plumber",
        "point_of_interest",
        "establishment"
      ],
      "user_ratings_total": 2,
      "vicinity": "59-23 Decatur Street, Ridgewood"
    },
    {
      "business_status": "OPERATIONAL",
      "geometry": {
        "location": {
          "lat": 40.70033679999999,
          "lng": -73.898665
        },
        "viewport": {
          "northeast": {
            "lat": 40.70177158029149,
            "lng": -73.8973186697085
          },
          "southwest": {
            "lat": 40.6990736197085,
            "lng": -73.9000166302915
          }
        }
      },
      "icon": "https://maps.gstatic.com/mapfiles/place_api/icons/v1/png_71/generic_business-71.png",
      "icon_background_color": "#7B9EB0",
      "icon_mask_base_uri": "https://maps.gstatic.com/mapfiles/place_api/icons/v2/generic_pinlet",
      "name": "Dcap Insurance",
      "place_id": "ChIJIZoH7yhcwokRkB1zqoMNn8E",
      "plus_code": {
        "compound_code": "P422+4G Ridgewood, Queens, NY, USA",
        "global_code": "87G8P422+4G"
      },
      "reference": "ChIJIZoH7yhcwokRkB1zqoMNn8E",
      "scope": "GOOGLE",
      "types": [
        "insurance_agency",
        "point_of_interest",
        "establishment"
      ],
      "vicinity": "5930 Myrtle Avenue, Ridgewood"
    },
    {
      "business_status": "OPERATIONAL",
      "geometry": {
        "location": {
          "lat": 40.7004574,
          "lng": -73.8972908
        },
        "viewport": {
          "northeast": {
            "lat": 40.7018725302915,
            "lng": -73.89582321970849
          },
          "southwest": {
            "lat": 40.6991745697085,
            "lng": -73.8985211802915
          }
        }
      },
      "icon": "https://maps.gstatic.com/mapfiles/place_api/icons/v1/png_71/generic_business-71.png",
      "icon_background_color": "#4B96F3",
      "icon_mask_base_uri": "https://maps.gstatic.com/mapfiles/place_api/icons/v2/generic_pinlet",
      "name": "Walgreens",
      "opening_hours": {
        "open_now": true
      },
      "photos": [
        {
          "height": 2976,
          "html_attributions": [
            "<a href=\"https://maps.google.com/maps/contrib/111548404398039131347\">James Hampton</a>"
          ],
          "photo_reference": "AeJbb3dfHm-ObZ8qMzAbBiSHigeF9-nHsiqNTnUc8TyhQ6e9EJENqVMNYGjXNH0U83s-W1V2EwCcG5MqgRmCB8Pha_Z8KxbsxC-aignnjI5vldAyo5EohVpOw6cts2ncvuOTK_AIcprwJjDf8oX9DziqJXqfIPkZLQ1XzgCzv6OpVMDUwADj",
          "width": 3968
        }
      ],
      "place_id": "ChIJzW_RwXRdwokR6WYiEQ7z0Rk",
      "plus_code": {
        "compound_code": "P423+53 New York, NY, USA",
        "global_code": "87G8P423+53"
      },
      "rating": 2.4,
      "reference": "ChIJzW_RwXRdwokR6WYiEQ7z0Rk",
      "scope": "GOOGLE",
      "types": [
        "drugstore",
        "convenience_store",
        "clothing_store",
        "food",
        "store",
        "health",
        "point_of_interest",
        "establishment"
      ],
      "user_ratings_total": 62,
      "vicinity": "6036 Myrtle Avenue, Queens"
    },
    {
      "business_status": "OPERATIONAL",
      "geometry": {
        "location": {
          "lat": 40.70037379999999,
          "lng": -73.89907629999999
        },
        "viewport": {
          "northeast": {
            "lat": 40.70173723029149,
            "lng": -73.89778351970848
          },
          "southwest": {
            "lat": 40.6990392697085,
            "lng": -73.90048148029149
          }
        }
      },
      "icon": "https://maps.gstatic.com/mapfiles/place_api/icons/v1/png_71/generic_business-71.png",
      "icon_background_color": "#7B9EB0",
      "icon_mask_base_uri": "https://maps.gstatic.com/mapfiles/place_api/icons/v2/generic_pinlet",
      "name": "USA Vein Clinics",
      "opening_hours": {
        "open_now": false
      },
      "photos": [
        {
          "height": 380,
          "html_attributions": [
            "<a href=\"https://maps.google.com/maps/contrib/104156748380432292231\">USA Vein Clinics</a>"
          ],
          "photo_reference": "AeJbb3esPjoTmYLOsCnWvMw_BNbx9Pqe2RZPNlvN3NV1lRuhLlO1vrN6CGHYshK7rTOzeqcOs2-Odipj3Tv_olFkKrTn4h6HdIXN9VUqIpgKSzZf-j-LpDt4_MKVQ0M39RKS_GnN3mN4iARYB2I_-4NxMZHxADXiVlqM7UPWGb287pjKFrOc",
          "width": 571
        }
      ],
      "place_id": "ChIJ16v57ChcwokRlUsHAMpSiWY",
      "plus_code": {
        "compound_code": "P422+49 New York, NY, USA",
        "global_code": "87G8P422+49"
      },
      "rating": 4.1,
      "reference": "ChIJ16v57ChcwokRlUsHAMpSiWY",
      "scope": "GOOGLE",
      "types": [
        "doctor",
        "health",
        "point_of_interest",
        "establishment"
      ],
      "user_ratings_total": 27,
      "vicinity": "59-20 Myrtle Avenue, Queens"
    },
    {
      "business_status": "OPERATIONAL",
      "geometry": {
        "location": {
          "lat": 40.70049960000001,
          "lng": -73.8970045
        },
        "viewport": {
          "northeast": {
            "lat": 40.7018955302915,
            "lng": -73.8956800697085
          },
          "southwest": {
            "lat": 40.6991975697085,
            "lng": -73.89837803029151
          }
        }
      },
      "icon": "https://maps.gstatic.com/mapfiles/place_api/icons/v1/png_71/generic_business-71.png",
      "icon_background_color": "#7B9EB0",
      "icon_mask_base_uri": "https://maps.gstatic.com/mapfiles/place_api/icons/v2/generic_pinlet",
      "name": "Western Union",
      "opening_hours": {
        "open_now": true
      },
      "photos": [
        {
          "height": 1000,
          "html_attributions": [
            "<a href=\"https://maps.google.com/maps/contrib/103380119243530177866\">Western Union</a>"
          ],
          "photo_reference": "AeJbb3fZ-4uLVfzKg0FpgNE_BbDeaeKz0yU0wZ9EpBKKlvOnlIoci5twvrt_yBT0SSYxqGgcGndikcNWMZVAbSFTH2TLfo4HbWAmBCcQRIMIIgdyt38L8_ZtIdUACRKrDuHGImeAC0foAX_CkZGhqAb9Xqz7bcUrO-bfo8eZ2DVg5Z5N8FMb",
          "width": 1000
        }
      ],
      "place_id": "ChIJ8_PwBClcwokR_yf_Xpg98eY",
      "plus_code": {
        "compound_code": "P423+55 New York, NY, USA",
        "global_code": "87G8P423+55"
      },
      "reference": "ChIJ8_PwBClcwokR_yf_Xpg98eY",
      "scope": "GOOGLE",
      "types": [
        "finance",
        "point_of_interest",
        "establishment"
      ],
      "vicinity": "Walgreens, 6036 Myrtle Avenue, Queens"
    }
  ],
  "status": "OK"
}