{
  "html_attributions": [],
  "results": [
    {
      "geometry": {
        "location": {
          "lat": 40.7127753,
          "lng": -74.0059728
        },
        "viewport": {
          "northeast": {
            "lat": 40.91757705070789,
            "lng": -73.70027206817629
          },
          "southwest": {
            "lat": 40.47739906045452,
            "lng": -74.25908991427882
          }
        }
      },
      "icon": "https://maps.gstatic.com/mapfiles/place_api/icons/v1/png_71/geocode-71.png",
      "icon_background_color": "#7B9EB0",
      "icon_mask_base_uri": "https://maps.gstatic.com/mapfiles/place_api/icons/v2/generic_pinlet",
      "name": "\u7d10\u7d04",
      "photos": [
        {
          "height": 600,
          "html_attributions": [
            "<a href=\"https://maps.google.com/maps/contrib/102389334567210814614\">Bukurie</a>"
          ],
          "photo_reference": "AeJbb3eeLjfzvDzO5g3bAWd2olQALTqp1Sto54ydxYdShVB40IEv23Yyz_f2MP6_oZkdAfhop0JdBGAf6O1qHexUCHgeOsgp6159YXi4Tm6_w3_VwyVu2gHmnKREdBKRVaDgDQmNtTBfQ4Ou4_XzK6QGQ4l6bXJR_LnQCKvkwLlovawBB5WI",
          "width": 480
        }
      ],
      "place_id": "ChIJOwg_06VPwokRYv534QaPC8g",
      "reference": "ChIJOwg_06VPwokRYv534QaPC8g",
      "scope": "GOOGLE",
      "types": [
        "locality",
        "political"
      ],
      "vicinity": "\u7d10\u7d04"
    },
    {
      "business_status": "OPERATIONAL",
      "geometry": {
        "location": {
          "lat": 40.71144580000001,
          "lng": -73.908879
        },
        "viewport": {
          "northeast": {
            "lat": 40.71270418029151,
            "lng": -73.90737526970851
          },
          "southwest": {
            "lat": 40.71000621970851,
            "lng": -73.91007323029152
          }
        }
      },
      "icon": "https://maps.gstatic.com/mapfiles/place_api/icons/v1/png_71/school-71.png",
      "icon_background_color": "#7B9EB0",
      "icon_mask_base_uri": "https://maps.gstatic.com/mapfiles/place_api/icons/v2/school_pinlet",
      "name": "Grover Cleveland High School",
      "photos": [
        {
          "height": 1472,
          "html_attributions": [
            "<a href=\"https://maps.google.com/maps/contrib/102952268290887603340\">Donadino Antoine</a>"
          ],
          "photo_reference": "AeJbb3fLFc7XwUpeD96QFXhi4l0Y0OL072MX3Ev56dMi0gYK-vixiTAhQfs0LwH7jRoWRfoQZxKTWMIJ0QEXJoA7L9sGCE5vHRvkt_gj1tjxBqiiiSm66dmjcUplD-kh59CynUjXtlNmt3ke8QwIJpCtRiSit-QGo8cBnu5DHnd0e_oANlE3",
          "width": 2208
        }
      ],
      "place_id": "ChIJKydOA5lewokR_tbnWGFHwI4",
      "plus_code": {
        "compound_code": "P36R+HC \u7f8e\u570b\u7d10\u7d04",
        "global_code": "87G8P36R+HC"
      },
      "rating": 3.4,
      "reference": "ChIJKydOA5lewokR_tbnWGFHwI4",
      "scope": "GOOGLE",
      "types": [
        "secondary_school",
        "school",
        "point_of_interest",
        "establishment"
      ],
      "user_ratings_total": 60,
      "vicinity": "21-27 Himrod Street, Queens"
    },
    {
      "business_status": "OPERATIONAL",
      "geometry": {
        "location": {
          "lat": 40.70947849999999,
          "lng": -73.91420049999999
        },
        "viewport": {
          "northeast": {
            "lat": 40.7107850302915,
            "lng": -73.9127794697085
          },
          "southwest": {
            "lat": 40.7080870697085,
            "lng": -73.9154774302915
          }
        }
      },
      "icon": "https://maps.gstatic.com/mapfiles/place_api/icons/v1/png_71/generic_business-71.png",
      "icon_background_color": "#7B9EB0",
      "icon_mask_base_uri": "https://maps.gstatic.com/mapfiles/place_api/icons/v2/generic_pinlet",
      "name": "Hello Beautiful Salon",
      "opening_hours": {
        "open_now": true
      },
      "photos": [
        {
          "height": 4032,
          "html_attributions": [
            "<a href=\"https://maps.google.com/maps/contrib/109551261542472623880\">Hello Beautiful Salon</a>"
          ],
          "photo_reference": "AeJbb3c6cvKbT4w86_tfUYQq2nrfBEkQJysTi_RKB3kw2dRe2Mx6kpQYEv74A95kelqpy7bjKaa1jKxFEzeQ4jAhwy9zqFfkYDI2y9er-HTfBKX1pcoUJjr1LxLYUEUZs8Ko770L1befX4bUpj-X7WFFr36etx2Ezwmyh_HlnKtoEzZ13KgV",
          "width": 3024
        }
      ],
      "place_id": "ChIJx8E1BF5ZwokRwgNh1Gbs1qI",
      "plus_code": {
        "compound_code": "P35P+Q8 \u7f8e\u570b\u7d10\u7d04",
        "global_code": "87G8P35P+Q8"
      },
      "rating": 4.5,
      "reference": "ChIJx8E1BF5ZwokRwgNh1Gbs1qI",
      "scope": "GOOGLE",
      "types": [
        "beauty_salon",
        "hair_care",
        "point_of_interest",
        "establishment"
      ],
      "user_ratings_total": 60,
      "vicinity": "1887 DeKalb Avenue suite 2, Brooklyn"
    },
    {
      "business_status": "OPERATIONAL",
      "geometry": {
        "location": {
          "lat": 40.7091471,
          "lng": -73.90694069999999
        },
        "viewport": {
          "northeast": {
            "lat": 40.71054438029149,
            "lng": -73.90565356970848
          },
          "southwest": {
            "lat": 40.7078464197085,
            "lng": -73.9083515302915
          }
        }
      },
      "icon": "https://maps.gstatic.com/mapfiles/place_api/icons/v1/png_71/bar-71.png",
      "icon_background_color": "#FF9E67",
      "icon_mask_base_uri": "https://maps.gstatic.com/mapfiles/place_api/icons/v2/bar_pinlet",
      "name": "Windjammer Bar",
      "opening_hours": {
        "open_now": true
      },
      "photos": [
        {
          "height": 3264,
          "html_attributions": [
            "<a href=\"https://maps.google.com/maps/contrib/112864498241940559322\">Jesse Sullivan</a>"
          ],
          "photo_reference": "AeJbb3dLo9sPD6ZwVVIP0YurhxvSsSXNz7PosWa46tonvzdASx7xCeL775BV7mDJM5PEcOARoKT9BeuyyigHiwuEevDwJCWYblVrzVv8v9acw1Mfg2p4BOe-EeptIHlQNA2FnzeFNzsPR2NJaetDHHXR9DD61bDC_0bb2hqwEv52i7MiLQ-R",
          "width": 2448
        }
      ],
      "place_id": "ChIJp2KNpZ5ewokRrJfJH0zrc6g",
      "plus_code": {
        "compound_code": "P35V+M6 \u7f8e\u570b\u7d10\u7d04",
        "global_code": "87G8P35V+M6"
      },
      "price_level": 1,
      "rating": 4.3,
      "reference": "ChIJp2KNpZ5ewokRrJfJH0zrc6g",
      "scope": "GOOGLE",
      "types": [
        "bar",
        "point_of_interest",
        "establishment"
      ],
      "user_ratings_total": 140,
      "vicinity": "552 Grandview Avenue, Queens"
    },
    {
      "business_status": "OPERATIONAL",
      "geometry": {
        "location": {
          "lat": 40.7132161,
          "lng": -73.90854929999999
        },
        "viewport": {
          "northeast": {
            "lat": 40.7144796802915,
            "lng": -73.9072089197085
          },
          "southwest": {
            "lat": 40.7117817197085,
            "lng": -73.9099068802915
          }
        }
      },
      "icon": "https://maps.gstatic.com/mapfiles/place_api/icons/v1/png_71/generic_business-71.png",
      "icon_background_color": "#7B9EB0",
      "icon_mask_base_uri": "https://maps.gstatic.com/mapfiles/place_api/icons/v2/generic_pinlet",
      "name": "Evelina Beauty Salon Inc",
      "opening_hours": {
        "open_now": true
      },
      "photos": [
        {
          "height": 1484,
          "html_attributions": [
            "<a href=\"https://maps.google.com/maps/contrib/117047604836120445319\">Evelina Beauty Salon Inc</a>"
          ],
          "photo_reference": "AeJbb3dwIKnu3qS5Dsh08RoK80b0Pnofu2YtwkH32_N2BERbkPgBA2ubNBEyvJprzWTv_DAUpH4DN4_9yBk5yA06eJsEgSglMfLTW0cErtIqVbQ0eCUuXpM1K1EfQ1ZMig1P8V9UuskktCB8rDABIbs0w505Z_dxzrfusBD1vPwCAv7gPlHD",
          "width": 1242
        }
      ],
      "place_id": "ChIJJ7HDu5lewokRwtc4xpt8P8w",
      "plus_code": {
        "compound_code": "P37R+7H \u7f8e\u570b\u7d10\u7d04",
        "global_code": "87G8P37R+7H"
      },
      "rating": 4.5,
      "reference": "ChIJJ7HDu5lewokRwtc4xpt8P8w",
      "scope": "GOOGLE",
      "types": [
        "beauty_salon",
        "hair_care",
        "point_of_interest",
        "establishment"
      ],
      "user_ratings_total": 115,
      "vicinity": "55-07 Metropolitan Avenue, Queens"
    },
    {
      "business_status": "OPERATIONAL",
      "geometry": {
        "location": {
          "lat": 40.7072366,
          "lng": -73.9147524
        },
        "viewport": {
          "northeast": {
            "lat": 40.7085074802915,
            "lng": -73.91348341970848
          },
          "southwest": {
            "lat": 40.7058095197085,
            "lng": -73.9161813802915
          }
        }
      },
      "icon": "https://maps.gstatic.com/mapfiles/place_api/icons/v1/png_71/restaurant-71.png",
      "icon_background_color": "#FF9E67",
      "icon_mask_base_uri": "https://maps.gstatic.com/mapfiles/place_api/icons/v2/restaurant_pinlet",
      "name": "Bravo's",
      "opening_hours": {
        "open_now": true
      },
      "photos": [
        {
          "height": 3024,
          "html_attributions": [
            "<a href=\"https://maps.google.com/maps/contrib/104821787665909649338\">Dennis Brewster</a>"
          ],
          "photo_reference": "AeJbb3eZixcsrXNpk0s-RE2UaqDKfNHVlVv9HMY_khlA3-4nkUtUrnMnWwvQZFJINCClLLdm2O6cxpS18tB6SQR_xsFxFQfOzOhlkalMkVfs-gFpzK6drCNjr7TmFfIQCL5_WFEuIcqBNtFDpfXnKW4zPuABZTUcxaRMfzm0yCJAb4dHuD8",
          "width": 4032
        }
      ],
      "place_id": "ChIJ_RdgZ6BewokRXirUH5UbOMs",
      "plus_code": {
        "compound_code": "P34P+V3 \u7f8e\u570b\u7d10\u7d04",
        "global_code": "87G8P34P+V3"
      },
      "price_level": 1,
      "rating": 4.6,
      "reference": "ChIJ_RdgZ6BewokRXirUH5UbOMs",
      "scope": "GOOGLE",
      "types": [
        "cafe",
        "restaurant",
        "point_of_interest",
        "food",
        "establishment"
      ],
      "user_ratings_total": 115,
      "vicinity": "377 Seneca Avenue, Queens"
    },
    {
      "business_status": "OPERATIONAL",
      "geometry": {
        "location": {
          "lat": 40.7135827,
          "lng": -73.9120256
        },
        "viewport": {
          "northeast": {
            "lat": 40.71491028029151,
            "lng": -73.91057376970849
          },
          "southwest": {
            "lat": 40.71221231970851,
            "lng": -73.9132717302915
          }
        }
      },
      "icon": "https://maps.gstatic.com/mapfiles/place_api/icons/v1/png_71/generic_business-71.png",
      "icon_background_color": "#7B9EB0",
      "icon_mask_base_uri": "https://maps.gstatic.com/mapfiles/place_api/icons/v2/generic_pinlet",
      "name": "NY City Wraps",
      "opening_hours": {
        "open_now": false
      },
      "photos": [
        {
          "height": 1500,
          "html_attributions": [
            "<a href=\"https://maps.google.com/maps/contrib/117838384412151834475\">NY City Wraps</a>"
          ],
          "photo_reference": "AeJbb3eqs5rcJgwVs-H9FrjUiaqOYv1r_RQhe7MY4vhveDMbA-liT8FUYE0rOxzkaWCHHbIZ-oifo0vTGww6t4_lNU8ydApa6oa7XoBIw_mdw_T3SyRAgxJcGSDqQwtZ3Mc4N5WqbNf5uirPcuIO5q5NwB_q45ZMSrx89vO1CZm9DElEono6",
          "width": 2020
        }
      ],
      "place_id": "ChIJKfVSFzlZwokRkOvxwDO1yOs",
      "plus_code": {
        "compound_code": "P37Q+C5 \u7f8e\u570b\u7d10\u7d04",
        "global_code": "87G8P37Q+C5"
      },
      "rating": 4.6,
      "reference": "ChIJKfVSFzlZwokRkOvxwDO1yOs",
      "scope": "GOOGLE",
      "types": [
        "store",
        "point_of_interest",
        "establishment"
      ],
      "user_ratings_total": 14,
      "vicinity": "53-25 Metropolitan Avenue, Queens"
    },
    {
      "business_status": "OPERATIONAL",
      "geometry": {
        "location": {
          "lat": 40.71341090000001,
          "lng": -73.9107035
        },
        "viewport": {
          "northeast": {
            "lat": 40.7147165302915,
            "lng": -73.9093916697085
          },
          "southwest": {
            "lat": 40.7120185697085,
            "lng": -73.91208963029152
          }
        }
      },
      "icon": "https://maps.gstatic.com/mapfiles/place_api/icons/v1/png_71/restaurant-71.png",
      "icon_background_color": "#FF9E67",
      "icon_mask_base_uri": "https://maps.gstatic.com/mapfiles/place_api/icons/v2/restaurant_pinlet",
      "name": "Bella Donna",
      "opening_hours": {
        "open_now": true
      },
      "photos": [
        {
          "height": 700,
          "html_attributions": [
            "<a href=\"https://maps.google.com/maps/contrib/111702876862180977818\">Bella Donna</a>"
          ],
          "photo_reference": "AeJbb3decvLC_ZMAvAtaFsVsCtY5qxqvSQwQ4xERsZrysBzyJQYUGY0GmM4Z4iPnidaDqSA-0agGuGwFw09DOKodoHCehq44fpjEfsGRLPFwaC_kgh1KIax_PXNR2MsyabbujrM9hVI6Xx2Ssh1TUrVxLUvPl9jgOsn0rwLjGOLr0MXjgv0y",
          "width": 525
        }
      ],
      "place_id": "ChIJSaiBQ5hewokREqsKrzY0TpI",
      "plus_code": {
        "compound_code": "P37Q+9P \u7f8e\u570b\u7d10\u7d04",
        "global_code": "87G8P37Q+9P"
      },
      "price_level": 1,
      "rating": 4.2,
      "reference": "ChIJSaiBQ5hewokREqsKrzY0TpI",
      "scope": "GOOGLE",
      "types": [
        "meal_takeaway",
        "meal_delivery",
        "restaurant",
        "point_of_interest",
        "food",
        "establishment"
      ],
      "user_ratings_total": 145,
      "vicinity": "6091 54th Street, Queens"
    },
    {
      "business_status": "OPERATIONAL",
      "geometry": {
        "location": {
          "lat": 40.7093039,
          "lng": -73.9113766
        },
        "viewport": {
          "northeast": {
            "lat": 40.71072263029149,
            "lng": -73.9101461697085
          },
          "southwest": {
            "lat": 40.70802466970849,
            "lng": -73.9128441302915
          }
        }
      },
      "icon": "https://maps.gstatic.com/mapfiles/place_api/icons/v1/png_71/generic_business-71.png",
      "icon_background_color": "#7B9EB0",
      "icon_mask_base_uri": "https://maps.gstatic.com/mapfiles/place_api/icons/v2/generic_pinlet",
      "name": "HK Contractors LLC",
      "opening_hours": {
        "open_now": false
      },
      "place_id": "ChIJU_3oDyxcwokRJwBnGT3rOjI",
      "plus_code": {
        "compound_code": "P35Q+PC Ridgewood, \u7d10\u7d04\u7f8e\u570b",
        "global_code": "87G8P35Q+PC"
      },
      "reference": "ChIJU_3oDyxcwokRJwBnGT3rOjI",
      "scope": "GOOGLE",
      "types": [
        "general_contractor",
        "point_of_interest",
        "establishment"
      ],
      "vicinity": "19-26 Stanhope Street #2, Ridgewood"
    },
    {
      "business_status": "OPERATIONAL",
      "geometry": {
        "location": {
          "lat": 40.7095688,
          "lng": -73.90773589999999
        },
        "viewport": {
          "northeast": {
            "lat": 40.71097383029149,
            "lng": -73.90633626970849
          },
          "southwest": {
            "lat": 40.70827586970849,
            "lng": -73.9090342302915
          }
        }
      },
      "icon": "https://maps.gstatic.com/mapfiles/place_api/icons/v1/png_71/generic_business-71.png",
      "icon_background_color": "#7B9EB0",
      "icon_mask_base_uri": "https://maps.gstatic.com/mapfiles/place_api/icons/v2/generic_pinlet",
      "name": "Black Gold barbershop",
      "opening_hours": {
        "open_now": true
      },
      "photos": [
        {
          "height": 2835,
          "html_attributions": [
            "<a href=\"https://maps.google.com/maps/contrib/116570692091052945853\">Black Gold Barbershop</a>"
          ],
          "photo_reference": "AeJbb3ecrPXbxillxjX9r_tr0DJW0bZfTVnypbxEeIueWUIngz7yJkDXv-Qjqfh2fuVd6KjFk_oDEnIZ3AuoU0xJ4dbO4oUolLBKyLnE0vrRHXjTb04bGkTEEMX7f8oSjefrZrp6WsByb9y5XLaKd9Mqnn-y3pvbGY1DmKg5E6O7WyGk1qpB",
          "width": 2268
        }
      ],
      "place_id": "ChIJ51uetp5ewokRVwc2DzCeAlM",
      "plus_code": {
        "compound_code": "P35R+RW \u7f8e\u570b\u7d10\u7d04",
        "global_code": "87G8P35R+RW"
      },
      "rating": 4.6,
      "reference": "ChIJ51uetp5ewokRVwc2DzCeAlM",
      "scope": "GOOGLE",
      "types": [
        "hair_care",
        "health",
        "point_of_interest",
        "establishment"
      ],
      "user_ratings_total": 99,
      "vicinity": "502 Grandview Avenue, Queens"
    },
    {
      "business_status": "CLOSED_TEMPORARILY",
      "geometry": {
        "location": {
          "lat": 40.7083309,
          "lng": -73.9106814
        },
        "viewport": {
          "northeast": {
            "lat": 40.7096234802915,
            "lng": -73.9092361697085
          },
          "southwest": {
            "lat": 40.70692551970851,
            "lng": -73.91193413029153
          }
        }
      },
      "icon": "https://maps.gstatic.com/mapfiles/place_api/icons/v1/png_71/generic_business-71.png",
      "icon_background_color": "#7B9EB0",
      "icon_mask_base_uri": "https://maps.gstatic.com/mapfiles/place_api/icons/v2/generic_pinlet",
      "name": "CMSREED-X",
      "permanently_closed": true,
      "place_id": "ChIJuY34C59ewokRfwM5nARplMM",
      "plus_code": {
        "compound_code": "P35Q+8P Ridgewood, \u7d10\u7d04\u7f8e\u570b",
        "global_code": "87G8P35Q+8P"
      },
      "reference": "ChIJuY34C59ewokRfwM5nARplMM",
      "scope": "GOOGLE",
      "types": [
        "point_of_interest",
        "establishment"
      ],
      "vicinity": "1913 Harman Street, Ridgewood"
    },
    {
      "business_status": "OPERATIONAL",
      "geometry": {
        "location": {
          "lat": 40.70836200000001,
          "lng": -73.912312
        },
        "viewport": {
          "northeast": {
            "lat": 40.70978648029151,
            "lng": -73.9110926197085
          },
          "southwest": {
            "lat": 40.70708851970851,
            "lng": -73.9137905802915
          }
        }
      },
      "icon": "https://maps.gstatic.com/mapfiles/place_api/icons/v1/png_71/generic_business-71.png",
      "icon_background_color": "#7B9EB0",
      "icon_mask_base_uri": "https://maps.gstatic.com/mapfiles/place_api/icons/v2/generic_pinlet",
      "name": "Argon Props and Fabrication",
      "opening_hours": {
        "open_now": false
      },
      "photos": [
        {
          "height": 1176,
          "html_attributions": [
            "<a href=\"https://maps.google.com/maps/contrib/118147630368654414380\">Argon Props and Fabrication</a>"
          ],
          "photo_reference": "AeJbb3dtJdBQ6Z2obB0CaRHUdOy3H3usikppY7EY1A8cvqhzj5u9qoABVfjC7QuyYyuf3JQ4JodfoAyu8ZKVoEiGuJEdr-i734mgvda1ho21zmg0vnsvwhs621MgKIlQaohVWkySJIadfwlMUvZAo2b-Xr5oTOjpgDWsk6vH9XW-gitDs_vt",
          "width": 1805
        }
      ],
      "place_id": "ChIJIQ8wCKhewokRwHlbFAZ5lRs",
      "plus_code": {
        "compound_code": "P35Q+83 \u7f8e\u570b\u7d10\u7d04\u6cd5\u62c9\u76db",
        "global_code": "87G8P35Q+83"
      },
      "rating": 5,
      "reference": "ChIJIQ8wCKhewokRwHlbFAZ5lRs",
      "scope": "GOOGLE",
      "types": [
        "painter",
        "general_contractor",
        "point_of_interest",
        "establishment"
      ],
      "user_ratings_total": 1,
      "vicinity": "18-84 Stanhope Street, Flushing"
    },
    {
      "business_status": "OPERATIONAL",
      "geometry": {
        "location": {
          "lat": 40.70767010000001,
          "lng": -73.9107545
        },
        "viewport": {
          "northeast": {
            "lat": 40.70908403029151,
            "lng": -73.90933896970849
          },
          "southwest": {
            "lat": 40.70638606970851,
            "lng": -73.9120369302915
          }
        }
      },
      "icon": "https://maps.gstatic.com/mapfiles/place_api/icons/v1/png_71/generic_business-71.png",
      "icon_background_color": "#7B9EB0",
      "icon_mask_base_uri": "https://maps.gstatic.com/mapfiles/place_api/icons/v2/generic_pinlet",
      "name": "S&P INTERIORS INC.",
      "place_id": "ChIJm6i8c59ewokRc9az7eZcVtA",
      "plus_code": {
        "compound_code": "P35Q+3M \u7f8e\u570b\u7d10\u7d04",
        "global_code": "87G8P35Q+3M"
      },
      "rating": 2,
      "reference": "ChIJm6i8c59ewokRc9az7eZcVtA",
      "scope": "GOOGLE",
      "types": [
        "general_contractor",
        "point_of_interest",
        "establishment"
      ],
      "user_ratings_total": 1,
      "vicinity": "478 Woodward Avenue, Queens"
    },
    {
      "business_status": "OPERATIONAL",
      "geometry": {
        "location": {
          "lat": 40.71305,
          "lng": -73.91179249999999
        },
        "viewport": {
          "northeast": {
            "lat": 40.7144999302915,
            "lng": -73.9104594697085
          },
          "southwest": {
            "lat": 40.7118019697085,
            "lng": -73.91315743029152
          }
        }
      },
      "icon": "https://maps.gstatic.com/mapfiles/place_api/icons/v1/png_71/generic_business-71.png",
      "icon_background_color": "#7B9EB0",
      "icon_mask_base_uri": "https://maps.gstatic.com/mapfiles/place_api/icons/v2/generic_pinlet",
      "name": "Beni Construction Co., Inc.",
      "photos": [
        {
          "height": 640,
          "html_attributions": [
            "<a href=\"https://maps.google.com/maps/contrib/118070848651570254884\">Beni Construction Co., Inc.</a>"
          ],
          "photo_reference": "AeJbb3d_Vo5-eckwICFU_s2-Bsp6GGW46Bhb5OOHlJgLQYMFv6wG765IZGl48ycrIZVp9oeLSOINxVU81x2ME2uwEvnkQBx8M1U27fxZ4Y7j6jKa1Q5HHVlM_Uj-syvQr4tLkrLxFHfRMXW7_38aaB8oNsL-fz0xBZ-2rksQGChac37exBuD",
          "width": 960
        }
      ],
      "place_id": "ChIJl-bscLdfwokR3QZExrjRrOg",
      "plus_code": {
        "compound_code": "P37Q+67 \u7f8e\u570b\u7d10\u7d04",
        "global_code": "87G8P37Q+67"
      },
      "rating": 5,
      "reference": "ChIJl-bscLdfwokR3QZExrjRrOg",
      "scope": "GOOGLE",
      "types": [
        "general_contractor",
        "point_of_interest",
        "establishment"
      ],
      "user_ratings_total": 3,
      "vicinity": "5340 Metropolitan Avenue, Queens"
    },
    {
      "business_status": "OPERATIONAL",
      "geometry": {
        "location": {
          "lat": 40.7073217,
          "lng": -73.9112593
        },
        "viewport": {
          "northeast": {
            "lat": 40.70869723029151,
            "lng": -73.9099552197085
          },
          "southwest": {
            "lat": 40.70599926970851,
            "lng": -73.9126531802915
          }
        }
      },
      "icon": "https://maps.gstatic.com/mapfiles/place_api/icons/v1/png_71/generic_business-71.png",
      "icon_background_color": "#7B9EB0",
      "icon_mask_base_uri": "https://maps.gstatic.com/mapfiles/place_api/icons/v2/generic_pinlet",
      "name": "Zych Construction",
      "place_id": "ChIJSdENmp9ewokRVt-Sxb4-ERQ",
      "plus_code": {
        "compound_code": "P34Q+WF \u7f8e\u570b\u7d10\u7d04",
        "global_code": "87G8P34Q+WF"
      },
      "rating": 5,
      "reference": "ChIJSdENmp9ewokRVt-Sxb4-ERQ",
      "scope": "GOOGLE",
      "types": [
        "general_contractor",
        "point_of_interest",
        "establishment"
      ],
      "user_ratings_total": 2,
      "vicinity": "1872 Harman Street, Queens"
    },
    {
      "business_status": "CLOSED_TEMPORARILY",
      "geometry": {
        "location": {
          "lat": 40.70975550000001,
          "lng": -73.91471469999999
        },
        "viewport": {
          "northeast": {
            "lat": 40.71113143029149,
            "lng": -73.9134116197085
          },
          "southwest": {
            "lat": 40.7084334697085,
            "lng": -73.9161095802915
          }
        }
      },
      "icon": "https://maps.gstatic.com/mapfiles/place_api/icons/v1/png_71/generic_business-71.png",
      "icon_background_color": "#7B9EB0",
      "icon_mask_base_uri": "https://maps.gstatic.com/mapfiles/place_api/icons/v2/generic_pinlet",
      "name": "TOY BOX IDEAS",
      "permanently_closed": true,
      "place_id": "ChIJkwm9mKFewokReaW0bMoSXic",
      "plus_code": {
        "compound_code": "P35P+W4 Ridgewood, \u7d10\u7d04\u7f8e\u570b",
        "global_code": "87G8P35P+W4"
      },
      "reference": "ChIJkwm9mKFewokReaW0bMoSXic",
      "scope": "GOOGLE",
      "types": [
        "point_of_interest",
        "establishment"
      ],
      "vicinity": "1880 Hart Street, Ridgewood"
    },
    {
      "business_status": "OPERATIONAL",
      "geometry": {
        "location": {
          "lat": 40.7078265,
          "lng": -73.9134558
        },
        "viewport": {
          "northeast": {
            "lat": 40.7091251802915,
            "lng": -73.9121599697085
          },
          "southwest": {
            "lat": 40.7064272197085,
            "lng": -73.9148579302915
          }
        }
      },
      "icon": "https://maps.gstatic.com/mapfiles/place_api/icons/v1/png_71/pharmacy-71.png",
      "icon_background_color": "#F88181",
      "icon_mask_base_uri": "https://maps.gstatic.com/mapfiles/place_api/icons/v2/pharmacy_pinlet",
      "name": "Ridgewood Pharmacy",
      "opening_hours": {
        "open_now": true
      },
      "photos": [
        {
          "height": 3024,
          "html_attributions": [
            "<a href=\"https://maps.google.com/maps/contrib/115071871564562861124\">Juan Pablo Sandoval</a>"
          ],
          "photo_reference": "AeJbb3cAEk1NZLVnEY9ASRHNHh0Amwvemvab9q-GD-6Ccf3s-eWybMS4Ox5OOz__8rncedBHfDFHOv0HTvric2x8D_IQ2ALRmRgaFAOx1CQzttTYNBdjg_0mNWfVmnueZeHdZYO4Mxrrw4j0USTYiIGC2XHU3b53FoG1Ly0H1lcvQ6q-cCPo",
          "width": 4032
        }
      ],
      "place_id": "ChIJEzu5NqBewokRbTxK_rYWzto",
      "plus_code": {
        "compound_code": "P35P+4J Ridgewood, \u7d10\u7d04\u7f8e\u570b",
        "global_code": "87G8P35P+4J"
      },
      "rating": 3.9,
      "reference": "ChIJEzu5NqBewokRbTxK_rYWzto",
      "scope": "GOOGLE",
      "types": [
        "pharmacy",
        "drugstore",
        "store",
        "health",
        "point_of_interest",
        "establishment"
      ],
      "user_ratings_total": 14,
      "vicinity": "389 Onderdonk Avenue, Ridgewood"
    },
    {
      "business_status": "OPERATIONAL",
      "geometry": {
        "location": {
          "lat": 40.70680749999999,
          "lng": -73.9117289
        },
        "viewport": {
          "northeast": {
            "lat": 40.70821488029149,
            "lng": -73.91041986970849
          },
          "southwest": {
            "lat": 40.70551691970849,
            "lng": -73.9131178302915
          }
        }
      },
      "icon": "https://maps.gstatic.com/mapfiles/place_api/icons/v1/png_71/school-71.png",
      "icon_background_color": "#7B9EB0",
      "icon_mask_base_uri": "https://maps.gstatic.com/mapfiles/place_api/icons/v2/school_pinlet",
      "name": "Martha's Dance Center",
      "opening_hours": {
        "open_now": false
      },
      "photos": [
        {
          "height": 4032,
          "html_attributions": [
            "<a href=\"https://maps.google.com/maps/contrib/111968045293981154100\">Milton Morocho</a>"
          ],
          "photo_reference": "AeJbb3eE1-DNloR2f4EdNyiss2XjThG4EpbLJklyDTc2EMERjnON-65adK5OB1oVGDRvHAch5DxLioiCaMPca6ZQakvDUn-WoMabUSkOfCv7e-a-3efGg0y9lwZMML5XOotwReahLZWAm7SOrCIkt-MfJKlm9CLoWIIQ-cVxBoYxOtdSS5D6",
          "width": 3024
        }
      ],
      "place_id": "ChIJiZVvjZ9ewokRhgQkicZKqeU",
      "plus_code": {
        "compound_code": "P34Q+P8 \u7f8e\u570b\u7d10\u7d04",
        "global_code": "87G8P34Q+P8"
      },
      "rating": 4.7,
      "reference": "ChIJiZVvjZ9ewokRhgQkicZKqeU",
      "scope": "GOOGLE",
      "types": [
        "point_of_interest",
        "establishment"
      ],
      "user_ratings_total": 12,
      "vicinity": "475 Onderdonk Avenue, Queens"
    },
    {
      "business_status": "OPERATIONAL",
      "geometry": {
        "location": {
          "lat": 40.70745460000001,
          "lng": -73.9128533
        },
        "viewport": {
          "northeast": {
            "lat": 40.7087638302915,
            "lng": -73.91155686970848
          },
          "southwest": {
            "lat": 40.7060658697085,
            "lng": -73.9142548302915
          }
        }
      },
      "icon": "https://maps.gstatic.com/mapfiles/place_api/icons/v1/png_71/generic_business-71.png",
      "icon_background_color": "#7B9EB0",
      "icon_mask_base_uri": "https://maps.gstatic.com/mapfiles/place_api/icons/v2/generic_pinlet",
      "name": "Impact Protective Services and Investigation Inc.",
      "opening_hours": {
        "open_now": false
      },
      "place_id": "ChIJCRRUL6BewokRfBd5ktsupFQ",
      "plus_code": {
        "compound_code": "P34P+XV Ridgewood, \u7d10\u7d04\u7f8e\u570b",
        "global_code": "87G8P34P+XV"
      },
      "rating": 5,
      "reference": "ChIJCRRUL6BewokRfBd5ktsupFQ",
      "scope": "GOOGLE",
      "types": [
        "point_of_interest",
        "establishment"
      ],
      "user_ratings_total": 4,
      "vicinity": "411 Onderdonk Avenue, Ridgewood"
    },
    {
      "geometry": {
        "location": {
          "lat": 40.7282239,
          "lng": -73.7948516
        },
        "viewport": {
          "northeast": {
            "lat": 40.81224207952906,
            "lng": -73.70027206817629
          },
          "southwest": {
            "lat": 40.48979389754003,
            "lng": -74.04211194301948
          }
        }
      },
      "icon": "https://maps.gstatic.com/mapfiles/place_api/icons/v1/png_71/geocode-71.png",
      "icon_background_color": "#7B9EB0",
      "icon_mask_base_uri": "https://maps.gstatic.com/mapfiles/place_api/icons/v2/generic_pinlet",
      "name": "\u7687\u540e\u5340",
      "photos": [
        {
          "height": 739,
          "html_attributions": [
            "<a href=\"https://maps.google.com/maps/contrib/105194898501227143416\">Vikash Kumar</a>"
          ],
          "photo_reference": "AeJbb3cNCt8bDbBGgUt2KTjeXIlwB29XmzUT09Fe_zAK9InIzQVUNMthCAc9UQATvPlfE7IlsF3khtwfP3MMWWH46qHieK_s4vCtqxkcf_xTNQvCdoUx2d5GqnE_ylEApZsrkyqjVFR22Z2xTnYrZbMYf3WwaQb4W8RYZ8VdUGw7WHvmyRQo",
          "width": 1080
        }
      ],
      "place_id": "ChIJK1kKR2lDwokRBXtcbIvRCUE",
      "reference": "ChIJK1kKR2lDwokRBXtcbIvRCUE",
      "scope": "GOOGLE",
      "types": [
        "sublocality_level_1",
        "sublocality",
        "political"
      ],
      "vicinity": "\u7687\u540e\u5340"
    },
    {
      "business_status": "OPERATIONAL",
      "geometry": {
        "location": {
          "lat": 40.7074386,
          "lng": -73.912857
        },
        "viewport": {
          "northeast": {
            "lat": 40.70874893029149,
            "lng": -73.9115467197085
          },
          "southwest": {
            "lat": 40.70605096970849,
            "lng": -73.9142446802915
          }
        }
      },
      "icon": "https://maps.gstatic.com/mapfiles/place_api/icons/v1/png_71/school-71.png",
      "icon_background_color": "#7B9EB0",
      "icon_mask_base_uri": "https://maps.gstatic.com/mapfiles/place_api/icons/v2/school_pinlet",
      "name": "Safe and Secured Security Training School",
      "opening_hours": {
        "open_now": true
      },
      "photos": [
        {
          "height": 2988,
          "html_attributions": [
            "<a href=\"https://maps.google.com/maps/contrib/109688461895622296019\">Jorge Feliciano</a>"
          ],
          "photo_reference": "AeJbb3cnDrMzOv5iU8c_kUJTD6dgs5QPLMhvkK8mPpWGrXv0I3YCxbmH9A5P0a8g4wC_K_KEkAQqQOIsGtqKPrJ9z6sZsupFKIjgcOo_XY5tyZnDkgZUGUzSERNQZoBjIBioef4UMlb-mV7j7tDQ01zlzi3CYvKb2vCQ0PqRdqO2xCe-JqVb",
          "width": 5312
        }
      ],
      "place_id": "ChIJXVT_JaBewokRcrwJVCEViOs",
      "plus_code": {
        "compound_code": "P34P+XV Ridgewood, Queens, NY, USA",
        "global_code": "87G8P34P+XV"
      },
      "rating": 5,
      "reference": "ChIJXVT_JaBewokRcrwJVCEViOs",
      "scope": "GOOGLE",
      "types": [
        "school",
        "point_of_interest",
        "establishment"
      ],
      "user_ratings_total": 6,
      "vicinity": "411 Onderdonk Avenue, Ridgewood"
    },
    {
      "business_status": "OPERATIONAL",
      "geometry": {
        "location": {
          "lat": 40.7129552,
          "lng": -73.91061429999999
        },
        "viewport": {
          "northeast": {
            "lat": 40.7144134802915,
            "lng": -73.90925126970849
          },
          "southwest": {
            "lat": 40.7117155197085,
            "lng": -73.9119492302915
          }
        }
      },
      "icon": "https://maps.gstatic.com/mapfiles/place_api/icons/v1/png_71/generic_business-71.png",
      "icon_background_color": "#7B9EB0",
      "icon_mask_base_uri": "https://maps.gstatic.com/mapfiles/place_api/icons/v2/generic_pinlet",
      "name": "Digideo",
      "opening_hours": {
        "open_now": false
      },
      "photos": [
        {
          "height": 592,
          "html_attributions": [
            "<a href=\"https://maps.google.com/maps/contrib/115810326829092484195\">Digideo</a>"
          ],
          "photo_reference": "AeJbb3dpR0h5DHkPzEX-3WFB7ifLVc51GzoHjqERuLl-AInFrKsinrhpKR3JX_LOq54RbQfJUrz2JPL-LDtap0wsfypZKWKWrZGrzv3esC4er0hqC8LJZyowrEvQNmd-_G2iXDhNfmH70VKW8zsYomYM1ynynkUKpVKQjA1L4tUbyugFLCff",
          "width": 1322
        }
      ],
      "place_id": "ChIJG7Eo8H5ewokRe5T0TgSJV1U",
      "plus_code": {
        "compound_code": "P37Q+5Q Ridgewood, Queens, NY, USA",
        "global_code": "87G8P37Q+5Q"
      },
      "reference": "ChIJG7Eo8H5ewokRe5T0TgSJV1U",
      "scope": "GOOGLE",
      "types": [
        "point_of_interest",
        "establishment"
      ],
      "vicinity": "5404 Metropolitan Avenue, Ridgewood"
    },
    {
      "business_status": "OPERATIONAL",
      "geometry": {
        "location": {
          "lat": 40.70792900000001,
          "lng": -73.9081031
        },
        "viewport": {
          "northeast": {
            "lat": 40.7093148302915,
            "lng": -73.90671616970849
          },
          "southwest": {
            "lat": 40.7066168697085,
            "lng": -73.90941413029151
          }
        }
      },
      "icon": "https://maps.gstatic.com/mapfiles/place_api/icons/v1/png_71/generic_business-71.png",
      "icon_background_color": "#7B9EB0",
      "icon_mask_base_uri": "https://maps.gstatic.com/mapfiles/place_api/icons/v2/generic_pinlet",
      "name": "Everlast Solutions Corporation",
      "place_id": "ChIJTwRD7Z5ewokRgGoSwD72msU",
      "plus_code": {
        "compound_code": "P35R+5Q New York, NY, USA",
        "global_code": "87G8P35R+5Q"
      },
      "reference": "ChIJTwRD7Z5ewokRgGoSwD72msU",
      "scope": "GOOGLE",
      "types": [
        "general_contractor",
        "point_of_interest",
        "establishment"
      ],
      "vicinity": "554 Fairview Avenue, Queens"
    },
    {
      "business_status": "OPERATIONAL",
      "geometry": {
        "location": {
          "lat": 40.7090598,
          "lng": -73.9070246
        },
        "viewport": {
          "northeast": {
            "lat": 40.7104781802915,
            "lng": -73.9057295697085
          },
          "southwest": {
            "lat": 40.7077802197085,
            "lng": -73.90842753029152
          }
        }
      },
      "icon": "https://maps.gstatic.com/mapfiles/place_api/icons/v1/png_71/generic_business-71.png",
      "icon_background_color": "#7B9EB0",
      "icon_mask_base_uri": "https://maps.gstatic.com/mapfiles/place_api/icons/v2/generic_pinlet",
      "name": "Herbal Life",
      "opening_hours": {
        "open_now": true
      },
      "place_id": "ChIJp2KNpZ5ewokRlQroyUIP1Vo",
      "plus_code": {
        "compound_code": "P35V+J5 New York, NY, USA",
        "global_code": "87G8P35V+J5"
      },
      "reference": "ChIJp2KNpZ5ewokRlQroyUIP1Vo",
      "scope": "GOOGLE",
      "types": [
        "health",
        "point_of_interest",
        "food",
        "store",
        "establishment"
      ],
      "vicinity": "552 Grandview Avenue, Queens"
    },
    {
      "business_status": "OPERATIONAL",
      "geometry": {
        "location": {
          "lat": 40.7070731,
          "lng": -73.9143505
        },
        "viewport": {
          "northeast": {
            "lat": 40.7083211802915,
            "lng": -73.91310486970849
          },
          "southwest": {
            "lat": 40.7056232197085,
            "lng": -73.91580283029151
          }
        }
      },
      "icon": "https://maps.gstatic.com/mapfiles/place_api/icons/v1/png_71/generic_business-71.png",
      "icon_background_color": "#7B9EB0",
      "icon_mask_base_uri": "https://maps.gstatic.com/mapfiles/place_api/icons/v2/generic_pinlet",
      "name": "Dr. Sameer B. Shetty, MD",
      "place_id": "ChIJbcoPQqBewokRqJzddI4hK9A",
      "plus_code": {
        "compound_code": "P34P+R7 Ridgewood, Queens, NY, USA",
        "global_code": "87G8P34P+R7"
      },
      "reference": "ChIJbcoPQqBewokRqJzddI4hK9A",
      "scope": "GOOGLE",
      "types": [
        "doctor",
        "health",
        "point_of_interest",
        "establishment"
      ],
      "vicinity": "385 Seneca Avenue, Ridgewood"
    },
    {
      "business_status": "OPERATIONAL",
      "geometry": {
        "location": {
          "lat": 40.7063739,
          "lng": -73.910876
        },
        "viewport": {
          "northeast": {
            "lat": 40.70765678029149,
            "lng": -73.90960681970849
          },
          "southwest": {
            "lat": 40.7049588197085,
            "lng": -73.91230478029149
          }
        }
      },
      "icon": "https://maps.gstatic.com/mapfiles/place_api/icons/v1/png_71/generic_business-71.png",
      "icon_background_color": "#7B9EB0",
      "icon_mask_base_uri": "https://maps.gstatic.com/mapfiles/place_api/icons/v2/generic_pinlet",
      "name": "Ridgewood Volunteer Ambulance",
      "opening_hours": {
        "open_now": true
      },
      "place_id": "ChIJm3vqKyFcwokRtqyWBT7_R3k",
      "plus_code": {
        "compound_code": "P34Q+GJ Flushing, Queens, NY, USA",
        "global_code": "87G8P34Q+GJ"
      },
      "rating": 5,
      "reference": "ChIJm3vqKyFcwokRtqyWBT7_R3k",
      "scope": "GOOGLE",
      "types": [
        "health",
        "point_of_interest",
        "establishment"
      ],
      "user_ratings_total": 4,
      "vicinity": "503 Onderdonk Avenue, Flushing"
    },
    {
      "business_status": "OPERATIONAL",
      "geometry": {
        "location": {
          "lat": 40.7066122,
          "lng": -73.9112622
        },
        "viewport": {
          "northeast": {
            "lat": 40.7078859302915,
            "lng": -73.9099858197085
          },
          "southwest": {
            "lat": 40.7051879697085,
            "lng": -73.9126837802915
          }
        }
      },
      "icon": "https://maps.gstatic.com/mapfiles/place_api/icons/v1/png_71/generic_business-71.png",
      "icon_background_color": "#7B9EB0",
      "icon_mask_base_uri": "https://maps.gstatic.com/mapfiles/place_api/icons/v2/generic_pinlet",
      "name": "Beyond Basic Bookkeeping Services",
      "opening_hours": {
        "open_now": false
      },
      "place_id": "ChIJ11YR659ewokRzgfIDiQM3II",
      "plus_code": {
        "compound_code": "P34Q+JF Ridgewood, Queens, NY, USA",
        "global_code": "87G8P34Q+JF"
      },
      "reference": "ChIJ11YR659ewokRzgfIDiQM3II",
      "scope": "GOOGLE",
      "types": [
        "accounting",
        "finance",
        "point_of_interest",
        "establishment"
      ],
      "vicinity": "489 Onderdonk Avenue 1st floor, Ridgewood"
    },
    {
      "business_status": "OPERATIONAL",
      "geometry": {
        "location": {
          "lat": 40.7133675,
          "lng": -73.9120602
        },
        "viewport": {
          "northeast": {
            "lat": 40.71466973029149,
            "lng": -73.9107018197085
          },
          "southwest": {
            "lat": 40.7119717697085,
            "lng": -73.91339978029151
          }
        }
      },
      "icon": "https://maps.gstatic.com/mapfiles/place_api/icons/v1/png_71/restaurant-71.png",
      "icon_background_color": "#FF9E67",
      "icon_mask_base_uri": "https://maps.gstatic.com/mapfiles/place_api/icons/v2/restaurant_pinlet",
      "name": "ECB",
      "opening_hours": {
        "open_now": true
      },
      "photos": [
        {
          "height": 1366,
          "html_attributions": [
            "<a href=\"https://maps.google.com/maps/contrib/102915955627364115597\">ECB</a>"
          ],
          "photo_reference": "AeJbb3fJ49Q7RxW8mOQX9oPQd07ibu8N2yRhO9xFwqKwtJbcqPQ9SN_er-IeuSDey9FGjCAb3vePEIjEjWaqVnZko0kAo2ImEAmbc_GjfPBaxv8fGufNCUgiZU_ztQ49pbCwO8TPv3GfPnZKO7mZYQhQLrnCvZxT1mnbETicfef5tDU-V8Fm",
          "width": 2048
        }
      ],
      "place_id": "ChIJvaTde5hewokRVhPqu4hXcFg",
      "plus_code": {
        "compound_code": "P37Q+85 New York, NY, USA",
        "global_code": "87G8P37Q+85"
      },
      "price_level": 2,
      "rating": 4.5,
      "reference": "ChIJvaTde5hewokRVhPqu4hXcFg",
      "scope": "GOOGLE",
      "types": [
        "restaurant",
        "bar",
        "point_of_interest",
        "food",
        "establishment"
      ],
      "user_ratings_total": 455,
      "vicinity": "53-21 Metropolitan Avenue, Queens"
    },
    {
      "business_status": "OPERATIONAL",
      "geometry": {
        "location": {
          "lat": 40.71284610000001,
          "lng": -73.9085345
        },
        "viewport": {
          "northeast": {
            "lat": 40.71428238029149,
            "lng": -73.9070354197085
          },
          "southwest": {
            "lat": 40.71158441970849,
            "lng": -73.90973338029151
          }
        }
      },
      "icon": "https://maps.gstatic.com/mapfiles/place_api/icons/v1/png_71/school-71.png",
      "icon_background_color": "#7B9EB0",
      "icon_mask_base_uri": "https://maps.gstatic.com/mapfiles/place_api/icons/v2/school_pinlet",
      "name": "P.S. 290",
      "photos": [
        {
          "height": 2988,
          "html_attributions": [
            "<a href=\"https://maps.google.com/maps/contrib/117979751334919367476\">Alexander Mejia</a>"
          ],
          "photo_reference": "AeJbb3cEsamX9rzzApSd817I_ClBMkJisI26Lf1uBbKGwqM19_SQyTG0xLGtYS7-IqImPkObnpu3V530qOdxzpN0AYdNhMV90gKEb7tCDAKiWRlBMawULOEkUc7Xf7zQOHqhUthstpoxUnVK_TBI11NG1F9EoZR8RNOi1I4wvjpci8m4yjRb",
          "width": 5312
        }
      ],
      "place_id": "ChIJK2kDX5r8ZUARigVPCcpyOFE",
      "plus_code": {
        "compound_code": "P37R+4H New York, NY, USA",
        "global_code": "87G8P37R+4H"
      },
      "rating": 4.2,
      "reference": "ChIJK2kDX5r8ZUARigVPCcpyOFE",
      "scope": "GOOGLE",
      "types": [
        "primary_school",
        "school",
        "point_of_interest",
        "establishment"
      ],
      "user_ratings_total": 19,
      "vicinity": "55-20 Metropolitan Avenue, Queens"
    },
    {
      "business_status": "OPERATIONAL",
      "geometry": {
        "location": {
          "lat": 40.7134824,
          "lng": -73.91208979999999
        },
        "viewport": {
          "northeast": {
            "lat": 40.7148509302915,
            "lng": -73.91061236970849
          },
          "southwest": {
            "lat": 40.7121529697085,
            "lng": -73.9133103302915
          }
        }
      },
      "icon": "https://maps.gstatic.com/mapfiles/place_api/icons/v1/png_71/generic_business-71.png",
      "icon_background_color": "#7B9EB0",
      "icon_mask_base_uri": "https://maps.gstatic.com/mapfiles/place_api/icons/v2/generic_pinlet",
      "name": "M&A Donmartin Business Consulting",
      "opening_hours": {
        "open_now": true
      },
      "photos": [
        {
          "height": 1414,
          "html_attributions": [
            "<a href=\"https://maps.google.com/maps/contrib/116463693347565307437\">M&amp;A Donmartin Business Consulting</a>"
          ],
          "photo_reference": "AeJbb3ewUpkVLeDJ7qhBA2L6jUr3pK-9rkDxdqvND3IkDQHQd02t9VFBZbTPYQDjDo0zcUgBUOoy54wYyTxVz2rdOTn5fEW139yly87ornHym58zGnyXpDCxeD9uYmNJ7U2oNBnwI9VVZVRKC55uHcCRHVJF_b-S9L3T46H7es2B_SosAvGf",
          "width": 2121
        }
      ],
      "place_id": "ChIJqVhJ8aJewokRaVe6aRjRGc8",
      "plus_code": {
        "compound_code": "P37Q+95 New York, NY, USA",
        "global_code": "87G8P37Q+95"
      },
      "reference": "ChIJqVhJ8aJewokRaVe6aRjRGc8",
      "scope": "GOOGLE",
      "types": [
        "point_of_interest",
        "establishment"
      ],
      "vicinity": "53-29 Metropolitan Avenue, Queens"
    },
    {
      "business_status": "OPERATIONAL",
      "geometry": {
        "location": {
          "lat": 40.71330500000001,
          "lng": -73.909278
        },
        "viewport": {
          "northeast": {
            "lat": 40.71465758029151,
            "lng": -73.90801166970849
          },
          "southwest": {
            "lat": 40.71195961970851,
            "lng": -73.9107096302915
          }
        }
      },
      "icon": "https://maps.gstatic.com/mapfiles/place_api/icons/v1/png_71/park-71.png",
      "icon_background_color": "#4DB546",
      "icon_mask_base_uri": "https://maps.gstatic.com/mapfiles/place_api/icons/v2/tree_pinlet",
      "name": "Ridgewood",
      "place_id": "ChIJGRi6s5lewokRKVCOgmrCucw",
      "plus_code": {
        "compound_code": "P37R+87 Flushing, Queens, NY, USA",
        "global_code": "87G8P37R+87"
      },
      "rating": 4,
      "reference": "ChIJGRi6s5lewokRKVCOgmrCucw",
      "scope": "GOOGLE",
      "types": [
        "park",
        "point_of_interest",
        "establishment"
      ],
      "user_ratings_total": 2,
      "vicinity": "54-33 Metropolitan Avenue, Flushing"
    },
    {
      "business_status": "CLOSED_TEMPORARILY",
      "geometry": {
        "location": {
          "lat": 40.7136292,
          "lng": -73.90999
        },
        "viewport": {
          "northeast": {
            "lat": 40.7149050802915,
            "lng": -73.90853891970848
          },
          "southwest": {
            "lat": 40.7122071197085,
            "lng": -73.9112368802915
          }
        }
      },
      "icon": "https://maps.gstatic.com/mapfiles/place_api/icons/v1/png_71/generic_business-71.png",
      "icon_background_color": "#7B9EB0",
      "icon_mask_base_uri": "https://maps.gstatic.com/mapfiles/place_api/icons/v2/generic_pinlet",
      "name": "Sim Soon Construction",
      "permanently_closed": true,
      "place_id": "ChIJB5pzSZhewokRRLoUktsdwoE",
      "plus_code": {
        "compound_code": "P37R+F2 New York, NY, USA",
        "global_code": "87G8P37R+F2"
      },
      "rating": 5,
      "reference": "ChIJB5pzSZhewokRRLoUktsdwoE",
      "scope": "GOOGLE",
      "types": [
        "general_contractor",
        "point_of_interest",
        "establishment"
      ],
      "user_ratings_total": 1,
      "vicinity": "5422 Arnold Avenue, Queens"
    },
    {
      "business_status": "OPERATIONAL",
      "geometry": {
        "location": {
          "lat": 40.7131613,
          "lng": -73.9087231
        },
        "viewport": {
          "northeast": {
            "lat": 40.7144564802915,
            "lng": -73.90736386970849
          },
          "southwest": {
            "lat": 40.7117585197085,
            "lng": -73.91006183029151
          }
        }
      },
      "icon": "https://maps.gstatic.com/mapfiles/place_api/icons/v1/png_71/restaurant-71.png",
      "icon_background_color": "#FF9E67",
      "icon_mask_base_uri": "https://maps.gstatic.com/mapfiles/place_api/icons/v2/restaurant_pinlet",
      "name": "China House",
      "opening_hours": {
        "open_now": true
      },
      "photos": [
        {
          "height": 4032,
          "html_attributions": [
            "<a href=\"https://maps.google.com/maps/contrib/105113246928197959017\">Oleh Kolesnykov</a>"
          ],
          "photo_reference": "AeJbb3eoEkWOAo-At8CT_0U-KgSaxBg1R4SRHrFpjP-9W9XNChe4XkeXiv5V15yjTDA_ESWZ663UecGtMia8iBNAisE76UnryNmk_FwQ48A-DpTXYClVwYH_epoyNtt50gjCJjKsl7SEvKcmd7le8zOP5WCVJTfxuoZ8ysOAGyNP7tQ0ubkW",
          "width": 3024
        }
      ],
      "place_id": "ChIJAXANuplewokR8Xoph57WaJM",
      "plus_code": {
        "compound_code": "P37R+7G New York, NY, USA",
        "global_code": "87G8P37R+7G"
      },
      "price_level": 1,
      "rating": 4.2,
      "reference": "ChIJAXANuplewokR8Xoph57WaJM",
      "scope": "GOOGLE",
      "types": [
        "meal_delivery",
        "restaurant",
        "point_of_interest",
        "food",
        "establishment"
      ],
      "user_ratings_total": 104,
      "vicinity": "55-01 Metropolitan Avenue, Queens"
    },
    {
      "business_status": "OPERATIONAL",
      "geometry": {
        "location": {
          "lat": 40.7066801,
          "lng": -73.9090427
        },
        "viewport": {
          "northeast": {
            "lat": 40.7080890802915,
            "lng": -73.9076328197085
          },
          "southwest": {
            "lat": 40.7053911197085,
            "lng": -73.91033078029152
          }
        }
      },
      "icon": "https://maps.gstatic.com/mapfiles/place_api/icons/v1/png_71/school-71.png",
      "icon_background_color": "#7B9EB0",
      "icon_mask_base_uri": "https://maps.gstatic.com/mapfiles/place_api/icons/v2/school_pinlet",
      "name": "FTW World Wrestling Academy 2",
      "place_id": "ChIJn2HnTp5ewokRSB5mMmjceDo",
      "plus_code": {
        "compound_code": "P34R+M9 New York, NY, USA",
        "global_code": "87G8P34R+M9"
      },
      "rating": 1.6,
      "reference": "ChIJn2HnTp5ewokRSB5mMmjceDo",
      "scope": "GOOGLE",
      "types": [
        "school",
        "point_of_interest",
        "establishment"
      ],
      "user_ratings_total": 7,
      "vicinity": "564 Woodward Avenue, Queens"
    },
    {
      "business_status": "OPERATIONAL",
      "geometry": {
        "location": {
          "lat": 40.7137406,
          "lng": -73.9122921
        },
        "viewport": {
          "northeast": {
            "lat": 40.7151257302915,
            "lng": -73.9111295197085
          },
          "southwest": {
            "lat": 40.7124277697085,
            "lng": -73.9138274802915
          }
        }
      },
      "icon": "https://maps.gstatic.com/mapfiles/place_api/icons/v1/png_71/shopping-71.png",
      "icon_background_color": "#4B96F3",
      "icon_mask_base_uri": "https://maps.gstatic.com/mapfiles/place_api/icons/v2/shopping_pinlet",
      "name": "Kitchen Cabinet Depot Inc",
      "opening_hours": {
        "open_now": false
      },
      "photos": [
        {
          "height": 4032,
          "html_attributions": [
            "<a href=\"https://maps.google.com/maps/contrib/101483204528031564748\">Kitchen Cabinet Depot Inc</a>"
          ],
          "photo_reference": "AeJbb3d7_mwhukEvY61Y9fKBVlhBsdZM6td7t-0zsYY_FizF_XUf2BMJ57PMXJj10fL8_Lohpockcll846fqli7uklLBzNwU4GNPc1GbbSqSV_2-N0IkPOvOIkSmAmzYhMpnEZ4s-1JyyDFblklWsHCGop389OZ5LuIiqAtgPKF40Hg-8NY9",
          "width": 3024
        }
      ],
      "place_id": "ChIJLeVwbKRewokRvEr2cd8MVlA",
      "plus_code": {
        "compound_code": "P37Q+F3 New York, NY, USA",
        "global_code": "87G8P37Q+F3"
      },
      "rating": 5,
      "reference": "ChIJLeVwbKRewokRvEr2cd8MVlA",
      "scope": "GOOGLE",
      "types": [
        "furniture_store",
        "home_goods_store",
        "point_of_interest",
        "store",
        "establishment"
      ],
      "user_ratings_total": 2,
      "vicinity": "53-01 Nurge Avenue, Queens"
    },
    {
      "business_status": "OPERATIONAL",
      "geometry": {
        "location": {
          "lat": 40.70750189999999,
          "lng": -73.9074232
        },
        "viewport": {
          "northeast": {
            "lat": 40.70889683029149,
            "lng": -73.90603121970851
          },
          "southwest": {
            "lat": 40.70619886970849,
            "lng": -73.90872918029152
          }
        }
      },
      "icon": "https://maps.gstatic.com/mapfiles/place_api/icons/v1/png_71/generic_business-71.png",
      "icon_background_color": "#7B9EB0",
      "icon_mask_base_uri": "https://maps.gstatic.com/mapfiles/place_api/icons/v2/generic_pinlet",
      "name": "Alba Windows & Doors Corporation",
      "place_id": "ChIJlSzkep5ewokR0Ftg1BFVmBo",
      "plus_code": {
        "compound_code": "P35V+22 Ridgewood, Queens, NY, USA",
        "global_code": "87G8P35V+22"
      },
      "rating": 5,
      "reference": "ChIJlSzkep5ewokR0Ftg1BFVmBo",
      "scope": "GOOGLE",
      "types": [
        "general_contractor",
        "point_of_interest",
        "establishment"
      ],
      "user_ratings_total": 2,
      "vicinity": "576 Fairview Avenue, Ridgewood"
    },
    {
      "business_status": "OPERATIONAL",
      "geometry": {
        "location": {
          "lat": 40.7088566,
          "lng": -73.9064485
        },
        "viewport": {
          "northeast": {
            "lat": 40.7102439802915,
            "lng": -73.90506011970848
          },
          "southwest": {
            "lat": 40.7075460197085,
            "lng": -73.9077580802915
          }
        }
      },
      "icon": "https://maps.gstatic.com/mapfiles/place_api/icons/v1/png_71/shopping-71.png",
      "icon_background_color": "#4B96F3",
      "icon_mask_base_uri": "https://maps.gstatic.com/mapfiles/place_api/icons/v2/shopping_pinlet",
      "name": "Celene's Thrift Shop",
      "opening_hours": {
        "open_now": true
      },
      "photos": [
        {
          "height": 4032,
          "html_attributions": [
            "<a href=\"https://maps.google.com/maps/contrib/102563233653466714039\">Ana Fern\u00e1ndez</a>"
          ],
          "photo_reference": "AeJbb3cVzXfZjg35qScfDntEHMce382rcgVX-SLonHyXof3fLbDZGRyd28bJrbEhULCIKXxzvxZyUI1LBEJdE6qF1e3mkEQQin431ECfPxB0YhnzJDZrhAr16FbCRKOWiThJVvC-Ury_Nz-UFi_Es5fYqvp5LM-Z3TL5QoUmtyEUT5O9ugA0",
          "width": 3024
        }
      ],
      "place_id": "ChIJXSIGHZxewokRSnXU2XN_zZo",
      "plus_code": {
        "compound_code": "P35V+GC Ridgewood, Queens, NY, USA",
        "global_code": "87G8P35V+GC"
      },
      "rating": 4.7,
      "reference": "ChIJXSIGHZxewokRSnXU2XN_zZo",
      "scope": "GOOGLE",
      "types": [
        "point_of_interest",
        "store",
        "establishment"
      ],
      "user_ratings_total": 27,
      "vicinity": "568 Grandview Avenue, Ridgewood"
    },
    {
      "business_status": "OPERATIONAL",
      "geometry": {
        "location": {
          "lat": 40.710706,
          "lng": -73.90624199999999
        },
        "viewport": {
          "northeast": {
            "lat": 40.7119631802915,
            "lng": -73.90485471970848
          },
          "southwest": {
            "lat": 40.7092652197085,
            "lng": -73.9075526802915
          }
        }
      },
      "icon": "https://maps.gstatic.com/mapfiles/place_api/icons/v1/png_71/generic_business-71.png",
      "icon_background_color": "#7B9EB0",
      "icon_mask_base_uri": "https://maps.gstatic.com/mapfiles/place_api/icons/v2/generic_pinlet",
      "name": "PDP Contracting Inc",
      "place_id": "ChIJa_nN4JtewokRD9dEm8Sooh0",
      "plus_code": {
        "compound_code": "P36V+7G New York, NY, USA",
        "global_code": "87G8P36V+7G"
      },
      "rating": 5,
      "reference": "ChIJa_nN4JtewokRD9dEm8Sooh0",
      "scope": "GOOGLE",
      "types": [
        "general_contractor",
        "point_of_interest",
        "establishment"
      ],
      "user_ratings_total": 1,
      "vicinity": "2137 Butler Avenue, Queens"
    },
    {
      "business_status": "OPERATIONAL",
      "geometry": {
        "location": {
          "lat": 40.7090853,
          "lng": -73.9062166
        },
        "viewport": {
          "northeast": {
            "lat": 40.7103588302915,
            "lng": -73.90494501970849
          },
          "southwest": {
            "lat": 40.7076608697085,
            "lng": -73.9076429802915
          }
        }
      },
      "icon": "https://maps.gstatic.com/mapfiles/place_api/icons/v1/png_71/generic_business-71.png",
      "icon_background_color": "#7B9EB0",
      "icon_mask_base_uri": "https://maps.gstatic.com/mapfiles/place_api/icons/v2/generic_pinlet",
      "name": "Western Union",
      "opening_hours": {
        "open_now": true
      },
      "photos": [
        {
          "height": 1000,
          "html_attributions": [
            "<a href=\"https://maps.google.com/maps/contrib/102592340109248259325\">Western Union</a>"
          ],
          "photo_reference": "AeJbb3cFpOEDRz4Vv1qi0RpTfNPtL3O2hY9CumMerfOqjAlGKiHV_4oPsz4lzSFtunofQVoPdRLIsTHZtIMXN4yPbESo8bnE9HBDBho_rGcKggHVmVKwLAKOzYVNKT1dVNbpSIphjOhugN0I4rTTuUS5qyWA9ZBwfe0YG8eWEob6q1lfwiA9",
          "width": 1000
        }
      ],
      "place_id": "ChIJcQ3lD5xewokRrEI1h8Iilh0",
      "plus_code": {
        "compound_code": "P35V+JG Ridgewood, Queens, NY, USA",
        "global_code": "87G8P35V+JG"
      },
      "rating": 3.5,
      "reference": "ChIJcQ3lD5xewokRrEI1h8Iilh0",
      "scope": "GOOGLE",
      "types": [
        "finance",
        "point_of_interest",
        "establishment"
      ],
      "user_ratings_total": 2,
      "vicinity": "Rite Aid, 583 Grandview Avenue, Ridgewood"
    },
    {
      "business_status": "OPERATIONAL",
      "geometry": {
        "location": {
          "lat": 40.70987900000001,
          "lng": -73.9162489
        },
        "viewport": {
          "northeast": {
            "lat": 40.7111735802915,
            "lng": -73.9148064197085
          },
          "southwest": {
            "lat": 40.7084756197085,
            "lng": -73.9175043802915
          }
        }
      },
      "icon": "https://maps.gstatic.com/mapfiles/place_api/icons/v1/png_71/school-71.png",
      "icon_background_color": "#7B9EB0",
      "icon_mask_base_uri": "https://maps.gstatic.com/mapfiles/place_api/icons/v2/school_pinlet",
      "name": "Ridgewood School of Music",
      "photos": [
        {
          "height": 4000,
          "html_attributions": [
            "<a href=\"https://maps.google.com/maps/contrib/105055897236290834351\">Ridgewood School of Music</a>"
          ],
          "photo_reference": "AeJbb3cfMLJlo0DyDOwQvL0Xiuo3thplOebh21l6vjjT0z0yL5AmROiaoxO_KrU-7yNV3euzfq_n6FfPCEcy3kBoi26RLkDeG-IlnKLReL8vmbwspJDcOcV8UxgjmZ2Udebu2DPZyY04OX246TFrfmjRZyhiOdVeEmlFS5XFOSpeaCUBYIM-",
          "width": 6000
        }
      ],
      "place_id": "ChIJu9ML10ZcwokRujKL7OwxhVg",
      "plus_code": {
        "compound_code": "P35M+XG New York, NY, USA",
        "global_code": "87G8P35M+XG"
      },
      "rating": 5,
      "reference": "ChIJu9ML10ZcwokRujKL7OwxhVg",
      "scope": "GOOGLE",
      "types": [
        "school",
        "point_of_interest",
        "establishment"
      ],
      "user_ratings_total": 24,
      "vicinity": "1863 Suydam Street, Queens"
    },
    {
      "business_status": "OPERATIONAL",
      "geometry": {
        "location": {
          "lat": 40.7070058,
          "lng": -73.9144623
        },
        "viewport": {
          "northeast": {
            "lat": 40.7082953802915,
            "lng": -73.91317416970848
          },
          "southwest": {
            "lat": 40.7055974197085,
            "lng": -73.91587213029149
          }
        }
      },
      "icon": "https://maps.gstatic.com/mapfiles/place_api/icons/v1/png_71/generic_business-71.png",
      "icon_background_color": "#7B9EB0",
      "icon_mask_base_uri": "https://maps.gstatic.com/mapfiles/place_api/icons/v2/generic_pinlet",
      "name": "Visiting NP in Family Health, PLLC",
      "opening_hours": {
        "open_now": true
      },
      "place_id": "ChIJ423OaaBewokR9T5MajZnQMU",
      "plus_code": {
        "compound_code": "P34P+R6 New York, NY, USA",
        "global_code": "87G8P34P+R6"
      },
      "reference": "ChIJ423OaaBewokR9T5MajZnQMU",
      "scope": "GOOGLE",
      "types": [
        "point_of_interest",
        "food",
        "establishment"
      ],
      "vicinity": "385 Seneca Avenue, Queens"
    },
    {
      "business_status": "OPERATIONAL",
      "geometry": {
        "location": {
          "lat": 40.7077,
          "lng": -73.9142
        },
        "viewport": {
          "northeast": {
            "lat": 40.70919183029149,
            "lng": -73.9128118697085
          },
          "southwest": {
            "lat": 40.7064938697085,
            "lng": -73.91550983029153
          }
        }
      },
      "icon": "https://maps.gstatic.com/mapfiles/place_api/icons/v1/png_71/worship_general-71.png",
      "icon_background_color": "#7B9EB0",
      "icon_mask_base_uri": "https://maps.gstatic.com/mapfiles/place_api/icons/v2/worship_christian_pinlet",
      "name": "St. Aloysius Roman Catholic Church",
      "photos": [
        {
          "height": 4608,
          "html_attributions": [
            "<a href=\"https://maps.google.com/maps/contrib/118272681608389305850\">Michael Kittel</a>"
          ],
          "photo_reference": "AeJbb3dD5gI7qUPNfov29g3mn5fbLI1n-UhSHKTnrnMYI2Qb2oGlNn2vyfXQL2coDVQz4kE68JLNOw8bsH--Pt5yJtVjoh6Q5GXIrW4_8c_Zwbjq2seB_4ypjJxXZW9wcktNuRWW4qkIqz-TFuskliXrQYT4I2MQaLyVe48r99GntJ2dtGuI",
          "width": 3456
        }
      ],
      "place_id": "ChIJD18OSqBewokRzS_GSmoG1-w",
      "plus_code": {
        "compound_code": "P35P+38 New York, NY, USA",
        "global_code": "87G8P35P+38"
      },
      "rating": 4.6,
      "reference": "ChIJD18OSqBewokRzS_GSmoG1-w",
      "scope": "GOOGLE",
      "types": [
        "church",
        "place_of_worship",
        "point_of_interest",
        "establishment"
      ],
      "user_ratings_total": 59,
      "vicinity": "382 Onderdonk Avenue, Queens"
    },
    {
      "business_status": "CLOSED_TEMPORARILY",
      "geometry": {
        "location": {
          "lat": 40.70995999999999,
          "lng": -73.90594
        },
        "viewport": {
          "northeast": {
            "lat": 40.71138138029149,
            "lng": -73.9047158697085
          },
          "southwest": {
            "lat": 40.70868341970849,
            "lng": -73.9074138302915
          }
        }
      },
      "icon": "https://maps.gstatic.com/mapfiles/place_api/icons/v1/png_71/generic_business-71.png",
      "icon_background_color": "#7B9EB0",
      "icon_mask_base_uri": "https://maps.gstatic.com/mapfiles/place_api/icons/v2/generic_pinlet",
      "name": "J and A Plumbing & Heating",
      "permanently_closed": true,
      "place_id": "ChIJqXvzlZtewokROV6GBJlnhPI",
      "plus_code": {
        "compound_code": "P35V+XJ Ridgewood, Queens, NY, USA",
        "global_code": "87G8P35V+XJ"
      },
      "reference": "ChIJqXvzlZtewokROV6GBJlnhPI",
      "scope": "GOOGLE",
      "types": [
        "general_contractor",
        "point_of_interest",
        "establishment"
      ],
      "vicinity": "21-34 Bleecker Street, Ridgewood"
    },
    {
      "business_status": "OPERATIONAL",
      "geometry": {
        "location": {
          "lat": 40.7132328,
          "lng": -73.908127
        },
        "viewport": {
          "northeast": {
            "lat": 40.7144758802915,
            "lng": -73.90678871970849
          },
          "southwest": {
            "lat": 40.7117779197085,
            "lng": -73.9094866802915
          }
        }
      },
      "icon": "https://maps.gstatic.com/mapfiles/place_api/icons/v1/png_71/generic_business-71.png",
      "icon_background_color": "#7B9EB0",
      "icon_mask_base_uri": "https://maps.gstatic.com/mapfiles/place_api/icons/v2/generic_pinlet",
      "name": "Nejat Morris MD",
      "place_id": "ChIJm_DjvZlewokRQD0RpfiO-g4",
      "plus_code": {
        "compound_code": "P37R+7P Ridgewood, Queens, NY, USA",
        "global_code": "87G8P37R+7P"
      },
      "reference": "ChIJm_DjvZlewokRQD0RpfiO-g4",
      "scope": "GOOGLE",
      "types": [
        "doctor",
        "health",
        "point_of_interest",
        "establishment"
      ],
      "vicinity": "5519 Metropolitan Avenue, Ridgewood"
    },
    {
      "business_status": "OPERATIONAL",
      "geometry": {
        "location": {
          "lat": 40.7063892,
          "lng": -73.9086147
        },
        "viewport": {
          "northeast": {
            "lat": 40.70779573029149,
            "lng": -73.9071684197085
          },
          "southwest": {
            "lat": 40.70509776970849,
            "lng": -73.9098663802915
          }
        }
      },
      "icon": "https://maps.gstatic.com/mapfiles/place_api/icons/v1/png_71/generic_business-71.png",
      "icon_background_color": "#7B9EB0",
      "icon_mask_base_uri": "https://maps.gstatic.com/mapfiles/place_api/icons/v2/generic_pinlet",
      "name": "New Force Construction",
      "place_id": "ChIJE2U6RJ5ewokRaQ2NYy5AfE8",
      "plus_code": {
        "compound_code": "P34R+HH Flushing, Queens, NY, USA",
        "global_code": "87G8P34R+HH"
      },
      "rating": 4.4,
      "reference": "ChIJE2U6RJ5ewokRaQ2NYy5AfE8",
      "scope": "GOOGLE",
      "types": [
        "general_contractor",
        "point_of_interest",
        "establishment"
      ],
      "user_ratings_total": 7,
      "vicinity": "576 Woodward Avenue, Flushing"
    },
    {
      "business_status": "OPERATIONAL",
      "geometry": {
        "location": {
          "lat": 40.7128751,
          "lng": -73.9074088
        },
        "viewport": {
          "northeast": {
            "lat": 40.7142776302915,
            "lng": -73.9060551197085
          },
          "southwest": {
            "lat": 40.7115796697085,
            "lng": -73.90875308029152
          }
        }
      },
      "icon": "https://maps.gstatic.com/mapfiles/place_api/icons/v1/png_71/shopping-71.png",
      "icon_background_color": "#4B96F3",
      "icon_mask_base_uri": "https://maps.gstatic.com/mapfiles/place_api/icons/v2/shopping_pinlet",
      "name": "EZ Pasola",
      "opening_hours": {
        "open_now": true
      },
      "place_id": "ChIJiQ_pmplewokRGCAYSKmoL0s",
      "plus_code": {
        "compound_code": "P37V+52 Ridgewood, Queens, NY, USA",
        "global_code": "87G8P37V+52"
      },
      "reference": "ChIJiQ_pmplewokRGCAYSKmoL0s",
      "scope": "GOOGLE",
      "types": [
        "car_repair",
        "store",
        "point_of_interest",
        "establishment"
      ],
      "vicinity": "55-42 Metropolitan Avenue, Ridgewood"
    },
    {
      "business_status": "OPERATIONAL",
      "geometry": {
        "location": {
          "lat": 40.712735,
          "lng": -73.907355
        },
        "viewport": {
          "northeast": {
            "lat": 40.7142059302915,
            "lng": -73.9059953197085
          },
          "southwest": {
            "lat": 40.7115079697085,
            "lng": -73.9086932802915
          }
        }
      },
      "icon": "https://maps.gstatic.com/mapfiles/place_api/icons/v1/png_71/generic_business-71.png",
      "icon_background_color": "#7B9EB0",
      "icon_mask_base_uri": "https://maps.gstatic.com/mapfiles/place_api/icons/v2/generic_pinlet",
      "name": "A Board Certified Eye Specl",
      "place_id": "ChIJw9HOmplewokR0nVQ8tZQLsM",
      "plus_code": {
        "compound_code": "P37V+33 Flushing, Queens, NY, USA",
        "global_code": "87G8P37V+33"
      },
      "reference": "ChIJw9HOmplewokR0nVQ8tZQLsM",
      "scope": "GOOGLE",
      "types": [
        "doctor",
        "health",
        "point_of_interest",
        "establishment"
      ],
      "vicinity": "5544 Metropolitan Avenue, Flushing"
    },
    {
      "business_status": "OPERATIONAL",
      "geometry": {
        "location": {
          "lat": 40.70887689999999,
          "lng": -73.9058713
        },
        "viewport": {
          "northeast": {
            "lat": 40.7101691302915,
            "lng": -73.90442466970849
          },
          "southwest": {
            "lat": 40.7074711697085,
            "lng": -73.9071226302915
          }
        }
      },
      "icon": "https://maps.gstatic.com/mapfiles/place_api/icons/v1/png_71/pharmacy-71.png",
      "icon_background_color": "#F88181",
      "icon_mask_base_uri": "https://maps.gstatic.com/mapfiles/place_api/icons/v2/pharmacy_pinlet",
      "name": "Rite Aid Pharmacy",
      "opening_hours": {
        "open_now": true
      },
      "place_id": "ChIJ8aoaEJxewokR3oF9sMZr51M",
      "plus_code": {
        "compound_code": "P35V+HM New York, NY, USA",
        "global_code": "87G8P35V+HM"
      },
      "rating": 4,
      "reference": "ChIJ8aoaEJxewokR3oF9sMZr51M",
      "scope": "GOOGLE",
      "types": [
        "pharmacy",
        "health",
        "store",
        "point_of_interest",
        "establishment"
      ],
      "user_ratings_total": 1,
      "vicinity": "583 Grandview Avenue, Queens"
    },
    {
      "business_status": "OPERATIONAL",
      "geometry": {
        "location": {
          "lat": 40.7117462,
          "lng": -73.9060267
        },
        "viewport": {
          "northeast": {
            "lat": 40.71303308029151,
            "lng": -73.9045729197085
          },
          "southwest": {
            "lat": 40.71033511970851,
            "lng": -73.9072708802915
          }
        }
      },
      "icon": "https://maps.gstatic.com/mapfiles/place_api/icons/v1/png_71/school-71.png",
      "icon_background_color": "#7B9EB0",
      "icon_mask_base_uri": "https://maps.gstatic.com/mapfiles/place_api/icons/v2/school_pinlet",
      "name": "Little Peoples Playhouse 2 LLC",
      "opening_hours": {
        "open_now": false
      },
      "place_id": "ChIJ1aoz0ptewokRCqvTTal4fRo",
      "plus_code": {
        "compound_code": "P36V+MH Ridgewood, Queens, NY, USA",
        "global_code": "87G8P36V+MH"
      },
      "rating": 5,
      "reference": "ChIJ1aoz0ptewokRCqvTTal4fRo",
      "scope": "GOOGLE",
      "types": [
        "school",
        "point_of_interest",
        "establishment"
      ],
      "user_ratings_total": 11,
      "vicinity": "2231 Greene Avenue, Ridgewood"
    },
    {
      "business_status": "OPERATIONAL",
      "geometry": {
        "location": {
          "lat": 40.7058218,
          "lng": -73.911475
        },
        "viewport": {
          "northeast": {
            "lat": 40.7072207302915,
            "lng": -73.91021041970849
          },
          "southwest": {
            "lat": 40.7045227697085,
            "lng": -73.9129083802915
          }
        }
      },
      "icon": "https://maps.gstatic.com/mapfiles/place_api/icons/v1/png_71/generic_business-71.png",
      "icon_background_color": "#7B9EB0",
      "icon_mask_base_uri": "https://maps.gstatic.com/mapfiles/place_api/icons/v2/generic_pinlet",
      "name": "Noble Web Marketing",
      "opening_hours": {
        "open_now": true
      },
      "photos": [
        {
          "height": 1638,
          "html_attributions": [
            "<a href=\"https://maps.google.com/maps/contrib/103483163004189340348\">Noble Web Marketing</a>"
          ],
          "photo_reference": "AeJbb3ew03yBnKQtyfBGMw86u9_GPGt9udpEpReoJMm8rB-yF7i6Gp1BTYCoJ0U9P44ufRDM4h1061hkK7kTeBFppnbikNwVnLh-CxD3L24H2hGB9JNO9jAAvOy1Vbf8Qtfu1N21PxEJdENatMBEjnpU1bxpOK25jeigye3zQUMDyTsqYH5b",
          "width": 1638
        }
      ],
      "place_id": "ChIJJ-Qp5J9ewokRHcX2fTip0qQ",
      "plus_code": {
        "compound_code": "P34Q+8C Ridgewood, Queens, NY, USA",
        "global_code": "87G8P34Q+8C"
      },
      "reference": "ChIJJ-Qp5J9ewokRHcX2fTip0qQ",
      "scope": "GOOGLE",
      "types": [
        "point_of_interest",
        "establishment"
      ],
      "vicinity": "1820 Greene Avenue, Ridgewood"
    },
    {
      "business_status": "OPERATIONAL",
      "geometry": {
        "location": {
          "lat": 40.7074665,
          "lng": -73.9127086
        },
        "viewport": {
          "northeast": {
            "lat": 40.7087408802915,
            "lng": -73.9114342697085
          },
          "southwest": {
            "lat": 40.7060429197085,
            "lng": -73.91413223029151
          }
        }
      },
      "icon": "https://maps.gstatic.com/mapfiles/place_api/icons/v1/png_71/generic_business-71.png",
      "icon_background_color": "#7B9EB0",
      "icon_mask_base_uri": "https://maps.gstatic.com/mapfiles/place_api/icons/v2/generic_pinlet",
      "name": "TET Elevator Inspections",
      "place_id": "ChIJ__-QKKBewokR6A6NmtGtAhE",
      "plus_code": {
        "compound_code": "P34P+XW New York, NY, USA",
        "global_code": "87G8P34P+XW"
      },
      "reference": "ChIJ__-QKKBewokR6A6NmtGtAhE",
      "scope": "GOOGLE",
      "types": [
        "point_of_interest",
        "establishment"
      ],
      "vicinity": "415 Onderdonk Avenue, Queens"
    },
    {
      "business_status": "CLOSED_TEMPORARILY",
      "geometry": {
        "location": {
          "lat": 40.70946279999999,
          "lng": -73.9147981
        },
        "viewport": {
          "northeast": {
            "lat": 40.7108782802915,
            "lng": -73.91356241970848
          },
          "southwest": {
            "lat": 40.7081803197085,
            "lng": -73.91626038029149
          }
        }
      },
      "icon": "https://maps.gstatic.com/mapfiles/place_api/icons/v1/png_71/generic_business-71.png",
      "icon_background_color": "#7B9EB0",
      "icon_mask_base_uri": "https://maps.gstatic.com/mapfiles/place_api/icons/v2/generic_pinlet",
      "name": "Peter Kremer",
      "permanently_closed": true,
      "place_id": "ChIJc-4AoqFewokROXA4UdfNnW4",
      "plus_code": {
        "compound_code": "P35P+Q3 Ridgewood, Queens, NY, USA",
        "global_code": "87G8P35P+Q3"
      },
      "reference": "ChIJc-4AoqFewokROXA4UdfNnW4",
      "scope": "GOOGLE",
      "types": [
        "point_of_interest",
        "establishment"
      ],
      "vicinity": "1872 Hart Street, Ridgewood"
    },
    {
      "business_status": "OPERATIONAL",
      "geometry": {
        "location": {
          "lat": 40.7088668,
          "lng": -73.9058075
        },
        "viewport": {
          "northeast": {
            "lat": 40.71017258029149,
            "lng": -73.90438416970848
          },
          "southwest": {
            "lat": 40.7074746197085,
            "lng": -73.9070821302915
          }
        }
      },
      "icon": "https://maps.gstatic.com/mapfiles/place_api/icons/v1/png_71/generic_business-71.png",
      "icon_background_color": "#7B9EB0",
      "icon_mask_base_uri": "https://maps.gstatic.com/mapfiles/place_api/icons/v2/generic_pinlet",
      "name": "Rite Aid Photo",
      "opening_hours": {
        "open_now": true
      },
      "place_id": "ChIJvwBYBZxewokRZ3uG5FRwgw0",
      "plus_code": {
        "compound_code": "P35V+GM New York, NY, USA",
        "global_code": "87G8P35V+GM"
      },
      "price_level": 2,
      "rating": 5,
      "reference": "ChIJvwBYBZxewokRZ3uG5FRwgw0",
      "scope": "GOOGLE",
      "types": [
        "point_of_interest",
        "establishment"
      ],
      "user_ratings_total": 1,
      "vicinity": "583 Grandview Avenue, Queens"
    },
    {
      "business_status": "OPERATIONAL",
      "geometry": {
        "location": {
          "lat": 40.7088672,
          "lng": -73.9058069
        },
        "viewport": {
          "northeast": {
            "lat": 40.7101729802915,
            "lng": -73.9043836197085
          },
          "southwest": {
            "lat": 40.7074750197085,
            "lng": -73.9070815802915
          }
        }
      },
      "icon": "https://maps.gstatic.com/mapfiles/place_api/icons/v1/png_71/generic_business-71.png",
      "icon_background_color": "#7B9EB0",
      "icon_mask_base_uri": "https://maps.gstatic.com/mapfiles/place_api/icons/v2/generic_pinlet",
      "name": "KeyMe Locksmiths",
      "opening_hours": {
        "open_now": true
      },
      "photos": [
        {
          "height": 4032,
          "html_attributions": [
            "<a href=\"https://maps.google.com/maps/contrib/114074559170738444871\">KeyMe Locksmiths</a>"
          ],
          "photo_reference": "AeJbb3c0ywsjqS2f36NeYcOM6QE731rQhd7XL3_Gf7g-lyvVd0Tmyp1q_GulJB7p__QtcACIGiVTkIL1-vUJoxzdiZvcIBhaZOfXf6lAaXUzRBdH6RhYgAgM8spumwRzVaPZ1mJgTKycL_wQVl4m0khwMx-SmS42MO9DVVk-W0grn2J9aO1l",
          "width": 3024
        }
      ],
      "place_id": "ChIJcQ3lD5xewokRd6fayhTIuFs",
      "plus_code": {
        "compound_code": "P35V+GM New York, NY, USA",
        "global_code": "87G8P35V+GM"
      },
      "rating": 4.5,
      "reference": "ChIJcQ3lD5xewokRd6fayhTIuFs",
      "scope": "GOOGLE",
      "types": [
        "locksmith",
        "point_of_interest",
        "establishment"
      ],
      "user_ratings_total": 24,
      "vicinity": "583 Grandview Avenue, Queens"
    },
    {
      "business_status": "OPERATIONAL",
      "geometry": {
        "location": {
          "lat": 40.7140418,
          "lng": -73.9092895
        },
        "viewport": {
          "northeast": {
            "lat": 40.7154318802915,
            "lng": -73.9078986197085
          },
          "southwest": {
            "lat": 40.7127339197085,
            "lng": -73.91059658029151
          }
        }
      },
      "icon": "https://maps.gstatic.com/mapfiles/place_api/icons/v1/png_71/generic_business-71.png",
      "icon_background_color": "#7B9EB0",
      "icon_mask_base_uri": "https://maps.gstatic.com/mapfiles/place_api/icons/v2/generic_pinlet",
      "name": "Judy Figueroa, Makeup and Hair",
      "opening_hours": {
        "open_now": true
      },
      "place_id": "ChIJ0V08zJlewokR8OKes7eS94g",
      "plus_code": {
        "compound_code": "P37R+J7 New York, NY, USA",
        "global_code": "87G8P37R+J7"
      },
      "reference": "ChIJ0V08zJlewokR8OKes7eS94g",
      "scope": "GOOGLE",
      "types": [
        "beauty_salon",
        "store",
        "point_of_interest",
        "establishment"
      ],
      "vicinity": "61-12 55th Street, Queens"
    },
    {
      "business_status": "CLOSED_TEMPORARILY",
      "geometry": {
        "location": {
          "lat": 40.7072921,
          "lng": -73.9068317
        },
        "viewport": {
          "northeast": {
            "lat": 40.70861338029149,
            "lng": -73.9054360197085
          },
          "southwest": {
            "lat": 40.7059154197085,
            "lng": -73.90813398029151
          }
        }
      },
      "icon": "https://maps.gstatic.com/mapfiles/place_api/icons/v1/png_71/generic_business-71.png",
      "icon_background_color": "#7B9EB0",
      "icon_mask_base_uri": "https://maps.gstatic.com/mapfiles/place_api/icons/v2/generic_pinlet",
      "name": "CNS Solutions Technologies",
      "permanently_closed": true,
      "place_id": "ChIJF0tkgJ5ewokRnDRQ4TIo1tE",
      "plus_code": {
        "compound_code": "P34V+W7 Ridgewood, Queens, NY, USA",
        "global_code": "87G8P34V+W7"
      },
      "rating": 4,
      "reference": "ChIJF0tkgJ5ewokRnDRQ4TIo1tE",
      "scope": "GOOGLE",
      "types": [
        "point_of_interest",
        "establishment"
      ],
      "user_ratings_total": 1,
      "vicinity": "Grove Street, Ridgewood"
    },
    {
      "business_status": "OPERATIONAL",
      "geometry": {
        "location": {
          "lat": 40.70586729999999,
          "lng": -73.9125948
        },
        "viewport": {
          "northeast": {
            "lat": 40.70716523029149,
            "lng": -73.9112992697085
          },
          "southwest": {
            "lat": 40.70446726970849,
            "lng": -73.91399723029151
          }
        }
      },
      "icon": "https://maps.gstatic.com/mapfiles/place_api/icons/v1/png_71/generic_business-71.png",
      "icon_background_color": "#7B9EB0",
      "icon_mask_base_uri": "https://maps.gstatic.com/mapfiles/place_api/icons/v2/generic_pinlet",
      "name": "NYS Inspection",
      "opening_hours": {
        "open_now": true
      },
      "photos": [
        {
          "height": 939,
          "html_attributions": [
            "<a href=\"https://maps.google.com/maps/contrib/118443202366623238019\">NYS Inspection</a>"
          ],
          "photo_reference": "AeJbb3eaWJnhhYjNQLkRfxljSlrFgnkebxqrKGTsvhnK0fgADnf-pQdjrg4-txKkkEirHPTm-UUE9XTr42HwDFLzT89x4PVs7hoJLOqioxU9HHsKoiHyPURT9OeEkRkg6PbjoMwcDkKSlNGHbFGOredzGxe__c-rWrQFlbFsB8Ufvu0jRNQG",
          "width": 1668
        }
      ],
      "place_id": "ChIJn03tAaBewokRJjW6At_V0UM",
      "plus_code": {
        "compound_code": "P34P+8X New York, NY, USA",
        "global_code": "87G8P34P+8X"
      },
      "rating": 4.4,
      "reference": "ChIJn03tAaBewokRJjW6At_V0UM",
      "scope": "GOOGLE",
      "types": [
        "car_repair",
        "point_of_interest",
        "establishment"
      ],
      "user_ratings_total": 105,
      "vicinity": "475 Seneca Avenue, Queens"
    },
    {
      "business_status": "OPERATIONAL",
      "geometry": {
        "location": {
          "lat": 40.7135378,
          "lng": -73.9143276
        },
        "viewport": {
          "northeast": {
            "lat": 40.71482418029149,
            "lng": -73.9129780697085
          },
          "southwest": {
            "lat": 40.71212621970849,
            "lng": -73.91567603029151
          }
        }
      },
      "icon": "https://maps.gstatic.com/mapfiles/place_api/icons/v1/png_71/restaurant-71.png",
      "icon_background_color": "#FF9E67",
      "icon_mask_base_uri": "https://maps.gstatic.com/mapfiles/place_api/icons/v2/restaurant_pinlet",
      "name": "Pronto",
      "opening_hours": {
        "open_now": true
      },
      "photos": [
        {
          "height": 3500,
          "html_attributions": [
            "<a href=\"https://maps.google.com/maps/contrib/104648128391435010607\">Pronto</a>"
          ],
          "photo_reference": "AeJbb3crUs1aw65Ijo05JiqjhgfeJIS79_t7Mk-a6FOrXBGoEdIgCKEHond83DkH08IANnsapEihchQWsmV--YnwFlILZ-8POpyQyV9Y809FX_u1rKnVCSvTMGvSrrKo6R7dmEJY6A9tk3EPdSAv3_IWKbFrg9uaEFv9FRjeyzdwTR8Xnb-N",
          "width": 5250
        }
      ],
      "place_id": "ChIJpQ_NVqRewokRGlNxtAu8o40",
      "plus_code": {
        "compound_code": "P37P+C7 New York, NY, USA",
        "global_code": "87G8P37P+C7"
      },
      "price_level": 1,
      "rating": 4.4,
      "reference": "ChIJpQ_NVqRewokRGlNxtAu8o40",
      "scope": "GOOGLE",
      "types": [
        "restaurant",
        "point_of_interest",
        "food",
        "establishment"
      ],
      "user_ratings_total": 159,
      "vicinity": "5203 Metropolitan Avenue, Queens"
    },
    {
      "business_status": "CLOSED_TEMPORARILY",
      "geometry": {
        "location": {
          "lat": 40.70665090000001,
          "lng": -73.9074866
        },
        "viewport": {
          "northeast": {
            "lat": 40.7079731802915,
            "lng": -73.9060916197085
          },
          "southwest": {
            "lat": 40.7052752197085,
            "lng": -73.90878958029151
          }
        }
      },
      "icon": "https://maps.gstatic.com/mapfiles/place_api/icons/v1/png_71/shopping-71.png",
      "icon_background_color": "#4B96F3",
      "icon_mask_base_uri": "https://maps.gstatic.com/mapfiles/place_api/icons/v2/shopping_pinlet",
      "name": "Art Leather Productions LLC",
      "permanently_closed": true,
      "place_id": "ChIJqzZaSGtewokRaPOpIAqmaUc",
      "plus_code": {
        "compound_code": "P34V+M2 Ridgewood, Queens, NY, USA",
        "global_code": "87G8P34V+M2"
      },
      "reference": "ChIJqzZaSGtewokRaPOpIAqmaUc",
      "scope": "GOOGLE",
      "types": [
        "electronics_store",
        "home_goods_store",
        "store",
        "point_of_interest",
        "establishment"
      ],
      "vicinity": "Ridgewood"
    },
    {
      "business_status": "CLOSED_TEMPORARILY",
      "geometry": {
        "location": {
          "lat": 40.7106556,
          "lng": -73.90893179999999
        },
        "viewport": {
          "northeast": {
            "lat": 40.7120436802915,
            "lng": -73.90766396970848
          },
          "southwest": {
            "lat": 40.7093457197085,
            "lng": -73.91036193029149
          }
        }
      },
      "icon": "https://maps.gstatic.com/mapfiles/place_api/icons/v1/png_71/generic_business-71.png",
      "icon_background_color": "#7B9EB0",
      "icon_mask_base_uri": "https://maps.gstatic.com/mapfiles/place_api/icons/v2/generic_pinlet",
      "name": "Complete Maintenance Solutions",
      "permanently_closed": true,
      "place_id": "ChIJAZydJZlewokRF-AzfB3b8cQ",
      "plus_code": {
        "compound_code": "P36R+7C Flushing, Queens, NY, USA",
        "global_code": "87G8P36R+7C"
      },
      "reference": "ChIJAZydJZlewokRF-AzfB3b8cQ",
      "scope": "GOOGLE",
      "types": [
        "general_contractor",
        "home_goods_store",
        "store",
        "point_of_interest",
        "establishment"
      ],
      "vicinity": "451 Grandview Avenue, Flushing"
    }
  ],
  "status": "OK"
}