{
  "html_attributions": [],
  "results": [
    {
      "geometry": {
        "location": {
          "lat": 40.7127753,
          "lng": -74.0059728
        },
        "viewport": {
          "northeast": {
            "lat": 40.91757705070789,
            "lng": -73.70027206817629
          },
          "southwest": {
            "lat": 40.47739906045452,
            "lng": -74.25908991427882
          }
        }
      },
      "icon": "https://maps.gstatic.com/mapfiles/place_api/icons/v1/png_71/geocode-71.png",
      "icon_background_color": "#7B9EB0",
      "icon_mask_base_uri": "https://maps.gstatic.com/mapfiles/place_api/icons/v2/generic_pinlet",
      "name": "\u7d10\u7d04",
      "photos": [
        {
          "height": 600,
          "html_attributions": [
            "<a href=\"https://maps.google.com/maps/contrib/102389334567210814614\">Bukurie</a>"
          ],
          "photo_reference": "AeJbb3chUlWyacPnoHboFuCkdbaS8w9IhoPdt-iKEzHE1bgkvGsxFWFTepwaeuI2Kt6zSSP4ZzmxZcl-q-_pfFjvmpdkpdMUgfl1L2TouoQuCuifH7DGB5O3Gwqq9CkyWtvC7X25Jf42gRfi0tyK1aSE8QCQoPOrj5uk2sFKUQkbUAdv6zSM",
          "width": 480
        }
      ],
      "place_id": "ChIJOwg_06VPwokRYv534QaPC8g",
      "reference": "ChIJOwg_06VPwokRYv534QaPC8g",
      "scope": "GOOGLE",
      "types": [
        "locality",
        "political"
      ],
      "vicinity": "\u7d10\u7d04"
    },
    {
      "business_status": "OPERATIONAL",
      "geometry": {
        "location": {
          "lat": 40.7051238,
          "lng": -74.006147
        },
        "viewport": {
          "northeast": {
            "lat": 40.7065268802915,
            "lng": -74.00488746970849
          },
          "southwest": {
            "lat": 40.7038289197085,
            "lng": -74.0075854302915
          }
        }
      },
      "icon": "https://maps.gstatic.com/mapfiles/place_api/icons/v1/png_71/lodging-71.png",
      "icon_background_color": "#909CE1",
      "icon_mask_base_uri": "https://maps.gstatic.com/mapfiles/place_api/icons/v2/hotel_pinlet",
      "name": "Eurostars Wall Street",
      "opening_hours": {
        "open_now": true
      },
      "photos": [
        {
          "height": 800,
          "html_attributions": [
            "<a href=\"https://maps.google.com/maps/contrib/101017581358652003093\">Eurostars Wall Street</a>"
          ],
          "photo_reference": "AeJbb3f6kjpew9SIV7WhP7n5j9tBgj2shRDowOM3ON2fOSpuQveyhdOyKTpFEKePm1vEQqlmaunaAIptdPRjtxg4Eq3keOcPw6o2_6_JWzLfIq84vgshrTFR3U-nQ6NP2dhqlqL6prXEKrE7HC3X0NOyMFwSNgVgNN8Pz1FtG7WTWVN_zfVF",
          "width": 1200
        }
      ],
      "place_id": "ChIJ7xcL8z1awokRPFmLkB9tXHc",
      "plus_code": {
        "compound_code": "PX4V+2G \u7f8e\u570b\u7d10\u7d04",
        "global_code": "87G7PX4V+2G"
      },
      "rating": 3.9,
      "reference": "ChIJ7xcL8z1awokRPFmLkB9tXHc",
      "scope": "GOOGLE",
      "types": [
        "lodging",
        "point_of_interest",
        "establishment"
      ],
      "user_ratings_total": 464,
      "vicinity": "129 Front Street, New York"
    },
    {
      "business_status": "OPERATIONAL",
      "geometry": {
        "location": {
          "lat": 40.7055616,
          "lng": -74.00718909999999
        },
        "viewport": {
          "northeast": {
            "lat": 40.7068676802915,
            "lng": -74.00573626970849
          },
          "southwest": {
            "lat": 40.7041697197085,
            "lng": -74.0084342302915
          }
        }
      },
      "icon": "https://maps.gstatic.com/mapfiles/place_api/icons/v1/png_71/lodging-71.png",
      "icon_background_color": "#909CE1",
      "icon_mask_base_uri": "https://maps.gstatic.com/mapfiles/place_api/icons/v2/hotel_pinlet",
      "name": "\u7d10\u7d04\u5e02\u83ef\u723e\u8857\u667a\u9078\u5047\u65e5\u9152\u5e97",
      "photos": [
        {
          "height": 4640,
          "html_attributions": [
            "<a href=\"https://maps.google.com/maps/contrib/101583038758636718083\">Ratheesh Panicker</a>"
          ],
          "photo_reference": "AeJbb3eg1G92rOTlUujIpgRXUIxei-9bA8vWPyAg14fTgktpxT2OCr_Axqj-74ur8hbAmq12gOY_wONqh3AecF1J4y92cicmuqjpD6uMgc7O_dYYexVJs8FX_O6YjG5KuSD17n4R1K390rv5MX0AgXeGEb6FehNb87ezTxPU4cFJ1mEs2AND",
          "width": 3480
        }
      ],
      "place_id": "ChIJuydjIhZawokRG1-vnBMShEw",
      "plus_code": {
        "compound_code": "PX4V+64 \u7f8e\u570b\u7d10\u7d04",
        "global_code": "87G7PX4V+64"
      },
      "rating": 3.8,
      "reference": "ChIJuydjIhZawokRG1-vnBMShEw",
      "scope": "GOOGLE",
      "types": [
        "lodging",
        "point_of_interest",
        "establishment"
      ],
      "user_ratings_total": 858,
      "vicinity": "126 Water Street, New York"
    },
    {
      "business_status": "OPERATIONAL",
      "geometry": {
        "location": {
          "lat": 40.7051285,
          "lng": -74.0079362
        },
        "viewport": {
          "northeast": {
            "lat": 40.7064043302915,
            "lng": -74.0065007197085
          },
          "southwest": {
            "lat": 40.7037063697085,
            "lng": -74.0091986802915
          }
        }
      },
      "icon": "https://maps.gstatic.com/mapfiles/place_api/icons/v1/png_71/lodging-71.png",
      "icon_background_color": "#909CE1",
      "icon_mask_base_uri": "https://maps.gstatic.com/mapfiles/place_api/icons/v2/hotel_pinlet",
      "name": "\u83ef\u723e\u8857\u5b89\u9054\u4ed5\u9152\u5e97",
      "opening_hours": {
        "open_now": true
      },
      "photos": [
        {
          "height": 3337,
          "html_attributions": [
            "<a href=\"https://maps.google.com/maps/contrib/106042972071479476601\">Hyatt Centric Wall Street New York</a>"
          ],
          "photo_reference": "AeJbb3c7vOig1mUHfW0_x-KUuLIskZY6G5Bo8mgrhzPNilZFpxlWwQsMb5Je3xGbGZICxGAq2_AHpETXdX9ZEmZq70VaRQ72Zm2RsZa_RkbjXr6abdhieNwGyg4iu2OTiz_GJ1X-K4h5dUAD_0mNz9wH_8rb_8PWhBk5PObMZh3uJvLkSzjR",
          "width": 5000
        }
      ],
      "place_id": "ChIJbd_WExZawokRbBhzy1Hc4Ms",
      "plus_code": {
        "compound_code": "PX4R+3R \u7f8e\u570b\u7d10\u7d04",
        "global_code": "87G7PX4R+3R"
      },
      "rating": 4.4,
      "reference": "ChIJbd_WExZawokRbBhzy1Hc4Ms",
      "scope": "GOOGLE",
      "types": [
        "lodging",
        "point_of_interest",
        "establishment"
      ],
      "user_ratings_total": 1275,
      "vicinity": "75 Wall Street Entrance On, 75 Water Street, New York"
    },
    {
      "business_status": "OPERATIONAL",
      "geometry": {
        "location": {
          "lat": 40.7046417,
          "lng": -74.0103215
        },
        "viewport": {
          "northeast": {
            "lat": 40.7060193302915,
            "lng": -74.0090234197085
          },
          "southwest": {
            "lat": 40.7033213697085,
            "lng": -74.0117213802915
          }
        }
      },
      "icon": "https://maps.gstatic.com/mapfiles/place_api/icons/v1/png_71/lodging-71.png",
      "icon_background_color": "#909CE1",
      "icon_mask_base_uri": "https://maps.gstatic.com/mapfiles/place_api/icons/v2/hotel_pinlet",
      "name": "The Wall Street Inn",
      "opening_hours": {
        "open_now": true
      },
      "photos": [
        {
          "height": 2358,
          "html_attributions": [
            "<a href=\"https://maps.google.com/maps/contrib/114347845590581291333\">The Wall Street Inn</a>"
          ],
          "photo_reference": "AeJbb3f6ySUK4BUVuTmuOFT-cvsjsMr27yBhzuhbqJxxmWDpzeGCJfE7T759Vh7UfsTI8tR1CkOZHPdpYfsd3EH44eEgf375AqhuNJ_G3S-ErIc_XY9LDsASqpVxmC9cbpwB3NIaYUqCDgOsQ6fxVHVIYfXjKREoM3vqh8fHJwuAowWfibiH",
          "width": 4192
        }
      ],
      "place_id": "ChIJ_7B6nRZawokRRg3UBR5XohI",
      "plus_code": {
        "compound_code": "PX3Q+VV \u7f8e\u570b\u7d10\u7d04",
        "global_code": "87G7PX3Q+VV"
      },
      "rating": 4.3,
      "reference": "ChIJ_7B6nRZawokRRg3UBR5XohI",
      "scope": "GOOGLE",
      "types": [
        "lodging",
        "point_of_interest",
        "establishment"
      ],
      "user_ratings_total": 380,
      "vicinity": "9 South William Street, New York"
    },
    {
      "business_status": "CLOSED_TEMPORARILY",
      "geometry": {
        "location": {
          "lat": 40.7067619,
          "lng": -74.0089447
        },
        "viewport": {
          "northeast": {
            "lat": 40.70812753029149,
            "lng": -74.00770291970849
          },
          "southwest": {
            "lat": 40.7054295697085,
            "lng": -74.0104008802915
          }
        }
      },
      "icon": "https://maps.gstatic.com/mapfiles/place_api/icons/v1/png_71/lodging-71.png",
      "icon_background_color": "#909CE1",
      "icon_mask_base_uri": "https://maps.gstatic.com/mapfiles/place_api/icons/v2/hotel_pinlet",
      "name": "Radisson Hotel New York Wall Street",
      "permanently_closed": true,
      "photos": [
        {
          "height": 3840,
          "html_attributions": [
            "<a href=\"https://maps.google.com/maps/contrib/100167876802188638962\">Radisson Hotel New York Wall Street</a>"
          ],
          "photo_reference": "AeJbb3fsPrqM637VHb6VmyxpXVqmQZEKbyuQQ0Ha22bmFwFSWgjwD_sULQGOvCH69RDELs898Bvht7dftj0TtdE7wkhn6YoXBVTX6Ddgsl7NRu4b9MhhpyYCsRa2PLp2o1lCSvYjRZ0nJZMG6qp3pjqol3smvInTsrGrCa3TM1VCh9o2q-yY",
          "width": 5760
        }
      ],
      "place_id": "ChIJ-ziaVBZawokRj7B7C4qAWPY",
      "plus_code": {
        "compound_code": "PX4R+PC \u7f8e\u570b\u7d10\u7d04",
        "global_code": "87G7PX4R+PC"
      },
      "rating": 4.1,
      "reference": "ChIJ-ziaVBZawokRj7B7C4qAWPY",
      "scope": "GOOGLE",
      "types": [
        "lodging",
        "point_of_interest",
        "establishment"
      ],
      "user_ratings_total": 1276,
      "vicinity": "52 William Street, New York"
    },
    {
      "business_status": "OPERATIONAL",
      "geometry": {
        "location": {
          "lat": 40.7079177,
          "lng": -74.0072143
        },
        "viewport": {
          "northeast": {
            "lat": 40.7093174802915,
            "lng": -74.0058039697085
          },
          "southwest": {
            "lat": 40.7066195197085,
            "lng": -74.00850193029152
          }
        }
      },
      "icon": "https://maps.gstatic.com/mapfiles/place_api/icons/v1/png_71/lodging-71.png",
      "icon_background_color": "#909CE1",
      "icon_mask_base_uri": "https://maps.gstatic.com/mapfiles/place_api/icons/v2/hotel_pinlet",
      "name": "Gild Hall, A Thompson Hotel",
      "opening_hours": {
        "open_now": true
      },
      "photos": [
        {
          "height": 1988,
          "html_attributions": [
            "<a href=\"https://maps.google.com/maps/contrib/111150212005244354522\">Gild Hall, A Thompson Hotel</a>"
          ],
          "photo_reference": "AeJbb3dqt4M7i3pGRNOAyd_I4PlO-6wVG-Cd6MJHFRAIpIPH9rAMe_YmHWw22-Q_21Wv7t964e0BSVdPv81jYTQ0UnW4shp_VunDqWYIrF6Ejz_ZCbyuPYhaZ0oKqi3dMrbiTniXvjrszbN1GhqJ-r3OhleKPW0cWQ04wGr_RgGj2ROl_PUG",
          "width": 2880
        }
      ],
      "place_id": "ChIJNfKP5xdawokRyCFSWap_ogE",
      "plus_code": {
        "compound_code": "PX5V+54 \u7f8e\u570b\u7d10\u7d04",
        "global_code": "87G7PX5V+54"
      },
      "rating": 4.4,
      "reference": "ChIJNfKP5xdawokRyCFSWap_ogE",
      "scope": "GOOGLE",
      "types": [
        "lodging",
        "point_of_interest",
        "establishment"
      ],
      "user_ratings_total": 676,
      "vicinity": "15 Gold Street, New York"
    },
    {
      "business_status": "OPERATIONAL",
      "geometry": {
        "location": {
          "lat": 40.70412899999999,
          "lng": -74.010336
        },
        "viewport": {
          "northeast": {
            "lat": 40.70541433029149,
            "lng": -74.0089459197085
          },
          "southwest": {
            "lat": 40.70271636970849,
            "lng": -74.0116438802915
          }
        }
      },
      "icon": "https://maps.gstatic.com/mapfiles/place_api/icons/v1/png_71/bar-71.png",
      "icon_background_color": "#FF9E67",
      "icon_mask_base_uri": "https://maps.gstatic.com/mapfiles/place_api/icons/v2/bar_pinlet",
      "name": "Beckett's Bar & Grill",
      "opening_hours": {
        "open_now": true
      },
      "photos": [
        {
          "height": 450,
          "html_attributions": [
            "<a href=\"https://maps.google.com/maps/contrib/116422841424895618318\">Beckett&#39;s Bar &amp; Grill</a>"
          ],
          "photo_reference": "AeJbb3d0U4E8cUSymM6CSUAuYeHh706o8boAAXvSAUj-YxK4USYSjztDH_J6os7u4L9J_ks_59p6PkiA6xkG3U9Wswq9_CaL4uNtl2UVpVZPJ2w_lCuWLkBuATidf8su6I4Kife-OFjWwAjf9BjqCkJMQspPzHd9wwAgMpGwfLha1vHhVziX",
          "width": 800
        }
      ],
      "place_id": "ChIJ3blcJRRawokRex4mbeb9Ix4",
      "plus_code": {
        "compound_code": "PX3Q+MV \u7f8e\u570b\u7d10\u7d04",
        "global_code": "87G7PX3Q+MV"
      },
      "price_level": 2,
      "rating": 4,
      "reference": "ChIJ3blcJRRawokRex4mbeb9Ix4",
      "scope": "GOOGLE",
      "types": [
        "bar",
        "restaurant",
        "food",
        "point_of_interest",
        "establishment"
      ],
      "user_ratings_total": 369,
      "vicinity": "81 Pearl Street, New York"
    },
    {
      "business_status": "OPERATIONAL",
      "geometry": {
        "location": {
          "lat": 40.7067018,
          "lng": -74.00644550000001
        },
        "viewport": {
          "northeast": {
            "lat": 40.7079968302915,
            "lng": -74.00516826970849
          },
          "southwest": {
            "lat": 40.7052988697085,
            "lng": -74.00786623029151
          }
        }
      },
      "icon": "https://maps.gstatic.com/mapfiles/place_api/icons/v1/png_71/generic_business-71.png",
      "icon_background_color": "#7B9EB0",
      "icon_mask_base_uri": "https://maps.gstatic.com/mapfiles/place_api/icons/v2/generic_pinlet",
      "name": "Manhattan CPA",
      "place_id": "ChIJD6rvGBdawokRWAnglPJa6vM",
      "plus_code": {
        "compound_code": "PX4V+MC \u7f8e\u570b\u7d10\u7d04",
        "global_code": "87G7PX4V+MC"
      },
      "rating": 5,
      "reference": "ChIJD6rvGBdawokRWAnglPJa6vM",
      "scope": "GOOGLE",
      "types": [
        "accounting",
        "finance",
        "point_of_interest",
        "establishment"
      ],
      "user_ratings_total": 1,
      "vicinity": "125 Maiden Lane, New York"
    },
    {
      "business_status": "OPERATIONAL",
      "geometry": {
        "location": {
          "lat": 40.70647830000001,
          "lng": -74.0032751
        },
        "viewport": {
          "northeast": {
            "lat": 40.70774198029149,
            "lng": -74.0018410697085
          },
          "southwest": {
            "lat": 40.7050440197085,
            "lng": -74.00453903029151
          }
        }
      },
      "icon": "https://maps.gstatic.com/mapfiles/place_api/icons/v1/png_71/generic_business-71.png",
      "icon_background_color": "#13B5C7",
      "icon_mask_base_uri": "https://maps.gstatic.com/mapfiles/place_api/icons/v2/generic_pinlet",
      "name": "The Seaport",
      "opening_hours": {
        "open_now": true
      },
      "photos": [
        {
          "height": 3818,
          "html_attributions": [
            "<a href=\"https://maps.google.com/maps/contrib/103103785514156616359\">Seaport District NYC</a>"
          ],
          "photo_reference": "AeJbb3es1Pa_Xg3yg2WP-wMeNQg2TyN9Hj_pxC1qbbMzBbQvQ4YRvbm2LL-puZUVBfXg8x9_F2n-v7eYZT_txZ4CGCa2pLvfvmm4iQTR0u5FlFcO1MZSqKb4mLj1mS-CsHjJfvRXXRyMziMaM2owqcIWDoPcj1xeoeS-k_hzeogtd5Qm5XCW",
          "width": 5728
        }
      ],
      "place_id": "ChIJ48y8-TxawokROJTPwB3cxz8",
      "plus_code": {
        "compound_code": "PX4W+HM \u7f8e\u570b\u7d10\u7d04",
        "global_code": "87G7PX4W+HM"
      },
      "price_level": 2,
      "rating": 4.5,
      "reference": "ChIJ48y8-TxawokROJTPwB3cxz8",
      "scope": "GOOGLE",
      "types": [
        "point_of_interest",
        "establishment"
      ],
      "user_ratings_total": 2151,
      "vicinity": "19 Fulton Street, New York"
    },
    {
      "business_status": "OPERATIONAL",
      "geometry": {
        "location": {
          "lat": 40.7074723,
          "lng": -74.0068304
        },
        "viewport": {
          "northeast": {
            "lat": 40.7087847802915,
            "lng": -74.0056690697085
          },
          "southwest": {
            "lat": 40.7060868197085,
            "lng": -74.00836703029151
          }
        }
      },
      "icon": "https://maps.gstatic.com/mapfiles/place_api/icons/v1/png_71/generic_business-71.png",
      "icon_background_color": "#7B9EB0",
      "icon_mask_base_uri": "https://maps.gstatic.com/mapfiles/place_api/icons/v2/generic_pinlet",
      "name": "2 Gold St by TF Cornerstone",
      "opening_hours": {
        "open_now": true
      },
      "photos": [
        {
          "height": 1191,
          "html_attributions": [
            "<a href=\"https://maps.google.com/maps/contrib/102219275952344465022\">2 Gold St by TF Cornerstone</a>"
          ],
          "photo_reference": "AeJbb3f_wE5TP17v5L5Q80sxyjj4l8_hKMB0Q17Jvcb-dG865qUt-lBJsjI0D7KWdx9yhnp1ZA9A5NwSrngkFekfdySOce8GeQOkhLJCQeSuNneIF4KBu9JuUimyejawvUyXmk_zigjQhe3V0bjBKsDsxkFZzn4rarhyWHaGohd4m2cn5-O5",
          "width": 2120
        }
      ],
      "place_id": "ChIJXyPH2hdawokRxtbulbIcnD8",
      "plus_code": {
        "compound_code": "PX4V+X7 \u7f8e\u570b\u7d10\u7d04",
        "global_code": "87G7PX4V+X7"
      },
      "rating": 4.4,
      "reference": "ChIJXyPH2hdawokRxtbulbIcnD8",
      "scope": "GOOGLE",
      "types": [
        "real_estate_agency",
        "point_of_interest",
        "establishment"
      ],
      "user_ratings_total": 51,
      "vicinity": "2 Gold Street, New York"
    },
    {
      "business_status": "CLOSED_TEMPORARILY",
      "geometry": {
        "location": {
          "lat": 40.7050268,
          "lng": -74.0102557
        },
        "viewport": {
          "northeast": {
            "lat": 40.7064280302915,
            "lng": -74.0089947697085
          },
          "southwest": {
            "lat": 40.7037300697085,
            "lng": -74.01169273029151
          }
        }
      },
      "icon": "https://maps.gstatic.com/mapfiles/place_api/icons/v1/png_71/restaurant-71.png",
      "icon_background_color": "#FF9E67",
      "icon_mask_base_uri": "https://maps.gstatic.com/mapfiles/place_api/icons/v2/restaurant_pinlet",
      "name": "Delmonico's",
      "permanently_closed": true,
      "photos": [
        {
          "height": 1333,
          "html_attributions": [
            "<a href=\"https://maps.google.com/maps/contrib/102545235519786681266\">Delmonico&#39;s</a>"
          ],
          "photo_reference": "AeJbb3fBiJBJz0nsXDvlgnhG9k2DWSXm08MYAfzB7msHIIkB0JQeBkboKvundi63TdwZ2qKN3L3gSkVuYOxBp36t3103rRhk4wFcfvGW7MxRYkfI1Bm7fwr6Cotr2RMaJ-JJT-ifJSGWTg8zI8f3Z2WMW48Roih6PXP44NfwaMKiHGDIhlrG",
          "width": 2000
        }
      ],
      "place_id": "ChIJwy8lmxZawokRtWUTg5wuv6I",
      "plus_code": {
        "compound_code": "PX4Q+2V \u7f8e\u570b\u7d10\u7d04",
        "global_code": "87G7PX4Q+2V"
      },
      "price_level": 4,
      "rating": 4.5,
      "reference": "ChIJwy8lmxZawokRtWUTg5wuv6I",
      "scope": "GOOGLE",
      "types": [
        "bar",
        "restaurant",
        "food",
        "point_of_interest",
        "establishment"
      ],
      "user_ratings_total": 1812,
      "vicinity": "56 Beaver Street, New York"
    },
    {
      "business_status": "OPERATIONAL",
      "geometry": {
        "location": {
          "lat": 40.7046763,
          "lng": -74.0097371
        },
        "viewport": {
          "northeast": {
            "lat": 40.7060525302915,
            "lng": -74.0083603697085
          },
          "southwest": {
            "lat": 40.7033545697085,
            "lng": -74.0110583302915
          }
        }
      },
      "icon": "https://maps.gstatic.com/mapfiles/place_api/icons/v1/png_71/restaurant-71.png",
      "icon_background_color": "#FF9E67",
      "icon_mask_base_uri": "https://maps.gstatic.com/mapfiles/place_api/icons/v2/restaurant_pinlet",
      "name": "Harry's",
      "opening_hours": {
        "open_now": true
      },
      "photos": [
        {
          "height": 1115,
          "html_attributions": [
            "<a href=\"https://maps.google.com/maps/contrib/112015490673510260198\">Harry&#39;s</a>"
          ],
          "photo_reference": "AeJbb3eFLkI3skifdkhZO_6lvpUbzMOOyWrNW3N4NF7RK6xrCCXwyF23Ohw-8DecCJk3Ry70I_GrQwKHvMtHsY2BP5Q2-JDHEw2aLXE1Il5TQk3lBX8XeKb6oATVnwbZfp3ZLlNgZIXyncAgE0iQAfAoJQJY2Bv6OkeINlr5m7E0_ONEq6kN",
          "width": 1671
        }
      ],
      "place_id": "ChIJoSqkgRZawokR_ZAqr3pOMO8",
      "plus_code": {
        "compound_code": "PX3R+V4 \u7f8e\u570b\u7d10\u7d04",
        "global_code": "87G7PX3R+V4"
      },
      "price_level": 3,
      "rating": 4.5,
      "reference": "ChIJoSqkgRZawokR_ZAqr3pOMO8",
      "scope": "GOOGLE",
      "types": [
        "restaurant",
        "food",
        "point_of_interest",
        "establishment"
      ],
      "user_ratings_total": 1119,
      "vicinity": "1 Hanover Square, New York"
    },
    {
      "business_status": "OPERATIONAL",
      "geometry": {
        "location": {
          "lat": 40.704912,
          "lng": -74.00639699999999
        },
        "viewport": {
          "northeast": {
            "lat": 40.7062302802915,
            "lng": -74.0051373697085
          },
          "southwest": {
            "lat": 40.7035323197085,
            "lng": -74.00783533029151
          }
        }
      },
      "icon": "https://maps.gstatic.com/mapfiles/place_api/icons/v1/png_71/school-71.png",
      "icon_background_color": "#7B9EB0",
      "icon_mask_base_uri": "https://maps.gstatic.com/mapfiles/place_api/icons/v2/school_pinlet",
      "name": "Absolute Best Care Nanny Agency",
      "opening_hours": {
        "open_now": false
      },
      "place_id": "ChIJ96Lm5QBZwokRNDphvZmw5BU",
      "plus_code": {
        "compound_code": "PX3V+XC \u7f8e\u570b\u7d10\u7d04",
        "global_code": "87G7PX3V+XC"
      },
      "rating": 4.3,
      "reference": "ChIJ96Lm5QBZwokRNDphvZmw5BU",
      "scope": "GOOGLE",
      "types": [
        "point_of_interest",
        "establishment"
      ],
      "user_ratings_total": 32,
      "vicinity": "110 Wall Street 2nd floor, New York"
    },
    {
      "business_status": "OPERATIONAL",
      "geometry": {
        "location": {
          "lat": 40.7031921,
          "lng": -74.009368
        },
        "viewport": {
          "northeast": {
            "lat": 40.7047226802915,
            "lng": -74.00823051970849
          },
          "southwest": {
            "lat": 40.7020247197085,
            "lng": -74.0109284802915
          }
        }
      },
      "icon": "https://maps.gstatic.com/mapfiles/place_api/icons/v1/png_71/generic_business-71.png",
      "icon_background_color": "#7B9EB0",
      "icon_mask_base_uri": "https://maps.gstatic.com/mapfiles/place_api/icons/v2/generic_pinlet",
      "name": "MetTel",
      "opening_hours": {
        "open_now": false
      },
      "photos": [
        {
          "height": 1192,
          "html_attributions": [
            "<a href=\"https://maps.google.com/maps/contrib/117640189196949861461\">Manhattan Telecommunications Corporation</a>"
          ],
          "photo_reference": "AeJbb3fyGBE8JbWeF6ZNIwravtWGitYo_6Uk0wYW6x0BoFo0U-Xrr8R8TbEVepz6KsQWNl6s1hVPKa5iKlPoVUcJxhb5xFF5aEtuQ3Q9icdn4_QzQn2qcmU38Awbx0F41H_Fq_PIgLJv2bv2h_OUPlfq7hb3K-3jtzBwKL6eaCgd_fy9C-rE",
          "width": 2120
        }
      ],
      "place_id": "ChIJI3aq-BZawokRuwby1XABMjc",
      "plus_code": {
        "compound_code": "PX3R+77 \u7f8e\u570b\u7d10\u7d04",
        "global_code": "87G7PX3R+77"
      },
      "rating": 2.5,
      "reference": "ChIJI3aq-BZawokRuwby1XABMjc",
      "scope": "GOOGLE",
      "types": [
        "point_of_interest",
        "establishment"
      ],
      "user_ratings_total": 34,
      "vicinity": "55 Water Street 32nd fl, New York"
    },
    {
      "business_status": "OPERATIONAL",
      "geometry": {
        "location": {
          "lat": 40.7045211,
          "lng": -74.00890749999999
        },
        "viewport": {
          "northeast": {
            "lat": 40.7057781802915,
            "lng": -74.0077193197085
          },
          "southwest": {
            "lat": 40.7030802197085,
            "lng": -74.0104172802915
          }
        }
      },
      "icon": "https://maps.gstatic.com/mapfiles/place_api/icons/v1/png_71/generic_business-71.png",
      "icon_background_color": "#7B9EB0",
      "icon_mask_base_uri": "https://maps.gstatic.com/mapfiles/place_api/icons/v2/generic_pinlet",
      "name": "10 Hanover Square",
      "opening_hours": {
        "open_now": true
      },
      "photos": [
        {
          "height": 1267,
          "html_attributions": [
            "<a href=\"https://maps.google.com/maps/contrib/108173442397783191198\">10 Hanover Square</a>"
          ],
          "photo_reference": "AeJbb3f9k3Yz44_hv5Sk14JcOr0dcJg4DQFt8OA8kFBMiemRtGL5I-lOmFwt5yR6RJDYrbjI7Ww0HbuU0CzHDFc5dbIeyAw0tBeNTbhz3pQSTdO4QdPtHZbPiRMJc7gfkiVhQaZ4jN6akICJS4YAwcqapLvmD8YrS0cScqQ8FlJzcAL5OdfK",
          "width": 1882
        }
      ],
      "place_id": "ChIJsxFVfxZawokRFvFa_yneIIo",
      "plus_code": {
        "compound_code": "PX3R+RC \u7f8e\u570b\u7d10\u7d04",
        "global_code": "87G7PX3R+RC"
      },
      "rating": 4,
      "reference": "ChIJsxFVfxZawokRFvFa_yneIIo",
      "scope": "GOOGLE",
      "types": [
        "real_estate_agency",
        "point_of_interest",
        "establishment"
      ],
      "user_ratings_total": 48,
      "vicinity": "10 Hanover Square, New York"
    },
    {
      "business_status": "OPERATIONAL",
      "geometry": {
        "location": {
          "lat": 40.7057717,
          "lng": -74.0017925
        },
        "viewport": {
          "northeast": {
            "lat": 40.70720308029149,
            "lng": -74.00056641970849
          },
          "southwest": {
            "lat": 40.7045051197085,
            "lng": -74.0032643802915
          }
        }
      },
      "icon": "https://maps.gstatic.com/mapfiles/place_api/icons/v1/png_71/restaurant-71.png",
      "icon_background_color": "#FF9E67",
      "icon_mask_base_uri": "https://maps.gstatic.com/mapfiles/place_api/icons/v2/restaurant_pinlet",
      "name": "Momofuku Ssam Bar",
      "opening_hours": {
        "open_now": false
      },
      "photos": [
        {
          "height": 800,
          "html_attributions": [
            "<a href=\"https://maps.google.com/maps/contrib/115287156292193056136\">Momofuku Ssam Bar</a>"
          ],
          "photo_reference": "AeJbb3doyixG5nWipWVB38o_vNSWojRZDabPNViPrJ5TgyvjMhbpyCwPAwAqj-EfGS8jXk_mB_SBgmBw_Emkkfpjf17o6_Z0SN362UIYhHfo_T6tJqrp8JEzzO2CjsetEKLNkOiL3AtegpyTJWGsKIIF8Ixa3e7S57Yn7tGXMzOeyrZC9zBf",
          "width": 1200
        }
      ],
      "place_id": "ChIJkXQ3_INZwokRbCMEByaQ_VE",
      "plus_code": {
        "compound_code": "PX4X+87 \u7f8e\u570b\u7d10\u7d04",
        "global_code": "87G7PX4X+87"
      },
      "price_level": 3,
      "rating": 4.4,
      "reference": "ChIJkXQ3_INZwokRbCMEByaQ_VE",
      "scope": "GOOGLE",
      "types": [
        "restaurant",
        "food",
        "point_of_interest",
        "establishment"
      ],
      "user_ratings_total": 1683,
      "vicinity": "89 South Street, Pier 17, New York"
    },
    {
      "business_status": "OPERATIONAL",
      "geometry": {
        "location": {
          "lat": 40.70437140000001,
          "lng": -74.0100467
        },
        "viewport": {
          "northeast": {
            "lat": 40.7056617802915,
            "lng": -74.00862211970849
          },
          "southwest": {
            "lat": 40.70296381970851,
            "lng": -74.01132008029151
          }
        }
      },
      "icon": "https://maps.gstatic.com/mapfiles/place_api/icons/v1/png_71/bar-71.png",
      "icon_background_color": "#FF9E67",
      "icon_mask_base_uri": "https://maps.gstatic.com/mapfiles/place_api/icons/v2/bar_pinlet",
      "name": "Ulysses",
      "opening_hours": {
        "open_now": true
      },
      "photos": [
        {
          "height": 9000,
          "html_attributions": [
            "<a href=\"https://maps.google.com/maps/contrib/112051454711651434795\">Jim Kelly</a>"
          ],
          "photo_reference": "AeJbb3dUdrgr2SSt3XgxnsI_4RLo5oHPvMW0K_cC7ALr_DtWAWE0qwvWUd50S_mx40f8k4Es0wLFixbbycGDJk93uzg8EEDJTIsVMaEr8EAsA2fG4hXCTukPFV-mryJGycaQEhT6S3FYFln_OK6rG3fXFYxdump8D1QC3QE1qclLZd1EE7zq",
          "width": 12000
        }
      ],
      "place_id": "ChIJV_vNLhRawokRt36u5nIPaVw",
      "plus_code": {
        "compound_code": "PX3Q+PX \u7f8e\u570b\u7d10\u7d04",
        "global_code": "87G7PX3Q+PX"
      },
      "price_level": 2,
      "rating": 4.2,
      "reference": "ChIJV_vNLhRawokRt36u5nIPaVw",
      "scope": "GOOGLE",
      "types": [
        "bar",
        "restaurant",
        "food",
        "point_of_interest",
        "establishment"
      ],
      "user_ratings_total": 1779,
      "vicinity": "58 Stone Street, 95 Pearl Street, New York"
    },
    {
      "business_status": "OPERATIONAL",
      "geometry": {
        "location": {
          "lat": 40.7073539,
          "lng": -74.0048051
        },
        "viewport": {
          "northeast": {
            "lat": 40.70859048029149,
            "lng": -74.0033316697085
          },
          "southwest": {
            "lat": 40.7058925197085,
            "lng": -74.00602963029151
          }
        }
      },
      "icon": "https://maps.gstatic.com/mapfiles/place_api/icons/v1/png_71/generic_business-71.png",
      "icon_background_color": "#7B9EB0",
      "icon_mask_base_uri": "https://maps.gstatic.com/mapfiles/place_api/icons/v2/generic_pinlet",
      "name": "200 Water Street Apartments by Rockrose",
      "opening_hours": {
        "open_now": true
      },
      "photos": [
        {
          "height": 2533,
          "html_attributions": [
            "<a href=\"https://maps.google.com/maps/contrib/109483781400125317928\">200 Water Street Apartments by Rockrose</a>"
          ],
          "photo_reference": "AeJbb3fZYvJTFEOxSAqz3WjQ0ej8vHBhHhScSUe1GUF_bu01EAagaagrCoACh3fLKzUsiDo2CvTjBANUZfuEsER5FNkORkdKDslTj5okwkMwT_XR8TW2jJzta9NOBtKmxlG_p89mXwQ_YSUOxCx2uvX7MMg1pIuZdwHbyWKt3DZmpaEKuaIi",
          "width": 3800
        }
      ],
      "place_id": "ChIJ-drqFj1awokRFbxHtIFaQnw",
      "plus_code": {
        "compound_code": "PX4W+W3 \u7f8e\u570b\u7d10\u7d04",
        "global_code": "87G7PX4W+W3"
      },
      "rating": 3.5,
      "reference": "ChIJ-drqFj1awokRFbxHtIFaQnw",
      "scope": "GOOGLE",
      "types": [
        "real_estate_agency",
        "point_of_interest",
        "establishment"
      ],
      "user_ratings_total": 21,
      "vicinity": "200 Water Street, New York"
    },
    {
      "geometry": {
        "location": {
          "lat": 40.7208595,
          "lng": -74.0006686
        },
        "viewport": {
          "northeast": {
            "lat": 40.74252626980653,
            "lng": -73.97164456012949
          },
          "southwest": {
            "lat": 40.7004631483133,
            "lng": -74.01933501070937
          }
        }
      },
      "icon": "https://maps.gstatic.com/mapfiles/place_api/icons/v1/png_71/geocode-71.png",
      "icon_background_color": "#7B9EB0",
      "icon_mask_base_uri": "https://maps.gstatic.com/mapfiles/place_api/icons/v2/generic_pinlet",
      "name": "\u66fc\u54c8\u9813\u4e0b\u57ce",
      "photos": [
        {
          "height": 2250,
          "html_attributions": [
            "<a href=\"https://maps.google.com/maps/contrib/112269732478250326030\">Lorri Smalls</a>"
          ],
          "photo_reference": "AeJbb3e6qPWdtsaVyCLlSNWjrViUPHqXGt__Oxxm8hAdHteNwzECtn4cnwcDJWRtEpbSU9f9tiMMfmS5-9B8fFcaPLkITOwpGT8olh3XsQB0_4MO6kD-qUBRRdjeaHkTvZTqT4JCbuS2LWjpzEEG0Xdlq_qVkOgtegjKUE4VhS8fYrgP6LDK",
          "width": 4000
        }
      ],
      "place_id": "ChIJi4MZVIhZwokRPNvWbi-c0wI",
      "reference": "ChIJi4MZVIhZwokRPNvWbi-c0wI",
      "scope": "GOOGLE",
      "types": [
        "neighborhood",
        "political"
      ],
      "vicinity": "\u66fc\u54c8\u9813"
    },
    {
      "business_status": "OPERATIONAL",
      "geometry": {
        "location": {
          "lat": 40.70697699999999,
          "lng": -74.00952199999999
        },
        "viewport": {
          "northeast": {
            "lat": 40.70802948029149,
            "lng": -74.00836596970849
          },
          "southwest": {
            "lat": 40.7053315197085,
            "lng": -74.0110639302915
          }
        }
      },
      "icon": "https://maps.gstatic.com/mapfiles/place_api/icons/v1/png_71/generic_business-71.png",
      "icon_background_color": "#7B9EB0",
      "icon_mask_base_uri": "https://maps.gstatic.com/mapfiles/place_api/icons/v2/generic_pinlet",
      "name": "XO Communications",
      "opening_hours": {
        "open_now": false
      },
      "place_id": "ChIJo3eptxZawokRkKXSttZfHww",
      "plus_code": {
        "compound_code": "PX4R+Q5 New York, NY, USA",
        "global_code": "87G7PX4R+Q5"
      },
      "rating": 1,
      "reference": "ChIJo3eptxZawokRkKXSttZfHww",
      "scope": "GOOGLE",
      "types": [
        "point_of_interest",
        "establishment"
      ],
      "user_ratings_total": 4,
      "vicinity": "40 Wall Street, New York"
    },
    {
      "business_status": "OPERATIONAL",
      "geometry": {
        "location": {
          "lat": 40.707462,
          "lng": -74.0067869
        },
        "viewport": {
          "northeast": {
            "lat": 40.7089220802915,
            "lng": -74.0054303197085
          },
          "southwest": {
            "lat": 40.7062241197085,
            "lng": -74.0081282802915
          }
        }
      },
      "icon": "https://maps.gstatic.com/mapfiles/place_api/icons/v1/png_71/restaurant-71.png",
      "icon_background_color": "#FF9E67",
      "icon_mask_base_uri": "https://maps.gstatic.com/mapfiles/place_api/icons/v2/restaurant_pinlet",
      "name": "Harry's Italian",
      "opening_hours": {
        "open_now": true
      },
      "photos": [
        {
          "height": 1000,
          "html_attributions": [
            "<a href=\"https://maps.google.com/maps/contrib/103850208069557010572\">Harry&#39;s Italian</a>"
          ],
          "photo_reference": "AeJbb3fXwNOxG0aPOvXlVWP9u7GLGthh42zBDc3yKb7LkqlgAfau7HqEnPxFzmmojQjJmsHLngbINw-UDYjQ_F9sF0OkngkizWktiTgNXVuW0V_68hzkKTHlOhcL5JqpzQXyk4TUVEY2pW_nv_dwwFZIEXaGEGhZJ7IXPsuomqWhLK_JOxki",
          "width": 750
        }
      ],
      "place_id": "ChIJtfyA3hdawokRQ6bgjbSJN3o",
      "plus_code": {
        "compound_code": "PX4V+X7 New York, NY, USA",
        "global_code": "87G7PX4V+X7"
      },
      "price_level": 2,
      "rating": 4.3,
      "reference": "ChIJtfyA3hdawokRQ6bgjbSJN3o",
      "scope": "GOOGLE",
      "types": [
        "restaurant",
        "point_of_interest",
        "food",
        "establishment"
      ],
      "user_ratings_total": 930,
      "vicinity": "2 Gold Street, New York"
    },
    {
      "business_status": "OPERATIONAL",
      "geometry": {
        "location": {
          "lat": 40.7042597,
          "lng": -74.01024129999999
        },
        "viewport": {
          "northeast": {
            "lat": 40.70564743029151,
            "lng": -74.00912431970849
          },
          "southwest": {
            "lat": 40.70294946970851,
            "lng": -74.0118222802915
          }
        }
      },
      "icon": "https://maps.gstatic.com/mapfiles/place_api/icons/v1/png_71/bar-71.png",
      "icon_background_color": "#FF9E67",
      "icon_mask_base_uri": "https://maps.gstatic.com/mapfiles/place_api/icons/v2/bar_pinlet",
      "name": "Stone Street Tavern",
      "opening_hours": {
        "open_now": true
      },
      "photos": [
        {
          "height": 4032,
          "html_attributions": [
            "<a href=\"https://maps.google.com/maps/contrib/117979923502670835126\">Keith Mulvin</a>"
          ],
          "photo_reference": "AeJbb3dxzzona9bsj-zCpQ4hAkUbS7M300IXn0_YUzP7CY_Wc49IRQJeyWZ5MPEjlhsf_V5VCBbVfzO50KRpD7g7n8otBjd0Wt4KDDHuG_u7KclptxLXRitEMOUIh-wdw-MJzElspmOkBrXWSSEqOHqDX_lzWstjYJp5SCl0Ama3WdffhFEJ",
          "width": 3024
        }
      ],
      "place_id": "ChIJRXAoKBRawokR8U8kqAMMwSU",
      "plus_code": {
        "compound_code": "PX3Q+PW New York, NY, USA",
        "global_code": "87G7PX3Q+PW"
      },
      "price_level": 2,
      "rating": 4.2,
      "reference": "ChIJRXAoKBRawokR8U8kqAMMwSU",
      "scope": "GOOGLE",
      "types": [
        "bar",
        "restaurant",
        "point_of_interest",
        "food",
        "establishment"
      ],
      "user_ratings_total": 815,
      "vicinity": "52 Stone Street, New York"
    },
    {
      "business_status": "OPERATIONAL",
      "geometry": {
        "location": {
          "lat": 40.7038029,
          "lng": -74.0080329
        },
        "viewport": {
          "northeast": {
            "lat": 40.7050022302915,
            "lng": -74.00640676970849
          },
          "southwest": {
            "lat": 40.7023042697085,
            "lng": -74.00910473029151
          }
        }
      },
      "icon": "https://maps.gstatic.com/mapfiles/place_api/icons/v1/png_71/generic_business-71.png",
      "icon_background_color": "#7B9EB0",
      "icon_mask_base_uri": "https://maps.gstatic.com/mapfiles/place_api/icons/v2/generic_pinlet",
      "name": "Cahill Gordon & Reindel LLP",
      "opening_hours": {
        "open_now": true
      },
      "photos": [
        {
          "height": 292,
          "html_attributions": [
            "<a href=\"https://maps.google.com/maps/contrib/103697125878680450508\">Cahill Gordon &amp; Reindel LLP</a>"
          ],
          "photo_reference": "AeJbb3d1npLs_JW27T2RpJ-EPr9avBE-9yq0aGR2OsKEPI3k5E3mhZzzjCzcq-gQMygLaKNlvikYzPHsvpRo1IuFyPYxic03buEFTm-Ad2f-8SZdDND4c_HLjBdcAwlw-DPEzY3lJlza0JPF0bhHctZ1w0T0lsaRHtFpG_3s3MNmm6O2-W2O",
          "width": 646
        }
      ],
      "place_id": "ChIJRWYXMBZawokRevi2HDY9kRo",
      "plus_code": {
        "compound_code": "PX3R+GQ New York, NY, USA",
        "global_code": "87G7PX3R+GQ"
      },
      "rating": 4.8,
      "reference": "ChIJRWYXMBZawokRevi2HDY9kRo",
      "scope": "GOOGLE",
      "types": [
        "lawyer",
        "point_of_interest",
        "establishment"
      ],
      "user_ratings_total": 5,
      "vicinity": "32 Old Slip, New York"
    },
    {
      "business_status": "OPERATIONAL",
      "geometry": {
        "location": {
          "lat": 40.7064573,
          "lng": -74.00909899999999
        },
        "viewport": {
          "northeast": {
            "lat": 40.7079540302915,
            "lng": -74.00785971970849
          },
          "southwest": {
            "lat": 40.7052560697085,
            "lng": -74.0105576802915
          }
        }
      },
      "icon": "https://maps.gstatic.com/mapfiles/place_api/icons/v1/png_71/generic_business-71.png",
      "icon_background_color": "#7B9EB0",
      "icon_mask_base_uri": "https://maps.gstatic.com/mapfiles/place_api/icons/v2/generic_pinlet",
      "name": "Callahead Corporation",
      "opening_hours": {
        "open_now": true
      },
      "photos": [
        {
          "height": 850,
          "html_attributions": [
            "<a href=\"https://maps.google.com/maps/contrib/101708552488905299310\">Callahead Corporation</a>"
          ],
          "photo_reference": "AeJbb3d6CZzQ-CcUJICAJ6VxnEoWV7-Ot_hu84vCsCTJnPOGuCOTikw7Oa8XSsKzTEzlRzWaodLWAvrIe53ZOefDyxksK3XRlBdx9B7193nlN26uUe63ZHYEcfwlDo8_KUWi1sdgbyl0Z5qs85YEMK-hi9DzUHI_3paR0r-skLhIT1_XFTJ1",
          "width": 1920
        }
      ],
      "place_id": "ChIJeZAh_hZawokR4U7fO8GhMp8",
      "plus_code": {
        "compound_code": "PX4R+H9 New York, NY, USA",
        "global_code": "87G7PX4R+H9"
      },
      "rating": 3.4,
      "reference": "ChIJeZAh_hZawokR4U7fO8GhMp8",
      "scope": "GOOGLE",
      "types": [
        "point_of_interest",
        "establishment"
      ],
      "user_ratings_total": 12,
      "vicinity": "48 Wall Street #11Fl, New York"
    },
    {
      "business_status": "OPERATIONAL",
      "geometry": {
        "location": {
          "lat": 40.706855,
          "lng": -74.0098519
        },
        "viewport": {
          "northeast": {
            "lat": 40.70840783029151,
            "lng": -74.00828841970849
          },
          "southwest": {
            "lat": 40.70570986970851,
            "lng": -74.0109863802915
          }
        }
      },
      "icon": "https://maps.gstatic.com/mapfiles/place_api/icons/v1/png_71/school-71.png",
      "icon_background_color": "#7B9EB0",
      "icon_mask_base_uri": "https://maps.gstatic.com/mapfiles/place_api/icons/v2/school_pinlet",
      "name": "Trump Entrepreneur Initiative",
      "opening_hours": {
        "open_now": true
      },
      "photos": [
        {
          "height": 2736,
          "html_attributions": [
            "<a href=\"https://maps.google.com/maps/contrib/102144309287765145115\">Christof Verboven</a>"
          ],
          "photo_reference": "AeJbb3eOiA1MFoKb2HTsdPlraAewWjtziyf_UbKb0pcVgci2azC4n81xAv4r5GnhKV0tVspRPDDbAeF_bCZ6GQY6d8zwvUTMNjQAWpX5WP6NlKw3qqOiU7WD4Rq2NZPq6EW_Gq-ZjEJOmFsvair436UAGfst2Ple6AqsTo7hlqWPUPpdQaCv",
          "width": 3648
        }
      ],
      "place_id": "ChIJeZAh_hZawokRWPiK6G0DLik",
      "plus_code": {
        "compound_code": "PX4R+P3 New York, NY, USA",
        "global_code": "87G7PX4R+P3"
      },
      "rating": 1.8,
      "reference": "ChIJeZAh_hZawokRWPiK6G0DLik",
      "scope": "GOOGLE",
      "types": [
        "point_of_interest",
        "establishment"
      ],
      "user_ratings_total": 12,
      "vicinity": "40 Wall St #3200, New York"
    },
    {
      "business_status": "OPERATIONAL",
      "geometry": {
        "location": {
          "lat": 40.7033226,
          "lng": -74.0088962
        },
        "viewport": {
          "northeast": {
            "lat": 40.7044681302915,
            "lng": -74.00726831970849
          },
          "southwest": {
            "lat": 40.7017701697085,
            "lng": -74.00996628029151
          }
        }
      },
      "icon": "https://maps.gstatic.com/mapfiles/place_api/icons/v1/png_71/generic_business-71.png",
      "icon_background_color": "#7B9EB0",
      "icon_mask_base_uri": "https://maps.gstatic.com/mapfiles/place_api/icons/v2/generic_pinlet",
      "name": "Hoey, King, Epstein, Prezioso & Marquez",
      "place_id": "ChIJ6UIVsxVawokRNc7H0GC1OR4",
      "plus_code": {
        "compound_code": "PX3R+8C New York, NY, USA",
        "global_code": "87G7PX3R+8C"
      },
      "rating": 3,
      "reference": "ChIJ6UIVsxVawokRNc7H0GC1OR4",
      "scope": "GOOGLE",
      "types": [
        "point_of_interest",
        "establishment"
      ],
      "user_ratings_total": 2,
      "vicinity": "55 Water Street, New York"
    },
    {
      "business_status": "OPERATIONAL",
      "geometry": {
        "location": {
          "lat": 40.70744029999999,
          "lng": -74.0048334
        },
        "viewport": {
          "northeast": {
            "lat": 40.70886728029149,
            "lng": -74.00359781970849
          },
          "southwest": {
            "lat": 40.70616931970849,
            "lng": -74.00629578029151
          }
        }
      },
      "icon": "https://maps.gstatic.com/mapfiles/place_api/icons/v1/png_71/generic_business-71.png",
      "icon_background_color": "#7B9EB0",
      "icon_mask_base_uri": "https://maps.gstatic.com/mapfiles/place_api/icons/v2/generic_pinlet",
      "name": "The Big City Woof Walker, LLC",
      "opening_hours": {
        "open_now": false
      },
      "photos": [
        {
          "height": 1365,
          "html_attributions": [
            "<a href=\"https://maps.google.com/maps/contrib/113768340714587486631\">The Big City Woof Walker, LLC</a>"
          ],
          "photo_reference": "AeJbb3eZBN-v5YfgQ1dz1dpzNwSJ4WnFTgh3FFmfQup86rwKOYe7FIBUOqMXLvhq0X-0ZeQlvVOy0jXJkXGiDT9q2T29wi4kMrSzYgxl2d5yftMLhz4Ed7fL5SAyQxpa0Fe1b-jb84alfoG7KVusLf_6sTS6GZqzkJCmnR7uweutYz0-v_sS",
          "width": 2048
        }
      ],
      "place_id": "ChIJ-drqFj1awokR-XfEPmIMvdk",
      "plus_code": {
        "compound_code": "PX4W+X3 New York, NY, USA",
        "global_code": "87G7PX4W+X3"
      },
      "rating": 4.9,
      "reference": "ChIJ-drqFj1awokR-XfEPmIMvdk",
      "scope": "GOOGLE",
      "types": [
        "point_of_interest",
        "establishment"
      ],
      "user_ratings_total": 56,
      "vicinity": "38 Peck Slip, New York"
    },
    {
      "business_status": "OPERATIONAL",
      "geometry": {
        "location": {
          "lat": 40.70404600000001,
          "lng": -74.0096618
        },
        "viewport": {
          "northeast": {
            "lat": 40.70528018029151,
            "lng": -74.00818076970849
          },
          "southwest": {
            "lat": 40.70258221970851,
            "lng": -74.0108787302915
          }
        }
      },
      "icon": "https://maps.gstatic.com/mapfiles/place_api/icons/v1/png_71/shopping-71.png",
      "icon_background_color": "#4B96F3",
      "icon_mask_base_uri": "https://maps.gstatic.com/mapfiles/place_api/icons/v2/shopping_pinlet",
      "name": "Myoptics",
      "opening_hours": {
        "open_now": false
      },
      "place_id": "ChIJFRmrLRRawokRElgm8srpBlg",
      "plus_code": {
        "compound_code": "PX3R+J4 New York, NY, USA",
        "global_code": "87G7PX3R+J4"
      },
      "reference": "ChIJFRmrLRRawokRElgm8srpBlg",
      "scope": "GOOGLE",
      "types": [
        "health",
        "store",
        "point_of_interest",
        "establishment"
      ],
      "vicinity": "7 Hanover Square, New York"
    },
    {
      "business_status": "OPERATIONAL",
      "geometry": {
        "location": {
          "lat": 40.704751,
          "lng": -74.006027
        },
        "viewport": {
          "northeast": {
            "lat": 40.70593823029149,
            "lng": -74.00491406970849
          },
          "southwest": {
            "lat": 40.7032402697085,
            "lng": -74.0076120302915
          }
        }
      },
      "icon": "https://maps.gstatic.com/mapfiles/place_api/icons/v1/png_71/generic_business-71.png",
      "icon_background_color": "#7B9EB0",
      "icon_mask_base_uri": "https://maps.gstatic.com/mapfiles/place_api/icons/v2/generic_pinlet",
      "name": "American Foundation For Suicide Prevention - Car Donation",
      "place_id": "ChIJ8xA67j1awokRKd88WVYCNiU",
      "plus_code": {
        "compound_code": "PX3V+WH New York, NY, USA",
        "global_code": "87G7PX3V+WH"
      },
      "reference": "ChIJ8xA67j1awokRKd88WVYCNiU",
      "scope": "GOOGLE",
      "types": [
        "point_of_interest",
        "establishment"
      ],
      "vicinity": "120 Wall Street, New York"
    },
    {
      "business_status": "OPERATIONAL",
      "geometry": {
        "location": {
          "lat": 40.7056323,
          "lng": -74.0062714
        },
        "viewport": {
          "northeast": {
            "lat": 40.7069775302915,
            "lng": -74.00468611970851
          },
          "southwest": {
            "lat": 40.7042795697085,
            "lng": -74.00738408029152
          }
        }
      },
      "icon": "https://maps.gstatic.com/mapfiles/place_api/icons/v1/png_71/generic_business-71.png",
      "icon_background_color": "#7B9EB0",
      "icon_mask_base_uri": "https://maps.gstatic.com/mapfiles/place_api/icons/v2/generic_pinlet",
      "name": "Children's Rights Inc",
      "place_id": "ChIJDUiwlK9ZwokRVoRDJLsUcW4",
      "plus_code": {
        "compound_code": "PX4V+7F New York, NY, USA",
        "global_code": "87G7PX4V+7F"
      },
      "reference": "ChIJDUiwlK9ZwokRVoRDJLsUcW4",
      "scope": "GOOGLE",
      "types": [
        "point_of_interest",
        "establishment"
      ],
      "vicinity": "88 Pine Street, New York"
    },
    {
      "business_status": "CLOSED_TEMPORARILY",
      "geometry": {
        "location": {
          "lat": 40.70404600000001,
          "lng": -74.0096618
        },
        "viewport": {
          "northeast": {
            "lat": 40.70528018029151,
            "lng": -74.00818076970849
          },
          "southwest": {
            "lat": 40.70258221970851,
            "lng": -74.0108787302915
          }
        }
      },
      "icon": "https://maps.gstatic.com/mapfiles/place_api/icons/v1/png_71/generic_business-71.png",
      "icon_background_color": "#7B9EB0",
      "icon_mask_base_uri": "https://maps.gstatic.com/mapfiles/place_api/icons/v2/generic_pinlet",
      "name": "Michael D. Patrick",
      "permanently_closed": true,
      "place_id": "ChIJFRmrLRRawokR0AtCZ4lcUGA",
      "plus_code": {
        "compound_code": "PX3R+J4 New York, NY, USA",
        "global_code": "87G7PX3R+J4"
      },
      "reference": "ChIJFRmrLRRawokR0AtCZ4lcUGA",
      "scope": "GOOGLE",
      "types": [
        "lawyer",
        "point_of_interest",
        "establishment"
      ],
      "vicinity": "7 Hanover Square, New York"
    },
    {
      "business_status": "OPERATIONAL",
      "geometry": {
        "location": {
          "lat": 40.7057883,
          "lng": -74.01024989999999
        },
        "viewport": {
          "northeast": {
            "lat": 40.7071724802915,
            "lng": -74.00872331970848
          },
          "southwest": {
            "lat": 40.7044745197085,
            "lng": -74.01142128029149
          }
        }
      },
      "icon": "https://maps.gstatic.com/mapfiles/place_api/icons/v1/png_71/generic_business-71.png",
      "icon_background_color": "#7B9EB0",
      "icon_mask_base_uri": "https://maps.gstatic.com/mapfiles/place_api/icons/v2/generic_pinlet",
      "name": "40 Exchange Place",
      "opening_hours": {
        "open_now": true
      },
      "photos": [
        {
          "height": 3024,
          "html_attributions": [
            "<a href=\"https://maps.google.com/maps/contrib/108778477067413990481\">Azamat Nassipov</a>"
          ],
          "photo_reference": "AeJbb3fU3uWOkTOYrD1ZI2vy3mJiN-pipdKHM4FwoSmZldtPPYqSvTIlZGsvkmlGOH5m5N8aINqC8w7JOrCksOfDqyioJxFbVrmiDOwbi5R00dTVuPE-pF0igqJLS46NbFpK6C-wYuOUn3i7s2PU9LjCEuf8eH_pd8EowdzlkFY9uVh2zw7J",
          "width": 4032
        }
      ],
      "place_id": "ChIJ_Wl47RZawokRxugWFwyYKmY",
      "plus_code": {
        "compound_code": "PX4Q+8W New York, NY, USA",
        "global_code": "87G7PX4Q+8W"
      },
      "rating": 4.1,
      "reference": "ChIJ_Wl47RZawokRxugWFwyYKmY",
      "scope": "GOOGLE",
      "types": [
        "point_of_interest",
        "establishment"
      ],
      "user_ratings_total": 236,
      "vicinity": "40 Exchange Place, New York"
    },
    {
      "business_status": "OPERATIONAL",
      "geometry": {
        "location": {
          "lat": 40.70614179999999,
          "lng": -74.00983819999999
        },
        "viewport": {
          "northeast": {
            "lat": 40.7073215802915,
            "lng": -74.0085490697085
          },
          "southwest": {
            "lat": 40.7046236197085,
            "lng": -74.0112470302915
          }
        }
      },
      "icon": "https://maps.gstatic.com/mapfiles/place_api/icons/v1/png_71/generic_business-71.png",
      "icon_background_color": "#7B9EB0",
      "icon_mask_base_uri": "https://maps.gstatic.com/mapfiles/place_api/icons/v2/generic_pinlet",
      "name": "Global Alliance TB Drug Development",
      "place_id": "ChIJR3ljBRRawokRM7OtBsDyn0A",
      "plus_code": {
        "compound_code": "PX4R+F3 New York, NY, USA",
        "global_code": "87G7PX4R+F3"
      },
      "rating": 5,
      "reference": "ChIJR3ljBRRawokRM7OtBsDyn0A",
      "scope": "GOOGLE",
      "types": [
        "point_of_interest",
        "establishment"
      ],
      "user_ratings_total": 1,
      "vicinity": "40 Wall Street # 24, New York"
    },
    {
      "business_status": "OPERATIONAL",
      "geometry": {
        "location": {
          "lat": 40.7064181,
          "lng": -74.01062480000002
        },
        "viewport": {
          "northeast": {
            "lat": 40.7076746302915,
            "lng": -74.0089960197085
          },
          "southwest": {
            "lat": 40.7049766697085,
            "lng": -74.01169398029151
          }
        }
      },
      "icon": "https://maps.gstatic.com/mapfiles/place_api/icons/v1/png_71/generic_business-71.png",
      "icon_background_color": "#7B9EB0",
      "icon_mask_base_uri": "https://maps.gstatic.com/mapfiles/place_api/icons/v2/generic_pinlet",
      "name": "Cultural Capital",
      "place_id": "ChIJx_966RZawokRKt_0fWJDl1Q",
      "plus_code": {
        "compound_code": "PX4Q+HQ New York, NY, USA",
        "global_code": "87G7PX4Q+HQ"
      },
      "reference": "ChIJx_966RZawokRKt_0fWJDl1Q",
      "scope": "GOOGLE",
      "types": [
        "point_of_interest",
        "establishment"
      ],
      "vicinity": "15 Broad Street, New York"
    },
    {
      "business_status": "OPERATIONAL",
      "geometry": {
        "location": {
          "lat": 40.7069491,
          "lng": -74.0090606
        },
        "viewport": {
          "northeast": {
            "lat": 40.7080155302915,
            "lng": -74.00809936970849
          },
          "southwest": {
            "lat": 40.7053175697085,
            "lng": -74.01079733029151
          }
        }
      },
      "icon": "https://maps.gstatic.com/mapfiles/place_api/icons/v1/png_71/generic_business-71.png",
      "icon_background_color": "#7B9EB0",
      "icon_mask_base_uri": "https://maps.gstatic.com/mapfiles/place_api/icons/v2/generic_pinlet",
      "name": "Room Real Estate",
      "opening_hours": {
        "open_now": false
      },
      "place_id": "ChIJeZAh_hZawokRu1Rbl9a245E",
      "plus_code": {
        "compound_code": "PX4R+Q9 New York, NY, USA",
        "global_code": "87G7PX4R+Q9"
      },
      "rating": 2,
      "reference": "ChIJeZAh_hZawokRu1Rbl9a245E",
      "scope": "GOOGLE",
      "types": [
        "real_estate_agency",
        "point_of_interest",
        "establishment"
      ],
      "user_ratings_total": 1,
      "vicinity": "Trump Building, 40 Wall Street, New York"
    },
    {
      "business_status": "OPERATIONAL",
      "geometry": {
        "location": {
          "lat": 40.7041331,
          "lng": -74.0085656
        },
        "viewport": {
          "northeast": {
            "lat": 40.70545378029149,
            "lng": -74.00725721970849
          },
          "southwest": {
            "lat": 40.7027558197085,
            "lng": -74.0099551802915
          }
        }
      },
      "icon": "https://maps.gstatic.com/mapfiles/place_api/icons/v1/png_71/generic_business-71.png",
      "icon_background_color": "#7B9EB0",
      "icon_mask_base_uri": "https://maps.gstatic.com/mapfiles/place_api/icons/v2/generic_pinlet",
      "name": "Daiwa Asset Management",
      "place_id": "ChIJVbu0gRZawokROsTUTnuHJQA",
      "plus_code": {
        "compound_code": "PX3R+MH New York, NY, USA",
        "global_code": "87G7PX3R+MH"
      },
      "reference": "ChIJVbu0gRZawokROsTUTnuHJQA",
      "scope": "GOOGLE",
      "types": [
        "finance",
        "point_of_interest",
        "establishment"
      ],
      "vicinity": "1 Old Slip, New York"
    },
    {
      "business_status": "CLOSED_TEMPORARILY",
      "geometry": {
        "location": {
          "lat": 40.70739930000001,
          "lng": -74.0102088
        },
        "viewport": {
          "northeast": {
            "lat": 40.7086738802915,
            "lng": -74.0089252697085
          },
          "southwest": {
            "lat": 40.70597591970851,
            "lng": -74.0116232302915
          }
        }
      },
      "icon": "https://maps.gstatic.com/mapfiles/place_api/icons/v1/png_71/museum-71.png",
      "icon_background_color": "#13B5C7",
      "icon_mask_base_uri": "https://maps.gstatic.com/mapfiles/place_api/icons/v2/museum_pinlet",
      "name": "Federal Hall",
      "permanently_closed": true,
      "photos": [
        {
          "height": 3456,
          "html_attributions": [
            "<a href=\"https://maps.google.com/maps/contrib/111225829246070063729\">Andryas Mawardi</a>"
          ],
          "photo_reference": "AeJbb3fwVGAT8I00uYL3aXnPsAXYIdKZMWKQjh6ywbSKSKzENACRSK4Jx3ouyY9QI5DG3XM3hx2RX6jymGkbPZVQdgRUfuMdtvnra_vlv-cNDdbRDbuAZtNMi2p-klXL4Jjt9HjCP8hHhnMap5cvYpFEKY5F4CL_kAcUe1tsjQz8Fq6sgLa2",
          "width": 4608
        }
      ],
      "place_id": "ChIJAaIFAxdawokR8txc3YPbD3A",
      "plus_code": {
        "compound_code": "PX4Q+XW New York, NY, USA",
        "global_code": "87G7PX4Q+XW"
      },
      "rating": 4.5,
      "reference": "ChIJAaIFAxdawokR8txc3YPbD3A",
      "scope": "GOOGLE",
      "types": [
        "museum",
        "tourist_attraction",
        "point_of_interest",
        "establishment"
      ],
      "user_ratings_total": 2138,
      "vicinity": "26 Wall Street, New York"
    },
    {
      "business_status": "CLOSED_TEMPORARILY",
      "geometry": {
        "location": {
          "lat": 40.704046,
          "lng": -74.0096619
        },
        "viewport": {
          "northeast": {
            "lat": 40.7052801302915,
            "lng": -74.0081808697085
          },
          "southwest": {
            "lat": 40.7025821697085,
            "lng": -74.0108788302915
          }
        }
      },
      "icon": "https://maps.gstatic.com/mapfiles/place_api/icons/v1/png_71/generic_business-71.png",
      "icon_background_color": "#7B9EB0",
      "icon_mask_base_uri": "https://maps.gstatic.com/mapfiles/place_api/icons/v2/generic_pinlet",
      "name": "Mangold Financial Planning",
      "permanently_closed": true,
      "place_id": "ChIJFRmrLRRawokRJ1G6wSaVYzI",
      "plus_code": {
        "compound_code": "PX3R+J4 New York, NY, USA",
        "global_code": "87G7PX3R+J4"
      },
      "reference": "ChIJFRmrLRRawokRJ1G6wSaVYzI",
      "scope": "GOOGLE",
      "types": [
        "finance",
        "point_of_interest",
        "establishment"
      ],
      "vicinity": "7 Hanover Square, New York"
    },
    {
      "business_status": "OPERATIONAL",
      "geometry": {
        "location": {
          "lat": 40.70418519999999,
          "lng": -74.01027479999999
        },
        "viewport": {
          "northeast": {
            "lat": 40.7054826802915,
            "lng": -74.00885826970848
          },
          "southwest": {
            "lat": 40.7027847197085,
            "lng": -74.01155623029149
          }
        }
      },
      "icon": "https://maps.gstatic.com/mapfiles/place_api/icons/v1/png_71/restaurant-71.png",
      "icon_background_color": "#FF9E67",
      "icon_mask_base_uri": "https://maps.gstatic.com/mapfiles/place_api/icons/v2/restaurant_pinlet",
      "name": "Mad Dog & Beans Mexican Cantina",
      "opening_hours": {
        "open_now": true
      },
      "photos": [
        {
          "height": 426,
          "html_attributions": [
            "<a href=\"https://maps.google.com/maps/contrib/117444331794049318228\">Mad Dog &amp; Beans Mexican Cantina</a>"
          ],
          "photo_reference": "AeJbb3d3Lg68bO71IZQtX11P6Vak4VGqHEr0_FpP4ytAHT0zJyhZlUEdJCNWezSPB6laj4_q6hHjLdz5cntQ7dTKmZkA7BxiG1Bc_6vLHQ-sVxAynqBtCQQ1YHKifjI03byZAJ8oFRqcLzvKN9AnCvWDWc58Ae3xDAlsKSJPXvOK8N-ShbHS",
          "width": 549
        }
      ],
      "place_id": "ChIJM_yFLxRawokR4OUO3XdR5Yw",
      "plus_code": {
        "compound_code": "PX3Q+MV New York, NY, USA",
        "global_code": "87G7PX3Q+MV"
      },
      "price_level": 2,
      "rating": 4.2,
      "reference": "ChIJM_yFLxRawokR4OUO3XdR5Yw",
      "scope": "GOOGLE",
      "types": [
        "bar",
        "restaurant",
        "point_of_interest",
        "food",
        "establishment"
      ],
      "user_ratings_total": 1462,
      "vicinity": "83 Pearl Street, New York"
    },
    {
      "business_status": "CLOSED_TEMPORARILY",
      "geometry": {
        "location": {
          "lat": 40.7069615,
          "lng": -74.0097684
        },
        "viewport": {
          "northeast": {
            "lat": 40.7080217302915,
            "lng": -74.00842881970848
          },
          "southwest": {
            "lat": 40.7053237697085,
            "lng": -74.0111267802915
          }
        }
      },
      "icon": "https://maps.gstatic.com/mapfiles/place_api/icons/v1/png_71/generic_business-71.png",
      "icon_background_color": "#7B9EB0",
      "icon_mask_base_uri": "https://maps.gstatic.com/mapfiles/place_api/icons/v2/generic_pinlet",
      "name": "Marte Multimedia",
      "permanently_closed": true,
      "place_id": "ChIJeZAh_hZawokREWgZyOXbp6A",
      "plus_code": {
        "compound_code": "PX4R+Q3 New York, NY, USA",
        "global_code": "87G7PX4R+Q3"
      },
      "reference": "ChIJeZAh_hZawokREWgZyOXbp6A",
      "scope": "GOOGLE",
      "types": [
        "store",
        "point_of_interest",
        "establishment"
      ],
      "vicinity": "Trump Building, 40 Wall Street, New York"
    },
    {
      "business_status": "OPERATIONAL",
      "geometry": {
        "location": {
          "lat": 40.7077585,
          "lng": -74.00885029999999
        },
        "viewport": {
          "northeast": {
            "lat": 40.70900123029151,
            "lng": -74.00730686970849
          },
          "southwest": {
            "lat": 40.70630326970851,
            "lng": -74.0100048302915
          }
        }
      },
      "icon": "https://maps.gstatic.com/mapfiles/place_api/icons/v1/png_71/generic_business-71.png",
      "icon_background_color": "#7B9EB0",
      "icon_mask_base_uri": "https://maps.gstatic.com/mapfiles/place_api/icons/v2/generic_pinlet",
      "name": "Wolters Kluwer Corporation Legal Services",
      "photos": [
        {
          "height": 4032,
          "html_attributions": [
            "<a href=\"https://maps.google.com/maps/contrib/107285347802175878245\">Nitin Garg</a>"
          ],
          "photo_reference": "AeJbb3cXk6KGAP7633w3ItBaJMUo10MX_wPOYlrTM8wLJdhy6VZ86U57FvEbSSVtZWoF9f30pI8GcFIdYxvPpWkq6GwkP4ZgtQAkNxvsEzIp6lZtlnDeVXnnqZK8GIndZkItKNUC70UEGDdk_fgRN0bxkxNoBQlpx1poJAdRjGnG2K2nR7ab",
          "width": 3024
        }
      ],
      "place_id": "ChIJF6vVir5ZwokRlDZg3AkYoSo",
      "plus_code": {
        "compound_code": "PX5R+4F New York, NY, USA",
        "global_code": "87G7PX5R+4F"
      },
      "rating": 4.6,
      "reference": "ChIJF6vVir5ZwokRlDZg3AkYoSo",
      "scope": "GOOGLE",
      "types": [
        "point_of_interest",
        "establishment"
      ],
      "user_ratings_total": 8,
      "vicinity": "28 Liberty Street 26th Floor, New York"
    },
    {
      "business_status": "OPERATIONAL",
      "geometry": {
        "location": {
          "lat": 40.7069066,
          "lng": -74.0097122
        },
        "viewport": {
          "northeast": {
            "lat": 40.7079942802915,
            "lng": -74.00832921970849
          },
          "southwest": {
            "lat": 40.7052963197085,
            "lng": -74.0110271802915
          }
        }
      },
      "icon": "https://maps.gstatic.com/mapfiles/place_api/icons/v1/png_71/shopping-71.png",
      "icon_background_color": "#4B96F3",
      "icon_mask_base_uri": "https://maps.gstatic.com/mapfiles/place_api/icons/v2/shopping_pinlet",
      "name": "Voice & Wireless Communication Systems",
      "opening_hours": {
        "open_now": true
      },
      "photos": [
        {
          "height": 500,
          "html_attributions": [
            "<a href=\"https://maps.google.com/maps/contrib/102323370015071582325\">Voice &amp; Wireless Communication Systems</a>"
          ],
          "photo_reference": "AeJbb3d92xIefIUsttkDzHlKtVuSPfA-6oSK6SITYRTAL71dnecOUjzxYqRrb2ntaAnqJWy7UPyDAISL8kNxDmxN-F0l5FOBar2vyYSl5LbTXXZPKI0YwFgPRKfWMrZLwuvYr9LLk1xSndYiYdQGENqPNvKNvFY04u9Mw3bhNnPzxDJEmgCD",
          "width": 872
        }
      ],
      "place_id": "ChIJeZAh_hZawokRhmV-5yQUQIE",
      "plus_code": {
        "compound_code": "PX4R+Q4 New York, NY, USA",
        "global_code": "87G7PX4R+Q4"
      },
      "reference": "ChIJeZAh_hZawokRhmV-5yQUQIE",
      "scope": "GOOGLE",
      "types": [
        "electronics_store",
        "store",
        "point_of_interest",
        "establishment"
      ],
      "vicinity": "Trump Building, New York"
    },
    {
      "business_status": "OPERATIONAL",
      "geometry": {
        "location": {
          "lat": 40.7068658,
          "lng": -74.0097068
        },
        "viewport": {
          "northeast": {
            "lat": 40.7079738802915,
            "lng": -74.0083804697085
          },
          "southwest": {
            "lat": 40.7052759197085,
            "lng": -74.0110784302915
          }
        }
      },
      "icon": "https://maps.gstatic.com/mapfiles/place_api/icons/v1/png_71/generic_business-71.png",
      "icon_background_color": "#7B9EB0",
      "icon_mask_base_uri": "https://maps.gstatic.com/mapfiles/place_api/icons/v2/generic_pinlet",
      "name": "Bureau van Dijk",
      "place_id": "ChIJrxO2pRZawokRvDBA4J4sLe4",
      "plus_code": {
        "compound_code": "PX4R+P4 New York, NY, USA",
        "global_code": "87G7PX4R+P4"
      },
      "reference": "ChIJrxO2pRZawokRvDBA4J4sLe4",
      "scope": "GOOGLE",
      "types": [
        "point_of_interest",
        "establishment"
      ],
      "vicinity": "40 Wall Street, New York"
    },
    {
      "business_status": "CLOSED_TEMPORARILY",
      "geometry": {
        "location": {
          "lat": 40.7069615,
          "lng": -74.0097684
        },
        "viewport": {
          "northeast": {
            "lat": 40.7080217302915,
            "lng": -74.00842881970848
          },
          "southwest": {
            "lat": 40.7053237697085,
            "lng": -74.0111267802915
          }
        }
      },
      "icon": "https://maps.gstatic.com/mapfiles/place_api/icons/v1/png_71/generic_business-71.png",
      "icon_background_color": "#7B9EB0",
      "icon_mask_base_uri": "https://maps.gstatic.com/mapfiles/place_api/icons/v2/generic_pinlet",
      "name": "PDCD",
      "permanently_closed": true,
      "place_id": "ChIJeZAh_hZawokRkZyvjisSTKw",
      "plus_code": {
        "compound_code": "PX4R+Q3 New York, NY, USA",
        "global_code": "87G7PX4R+Q3"
      },
      "reference": "ChIJeZAh_hZawokRkZyvjisSTKw",
      "scope": "GOOGLE",
      "types": [
        "point_of_interest",
        "establishment"
      ],
      "vicinity": "Trump Building, 40 Wall Street, New York"
    },
    {
      "business_status": "OPERATIONAL",
      "geometry": {
        "location": {
          "lat": 40.70772119999999,
          "lng": -74.00555039999999
        },
        "viewport": {
          "northeast": {
            "lat": 40.7090248302915,
            "lng": -74.0042786197085
          },
          "southwest": {
            "lat": 40.70632686970851,
            "lng": -74.00697658029151
          }
        }
      },
      "icon": "https://maps.gstatic.com/mapfiles/place_api/icons/v1/png_71/civic_building-71.png",
      "icon_background_color": "#7B9EB0",
      "icon_mask_base_uri": "https://maps.gstatic.com/mapfiles/place_api/icons/v2/civic-bldg_pinlet",
      "name": "New York City City Marshal",
      "place_id": "ChIJjThPZj1awokRm6q4j1iofOE",
      "plus_code": {
        "compound_code": "PX5V+3Q New York, NY, USA",
        "global_code": "87G7PX5V+3Q"
      },
      "reference": "ChIJjThPZj1awokRm6q4j1iofOE",
      "scope": "GOOGLE",
      "types": [
        "local_government_office",
        "point_of_interest",
        "establishment"
      ],
      "vicinity": "111 John Street #500, New York"
    },
    {
      "business_status": "OPERATIONAL",
      "geometry": {
        "location": {
          "lat": 40.7069772,
          "lng": -74.0095219
        },
        "viewport": {
          "northeast": {
            "lat": 40.70802958029149,
            "lng": -74.00836596970849
          },
          "southwest": {
            "lat": 40.7053316197085,
            "lng": -74.0110639302915
          }
        }
      },
      "icon": "https://maps.gstatic.com/mapfiles/place_api/icons/v1/png_71/generic_business-71.png",
      "icon_background_color": "#7B9EB0",
      "icon_mask_base_uri": "https://maps.gstatic.com/mapfiles/place_api/icons/v2/generic_pinlet",
      "name": "May Law Group, LLC",
      "opening_hours": {
        "open_now": true
      },
      "place_id": "ChIJeZAh_hZawokRijdeotKHu54",
      "plus_code": {
        "compound_code": "PX4R+Q5 New York, NY, USA",
        "global_code": "87G7PX4R+Q5"
      },
      "rating": 2.3,
      "reference": "ChIJeZAh_hZawokRijdeotKHu54",
      "scope": "GOOGLE",
      "types": [
        "lawyer",
        "point_of_interest",
        "establishment"
      ],
      "user_ratings_total": 3,
      "vicinity": "Trump Building, 40 Wall Street, New York"
    },
    {
      "business_status": "OPERATIONAL",
      "geometry": {
        "location": {
          "lat": 40.7061417,
          "lng": -74.0110439
        },
        "viewport": {
          "northeast": {
            "lat": 40.70730398029151,
            "lng": -74.00914755
          },
          "southwest": {
            "lat": 40.70460601970851,
            "lng": -74.01195495
          }
        }
      },
      "icon": "https://maps.gstatic.com/mapfiles/place_api/icons/v1/png_71/restaurant-71.png",
      "icon_background_color": "#FF9E67",
      "icon_mask_base_uri": "https://maps.gstatic.com/mapfiles/place_api/icons/v2/restaurant_pinlet",
      "name": "Bobby Van's",
      "opening_hours": {
        "open_now": false
      },
      "photos": [
        {
          "height": 608,
          "html_attributions": [
            "<a href=\"https://maps.google.com/maps/contrib/112739013657264391718\">Bobby Van&#39;s</a>"
          ],
          "photo_reference": "AeJbb3dKL9xrHt73ezRYX2cqMzCi2QKCvFYGCT1pLynZpdN6C5l6Dh-dqkSSxQFeuq5rLFG74Mqg_mB3LiJ7fmdtm71DsWvmElAeI2UYoLabWa-A0oKj4o_d9RTPiX3vGYZOrtiYEr-v4jDb4dSDG87WX_2RPIw5ip0E18lV64Ejn5g8rGzY",
          "width": 1080
        }
      ],
      "place_id": "ChIJGaoRuRZawokRBjROjwe6Ie4",
      "plus_code": {
        "compound_code": "PX4Q+FH New York, NY, USA",
        "global_code": "87G7PX4Q+FH"
      },
      "price_level": 3,
      "rating": 4.2,
      "reference": "ChIJGaoRuRZawokRBjROjwe6Ie4",
      "scope": "GOOGLE",
      "types": [
        "bar",
        "restaurant",
        "food",
        "point_of_interest",
        "establishment"
      ],
      "user_ratings_total": 604,
      "vicinity": "25 Broad Street, New York"
    },
    {
      "business_status": "OPERATIONAL",
      "geometry": {
        "location": {
          "lat": 40.7050758,
          "lng": -74.0091604
        },
        "viewport": {
          "northeast": {
            "lat": 40.7062609802915,
            "lng": -74.0078358697085
          },
          "southwest": {
            "lat": 40.7035630197085,
            "lng": -74.01053383029151
          }
        }
      },
      "icon": "https://maps.gstatic.com/mapfiles/place_api/icons/v1/png_71/generic_business-71.png",
      "icon_background_color": "#7B9EB0",
      "icon_mask_base_uri": "https://maps.gstatic.com/mapfiles/place_api/icons/v2/generic_pinlet",
      "name": "Thivierge & Rothberg PC",
      "opening_hours": {
        "open_now": false
      },
      "place_id": "ChIJC_TxfBZawokRWdtR2E_i7bA",
      "plus_code": {
        "compound_code": "PX4R+28 New York, NY, USA",
        "global_code": "87G7PX4R+28"
      },
      "reference": "ChIJC_TxfBZawokRWdtR2E_i7bA",
      "scope": "GOOGLE",
      "types": [
        "lawyer",
        "point_of_interest",
        "establishment"
      ],
      "vicinity": "5 Hanover Square, New York"
    },
    {
      "business_status": "OPERATIONAL",
      "geometry": {
        "location": {
          "lat": 40.7069615,
          "lng": -74.0097684
        },
        "viewport": {
          "northeast": {
            "lat": 40.7083540802915,
            "lng": -74.0083888197085
          },
          "southwest": {
            "lat": 40.7056561197085,
            "lng": -74.0110867802915
          }
        }
      },
      "icon": "https://maps.gstatic.com/mapfiles/place_api/icons/v1/png_71/generic_business-71.png",
      "icon_background_color": "#7B9EB0",
      "icon_mask_base_uri": "https://maps.gstatic.com/mapfiles/place_api/icons/v2/generic_pinlet",
      "name": "Misiti Global, PLLC",
      "place_id": "ChIJeZAh_hZawokRxhkJUC1u2wE",
      "plus_code": {
        "compound_code": "PX4R+Q3 New York, NY, USA",
        "global_code": "87G7PX4R+Q3"
      },
      "reference": "ChIJeZAh_hZawokRxhkJUC1u2wE",
      "scope": "GOOGLE",
      "types": [
        "lawyer",
        "point_of_interest",
        "establishment"
      ],
      "vicinity": "Trump Building, 40 Wall Street, New York"
    },
    {
      "business_status": "OPERATIONAL",
      "geometry": {
        "location": {
          "lat": 40.70686569999999,
          "lng": -74.0097069
        },
        "viewport": {
          "northeast": {
            "lat": 40.70797383029149,
            "lng": -74.0083804697085
          },
          "southwest": {
            "lat": 40.7052758697085,
            "lng": -74.0110784302915
          }
        }
      },
      "icon": "https://maps.gstatic.com/mapfiles/place_api/icons/v1/png_71/generic_business-71.png",
      "icon_background_color": "#7B9EB0",
      "icon_mask_base_uri": "https://maps.gstatic.com/mapfiles/place_api/icons/v2/generic_pinlet",
      "name": "Balestri Architects",
      "opening_hours": {
        "open_now": false
      },
      "place_id": "ChIJeZAh_hZawokR1Z7LkRT-qSw",
      "plus_code": {
        "compound_code": "PX4R+P4 New York, NY, USA",
        "global_code": "87G7PX4R+P4"
      },
      "reference": "ChIJeZAh_hZawokR1Z7LkRT-qSw",
      "scope": "GOOGLE",
      "types": [
        "point_of_interest",
        "establishment"
      ],
      "vicinity": "40 Wall Street, New York"
    },
    {
      "business_status": "CLOSED_TEMPORARILY",
      "geometry": {
        "location": {
          "lat": 40.70690829999999,
          "lng": -74.0096853
        },
        "viewport": {
          "northeast": {
            "lat": 40.70799513029149,
            "lng": -74.00838846970849
          },
          "southwest": {
            "lat": 40.7052971697085,
            "lng": -74.0110864302915
          }
        }
      },
      "icon": "https://maps.gstatic.com/mapfiles/place_api/icons/v1/png_71/generic_business-71.png",
      "icon_background_color": "#7B9EB0",
      "icon_mask_base_uri": "https://maps.gstatic.com/mapfiles/place_api/icons/v2/generic_pinlet",
      "name": "Private Placement memorandum",
      "permanently_closed": true,
      "place_id": "ChIJeZAh_hZawokRVqL3l5WxX8c",
      "plus_code": {
        "compound_code": "PX4R+Q4 New York, NY, USA",
        "global_code": "87G7PX4R+Q4"
      },
      "reference": "ChIJeZAh_hZawokRVqL3l5WxX8c",
      "scope": "GOOGLE",
      "types": [
        "point_of_interest",
        "establishment"
      ],
      "vicinity": "40 Wall Street, New York"
    },
    {
      "business_status": "OPERATIONAL",
      "geometry": {
        "location": {
          "lat": 40.7051065,
          "lng": -74.0092176
        },
        "viewport": {
          "northeast": {
            "lat": 40.7063524302915,
            "lng": -74.00773686970848
          },
          "southwest": {
            "lat": 40.7036544697085,
            "lng": -74.0104348302915
          }
        }
      },
      "icon": "https://maps.gstatic.com/mapfiles/place_api/icons/v1/png_71/generic_business-71.png",
      "icon_background_color": "#7B9EB0",
      "icon_mask_base_uri": "https://maps.gstatic.com/mapfiles/place_api/icons/v2/generic_pinlet",
      "name": "Jones Jones LLC",
      "opening_hours": {
        "open_now": false
      },
      "photos": [
        {
          "height": 920,
          "html_attributions": [
            "<a href=\"https://maps.google.com/maps/contrib/118310049501829276976\">Jones Jones LLC</a>"
          ],
          "photo_reference": "AeJbb3fAlnuuEM7pghfKEIqt_N0IOJm1lJ2Eur4AyzUSUicmTFkRmA6piRRLcSoyfu6dUYaO7KXwyKO4MbHwK9ihZYWYD9TlWb1sf0mfWrdvP1fGmwD3EGFDB-B_THpFhK1ivzKkx9XwFLEcV91nLFjCogw58TwaPdf_kU6JKHSbFJiZyC14",
          "width": 1667
        }
      ],
      "place_id": "ChIJsaingRZawokRhtg-BhF3oH8",
      "plus_code": {
        "compound_code": "PX4R+28 New York, NY, USA",
        "global_code": "87G7PX4R+28"
      },
      "rating": 5,
      "reference": "ChIJsaingRZawokRhtg-BhF3oH8",
      "scope": "GOOGLE",
      "types": [
        "lawyer",
        "point_of_interest",
        "establishment"
      ],
      "user_ratings_total": 3,
      "vicinity": "5 Hanover Square # 1001, New York"
    },
    {
      "business_status": "OPERATIONAL",
      "geometry": {
        "location": {
          "lat": 40.70751420000001,
          "lng": -74.00733199999999
        },
        "viewport": {
          "northeast": {
            "lat": 40.7088128802915,
            "lng": -74.00610326970848
          },
          "southwest": {
            "lat": 40.7061149197085,
            "lng": -74.0088012302915
          }
        }
      },
      "icon": "https://maps.gstatic.com/mapfiles/place_api/icons/v1/png_71/generic_business-71.png",
      "icon_background_color": "#7B9EB0",
      "icon_mask_base_uri": "https://maps.gstatic.com/mapfiles/place_api/icons/v2/generic_pinlet",
      "name": "Dr. Carlos Mora, MD",
      "place_id": "ChIJoSiYxBdawokRP9cbnR7hyuQ",
      "plus_code": {
        "compound_code": "PX5V+23 New York, NY, USA",
        "global_code": "87G7PX5V+23"
      },
      "reference": "ChIJoSiYxBdawokRP9cbnR7hyuQ",
      "scope": "GOOGLE",
      "types": [
        "doctor",
        "health",
        "point_of_interest",
        "establishment"
      ],
      "vicinity": "83 Maiden Lane # 4, New York"
    },
    {
      "business_status": "OPERATIONAL",
      "geometry": {
        "location": {
          "lat": 40.7078278,
          "lng": -74.0056597
        },
        "viewport": {
          "northeast": {
            "lat": 40.70910518029149,
            "lng": -74.00438771970849
          },
          "southwest": {
            "lat": 40.7064072197085,
            "lng": -74.0070856802915
          }
        }
      },
      "icon": "https://maps.gstatic.com/mapfiles/place_api/icons/v1/png_71/generic_business-71.png",
      "icon_background_color": "#7B9EB0",
      "icon_mask_base_uri": "https://maps.gstatic.com/mapfiles/place_api/icons/v2/generic_pinlet",
      "name": "Mehran Morovati D.D.S. Century Dental Associates",
      "opening_hours": {
        "open_now": false
      },
      "photos": [
        {
          "height": 478,
          "html_attributions": [
            "<a href=\"https://maps.google.com/maps/contrib/109329919807956063738\">Mehran Morovati D.D.S. Century Dental Associates</a>"
          ],
          "photo_reference": "AeJbb3fCqmLP5A2aakFkdWoLEOcgvKBWNI_cxmxSmezj-3Z-n0tDkra8RVCZlJ8-wGlHINI0A8OptPtm8ZvQi0L-mVVg722ICpl_YGWj2Xyd0q-1efr_wwLkBHjh-aqIxUlkRys_LwjJr_fMpFmS902swnjQ2C5IO_TtQTI6Ne7FYiYn8_KZ",
          "width": 640
        }
      ],
      "place_id": "ChIJIQhUQj1awokRF1OslAs7Qs0",
      "plus_code": {
        "compound_code": "PX5V+4P New York, NY, USA",
        "global_code": "87G7PX5V+4P"
      },
      "rating": 4.4,
      "reference": "ChIJIQhUQj1awokRF1OslAs7Qs0",
      "scope": "GOOGLE",
      "types": [
        "dentist",
        "health",
        "point_of_interest",
        "establishment"
      ],
      "user_ratings_total": 110,
      "vicinity": "111 John Street Lobby, New York"
    },
    {
      "business_status": "OPERATIONAL",
      "geometry": {
        "location": {
          "lat": 40.70751420000001,
          "lng": -74.00733199999999
        },
        "viewport": {
          "northeast": {
            "lat": 40.7088128802915,
            "lng": -74.00610326970848
          },
          "southwest": {
            "lat": 40.7061149197085,
            "lng": -74.0088012302915
          }
        }
      },
      "icon": "https://maps.gstatic.com/mapfiles/place_api/icons/v1/png_71/generic_business-71.png",
      "icon_background_color": "#7B9EB0",
      "icon_mask_base_uri": "https://maps.gstatic.com/mapfiles/place_api/icons/v2/generic_pinlet",
      "name": "Tesar Brian L MD",
      "place_id": "ChIJoSiYxBdawokRLpLrV8UDYRk",
      "plus_code": {
        "compound_code": "PX5V+23 New York, NY, USA",
        "global_code": "87G7PX5V+23"
      },
      "reference": "ChIJoSiYxBdawokRLpLrV8UDYRk",
      "scope": "GOOGLE",
      "types": [
        "doctor",
        "health",
        "point_of_interest",
        "establishment"
      ],
      "vicinity": "83 Maiden Lane # 4, New York"
    },
    {
      "business_status": "OPERATIONAL",
      "geometry": {
        "location": {
          "lat": 40.70468839999999,
          "lng": -74.0078089
        },
        "viewport": {
          "northeast": {
            "lat": 40.70610103029149,
            "lng": -74.00650781970849
          },
          "southwest": {
            "lat": 40.70340306970849,
            "lng": -74.0092057802915
          }
        }
      },
      "icon": "https://maps.gstatic.com/mapfiles/place_api/icons/v1/png_71/shopping-71.png",
      "icon_background_color": "#4B96F3",
      "icon_mask_base_uri": "https://maps.gstatic.com/mapfiles/place_api/icons/v2/convenience_pinlet",
      "name": "Duane Reade",
      "opening_hours": {
        "open_now": false
      },
      "photos": [
        {
          "height": 602,
          "html_attributions": [
            "<a href=\"https://maps.google.com/maps/contrib/108410186695152473702\">joey rehavi</a>"
          ],
          "photo_reference": "AeJbb3dCE2S3l7rT1M7cI7DwnEd6Rn8HunQcOO4n1uHvsD5dbuLAozddmjX_sak6psWGe70-YVJJUrFdz2tcpBB9juJpyCX-YXbP9xQhqMe49p8o6eQd-iCkhSrfuenPjoFVCEsv5r2lAU9MNgXWJ0yQoGVl4weJhxDm32MVe1fv8s9zS_Gd",
          "width": 828
        }
      ],
      "place_id": "ChIJYTwCEhZawokRKjiYNeSE5cE",
      "plus_code": {
        "compound_code": "PX3R+VV New York, NY, USA",
        "global_code": "87G7PX3R+VV"
      },
      "price_level": 2,
      "rating": 3.1,
      "reference": "ChIJYTwCEhZawokRKjiYNeSE5cE",
      "scope": "GOOGLE",
      "types": [
        "convenience_store",
        "clothing_store",
        "store",
        "food",
        "point_of_interest",
        "establishment"
      ],
      "user_ratings_total": 32,
      "vicinity": "95 Wall Street, New York"
    },
    {
      "business_status": "OPERATIONAL",
      "geometry": {
        "location": {
          "lat": 40.7069615,
          "lng": -74.0097684
        },
        "viewport": {
          "northeast": {
            "lat": 40.7080217302915,
            "lng": -74.00842881970848
          },
          "southwest": {
            "lat": 40.7053237697085,
            "lng": -74.0111267802915
          }
        }
      },
      "icon": "https://maps.gstatic.com/mapfiles/place_api/icons/v1/png_71/generic_business-71.png",
      "icon_background_color": "#7B9EB0",
      "icon_mask_base_uri": "https://maps.gstatic.com/mapfiles/place_api/icons/v2/generic_pinlet",
      "name": "Profitmax Solutions",
      "opening_hours": {
        "open_now": false
      },
      "photos": [
        {
          "height": 390,
          "html_attributions": [
            "<a href=\"https://maps.google.com/maps/contrib/112426164016320520437\">Profitmax Solutions</a>"
          ],
          "photo_reference": "AeJbb3c8L3MUbNT4ty7sCWB9sYvG-E3IvEmB1Fhj0cBRdn7xSnkZY3I0T4NnP39kp262FJ7eqRzNamHuQQIsPfYJFucpsWoUnugfcZEc2Y74eyaIjcH3LAX2k7fuj_SmHO5ShyDRVmRyikbXDODHYkPNNPdVEiRLgLHyrKOIeEAQ-U8iWSJ5",
          "width": 534
        }
      ],
      "place_id": "ChIJeZAh_hZawokRhOSFH2BE_iY",
      "plus_code": {
        "compound_code": "PX4R+Q3 New York, NY, USA",
        "global_code": "87G7PX4R+Q3"
      },
      "reference": "ChIJeZAh_hZawokRhOSFH2BE_iY",
      "scope": "GOOGLE",
      "types": [
        "point_of_interest",
        "establishment"
      ],
      "vicinity": "Trump Building, 40 Wall Street, New York"
    },
    {
      "business_status": "CLOSED_TEMPORARILY",
      "geometry": {
        "location": {
          "lat": 40.7069615,
          "lng": -74.0097684
        },
        "viewport": {
          "northeast": {
            "lat": 40.7080217302915,
            "lng": -74.00842881970848
          },
          "southwest": {
            "lat": 40.7053237697085,
            "lng": -74.0111267802915
          }
        }
      },
      "icon": "https://maps.gstatic.com/mapfiles/place_api/icons/v1/png_71/generic_business-71.png",
      "icon_background_color": "#7B9EB0",
      "icon_mask_base_uri": "https://maps.gstatic.com/mapfiles/place_api/icons/v2/generic_pinlet",
      "name": "ANGELLINO ARTE",
      "permanently_closed": true,
      "place_id": "ChIJeZAh_hZawokRJJrJwqN3r8Q",
      "plus_code": {
        "compound_code": "PX4R+Q3 New York, NY, USA",
        "global_code": "87G7PX4R+Q3"
      },
      "reference": "ChIJeZAh_hZawokRJJrJwqN3r8Q",
      "scope": "GOOGLE",
      "types": [
        "art_gallery",
        "point_of_interest",
        "establishment"
      ],
      "vicinity": "Trump Building, 40 Wall Street, New York"
    },
    {
      "business_status": "OPERATIONAL",
      "geometry": {
        "location": {
          "lat": 40.7069615,
          "lng": -74.0097684
        },
        "viewport": {
          "northeast": {
            "lat": 40.7080217302915,
            "lng": -74.00842881970848
          },
          "southwest": {
            "lat": 40.7053237697085,
            "lng": -74.0111267802915
          }
        }
      },
      "icon": "https://maps.gstatic.com/mapfiles/place_api/icons/v1/png_71/generic_business-71.png",
      "icon_background_color": "#7B9EB0",
      "icon_mask_base_uri": "https://maps.gstatic.com/mapfiles/place_api/icons/v2/generic_pinlet",
      "name": "Zooz Capital Management",
      "photos": [
        {
          "height": 525,
          "html_attributions": [
            "<a href=\"https://maps.google.com/maps/contrib/103326715905081542910\">Zooz Capital Management</a>"
          ],
          "photo_reference": "AeJbb3cvynbk3vPq67-6mlcRrTxOUrmLjSUhBGPrE3aN_LavrLfud82IyrptQzkusAkBcM-jtIgSWOY_pTjImlJTJjLzL8FauQR8QWX80Yo4MW1u7RzlN5_jglEdXlrKFyONZthJcRLh_GKhZyZorJ3ClLzNmKKgmvA5wwRN2GNigyu3SpSO",
          "width": 525
        }
      ],
      "place_id": "ChIJeZAh_hZawokRxpJQ_v2im50",
      "plus_code": {
        "compound_code": "PX4R+Q3 New York, NY, USA",
        "global_code": "87G7PX4R+Q3"
      },
      "reference": "ChIJeZAh_hZawokRxpJQ_v2im50",
      "scope": "GOOGLE",
      "types": [
        "finance",
        "point_of_interest",
        "establishment"
      ],
      "vicinity": "Trump Building, 40 Wall Street, New York"
    }
  ],
  "status": "OK"
}