{
  "html_attributions": [],
  "results": [
    {
      "geometry": {
        "location": {
          "lat": 40.7127753,
          "lng": -74.0059728
        },
        "viewport": {
          "northeast": {
            "lat": 40.91757705070789,
            "lng": -73.70027206817629
          },
          "southwest": {
            "lat": 40.47739906045452,
            "lng": -74.25908991427882
          }
        }
      },
      "icon": "https://maps.gstatic.com/mapfiles/place_api/icons/v1/png_71/geocode-71.png",
      "icon_background_color": "#7B9EB0",
      "icon_mask_base_uri": "https://maps.gstatic.com/mapfiles/place_api/icons/v2/generic_pinlet",
      "name": "\u7d10\u7d04",
      "photos": [
        {
          "height": 600,
          "html_attributions": [
            "<a href=\"https://maps.google.com/maps/contrib/102389334567210814614\">Bukurie</a>"
          ],
          "photo_reference": "AeJbb3cUgxmxnVN-_tkeNxk7cCaqN-Gqjrrf8gxDYtgdUDIJ5ORmIE1hiA7zRtSIRgxJsYDCHdUEhQqL8qw-CtD2g6ZFL1PLicLW4IyZ5xp1sydMZAH2CWWGzmdIK3lYATbzKcUvUNZGijVekeYkHzvLcJUZqcWr-OD1kHt9Aq2ZVkdsJqI-",
          "width": 480
        }
      ],
      "place_id": "ChIJOwg_06VPwokRYv534QaPC8g",
      "reference": "ChIJOwg_06VPwokRYv534QaPC8g",
      "scope": "GOOGLE",
      "types": [
        "locality",
        "political"
      ],
      "vicinity": "\u7d10\u7d04"
    },
    {
      "business_status": "OPERATIONAL",
      "geometry": {
        "location": {
          "lat": 40.8174218,
          "lng": -73.92720729999999
        },
        "viewport": {
          "northeast": {
            "lat": 40.8192605302915,
            "lng": -73.92613521970848
          },
          "southwest": {
            "lat": 40.8165625697085,
            "lng": -73.92883318029149
          }
        }
      },
      "icon": "https://maps.gstatic.com/mapfiles/place_api/icons/v1/png_71/school-71.png",
      "icon_background_color": "#7B9EB0",
      "icon_mask_base_uri": "https://maps.gstatic.com/mapfiles/place_api/icons/v2/school_pinlet",
      "name": "Hostos Community College",
      "opening_hours": {
        "open_now": true
      },
      "photos": [
        {
          "height": 1080,
          "html_attributions": [
            "<a href=\"https://maps.google.com/maps/contrib/110211705390897249088\">Hostos Community College</a>"
          ],
          "photo_reference": "AeJbb3dw1HGtntd3MoeTftLLA2Ox9EWIlimsdzl4-0lYSfMgrj1RhXNRi7oz8ILpNMVhebeKBNgTXhPORxcHsmhOkxP3AEPlKs8e0FnU3SDxLXH2rcG0wEWNE9s7JDbgrxELlP6ZZeZDstGiW8LCSh_k_cGpuZiIYnNopEJeDY8ZvSjwjXuI",
          "width": 1920
        }
      ],
      "place_id": "ChIJ49l0jdD1wokRlJ4NQN2UVJE",
      "plus_code": {
        "compound_code": "R38F+X4 \u7f8e\u570b\u7d10\u7d04",
        "global_code": "87G8R38F+X4"
      },
      "rating": 4,
      "reference": "ChIJ49l0jdD1wokRlJ4NQN2UVJE",
      "scope": "GOOGLE",
      "types": [
        "university",
        "point_of_interest",
        "establishment"
      ],
      "user_ratings_total": 225,
      "vicinity": "500 Grand Concourse, The Bronx"
    },
    {
      "business_status": "OPERATIONAL",
      "geometry": {
        "location": {
          "lat": 40.816112,
          "lng": -73.9247757
        },
        "viewport": {
          "northeast": {
            "lat": 40.8186809,
            "lng": -73.92249490000002
          },
          "southwest": {
            "lat": 40.81469449999998,
            "lng": -73.92576209999997
          }
        }
      },
      "icon": "https://maps.gstatic.com/mapfiles/place_api/icons/v1/png_71/hospital-71.png",
      "icon_background_color": "#F88181",
      "icon_mask_base_uri": "https://maps.gstatic.com/mapfiles/place_api/icons/v2/hospital-H_pinlet",
      "name": "Lincoln Medical Center",
      "opening_hours": {
        "open_now": true
      },
      "photos": [
        {
          "height": 4000,
          "html_attributions": [
            "<a href=\"https://maps.google.com/maps/contrib/103902073171360095728\">Abdul-Mumin Sanni-Adam</a>"
          ],
          "photo_reference": "AeJbb3e_xxMpjGAu4dFIkZEI1FHMFjM5rx4jUBl5lbkkobHC-J-hssX_BUoYEtSRhpX4GGgBCGeBpLPmVIp3UZczXKWd6ixobqDLtBynAQCmg9J26Rx5EPslw6r54g7BE7HOdpTb1xDd-ahla2vbqyOYkyZklpYwBn5SpfvfQrxPKQHnB8f6",
          "width": 3000
        }
      ],
      "place_id": "ChIJ56F418_1wokRMwWHcUO188E",
      "plus_code": {
        "compound_code": "R38G+C3 \u7f8e\u570b\u7d10\u7d04",
        "global_code": "87G8R38G+C3"
      },
      "rating": 2.6,
      "reference": "ChIJ56F418_1wokRMwWHcUO188E",
      "scope": "GOOGLE",
      "types": [
        "hospital",
        "point_of_interest",
        "health",
        "establishment"
      ],
      "user_ratings_total": 684,
      "vicinity": "234 East 149th Street, The Bronx"
    },
    {
      "business_status": "OPERATIONAL",
      "geometry": {
        "location": {
          "lat": 40.817374,
          "lng": -73.9240962
        },
        "viewport": {
          "northeast": {
            "lat": 40.8185190302915,
            "lng": -73.9223364197085
          },
          "southwest": {
            "lat": 40.81582106970851,
            "lng": -73.9250343802915
          }
        }
      },
      "icon": "https://maps.gstatic.com/mapfiles/place_api/icons/v1/png_71/generic_business-71.png",
      "icon_background_color": "#7B9EB0",
      "icon_mask_base_uri": "https://maps.gstatic.com/mapfiles/place_api/icons/v2/generic_pinlet",
      "name": "Dr. Francisco J. Gonzalez-Franco, MD",
      "place_id": "ChIJ56F418_1wokRYhxifUTsT_A",
      "plus_code": {
        "compound_code": "R38G+W9 \u7f8e\u570b\u7d10\u7d04\u5e03\u6717\u514b\u65af",
        "global_code": "87G8R38G+W9"
      },
      "reference": "ChIJ56F418_1wokRYhxifUTsT_A",
      "scope": "GOOGLE",
      "types": [
        "doctor",
        "point_of_interest",
        "health",
        "establishment"
      ],
      "vicinity": "234 East 149th Street, The Bronx"
    },
    {
      "business_status": "OPERATIONAL",
      "geometry": {
        "location": {
          "lat": 40.817374,
          "lng": -73.9240962
        },
        "viewport": {
          "northeast": {
            "lat": 40.8185190302915,
            "lng": -73.9223364197085
          },
          "southwest": {
            "lat": 40.81582106970851,
            "lng": -73.9250343802915
          }
        }
      },
      "icon": "https://maps.gstatic.com/mapfiles/place_api/icons/v1/png_71/generic_business-71.png",
      "icon_background_color": "#7B9EB0",
      "icon_mask_base_uri": "https://maps.gstatic.com/mapfiles/place_api/icons/v2/generic_pinlet",
      "name": "Trakht Asya MD",
      "place_id": "ChIJ56F418_1wokRGGljpJJMOsI",
      "plus_code": {
        "compound_code": "R38G+W9 \u7f8e\u570b\u7d10\u7d04\u5e03\u6717\u514b\u65af",
        "global_code": "87G8R38G+W9"
      },
      "reference": "ChIJ56F418_1wokRGGljpJJMOsI",
      "scope": "GOOGLE",
      "types": [
        "doctor",
        "point_of_interest",
        "health",
        "establishment"
      ],
      "vicinity": "234 East 149th Street, The Bronx"
    },
    {
      "business_status": "OPERATIONAL",
      "geometry": {
        "location": {
          "lat": 40.817374,
          "lng": -73.9240962
        },
        "viewport": {
          "northeast": {
            "lat": 40.8185190302915,
            "lng": -73.9223364197085
          },
          "southwest": {
            "lat": 40.81582106970851,
            "lng": -73.9250343802915
          }
        }
      },
      "icon": "https://maps.gstatic.com/mapfiles/place_api/icons/v1/png_71/generic_business-71.png",
      "icon_background_color": "#7B9EB0",
      "icon_mask_base_uri": "https://maps.gstatic.com/mapfiles/place_api/icons/v2/generic_pinlet",
      "name": "Lincoln Medical & Mental Health: Parry Thomas H MD",
      "place_id": "ChIJ56F418_1wokRU5uVAsX0Gy0",
      "plus_code": {
        "compound_code": "R38G+W9 \u7f8e\u570b\u7d10\u7d04\u5e03\u6717\u514b\u65af",
        "global_code": "87G8R38G+W9"
      },
      "reference": "ChIJ56F418_1wokRU5uVAsX0Gy0",
      "scope": "GOOGLE",
      "types": [
        "point_of_interest",
        "doctor",
        "health",
        "establishment"
      ],
      "vicinity": "234 East 149th Street, The Bronx"
    },
    {
      "business_status": "OPERATIONAL",
      "geometry": {
        "location": {
          "lat": 40.817374,
          "lng": -73.9240962
        },
        "viewport": {
          "northeast": {
            "lat": 40.8185190302915,
            "lng": -73.9223364197085
          },
          "southwest": {
            "lat": 40.81582106970851,
            "lng": -73.9250343802915
          }
        }
      },
      "icon": "https://maps.gstatic.com/mapfiles/place_api/icons/v1/png_71/generic_business-71.png",
      "icon_background_color": "#7B9EB0",
      "icon_mask_base_uri": "https://maps.gstatic.com/mapfiles/place_api/icons/v2/generic_pinlet",
      "name": "Dr. Sindhaghatta K. Venkatram, MD",
      "place_id": "ChIJ56F418_1wokRHWcy5kcmUGE",
      "plus_code": {
        "compound_code": "R38G+W9 \u7f8e\u570b\u7d10\u7d04\u5e03\u6717\u514b\u65af",
        "global_code": "87G8R38G+W9"
      },
      "reference": "ChIJ56F418_1wokRHWcy5kcmUGE",
      "scope": "GOOGLE",
      "types": [
        "doctor",
        "point_of_interest",
        "health",
        "establishment"
      ],
      "vicinity": "234 East 149th Street, The Bronx"
    },
    {
      "business_status": "OPERATIONAL",
      "geometry": {
        "location": {
          "lat": 40.817374,
          "lng": -73.9240962
        },
        "viewport": {
          "northeast": {
            "lat": 40.8185190302915,
            "lng": -73.9223364197085
          },
          "southwest": {
            "lat": 40.81582106970851,
            "lng": -73.9250343802915
          }
        }
      },
      "icon": "https://maps.gstatic.com/mapfiles/place_api/icons/v1/png_71/generic_business-71.png",
      "icon_background_color": "#7B9EB0",
      "icon_mask_base_uri": "https://maps.gstatic.com/mapfiles/place_api/icons/v2/generic_pinlet",
      "name": "Josephson Elaine B MD",
      "place_id": "ChIJ56F418_1wokRzRS1NoKFmQM",
      "plus_code": {
        "compound_code": "R38G+W9 \u7f8e\u570b\u7d10\u7d04\u5e03\u6717\u514b\u65af",
        "global_code": "87G8R38G+W9"
      },
      "reference": "ChIJ56F418_1wokRzRS1NoKFmQM",
      "scope": "GOOGLE",
      "types": [
        "doctor",
        "point_of_interest",
        "health",
        "establishment"
      ],
      "vicinity": "234 East 149th Street, The Bronx"
    },
    {
      "business_status": "OPERATIONAL",
      "geometry": {
        "location": {
          "lat": 40.817374,
          "lng": -73.9240962
        },
        "viewport": {
          "northeast": {
            "lat": 40.8185190302915,
            "lng": -73.9223364197085
          },
          "southwest": {
            "lat": 40.81582106970851,
            "lng": -73.9250343802915
          }
        }
      },
      "icon": "https://maps.gstatic.com/mapfiles/place_api/icons/v1/png_71/generic_business-71.png",
      "icon_background_color": "#7B9EB0",
      "icon_mask_base_uri": "https://maps.gstatic.com/mapfiles/place_api/icons/v2/generic_pinlet",
      "name": "Dr. Nirmala Kanna, MD",
      "place_id": "ChIJ56F418_1wokRxwsjn71gT4I",
      "plus_code": {
        "compound_code": "R38G+W9 \u7f8e\u570b\u7d10\u7d04\u5e03\u6717\u514b\u65af",
        "global_code": "87G8R38G+W9"
      },
      "reference": "ChIJ56F418_1wokRxwsjn71gT4I",
      "scope": "GOOGLE",
      "types": [
        "point_of_interest",
        "doctor",
        "health",
        "establishment"
      ],
      "vicinity": "234 East 149th Street, The Bronx"
    },
    {
      "business_status": "OPERATIONAL",
      "geometry": {
        "location": {
          "lat": 40.817374,
          "lng": -73.9240962
        },
        "viewport": {
          "northeast": {
            "lat": 40.8185190302915,
            "lng": -73.9223364197085
          },
          "southwest": {
            "lat": 40.81582106970851,
            "lng": -73.9250343802915
          }
        }
      },
      "icon": "https://maps.gstatic.com/mapfiles/place_api/icons/v1/png_71/generic_business-71.png",
      "icon_background_color": "#7B9EB0",
      "icon_mask_base_uri": "https://maps.gstatic.com/mapfiles/place_api/icons/v2/generic_pinlet",
      "name": "Lincoln Medical & Mental Health: Celentano James MD",
      "place_id": "ChIJ56F418_1wokR4PwHgFPeqJk",
      "plus_code": {
        "compound_code": "R38G+W9 \u7f8e\u570b\u7d10\u7d04\u5e03\u6717\u514b\u65af",
        "global_code": "87G8R38G+W9"
      },
      "reference": "ChIJ56F418_1wokR4PwHgFPeqJk",
      "scope": "GOOGLE",
      "types": [
        "doctor",
        "point_of_interest",
        "health",
        "establishment"
      ],
      "vicinity": "234 East 149th Street, The Bronx"
    },
    {
      "business_status": "OPERATIONAL",
      "geometry": {
        "location": {
          "lat": 40.817374,
          "lng": -73.9240962
        },
        "viewport": {
          "northeast": {
            "lat": 40.8185190302915,
            "lng": -73.9223364197085
          },
          "southwest": {
            "lat": 40.81582106970851,
            "lng": -73.9250343802915
          }
        }
      },
      "icon": "https://maps.gstatic.com/mapfiles/place_api/icons/v1/png_71/generic_business-71.png",
      "icon_background_color": "#7B9EB0",
      "icon_mask_base_uri": "https://maps.gstatic.com/mapfiles/place_api/icons/v2/generic_pinlet",
      "name": "Dr. Ramnath D. Kapoor, MD",
      "place_id": "ChIJ56F418_1wokR8SfBg9mUFVk",
      "plus_code": {
        "compound_code": "R38G+W9 \u7f8e\u570b\u7d10\u7d04\u5e03\u6717\u514b\u65af",
        "global_code": "87G8R38G+W9"
      },
      "reference": "ChIJ56F418_1wokR8SfBg9mUFVk",
      "scope": "GOOGLE",
      "types": [
        "point_of_interest",
        "doctor",
        "health",
        "establishment"
      ],
      "vicinity": "234 East 149th Street, The Bronx"
    },
    {
      "business_status": "OPERATIONAL",
      "geometry": {
        "location": {
          "lat": 40.817374,
          "lng": -73.9240962
        },
        "viewport": {
          "northeast": {
            "lat": 40.8185190302915,
            "lng": -73.9223364197085
          },
          "southwest": {
            "lat": 40.81582106970851,
            "lng": -73.9250343802915
          }
        }
      },
      "icon": "https://maps.gstatic.com/mapfiles/place_api/icons/v1/png_71/generic_business-71.png",
      "icon_background_color": "#7B9EB0",
      "icon_mask_base_uri": "https://maps.gstatic.com/mapfiles/place_api/icons/v2/generic_pinlet",
      "name": "Narayanan Sivasubrama MD",
      "place_id": "ChIJ56F418_1wokR-KUM4FzutEI",
      "plus_code": {
        "compound_code": "R38G+W9 \u7f8e\u570b\u7d10\u7d04\u5e03\u6717\u514b\u65af",
        "global_code": "87G8R38G+W9"
      },
      "reference": "ChIJ56F418_1wokR-KUM4FzutEI",
      "scope": "GOOGLE",
      "types": [
        "doctor",
        "point_of_interest",
        "health",
        "establishment"
      ],
      "vicinity": "234 East 149th Street, The Bronx"
    },
    {
      "business_status": "OPERATIONAL",
      "geometry": {
        "location": {
          "lat": 40.817374,
          "lng": -73.9240962
        },
        "viewport": {
          "northeast": {
            "lat": 40.8185190302915,
            "lng": -73.9223364197085
          },
          "southwest": {
            "lat": 40.81582106970851,
            "lng": -73.9250343802915
          }
        }
      },
      "icon": "https://maps.gstatic.com/mapfiles/place_api/icons/v1/png_71/generic_business-71.png",
      "icon_background_color": "#7B9EB0",
      "icon_mask_base_uri": "https://maps.gstatic.com/mapfiles/place_api/icons/v2/generic_pinlet",
      "name": "Dr. Jean J. Cadet, MD",
      "place_id": "ChIJ56F418_1wokRthIBu8PM87o",
      "plus_code": {
        "compound_code": "R38G+W9 \u7f8e\u570b\u7d10\u7d04\u5e03\u6717\u514b\u65af",
        "global_code": "87G8R38G+W9"
      },
      "reference": "ChIJ56F418_1wokRthIBu8PM87o",
      "scope": "GOOGLE",
      "types": [
        "point_of_interest",
        "doctor",
        "health",
        "establishment"
      ],
      "vicinity": "234 East 149th Street, The Bronx"
    },
    {
      "business_status": "OPERATIONAL",
      "geometry": {
        "location": {
          "lat": 40.81734100000001,
          "lng": -73.92328119999999
        },
        "viewport": {
          "northeast": {
            "lat": 40.8185025302915,
            "lng": -73.92196496970848
          },
          "southwest": {
            "lat": 40.8158045697085,
            "lng": -73.9246629302915
          }
        }
      },
      "icon": "https://maps.gstatic.com/mapfiles/place_api/icons/v1/png_71/generic_business-71.png",
      "icon_background_color": "#7B9EB0",
      "icon_mask_base_uri": "https://maps.gstatic.com/mapfiles/place_api/icons/v2/generic_pinlet",
      "name": "G E Healthcare",
      "place_id": "ChIJ56F418_1wokRfgeiKEWXjD0",
      "plus_code": {
        "compound_code": "R38G+WM \u7f8e\u570b\u7d10\u7d04\u5e03\u6717\u514b\u65af",
        "global_code": "87G8R38G+WM"
      },
      "reference": "ChIJ56F418_1wokRfgeiKEWXjD0",
      "scope": "GOOGLE",
      "types": [
        "health",
        "point_of_interest",
        "establishment"
      ],
      "vicinity": "234 East 149th Street, The Bronx"
    },
    {
      "business_status": "OPERATIONAL",
      "geometry": {
        "location": {
          "lat": 40.817374,
          "lng": -73.9240962
        },
        "viewport": {
          "northeast": {
            "lat": 40.8184815802915,
            "lng": -73.92235351970848
          },
          "southwest": {
            "lat": 40.8157836197085,
            "lng": -73.9250514802915
          }
        }
      },
      "icon": "https://maps.gstatic.com/mapfiles/place_api/icons/v1/png_71/generic_business-71.png",
      "icon_background_color": "#7B9EB0",
      "icon_mask_base_uri": "https://maps.gstatic.com/mapfiles/place_api/icons/v2/generic_pinlet",
      "name": "Mitsianis Dimitra",
      "place_id": "ChIJN_F618_1wokRXYp5nxCy1t8",
      "plus_code": {
        "compound_code": "R38G+W9 \u7f8e\u570b\u7d10\u7d04\u5e03\u6717\u514b\u65af",
        "global_code": "87G8R38G+W9"
      },
      "reference": "ChIJN_F618_1wokRXYp5nxCy1t8",
      "scope": "GOOGLE",
      "types": [
        "doctor",
        "point_of_interest",
        "health",
        "establishment"
      ],
      "vicinity": "234 East 149th Street #14, The Bronx"
    },
    {
      "business_status": "OPERATIONAL",
      "geometry": {
        "location": {
          "lat": 40.81770379999999,
          "lng": -73.9240054
        },
        "viewport": {
          "northeast": {
            "lat": 40.8190400802915,
            "lng": -73.9226619697085
          },
          "southwest": {
            "lat": 40.8163421197085,
            "lng": -73.9253599302915
          }
        }
      },
      "icon": "https://maps.gstatic.com/mapfiles/place_api/icons/v1/png_71/generic_business-71.png",
      "icon_background_color": "#7B9EB0",
      "icon_mask_base_uri": "https://maps.gstatic.com/mapfiles/place_api/icons/v2/generic_pinlet",
      "name": "Generations Medical Services",
      "place_id": "ChIJN_F618_1wokRQ5C1qNHacxo",
      "plus_code": {
        "compound_code": "R39G+39 \u7f8e\u570b\u7d10\u7d04\u5e03\u6717\u514b\u65af",
        "global_code": "87G8R39G+39"
      },
      "reference": "ChIJN_F618_1wokRQ5C1qNHacxo",
      "scope": "GOOGLE",
      "types": [
        "point_of_interest",
        "health",
        "establishment"
      ],
      "vicinity": "234 E 149th St # 8D200, The Bronx"
    },
    {
      "business_status": "OPERATIONAL",
      "geometry": {
        "location": {
          "lat": 40.81192970000001,
          "lng": -73.9250977
        },
        "viewport": {
          "northeast": {
            "lat": 40.8131834802915,
            "lng": -73.92371371970849
          },
          "southwest": {
            "lat": 40.8104855197085,
            "lng": -73.9264116802915
          }
        }
      },
      "icon": "https://maps.gstatic.com/mapfiles/place_api/icons/v1/png_71/generic_business-71.png",
      "icon_background_color": "#7B9EB0",
      "icon_mask_base_uri": "https://maps.gstatic.com/mapfiles/place_api/icons/v2/generic_pinlet",
      "name": "Dr. Gabriel L. Dassa, DO",
      "photos": [
        {
          "height": 2560,
          "html_attributions": [
            "<a href=\"https://maps.google.com/maps/contrib/117894339928941250028\">Jose Lizardi</a>"
          ],
          "photo_reference": "AeJbb3eBcXtewLhl7YJSWZNCLV-yuryGZCt848GuSUXg1xz32__hVS0K2DN3ai1LSIYFe-lArbM-Z17f_1rOr4XJKqtIFRdY18ILcZAL0xEOyxg2rvl3oIGy0QI8cWhBgyrOJoEwDBvn5sBUtqQxq6bj07xGj36t1RPsnHcbZnAh4diGhnSd",
          "width": 1440
        }
      ],
      "place_id": "ChIJOULHRdv1wokRAUHCp6AXU3E",
      "plus_code": {
        "compound_code": "R36F+QX \u7f8e\u570b\u7d10\u7d04\u5e03\u6717\u514b\u65af",
        "global_code": "87G8R36F+QX"
      },
      "rating": 3,
      "reference": "ChIJOULHRdv1wokRAUHCp6AXU3E",
      "scope": "GOOGLE",
      "types": [
        "doctor",
        "point_of_interest",
        "health",
        "establishment"
      ],
      "user_ratings_total": 2,
      "vicinity": "2604 3rd Avenue, The Bronx"
    },
    {
      "business_status": "OPERATIONAL",
      "geometry": {
        "location": {
          "lat": 40.8103744,
          "lng": -73.9252934
        },
        "viewport": {
          "northeast": {
            "lat": 40.8116505302915,
            "lng": -73.9238073197085
          },
          "southwest": {
            "lat": 40.8089525697085,
            "lng": -73.92650528029151
          }
        }
      },
      "icon": "https://maps.gstatic.com/mapfiles/place_api/icons/v1/png_71/civic_building-71.png",
      "icon_background_color": "#7B9EB0",
      "icon_mask_base_uri": "https://maps.gstatic.com/mapfiles/place_api/icons/v2/civic-bldg_pinlet",
      "name": "New York City Police Department - 40th Precinct",
      "photos": [
        {
          "height": 4608,
          "html_attributions": [
            "<a href=\"https://maps.google.com/maps/contrib/108585025234485852384\">David Herszenson</a>"
          ],
          "photo_reference": "AeJbb3dr3kTGuUyGLK5QBEpmIZCmY2Z_ApQr34XsnWk9iYqTJG8_d4SV2Em6TNyFSPTH8MufWxyKiNoi09j3R1FMzh3t9dnK-GKF-2fd8fUHf2duWenlY9ApJaJyRFPG_8sD5ldwN2ztZ41kEizrY_xX9ltXV5Fd0qhpIxd1isJYyFygmYKT",
          "width": 3456
        }
      ],
      "place_id": "ChIJ_39nu9z1wokRpdoefx2Uv_Y",
      "plus_code": {
        "compound_code": "R36F+4V \u7f8e\u570b\u7d10\u7d04",
        "global_code": "87G8R36F+4V"
      },
      "rating": 2.8,
      "reference": "ChIJ_39nu9z1wokRpdoefx2Uv_Y",
      "scope": "GOOGLE",
      "types": [
        "police",
        "point_of_interest",
        "establishment"
      ],
      "user_ratings_total": 60,
      "vicinity": "257 Alexander Avenue, The Bronx"
    },
    {
      "business_status": "OPERATIONAL",
      "geometry": {
        "location": {
          "lat": 40.81444090000001,
          "lng": -73.91933829999999
        },
        "viewport": {
          "northeast": {
            "lat": 40.81573493029151,
            "lng": -73.91784951970848
          },
          "southwest": {
            "lat": 40.81303696970851,
            "lng": -73.9205474802915
          }
        }
      },
      "icon": "https://maps.gstatic.com/mapfiles/place_api/icons/v1/png_71/restaurant-71.png",
      "icon_background_color": "#FF9E67",
      "icon_mask_base_uri": "https://maps.gstatic.com/mapfiles/place_api/icons/v2/restaurant_pinlet",
      "name": "Papa John's Pizza",
      "opening_hours": {
        "open_now": true
      },
      "photos": [
        {
          "height": 2988,
          "html_attributions": [
            "<a href=\"https://maps.google.com/maps/contrib/105123153766062428893\">Jose Miranda</a>"
          ],
          "photo_reference": "AeJbb3dvCM5ytkEhJDcTuL49Bd0LRf8QnzPX3gxu0kRx7Wf7x2qptTgNWzviTruzjWAajhwjE2hpzqsvxxxLPG9uGg_Pll-j-8sBm2oiOl_KLxA3s8FnAHAtw3cNn3mbAK92mVW5ScFd0XDEsUbS14v6-hxVUzJolNUz9Dv8ZdK8TwiAkKsb",
          "width": 5312
        }
      ],
      "place_id": "ChIJqVNp7sX1wokR8fqArldlt4I",
      "plus_code": {
        "compound_code": "R37J+Q7 \u7f8e\u570b\u7d10\u7d04\u5e03\u6717\u514b\u65af",
        "global_code": "87G8R37J+Q7"
      },
      "price_level": 1,
      "rating": 3.2,
      "reference": "ChIJqVNp7sX1wokR8fqArldlt4I",
      "scope": "GOOGLE",
      "types": [
        "restaurant",
        "point_of_interest",
        "food",
        "establishment"
      ],
      "user_ratings_total": 267,
      "vicinity": "475 Willis Avenue, The Bronx"
    },
    {
      "geometry": {
        "location": {
          "lat": 40.8519547,
          "lng": -73.90070899999999
        },
        "viewport": {
          "northeast": {
            "lat": 40.91527805889627,
            "lng": -73.86840408623851
          },
          "southwest": {
            "lat": 40.79678004393696,
            "lng": -73.93340593816593
          }
        }
      },
      "icon": "https://maps.gstatic.com/mapfiles/place_api/icons/v1/png_71/geocode-71.png",
      "icon_background_color": "#7B9EB0",
      "icon_mask_base_uri": "https://maps.gstatic.com/mapfiles/place_api/icons/v2/generic_pinlet",
      "name": "West Bronx",
      "photos": [
        {
          "height": 1024,
          "html_attributions": [
            "<a href=\"https://maps.google.com/maps/contrib/113738462812435835913\">Alex Lin</a>"
          ],
          "photo_reference": "AeJbb3do1LqPZVsTNgXlytc_dkX3qay6Kq7m5YYAY24JixG347Pr2W7KULflDglAtVpCdMVvDqC7t9Y53dZ0urHoat_Y1vLryde8ghh0VcsVNjHQRURSGSanFmhcSdZjbEudpAB5jkzwsKQ6z_m8ZA2hMYzTLaN4kbTAOitA2pWJ-XB5_dwM",
          "width": 768
        }
      ],
      "place_id": "ChIJWdLZpnD0wokRgikpekRYd9o",
      "reference": "ChIJWdLZpnD0wokRgikpekRYd9o",
      "scope": "GOOGLE",
      "types": [
        "neighborhood",
        "political"
      ],
      "vicinity": "The Bronx"
    },
    {
      "business_status": "OPERATIONAL",
      "geometry": {
        "location": {
          "lat": 40.817374,
          "lng": -73.9240962
        },
        "viewport": {
          "northeast": {
            "lat": 40.8185190302915,
            "lng": -73.9223364197085
          },
          "southwest": {
            "lat": 40.81582106970851,
            "lng": -73.9250343802915
          }
        }
      },
      "icon": "https://maps.gstatic.com/mapfiles/place_api/icons/v1/png_71/generic_business-71.png",
      "icon_background_color": "#7B9EB0",
      "icon_mask_base_uri": "https://maps.gstatic.com/mapfiles/place_api/icons/v2/generic_pinlet",
      "name": "Dr. Harriet I. Jones, MD",
      "place_id": "ChIJ56F418_1wokR-gYzmfxDRUs",
      "plus_code": {
        "compound_code": "R38G+W9 The Bronx, NY, USA",
        "global_code": "87G8R38G+W9"
      },
      "reference": "ChIJ56F418_1wokR-gYzmfxDRUs",
      "scope": "GOOGLE",
      "types": [
        "doctor",
        "health",
        "point_of_interest",
        "establishment"
      ],
      "vicinity": "234 East 149th Street, The Bronx"
    },
    {
      "business_status": "OPERATIONAL",
      "geometry": {
        "location": {
          "lat": 40.817374,
          "lng": -73.9240962
        },
        "viewport": {
          "northeast": {
            "lat": 40.8185190302915,
            "lng": -73.9223364197085
          },
          "southwest": {
            "lat": 40.81582106970851,
            "lng": -73.9250343802915
          }
        }
      },
      "icon": "https://maps.gstatic.com/mapfiles/place_api/icons/v1/png_71/generic_business-71.png",
      "icon_background_color": "#7B9EB0",
      "icon_mask_base_uri": "https://maps.gstatic.com/mapfiles/place_api/icons/v2/generic_pinlet",
      "name": "Cole Helene a MD",
      "place_id": "ChIJ56F418_1wokRuWzqfsbrfQc",
      "plus_code": {
        "compound_code": "R38G+W9 The Bronx, NY, USA",
        "global_code": "87G8R38G+W9"
      },
      "reference": "ChIJ56F418_1wokRuWzqfsbrfQc",
      "scope": "GOOGLE",
      "types": [
        "doctor",
        "health",
        "point_of_interest",
        "establishment"
      ],
      "vicinity": "234 East 149th Street, The Bronx"
    },
    {
      "business_status": "OPERATIONAL",
      "geometry": {
        "location": {
          "lat": 40.817374,
          "lng": -73.9240962
        },
        "viewport": {
          "northeast": {
            "lat": 40.8185190302915,
            "lng": -73.9223364197085
          },
          "southwest": {
            "lat": 40.81582106970851,
            "lng": -73.9250343802915
          }
        }
      },
      "icon": "https://maps.gstatic.com/mapfiles/place_api/icons/v1/png_71/generic_business-71.png",
      "icon_background_color": "#7B9EB0",
      "icon_mask_base_uri": "https://maps.gstatic.com/mapfiles/place_api/icons/v2/generic_pinlet",
      "name": "Dr. Christian R. Gonzalez, MD",
      "place_id": "ChIJ56F418_1wokRRIiHHzNueM4",
      "plus_code": {
        "compound_code": "R38G+W9 The Bronx, NY, USA",
        "global_code": "87G8R38G+W9"
      },
      "reference": "ChIJ56F418_1wokRRIiHHzNueM4",
      "scope": "GOOGLE",
      "types": [
        "doctor",
        "health",
        "point_of_interest",
        "establishment"
      ],
      "vicinity": "234 East 149th Street, The Bronx"
    },
    {
      "business_status": "OPERATIONAL",
      "geometry": {
        "location": {
          "lat": 40.817374,
          "lng": -73.9240962
        },
        "viewport": {
          "northeast": {
            "lat": 40.8185190302915,
            "lng": -73.9223364197085
          },
          "southwest": {
            "lat": 40.81582106970851,
            "lng": -73.9250343802915
          }
        }
      },
      "icon": "https://maps.gstatic.com/mapfiles/place_api/icons/v1/png_71/generic_business-71.png",
      "icon_background_color": "#7B9EB0",
      "icon_mask_base_uri": "https://maps.gstatic.com/mapfiles/place_api/icons/v2/generic_pinlet",
      "name": "Rangsiyakul Subha MD",
      "place_id": "ChIJ56F418_1wokR3Uvl-N9x24I",
      "plus_code": {
        "compound_code": "R38G+W9 The Bronx, NY, USA",
        "global_code": "87G8R38G+W9"
      },
      "reference": "ChIJ56F418_1wokR3Uvl-N9x24I",
      "scope": "GOOGLE",
      "types": [
        "doctor",
        "health",
        "point_of_interest",
        "establishment"
      ],
      "vicinity": "234 East 149th Street, The Bronx"
    },
    {
      "business_status": "OPERATIONAL",
      "geometry": {
        "location": {
          "lat": 40.817374,
          "lng": -73.9240962
        },
        "viewport": {
          "northeast": {
            "lat": 40.8185190302915,
            "lng": -73.9223364197085
          },
          "southwest": {
            "lat": 40.81582106970851,
            "lng": -73.9250343802915
          }
        }
      },
      "icon": "https://maps.gstatic.com/mapfiles/place_api/icons/v1/png_71/generic_business-71.png",
      "icon_background_color": "#7B9EB0",
      "icon_mask_base_uri": "https://maps.gstatic.com/mapfiles/place_api/icons/v2/generic_pinlet",
      "name": "Dr. Abdul S. Mondul, MD",
      "place_id": "ChIJ56F418_1wokR68WkATZlhJ0",
      "plus_code": {
        "compound_code": "R38G+W9 The Bronx, NY, USA",
        "global_code": "87G8R38G+W9"
      },
      "reference": "ChIJ56F418_1wokR68WkATZlhJ0",
      "scope": "GOOGLE",
      "types": [
        "doctor",
        "health",
        "point_of_interest",
        "establishment"
      ],
      "vicinity": "234 East 149th Street, The Bronx"
    },
    {
      "business_status": "OPERATIONAL",
      "geometry": {
        "location": {
          "lat": 40.8136597,
          "lng": -73.9260025
        },
        "viewport": {
          "northeast": {
            "lat": 40.81491258029149,
            "lng": -73.92437736970851
          },
          "southwest": {
            "lat": 40.81221461970849,
            "lng": -73.92707533029152
          }
        }
      },
      "icon": "https://maps.gstatic.com/mapfiles/place_api/icons/v1/png_71/school-71.png",
      "icon_background_color": "#7B9EB0",
      "icon_mask_base_uri": "https://maps.gstatic.com/mapfiles/place_api/icons/v2/school_pinlet",
      "name": "Is 183 Paul Robeson School is Is 183 Paul Robeson School",
      "place_id": "ChIJNQ3k4dr1wokRlslsOLYH_V4",
      "plus_code": {
        "compound_code": "R37F+FH The Bronx, NY, USA",
        "global_code": "87G8R37F+FH"
      },
      "reference": "ChIJNQ3k4dr1wokRlslsOLYH_V4",
      "scope": "GOOGLE",
      "types": [
        "school",
        "point_of_interest",
        "establishment"
      ],
      "vicinity": "339 Morris Avenue, The Bronx"
    },
    {
      "business_status": "OPERATIONAL",
      "geometry": {
        "location": {
          "lat": 40.81689049999999,
          "lng": -73.9244406
        },
        "viewport": {
          "northeast": {
            "lat": 40.8182875302915,
            "lng": -73.92250861970848
          },
          "southwest": {
            "lat": 40.8155895697085,
            "lng": -73.9252065802915
          }
        }
      },
      "icon": "https://maps.gstatic.com/mapfiles/place_api/icons/v1/png_71/generic_business-71.png",
      "icon_background_color": "#7B9EB0",
      "icon_mask_base_uri": "https://maps.gstatic.com/mapfiles/place_api/icons/v2/generic_pinlet",
      "name": "Lincoln Hospital Pediatrics Department",
      "place_id": "ChIJ56F418_1wokRrfTZ1mfZN4g",
      "plus_code": {
        "compound_code": "R38G+Q6 The Bronx, NY, USA",
        "global_code": "87G8R38G+Q6"
      },
      "rating": 3,
      "reference": "ChIJ56F418_1wokRrfTZ1mfZN4g",
      "scope": "GOOGLE",
      "types": [
        "doctor",
        "health",
        "point_of_interest",
        "establishment"
      ],
      "user_ratings_total": 2,
      "vicinity": "234 East 149th Street, The Bronx"
    },
    {
      "business_status": "OPERATIONAL",
      "geometry": {
        "location": {
          "lat": 40.817374,
          "lng": -73.9240962
        },
        "viewport": {
          "northeast": {
            "lat": 40.8185190302915,
            "lng": -73.9223364197085
          },
          "southwest": {
            "lat": 40.81582106970851,
            "lng": -73.9250343802915
          }
        }
      },
      "icon": "https://maps.gstatic.com/mapfiles/place_api/icons/v1/png_71/generic_business-71.png",
      "icon_background_color": "#7B9EB0",
      "icon_mask_base_uri": "https://maps.gstatic.com/mapfiles/place_api/icons/v2/generic_pinlet",
      "name": "Pierre Antonio MD",
      "place_id": "ChIJ56F418_1wokRtBV7NIM3BPs",
      "plus_code": {
        "compound_code": "R38G+W9 The Bronx, NY, USA",
        "global_code": "87G8R38G+W9"
      },
      "reference": "ChIJ56F418_1wokRtBV7NIM3BPs",
      "scope": "GOOGLE",
      "types": [
        "doctor",
        "health",
        "point_of_interest",
        "establishment"
      ],
      "vicinity": "234 East 149th Street, The Bronx"
    },
    {
      "business_status": "OPERATIONAL",
      "geometry": {
        "location": {
          "lat": 40.8171495,
          "lng": -73.92421499999999
        },
        "viewport": {
          "northeast": {
            "lat": 40.8184067802915,
            "lng": -73.9223958197085
          },
          "southwest": {
            "lat": 40.8157088197085,
            "lng": -73.9250937802915
          }
        }
      },
      "icon": "https://maps.gstatic.com/mapfiles/place_api/icons/v1/png_71/generic_business-71.png",
      "icon_background_color": "#7B9EB0",
      "icon_mask_base_uri": "https://maps.gstatic.com/mapfiles/place_api/icons/v2/generic_pinlet",
      "name": "Prosper, Gerard, MD",
      "place_id": "ChIJ56F418_1wokR9mfDPs2fiLM",
      "plus_code": {
        "compound_code": "R38G+V8 The Bronx, NY, USA",
        "global_code": "87G8R38G+V8"
      },
      "rating": 5,
      "reference": "ChIJ56F418_1wokR9mfDPs2fiLM",
      "scope": "GOOGLE",
      "types": [
        "doctor",
        "health",
        "point_of_interest",
        "establishment"
      ],
      "user_ratings_total": 1,
      "vicinity": "234 East 149th Street, The Bronx"
    },
    {
      "business_status": "OPERATIONAL",
      "geometry": {
        "location": {
          "lat": 40.8160855,
          "lng": -73.9247762
        },
        "viewport": {
          "northeast": {
            "lat": 40.8172404302915,
            "lng": -73.9235230197085
          },
          "southwest": {
            "lat": 40.8145424697085,
            "lng": -73.9262209802915
          }
        }
      },
      "icon": "https://maps.gstatic.com/mapfiles/place_api/icons/v1/png_71/generic_business-71.png",
      "icon_background_color": "#7B9EB0",
      "icon_mask_base_uri": "https://maps.gstatic.com/mapfiles/place_api/icons/v2/generic_pinlet",
      "name": "GVS @ Lincoln Medical Center",
      "opening_hours": {
        "open_now": false
      },
      "place_id": "ChIJ56F418_1wokRxq12iAQpacQ",
      "plus_code": {
        "compound_code": "R38G+C3 New York, NY, USA",
        "global_code": "87G8R38G+C3"
      },
      "rating": 3.7,
      "reference": "ChIJ56F418_1wokRxq12iAQpacQ",
      "scope": "GOOGLE",
      "types": [
        "health",
        "point_of_interest",
        "store",
        "establishment"
      ],
      "user_ratings_total": 13,
      "vicinity": "234 East 149th Street RM 2-A3, The Bronx"
    },
    {
      "business_status": "OPERATIONAL",
      "geometry": {
        "location": {
          "lat": 40.8172575,
          "lng": -73.92328309999999
        },
        "viewport": {
          "northeast": {
            "lat": 40.8184607802915,
            "lng": -73.92196496970848
          },
          "southwest": {
            "lat": 40.8157628197085,
            "lng": -73.9246629302915
          }
        }
      },
      "icon": "https://maps.gstatic.com/mapfiles/place_api/icons/v1/png_71/hospital-71.png",
      "icon_background_color": "#F88181",
      "icon_mask_base_uri": "https://maps.gstatic.com/mapfiles/place_api/icons/v2/hospital-H_pinlet",
      "name": "Lincoln Hospital-Cardio Clinic",
      "place_id": "ChIJ56F418_1wokR9U8NZrQDhiA",
      "plus_code": {
        "compound_code": "R38G+WM The Bronx, NY, USA",
        "global_code": "87G8R38G+WM"
      },
      "rating": 3.3,
      "reference": "ChIJ56F418_1wokR9U8NZrQDhiA",
      "scope": "GOOGLE",
      "types": [
        "hospital",
        "health",
        "point_of_interest",
        "establishment"
      ],
      "user_ratings_total": 10,
      "vicinity": "234 East 149th Street, The Bronx"
    },
    {
      "business_status": "OPERATIONAL",
      "geometry": {
        "location": {
          "lat": 40.8160855,
          "lng": -73.9247762
        },
        "viewport": {
          "northeast": {
            "lat": 40.8178850302915,
            "lng": -73.92252380000001
          },
          "southwest": {
            "lat": 40.81518706970851,
            "lng": -73.92552699999999
          }
        }
      },
      "icon": "https://maps.gstatic.com/mapfiles/place_api/icons/v1/png_71/pharmacy-71.png",
      "icon_background_color": "#F88181",
      "icon_mask_base_uri": "https://maps.gstatic.com/mapfiles/place_api/icons/v2/pharmacy_pinlet",
      "name": "Michael G. Thomas, PharmD",
      "place_id": "ChIJ56F418_1wokR8PS3LC40IHQ",
      "plus_code": {
        "compound_code": "R38G+C3 The Bronx, NY, USA",
        "global_code": "87G8R38G+C3"
      },
      "reference": "ChIJ56F418_1wokR8PS3LC40IHQ",
      "scope": "GOOGLE",
      "types": [
        "pharmacy",
        "health",
        "point_of_interest",
        "store",
        "establishment"
      ],
      "vicinity": "The Bronx"
    },
    {
      "business_status": "OPERATIONAL",
      "geometry": {
        "location": {
          "lat": 40.8168904,
          "lng": -73.92444069999999
        },
        "viewport": {
          "northeast": {
            "lat": 40.8182874802915,
            "lng": -73.92250866970848
          },
          "southwest": {
            "lat": 40.8155895197085,
            "lng": -73.9252066302915
          }
        }
      },
      "icon": "https://maps.gstatic.com/mapfiles/place_api/icons/v1/png_71/generic_business-71.png",
      "icon_background_color": "#7B9EB0",
      "icon_mask_base_uri": "https://maps.gstatic.com/mapfiles/place_api/icons/v2/generic_pinlet",
      "name": "Cassandra M. Clay, PA",
      "place_id": "ChIJ56F418_1wokRGw5SZk3AsR0",
      "plus_code": {
        "compound_code": "R38G+Q6 The Bronx, NY, USA",
        "global_code": "87G8R38G+Q6"
      },
      "reference": "ChIJ56F418_1wokRGw5SZk3AsR0",
      "scope": "GOOGLE",
      "types": [
        "doctor",
        "health",
        "point_of_interest",
        "establishment"
      ],
      "vicinity": "234 East 149th Street, The Bronx"
    },
    {
      "business_status": "OPERATIONAL",
      "geometry": {
        "location": {
          "lat": 40.8168904,
          "lng": -73.92444069999999
        },
        "viewport": {
          "northeast": {
            "lat": 40.8182874802915,
            "lng": -73.92250866970848
          },
          "southwest": {
            "lat": 40.8155895197085,
            "lng": -73.9252066302915
          }
        }
      },
      "icon": "https://maps.gstatic.com/mapfiles/place_api/icons/v1/png_71/generic_business-71.png",
      "icon_background_color": "#7B9EB0",
      "icon_mask_base_uri": "https://maps.gstatic.com/mapfiles/place_api/icons/v2/generic_pinlet",
      "name": "Arlene K. Huey, PA",
      "place_id": "ChIJ56F418_1wokRcxgwvNcXJFM",
      "plus_code": {
        "compound_code": "R38G+Q6 The Bronx, NY, USA",
        "global_code": "87G8R38G+Q6"
      },
      "reference": "ChIJ56F418_1wokRcxgwvNcXJFM",
      "scope": "GOOGLE",
      "types": [
        "health",
        "point_of_interest",
        "establishment"
      ],
      "vicinity": "234 East 149th Street, The Bronx"
    },
    {
      "business_status": "OPERATIONAL",
      "geometry": {
        "location": {
          "lat": 40.8168904,
          "lng": -73.92444069999999
        },
        "viewport": {
          "northeast": {
            "lat": 40.8182874802915,
            "lng": -73.92250866970848
          },
          "southwest": {
            "lat": 40.8155895197085,
            "lng": -73.9252066302915
          }
        }
      },
      "icon": "https://maps.gstatic.com/mapfiles/place_api/icons/v1/png_71/generic_business-71.png",
      "icon_background_color": "#7B9EB0",
      "icon_mask_base_uri": "https://maps.gstatic.com/mapfiles/place_api/icons/v2/generic_pinlet",
      "name": "Rena Autar, OT",
      "place_id": "ChIJ56F418_1wokR1uC8GzCwOkA",
      "plus_code": {
        "compound_code": "R38G+Q6 The Bronx, NY, USA",
        "global_code": "87G8R38G+Q6"
      },
      "reference": "ChIJ56F418_1wokR1uC8GzCwOkA",
      "scope": "GOOGLE",
      "types": [
        "health",
        "point_of_interest",
        "establishment"
      ],
      "vicinity": "234 East 149th Street, The Bronx"
    },
    {
      "business_status": "OPERATIONAL",
      "geometry": {
        "location": {
          "lat": 40.8168904,
          "lng": -73.92444069999999
        },
        "viewport": {
          "northeast": {
            "lat": 40.8182874802915,
            "lng": -73.92250866970848
          },
          "southwest": {
            "lat": 40.8155895197085,
            "lng": -73.9252066302915
          }
        }
      },
      "icon": "https://maps.gstatic.com/mapfiles/place_api/icons/v1/png_71/generic_business-71.png",
      "icon_background_color": "#7B9EB0",
      "icon_mask_base_uri": "https://maps.gstatic.com/mapfiles/place_api/icons/v2/generic_pinlet",
      "name": "Eunice V. Mello, PA",
      "place_id": "ChIJ56F418_1wokRb_nzsnIJ6DE",
      "plus_code": {
        "compound_code": "R38G+Q6 The Bronx, NY, USA",
        "global_code": "87G8R38G+Q6"
      },
      "reference": "ChIJ56F418_1wokRb_nzsnIJ6DE",
      "scope": "GOOGLE",
      "types": [
        "health",
        "point_of_interest",
        "establishment"
      ],
      "vicinity": "234 East 149th Street, The Bronx"
    },
    {
      "business_status": "OPERATIONAL",
      "geometry": {
        "location": {
          "lat": 40.8168904,
          "lng": -73.92444069999999
        },
        "viewport": {
          "northeast": {
            "lat": 40.8182874802915,
            "lng": -73.92250866970848
          },
          "southwest": {
            "lat": 40.8155895197085,
            "lng": -73.9252066302915
          }
        }
      },
      "icon": "https://maps.gstatic.com/mapfiles/place_api/icons/v1/png_71/pharmacy-71.png",
      "icon_background_color": "#F88181",
      "icon_mask_base_uri": "https://maps.gstatic.com/mapfiles/place_api/icons/v2/pharmacy_pinlet",
      "name": "Hansook Han, RPh",
      "place_id": "ChIJ56F418_1wokRuX4Rsm9hs5s",
      "plus_code": {
        "compound_code": "R38G+Q6 The Bronx, NY, USA",
        "global_code": "87G8R38G+Q6"
      },
      "reference": "ChIJ56F418_1wokRuX4Rsm9hs5s",
      "scope": "GOOGLE",
      "types": [
        "pharmacy",
        "health",
        "point_of_interest",
        "store",
        "establishment"
      ],
      "vicinity": "234 East 149th Street, The Bronx"
    },
    {
      "business_status": "OPERATIONAL",
      "geometry": {
        "location": {
          "lat": 40.8168904,
          "lng": -73.92444069999999
        },
        "viewport": {
          "northeast": {
            "lat": 40.8182874802915,
            "lng": -73.92250866970848
          },
          "southwest": {
            "lat": 40.8155895197085,
            "lng": -73.9252066302915
          }
        }
      },
      "icon": "https://maps.gstatic.com/mapfiles/place_api/icons/v1/png_71/pharmacy-71.png",
      "icon_background_color": "#F88181",
      "icon_mask_base_uri": "https://maps.gstatic.com/mapfiles/place_api/icons/v2/pharmacy_pinlet",
      "name": "Sung H. Joe, RPh",
      "place_id": "ChIJ56F418_1wokRxElmz_qvlxw",
      "plus_code": {
        "compound_code": "R38G+Q6 The Bronx, NY, USA",
        "global_code": "87G8R38G+Q6"
      },
      "reference": "ChIJ56F418_1wokRxElmz_qvlxw",
      "scope": "GOOGLE",
      "types": [
        "pharmacy",
        "health",
        "point_of_interest",
        "store",
        "establishment"
      ],
      "vicinity": "234 East 149th Street, The Bronx"
    },
    {
      "business_status": "OPERATIONAL",
      "geometry": {
        "location": {
          "lat": 40.8168904,
          "lng": -73.92444069999999
        },
        "viewport": {
          "northeast": {
            "lat": 40.8182874802915,
            "lng": -73.92250866970848
          },
          "southwest": {
            "lat": 40.8155895197085,
            "lng": -73.9252066302915
          }
        }
      },
      "icon": "https://maps.gstatic.com/mapfiles/place_api/icons/v1/png_71/generic_business-71.png",
      "icon_background_color": "#7B9EB0",
      "icon_mask_base_uri": "https://maps.gstatic.com/mapfiles/place_api/icons/v2/generic_pinlet",
      "name": "Lisa C. Schwartz, MSW",
      "photos": [
        {
          "height": 640,
          "html_attributions": [
            "<a href=\"https://maps.google.com/maps/contrib/111839201158954212265\">Maggy Machocho</a>"
          ],
          "photo_reference": "AeJbb3ePLgPjx3HaUPoMePgEJB8gKprctOAhDy12L9KAUdGxgc-b6cnXriihfXIo2e-yfurDb2J5NZ6rfk9eLQ344cdGT1jjQ6YgcpmqmheL0yE8KIkkVn2-XLD5Hr9xJKf7xadjosbOIoww9XlL_w-oY0dveuYACDoE9NkwjwepNboBbDS4",
          "width": 640
        }
      ],
      "place_id": "ChIJ56F418_1wokRivKvFg9N_r0",
      "plus_code": {
        "compound_code": "R38G+Q6 The Bronx, NY, USA",
        "global_code": "87G8R38G+Q6"
      },
      "reference": "ChIJ56F418_1wokRivKvFg9N_r0",
      "scope": "GOOGLE",
      "types": [
        "point_of_interest",
        "establishment"
      ],
      "vicinity": "234 East 149th Street, The Bronx"
    },
    {
      "business_status": "OPERATIONAL",
      "geometry": {
        "location": {
          "lat": 40.8168904,
          "lng": -73.92444069999999
        },
        "viewport": {
          "northeast": {
            "lat": 40.8182874802915,
            "lng": -73.92250866970848
          },
          "southwest": {
            "lat": 40.8155895197085,
            "lng": -73.9252066302915
          }
        }
      },
      "icon": "https://maps.gstatic.com/mapfiles/place_api/icons/v1/png_71/generic_business-71.png",
      "icon_background_color": "#7B9EB0",
      "icon_mask_base_uri": "https://maps.gstatic.com/mapfiles/place_api/icons/v2/generic_pinlet",
      "name": "Tracey J. Saffer, Physician",
      "place_id": "ChIJ56F418_1wokRt6UsVRr-cuA",
      "plus_code": {
        "compound_code": "R38G+Q6 The Bronx, NY, USA",
        "global_code": "87G8R38G+Q6"
      },
      "reference": "ChIJ56F418_1wokRt6UsVRr-cuA",
      "scope": "GOOGLE",
      "types": [
        "doctor",
        "health",
        "point_of_interest",
        "establishment"
      ],
      "vicinity": "234 East 149th Street, The Bronx"
    },
    {
      "business_status": "OPERATIONAL",
      "geometry": {
        "location": {
          "lat": 40.817374,
          "lng": -73.9240962
        },
        "viewport": {
          "northeast": {
            "lat": 40.8185190302915,
            "lng": -73.9223364197085
          },
          "southwest": {
            "lat": 40.81582106970851,
            "lng": -73.9250343802915
          }
        }
      },
      "icon": "https://maps.gstatic.com/mapfiles/place_api/icons/v1/png_71/generic_business-71.png",
      "icon_background_color": "#7B9EB0",
      "icon_mask_base_uri": "https://maps.gstatic.com/mapfiles/place_api/icons/v2/generic_pinlet",
      "name": "Downtown Bronx Medical Assocs",
      "place_id": "ChIJ56F418_1wokRCGwMlqSzYjo",
      "plus_code": {
        "compound_code": "R38G+W9 The Bronx, NY, USA",
        "global_code": "87G8R38G+W9"
      },
      "reference": "ChIJ56F418_1wokRCGwMlqSzYjo",
      "scope": "GOOGLE",
      "types": [
        "health",
        "point_of_interest",
        "establishment"
      ],
      "vicinity": "234 East 149th Street, The Bronx"
    },
    {
      "business_status": "OPERATIONAL",
      "geometry": {
        "location": {
          "lat": 40.8168904,
          "lng": -73.92444069999999
        },
        "viewport": {
          "northeast": {
            "lat": 40.8182874802915,
            "lng": -73.92250866970848
          },
          "southwest": {
            "lat": 40.8155895197085,
            "lng": -73.9252066302915
          }
        }
      },
      "icon": "https://maps.gstatic.com/mapfiles/place_api/icons/v1/png_71/generic_business-71.png",
      "icon_background_color": "#7B9EB0",
      "icon_mask_base_uri": "https://maps.gstatic.com/mapfiles/place_api/icons/v2/generic_pinlet",
      "name": "Pegah Bardi, Physician",
      "place_id": "ChIJ56F418_1wokRB8i4a_eMFCs",
      "plus_code": {
        "compound_code": "R38G+Q6 The Bronx, NY, USA",
        "global_code": "87G8R38G+Q6"
      },
      "reference": "ChIJ56F418_1wokRB8i4a_eMFCs",
      "scope": "GOOGLE",
      "types": [
        "doctor",
        "health",
        "point_of_interest",
        "establishment"
      ],
      "vicinity": "234 East 149th Street, The Bronx"
    },
    {
      "business_status": "OPERATIONAL",
      "geometry": {
        "location": {
          "lat": 40.8168904,
          "lng": -73.92444069999999
        },
        "viewport": {
          "northeast": {
            "lat": 40.8182874802915,
            "lng": -73.92250866970848
          },
          "southwest": {
            "lat": 40.8155895197085,
            "lng": -73.9252066302915
          }
        }
      },
      "icon": "https://maps.gstatic.com/mapfiles/place_api/icons/v1/png_71/pharmacy-71.png",
      "icon_background_color": "#F88181",
      "icon_mask_base_uri": "https://maps.gstatic.com/mapfiles/place_api/icons/v2/pharmacy_pinlet",
      "name": "George Leo, RPh",
      "place_id": "ChIJ56F418_1wokRlPwCTfoNQ0o",
      "plus_code": {
        "compound_code": "R38G+Q6 The Bronx, NY, USA",
        "global_code": "87G8R38G+Q6"
      },
      "reference": "ChIJ56F418_1wokRlPwCTfoNQ0o",
      "scope": "GOOGLE",
      "types": [
        "pharmacy",
        "health",
        "store",
        "point_of_interest",
        "establishment"
      ],
      "vicinity": "234 East 149th Street, The Bronx"
    },
    {
      "business_status": "OPERATIONAL",
      "geometry": {
        "location": {
          "lat": 40.8168904,
          "lng": -73.92444069999999
        },
        "viewport": {
          "northeast": {
            "lat": 40.8182874802915,
            "lng": -73.92250866970848
          },
          "southwest": {
            "lat": 40.8155895197085,
            "lng": -73.9252066302915
          }
        }
      },
      "icon": "https://maps.gstatic.com/mapfiles/place_api/icons/v1/png_71/generic_business-71.png",
      "icon_background_color": "#7B9EB0",
      "icon_mask_base_uri": "https://maps.gstatic.com/mapfiles/place_api/icons/v2/generic_pinlet",
      "name": "Michaela Guiteau, PA",
      "place_id": "ChIJ56F418_1wokRsxXr949DeJY",
      "plus_code": {
        "compound_code": "R38G+Q6 The Bronx, NY, USA",
        "global_code": "87G8R38G+Q6"
      },
      "reference": "ChIJ56F418_1wokRsxXr949DeJY",
      "scope": "GOOGLE",
      "types": [
        "doctor",
        "health",
        "point_of_interest",
        "establishment"
      ],
      "vicinity": "234 East 149th Street, The Bronx"
    },
    {
      "business_status": "OPERATIONAL",
      "geometry": {
        "location": {
          "lat": 40.8168904,
          "lng": -73.92444069999999
        },
        "viewport": {
          "northeast": {
            "lat": 40.8182874802915,
            "lng": -73.92250866970848
          },
          "southwest": {
            "lat": 40.8155895197085,
            "lng": -73.9252066302915
          }
        }
      },
      "icon": "https://maps.gstatic.com/mapfiles/place_api/icons/v1/png_71/generic_business-71.png",
      "icon_background_color": "#7B9EB0",
      "icon_mask_base_uri": "https://maps.gstatic.com/mapfiles/place_api/icons/v2/generic_pinlet",
      "name": "Christina A. Persaud, RD",
      "place_id": "ChIJ56F418_1wokRVUH1pk0bx3E",
      "plus_code": {
        "compound_code": "R38G+Q6 The Bronx, NY, USA",
        "global_code": "87G8R38G+Q6"
      },
      "reference": "ChIJ56F418_1wokRVUH1pk0bx3E",
      "scope": "GOOGLE",
      "types": [
        "doctor",
        "health",
        "point_of_interest",
        "establishment"
      ],
      "vicinity": "234 East 149th Street, The Bronx"
    },
    {
      "business_status": "OPERATIONAL",
      "geometry": {
        "location": {
          "lat": 40.8168904,
          "lng": -73.92444069999999
        },
        "viewport": {
          "northeast": {
            "lat": 40.8182874802915,
            "lng": -73.92250866970848
          },
          "southwest": {
            "lat": 40.8155895197085,
            "lng": -73.9252066302915
          }
        }
      },
      "icon": "https://maps.gstatic.com/mapfiles/place_api/icons/v1/png_71/generic_business-71.png",
      "icon_background_color": "#7B9EB0",
      "icon_mask_base_uri": "https://maps.gstatic.com/mapfiles/place_api/icons/v2/generic_pinlet",
      "name": "Regina J. Bonillarodriguez, LMHC",
      "place_id": "ChIJ56F418_1wokRUrDrfbr0yD4",
      "plus_code": {
        "compound_code": "R38G+Q6 The Bronx, NY, USA",
        "global_code": "87G8R38G+Q6"
      },
      "reference": "ChIJ56F418_1wokRUrDrfbr0yD4",
      "scope": "GOOGLE",
      "types": [
        "doctor",
        "health",
        "point_of_interest",
        "establishment"
      ],
      "vicinity": "234 East 149th Street, The Bronx"
    },
    {
      "business_status": "OPERATIONAL",
      "geometry": {
        "location": {
          "lat": 40.8168904,
          "lng": -73.92444069999999
        },
        "viewport": {
          "northeast": {
            "lat": 40.8182874802915,
            "lng": -73.92250866970848
          },
          "southwest": {
            "lat": 40.8155895197085,
            "lng": -73.9252066302915
          }
        }
      },
      "icon": "https://maps.gstatic.com/mapfiles/place_api/icons/v1/png_71/pharmacy-71.png",
      "icon_background_color": "#F88181",
      "icon_mask_base_uri": "https://maps.gstatic.com/mapfiles/place_api/icons/v2/pharmacy_pinlet",
      "name": "Adeline R. Cheff, R",
      "place_id": "ChIJ56F418_1wokRRtx7I0kV7nc",
      "plus_code": {
        "compound_code": "R38G+Q6 The Bronx, NY, USA",
        "global_code": "87G8R38G+Q6"
      },
      "reference": "ChIJ56F418_1wokRRtx7I0kV7nc",
      "scope": "GOOGLE",
      "types": [
        "pharmacy",
        "health",
        "store",
        "point_of_interest",
        "establishment"
      ],
      "vicinity": "234 East 149th Street, The Bronx"
    },
    {
      "business_status": "OPERATIONAL",
      "geometry": {
        "location": {
          "lat": 40.817374,
          "lng": -73.9240962
        },
        "viewport": {
          "northeast": {
            "lat": 40.8185190302915,
            "lng": -73.9223364197085
          },
          "southwest": {
            "lat": 40.81582106970851,
            "lng": -73.9250343802915
          }
        }
      },
      "icon": "https://maps.gstatic.com/mapfiles/place_api/icons/v1/png_71/generic_business-71.png",
      "icon_background_color": "#7B9EB0",
      "icon_mask_base_uri": "https://maps.gstatic.com/mapfiles/place_api/icons/v2/generic_pinlet",
      "name": "Lincoln Medical & Mental Health: Shah Amish M MD",
      "place_id": "ChIJ56F418_1wokRv6vhJOlaejU",
      "plus_code": {
        "compound_code": "R38G+W9 The Bronx, NY, USA",
        "global_code": "87G8R38G+W9"
      },
      "reference": "ChIJ56F418_1wokRv6vhJOlaejU",
      "scope": "GOOGLE",
      "types": [
        "doctor",
        "health",
        "point_of_interest",
        "establishment"
      ],
      "vicinity": "234 East 149th Street, The Bronx"
    },
    {
      "business_status": "OPERATIONAL",
      "geometry": {
        "location": {
          "lat": 40.817374,
          "lng": -73.9240962
        },
        "viewport": {
          "northeast": {
            "lat": 40.8185190302915,
            "lng": -73.9223364197085
          },
          "southwest": {
            "lat": 40.81582106970851,
            "lng": -73.9250343802915
          }
        }
      },
      "icon": "https://maps.gstatic.com/mapfiles/place_api/icons/v1/png_71/generic_business-71.png",
      "icon_background_color": "#7B9EB0",
      "icon_mask_base_uri": "https://maps.gstatic.com/mapfiles/place_api/icons/v2/generic_pinlet",
      "name": "Dr. Marilyn P. Guerrero, MD",
      "place_id": "ChIJ56F418_1wokRKi9hcHspj40",
      "plus_code": {
        "compound_code": "R38G+W9 The Bronx, NY, USA",
        "global_code": "87G8R38G+W9"
      },
      "reference": "ChIJ56F418_1wokRKi9hcHspj40",
      "scope": "GOOGLE",
      "types": [
        "doctor",
        "health",
        "point_of_interest",
        "establishment"
      ],
      "vicinity": "234 East 149th Street, The Bronx"
    },
    {
      "business_status": "OPERATIONAL",
      "geometry": {
        "location": {
          "lat": 40.817374,
          "lng": -73.9240962
        },
        "viewport": {
          "northeast": {
            "lat": 40.8185190302915,
            "lng": -73.9223364197085
          },
          "southwest": {
            "lat": 40.81582106970851,
            "lng": -73.9250343802915
          }
        }
      },
      "icon": "https://maps.gstatic.com/mapfiles/place_api/icons/v1/png_71/generic_business-71.png",
      "icon_background_color": "#7B9EB0",
      "icon_mask_base_uri": "https://maps.gstatic.com/mapfiles/place_api/icons/v2/generic_pinlet",
      "name": "Dr. Katherine D. Schoyer, MD",
      "place_id": "ChIJ56F418_1wokRYEz-xr53-Iw",
      "plus_code": {
        "compound_code": "R38G+W9 The Bronx, NY, USA",
        "global_code": "87G8R38G+W9"
      },
      "reference": "ChIJ56F418_1wokRYEz-xr53-Iw",
      "scope": "GOOGLE",
      "types": [
        "doctor",
        "health",
        "point_of_interest",
        "establishment"
      ],
      "vicinity": "234 East 149th Street, The Bronx"
    },
    {
      "business_status": "OPERATIONAL",
      "geometry": {
        "location": {
          "lat": 40.817374,
          "lng": -73.9240962
        },
        "viewport": {
          "northeast": {
            "lat": 40.8185190302915,
            "lng": -73.9223364197085
          },
          "southwest": {
            "lat": 40.81582106970851,
            "lng": -73.9250343802915
          }
        }
      },
      "icon": "https://maps.gstatic.com/mapfiles/place_api/icons/v1/png_71/generic_business-71.png",
      "icon_background_color": "#7B9EB0",
      "icon_mask_base_uri": "https://maps.gstatic.com/mapfiles/place_api/icons/v2/generic_pinlet",
      "name": "Espejo Maria T MD",
      "place_id": "ChIJ56F418_1wokRzL26zx_PkAM",
      "plus_code": {
        "compound_code": "R38G+W9 The Bronx, NY, USA",
        "global_code": "87G8R38G+W9"
      },
      "reference": "ChIJ56F418_1wokRzL26zx_PkAM",
      "scope": "GOOGLE",
      "types": [
        "doctor",
        "health",
        "point_of_interest",
        "establishment"
      ],
      "vicinity": "234 East 149th Street, The Bronx"
    },
    {
      "business_status": "OPERATIONAL",
      "geometry": {
        "location": {
          "lat": 40.817374,
          "lng": -73.9240962
        },
        "viewport": {
          "northeast": {
            "lat": 40.8185190302915,
            "lng": -73.9223364197085
          },
          "southwest": {
            "lat": 40.81582106970851,
            "lng": -73.9250343802915
          }
        }
      },
      "icon": "https://maps.gstatic.com/mapfiles/place_api/icons/v1/png_71/pharmacy-71.png",
      "icon_background_color": "#F88181",
      "icon_mask_base_uri": "https://maps.gstatic.com/mapfiles/place_api/icons/v2/pharmacy_pinlet",
      "name": "Sini Thomas, RPh",
      "place_id": "ChIJMZ9418_1wokRnl3ceLxxu0w",
      "plus_code": {
        "compound_code": "R38G+W9 The Bronx, NY, USA",
        "global_code": "87G8R38G+W9"
      },
      "reference": "ChIJMZ9418_1wokRnl3ceLxxu0w",
      "scope": "GOOGLE",
      "types": [
        "pharmacy",
        "health",
        "store",
        "point_of_interest",
        "establishment"
      ],
      "vicinity": "234 East 149th Street, The Bronx"
    },
    {
      "business_status": "OPERATIONAL",
      "geometry": {
        "location": {
          "lat": 40.817374,
          "lng": -73.9240962
        },
        "viewport": {
          "northeast": {
            "lat": 40.8185190302915,
            "lng": -73.9223364197085
          },
          "southwest": {
            "lat": 40.81582106970851,
            "lng": -73.9250343802915
          }
        }
      },
      "icon": "https://maps.gstatic.com/mapfiles/place_api/icons/v1/png_71/generic_business-71.png",
      "icon_background_color": "#7B9EB0",
      "icon_mask_base_uri": "https://maps.gstatic.com/mapfiles/place_api/icons/v2/generic_pinlet",
      "name": "Dr. Rhodora P. Tolentino, MD",
      "place_id": "ChIJ56F418_1wokRyDiHpB1w8Qo",
      "plus_code": {
        "compound_code": "R38G+W9 The Bronx, NY, USA",
        "global_code": "87G8R38G+W9"
      },
      "reference": "ChIJ56F418_1wokRyDiHpB1w8Qo",
      "scope": "GOOGLE",
      "types": [
        "doctor",
        "health",
        "point_of_interest",
        "establishment"
      ],
      "vicinity": "234 East 149th Street, The Bronx"
    },
    {
      "business_status": "OPERATIONAL",
      "geometry": {
        "location": {
          "lat": 40.817374,
          "lng": -73.9240962
        },
        "viewport": {
          "northeast": {
            "lat": 40.8185190302915,
            "lng": -73.9223364197085
          },
          "southwest": {
            "lat": 40.81582106970851,
            "lng": -73.9250343802915
          }
        }
      },
      "icon": "https://maps.gstatic.com/mapfiles/place_api/icons/v1/png_71/generic_business-71.png",
      "icon_background_color": "#7B9EB0",
      "icon_mask_base_uri": "https://maps.gstatic.com/mapfiles/place_api/icons/v2/generic_pinlet",
      "name": "Wooding Thomas S",
      "place_id": "ChIJ56F418_1wokR1lenHCPn13o",
      "plus_code": {
        "compound_code": "R38G+W9 The Bronx, NY, USA",
        "global_code": "87G8R38G+W9"
      },
      "reference": "ChIJ56F418_1wokR1lenHCPn13o",
      "scope": "GOOGLE",
      "types": [
        "health",
        "point_of_interest",
        "establishment"
      ],
      "vicinity": "234 East 149th Street, The Bronx"
    },
    {
      "business_status": "OPERATIONAL",
      "geometry": {
        "location": {
          "lat": 40.817374,
          "lng": -73.9240962
        },
        "viewport": {
          "northeast": {
            "lat": 40.8185190302915,
            "lng": -73.9223364197085
          },
          "southwest": {
            "lat": 40.81582106970851,
            "lng": -73.9250343802915
          }
        }
      },
      "icon": "https://maps.gstatic.com/mapfiles/place_api/icons/v1/png_71/generic_business-71.png",
      "icon_background_color": "#7B9EB0",
      "icon_mask_base_uri": "https://maps.gstatic.com/mapfiles/place_api/icons/v2/generic_pinlet",
      "name": "Bateman Dina",
      "place_id": "ChIJ56F418_1wokR3CjqpfKZm7c",
      "plus_code": {
        "compound_code": "R38G+W9 The Bronx, NY, USA",
        "global_code": "87G8R38G+W9"
      },
      "reference": "ChIJ56F418_1wokR3CjqpfKZm7c",
      "scope": "GOOGLE",
      "types": [
        "point_of_interest",
        "establishment"
      ],
      "vicinity": "234 East 149th Street, The Bronx"
    },
    {
      "business_status": "OPERATIONAL",
      "geometry": {
        "location": {
          "lat": 40.817374,
          "lng": -73.9240962
        },
        "viewport": {
          "northeast": {
            "lat": 40.8185190302915,
            "lng": -73.9223364197085
          },
          "southwest": {
            "lat": 40.81582106970851,
            "lng": -73.9250343802915
          }
        }
      },
      "icon": "https://maps.gstatic.com/mapfiles/place_api/icons/v1/png_71/generic_business-71.png",
      "icon_background_color": "#7B9EB0",
      "icon_mask_base_uri": "https://maps.gstatic.com/mapfiles/place_api/icons/v2/generic_pinlet",
      "name": "Dr. Toni C. Butler, MD",
      "place_id": "ChIJ56F418_1wokRBM2NJWkseX0",
      "plus_code": {
        "compound_code": "R38G+W9 The Bronx, NY, USA",
        "global_code": "87G8R38G+W9"
      },
      "reference": "ChIJ56F418_1wokRBM2NJWkseX0",
      "scope": "GOOGLE",
      "types": [
        "doctor",
        "health",
        "point_of_interest",
        "establishment"
      ],
      "vicinity": "234 East 149th Street, The Bronx"
    },
    {
      "business_status": "OPERATIONAL",
      "geometry": {
        "location": {
          "lat": 40.817374,
          "lng": -73.9240962
        },
        "viewport": {
          "northeast": {
            "lat": 40.8185190302915,
            "lng": -73.9223364197085
          },
          "southwest": {
            "lat": 40.81582106970851,
            "lng": -73.9250343802915
          }
        }
      },
      "icon": "https://maps.gstatic.com/mapfiles/place_api/icons/v1/png_71/generic_business-71.png",
      "icon_background_color": "#7B9EB0",
      "icon_mask_base_uri": "https://maps.gstatic.com/mapfiles/place_api/icons/v2/generic_pinlet",
      "name": "Dr. Om P. Aggarwal, MD",
      "place_id": "ChIJ56F418_1wokRqeDM2V21WyE",
      "plus_code": {
        "compound_code": "R38G+W9 The Bronx, NY, USA",
        "global_code": "87G8R38G+W9"
      },
      "reference": "ChIJ56F418_1wokRqeDM2V21WyE",
      "scope": "GOOGLE",
      "types": [
        "doctor",
        "health",
        "point_of_interest",
        "establishment"
      ],
      "vicinity": "234 East 149th Street, The Bronx"
    },
    {
      "business_status": "OPERATIONAL",
      "geometry": {
        "location": {
          "lat": 40.817374,
          "lng": -73.9240962
        },
        "viewport": {
          "northeast": {
            "lat": 40.8185190302915,
            "lng": -73.9223364197085
          },
          "southwest": {
            "lat": 40.81582106970851,
            "lng": -73.9250343802915
          }
        }
      },
      "icon": "https://maps.gstatic.com/mapfiles/place_api/icons/v1/png_71/generic_business-71.png",
      "icon_background_color": "#7B9EB0",
      "icon_mask_base_uri": "https://maps.gstatic.com/mapfiles/place_api/icons/v2/generic_pinlet",
      "name": "Dr. Tarun K. Narang, MD",
      "place_id": "ChIJ56F418_1wokRf6KvTrxk7J8",
      "plus_code": {
        "compound_code": "R38G+W9 The Bronx, NY, USA",
        "global_code": "87G8R38G+W9"
      },
      "rating": 5,
      "reference": "ChIJ56F418_1wokRf6KvTrxk7J8",
      "scope": "GOOGLE",
      "types": [
        "doctor",
        "health",
        "point_of_interest",
        "establishment"
      ],
      "user_ratings_total": 1,
      "vicinity": "234 East 149th Street, The Bronx"
    },
    {
      "business_status": "OPERATIONAL",
      "geometry": {
        "location": {
          "lat": 40.817374,
          "lng": -73.9240962
        },
        "viewport": {
          "northeast": {
            "lat": 40.8185190302915,
            "lng": -73.9223364197085
          },
          "southwest": {
            "lat": 40.81582106970851,
            "lng": -73.9250343802915
          }
        }
      },
      "icon": "https://maps.gstatic.com/mapfiles/place_api/icons/v1/png_71/pharmacy-71.png",
      "icon_background_color": "#F88181",
      "icon_mask_base_uri": "https://maps.gstatic.com/mapfiles/place_api/icons/v2/pharmacy_pinlet",
      "name": "Thuyngoc Aaronson, PHD",
      "place_id": "ChIJ56F418_1wokRQmKmQzdZpTg",
      "plus_code": {
        "compound_code": "R38G+W9 The Bronx, NY, USA",
        "global_code": "87G8R38G+W9"
      },
      "reference": "ChIJ56F418_1wokRQmKmQzdZpTg",
      "scope": "GOOGLE",
      "types": [
        "pharmacy",
        "health",
        "store",
        "point_of_interest",
        "establishment"
      ],
      "vicinity": "234 East 149th Street, The Bronx"
    },
    {
      "business_status": "OPERATIONAL",
      "geometry": {
        "location": {
          "lat": 40.817374,
          "lng": -73.9240962
        },
        "viewport": {
          "northeast": {
            "lat": 40.8185190302915,
            "lng": -73.9223364197085
          },
          "southwest": {
            "lat": 40.81582106970851,
            "lng": -73.9250343802915
          }
        }
      },
      "icon": "https://maps.gstatic.com/mapfiles/place_api/icons/v1/png_71/generic_business-71.png",
      "icon_background_color": "#7B9EB0",
      "icon_mask_base_uri": "https://maps.gstatic.com/mapfiles/place_api/icons/v2/generic_pinlet",
      "name": "Sandra E. Runes, PhD",
      "place_id": "ChIJ56F418_1wokRr6oTO-_jJ6o",
      "plus_code": {
        "compound_code": "R38G+W9 The Bronx, NY, USA",
        "global_code": "87G8R38G+W9"
      },
      "reference": "ChIJ56F418_1wokRr6oTO-_jJ6o",
      "scope": "GOOGLE",
      "types": [
        "health",
        "point_of_interest",
        "establishment"
      ],
      "vicinity": "234 East 149th Street, The Bronx"
    }
  ],
  "status": "OK"
}