{
  "html_attributions": [],
  "results": [
    {
      "geometry": {
        "location": {
          "lat": 40.7127753,
          "lng": -74.0059728
        },
        "viewport": {
          "northeast": {
            "lat": 40.91757705070789,
            "lng": -73.70027206817629
          },
          "southwest": {
            "lat": 40.47739906045452,
            "lng": -74.25908991427882
          }
        }
      },
      "icon": "https://maps.gstatic.com/mapfiles/place_api/icons/v1/png_71/geocode-71.png",
      "icon_background_color": "#7B9EB0",
      "icon_mask_base_uri": "https://maps.gstatic.com/mapfiles/place_api/icons/v2/generic_pinlet",
      "name": "\u7d10\u7d04",
      "photos": [
        {
          "height": 600,
          "html_attributions": [
            "<a href=\"https://maps.google.com/maps/contrib/102389334567210814614\">Bukurie</a>"
          ],
          "photo_reference": "AeJbb3exugSy66Qt_bMGm1OBrw91Kom3lsGlRE6_pOSwT9CwV6RVF-o1XUG-_Mhs8-Eyiy-Z9pfYQIQbdB64BQPChzEpp9eyHcFPBLgazYYraon6OKFE1hHw6zGeUN0IRSWC-nhUSGuIktctiFf6mqXd1EefDXEgvpMpeBifW6qnkA-A2nzL",
          "width": 480
        }
      ],
      "place_id": "ChIJOwg_06VPwokRYv534QaPC8g",
      "reference": "ChIJOwg_06VPwokRYv534QaPC8g",
      "scope": "GOOGLE",
      "types": [
        "locality",
        "political"
      ],
      "vicinity": "\u7d10\u7d04"
    },
    {
      "business_status": "OPERATIONAL",
      "geometry": {
        "location": {
          "lat": 40.8174218,
          "lng": -73.92720729999999
        },
        "viewport": {
          "northeast": {
            "lat": 40.8192605302915,
            "lng": -73.92613521970848
          },
          "southwest": {
            "lat": 40.8165625697085,
            "lng": -73.92883318029149
          }
        }
      },
      "icon": "https://maps.gstatic.com/mapfiles/place_api/icons/v1/png_71/school-71.png",
      "icon_background_color": "#7B9EB0",
      "icon_mask_base_uri": "https://maps.gstatic.com/mapfiles/place_api/icons/v2/school_pinlet",
      "name": "Hostos Community College",
      "opening_hours": {
        "open_now": true
      },
      "photos": [
        {
          "height": 1080,
          "html_attributions": [
            "<a href=\"https://maps.google.com/maps/contrib/110211705390897249088\">Hostos Community College</a>"
          ],
          "photo_reference": "AeJbb3dRRWBSjswGnuKN2xeWeGFFnO6J6xkoMjapYCnzSU6_OcP-fzzrzqQOdmwVfBRb6_0sayiimc1i7n7mDgeqfAQSBp2g1aUOI74BjtgudPnizOAf6_gj2Ou1HDWfyxGsW97IO660G9uGHcd4-eifbNxcuOYitCG9Rh6wa2iPxKPYwGr9",
          "width": 1920
        }
      ],
      "place_id": "ChIJ49l0jdD1wokRlJ4NQN2UVJE",
      "plus_code": {
        "compound_code": "R38F+X4 \u7f8e\u570b\u7d10\u7d04",
        "global_code": "87G8R38F+X4"
      },
      "rating": 4,
      "reference": "ChIJ49l0jdD1wokRlJ4NQN2UVJE",
      "scope": "GOOGLE",
      "types": [
        "university",
        "point_of_interest",
        "establishment"
      ],
      "user_ratings_total": 225,
      "vicinity": "500 Grand Concourse, The Bronx"
    },
    {
      "business_status": "OPERATIONAL",
      "geometry": {
        "location": {
          "lat": 40.816112,
          "lng": -73.9247757
        },
        "viewport": {
          "northeast": {
            "lat": 40.8186809,
            "lng": -73.92249490000002
          },
          "southwest": {
            "lat": 40.81469449999998,
            "lng": -73.92576209999997
          }
        }
      },
      "icon": "https://maps.gstatic.com/mapfiles/place_api/icons/v1/png_71/hospital-71.png",
      "icon_background_color": "#F88181",
      "icon_mask_base_uri": "https://maps.gstatic.com/mapfiles/place_api/icons/v2/hospital-H_pinlet",
      "name": "Lincoln Medical Center",
      "opening_hours": {
        "open_now": true
      },
      "photos": [
        {
          "height": 4000,
          "html_attributions": [
            "<a href=\"https://maps.google.com/maps/contrib/103902073171360095728\">Abdul-Mumin Sanni-Adam</a>"
          ],
          "photo_reference": "AeJbb3eehEtgewjOphSB1EYdybNHoP_tkhs9bIiuexackCvxrjEqLaa8i9bd0kt2aOBI1Fr1rieoEzmM8iFGA-ADYss9ZdvpQLfEKMYKmFlK10WWx0-s_qXR-_2MU4E8eOui4y2rp2ogto6KN7y_LtVNrD9L8Q6nPdXHO_A1I68m_YJwRGK2",
          "width": 3000
        }
      ],
      "place_id": "ChIJ56F418_1wokRMwWHcUO188E",
      "plus_code": {
        "compound_code": "R38G+C3 \u7f8e\u570b\u7d10\u7d04",
        "global_code": "87G8R38G+C3"
      },
      "rating": 2.6,
      "reference": "ChIJ56F418_1wokRMwWHcUO188E",
      "scope": "GOOGLE",
      "types": [
        "hospital",
        "health",
        "point_of_interest",
        "establishment"
      ],
      "user_ratings_total": 684,
      "vicinity": "234 East 149th Street, The Bronx"
    },
    {
      "business_status": "OPERATIONAL",
      "geometry": {
        "location": {
          "lat": 40.8201728,
          "lng": -73.93019559999999
        },
        "viewport": {
          "northeast": {
            "lat": 40.82162548029149,
            "lng": -73.9289028197085
          },
          "southwest": {
            "lat": 40.8189275197085,
            "lng": -73.9316007802915
          }
        }
      },
      "icon": "https://maps.gstatic.com/mapfiles/place_api/icons/v1/png_71/generic_business-71.png",
      "icon_background_color": "#7B9EB0",
      "icon_mask_base_uri": "https://maps.gstatic.com/mapfiles/place_api/icons/v2/generic_pinlet",
      "name": "Geek Squad",
      "opening_hours": {
        "open_now": true
      },
      "photos": [
        {
          "height": 2322,
          "html_attributions": [
            "<a href=\"https://maps.google.com/maps/contrib/118095068066906826218\">Jennifer Perez</a>"
          ],
          "photo_reference": "AeJbb3cfWmAMlgNwp8wNwLMU4dJrCoMqpZ35wOSB1tXgnmMDVYGGrZgk9Ex8LF2lp1FJTdvRhKzo1nCryd_JJOU35JVD9QivftXmlupr5HTvlpkq2wPRQzBA6TlFe_8xS4NnJBS_tCgJjMHfHX6kwE7NDqz-37OEbZQSB9BRG1LwOg6JfNAr",
          "width": 4128
        }
      ],
      "place_id": "ChIJRQnIrNb1wokRAzN1Jv2S5Oo",
      "plus_code": {
        "compound_code": "R3C9+3W \u7f8e\u570b\u7d10\u7d04",
        "global_code": "87G8R3C9+3W"
      },
      "price_level": 2,
      "rating": 3.7,
      "reference": "ChIJRQnIrNb1wokRAzN1Jv2S5Oo",
      "scope": "GOOGLE",
      "types": [
        "point_of_interest",
        "establishment"
      ],
      "user_ratings_total": 50,
      "vicinity": "610 Exterior Street, The Bronx"
    },
    {
      "business_status": "OPERATIONAL",
      "geometry": {
        "location": {
          "lat": 40.8201728,
          "lng": -73.93019559999999
        },
        "viewport": {
          "northeast": {
            "lat": 40.82162548029149,
            "lng": -73.9289028197085
          },
          "southwest": {
            "lat": 40.8189275197085,
            "lng": -73.9316007802915
          }
        }
      },
      "icon": "https://maps.gstatic.com/mapfiles/place_api/icons/v1/png_71/shopping-71.png",
      "icon_background_color": "#4B96F3",
      "icon_mask_base_uri": "https://maps.gstatic.com/mapfiles/place_api/icons/v2/shopping_pinlet",
      "name": "Best Buy",
      "opening_hours": {
        "open_now": true
      },
      "photos": [
        {
          "height": 640,
          "html_attributions": [
            "<a href=\"https://maps.google.com/maps/contrib/111719219215411994893\">Hecatonic</a>"
          ],
          "photo_reference": "AeJbb3eVMgxbPJA-jvMUHQ74RJfszZtYKcQ6RkTiB7W8GqjXoXEX2kdheUS_4GpJR5wLhthvDoWUvqLd93XpvdEGuidXZXgIOpWCDk_iK9a1AwOkqGhllFCIdc76PLpyeYLAHcV0QYfXE_8quB-QABhcZyuawloJYCnfywlo9ASgywC1rU5V",
          "width": 1000
        }
      ],
      "place_id": "ChIJRQnIrNb1wokR30LCUcS0w54",
      "plus_code": {
        "compound_code": "R3C9+3W \u7f8e\u570b\u7d10\u7d04",
        "global_code": "87G8R3C9+3W"
      },
      "price_level": 2,
      "rating": 4.2,
      "reference": "ChIJRQnIrNb1wokR30LCUcS0w54",
      "scope": "GOOGLE",
      "types": [
        "electronics_store",
        "home_goods_store",
        "store",
        "point_of_interest",
        "establishment"
      ],
      "user_ratings_total": 3853,
      "vicinity": "610 Exterior Street, The Bronx"
    },
    {
      "business_status": "OPERATIONAL",
      "geometry": {
        "location": {
          "lat": 40.819558,
          "lng": -73.928313
        },
        "viewport": {
          "northeast": {
            "lat": 40.8209042802915,
            "lng": -73.9268481697085
          },
          "southwest": {
            "lat": 40.8182063197085,
            "lng": -73.92954613029151
          }
        }
      },
      "icon": "https://maps.gstatic.com/mapfiles/place_api/icons/v1/png_71/generic_business-71.png",
      "icon_background_color": "#13B5C7",
      "icon_mask_base_uri": "https://maps.gstatic.com/mapfiles/place_api/icons/v2/generic_pinlet",
      "name": "Pregones/PRTT",
      "photos": [
        {
          "height": 3036,
          "html_attributions": [
            "<a href=\"https://maps.google.com/maps/contrib/115897686072186732981\">Alvester Garnett</a>"
          ],
          "photo_reference": "AeJbb3fBxUdlMq5iKXPZeGw0U19U2KW-VqLQTGYLdW4KbPmkLTJ_XC6TDROdK-_SPQRT8bjeCMYzT-JHcKxp4sqK8XIg-mVA4pskiOwlLa04CaoVGC8n6domIIYYsGmRMujorc_mA4SPyqvBcuWFOpuSwKllP7sUlnhM2jdjXxgT41txwlet",
          "width": 4048
        }
      ],
      "place_id": "ChIJtVUDGtH1wokRCz5ooopOifA",
      "plus_code": {
        "compound_code": "R39C+RM \u7f8e\u570b\u7d10\u7d04\u5e03\u6717\u514b\u65af",
        "global_code": "87G8R39C+RM"
      },
      "rating": 4.7,
      "reference": "ChIJtVUDGtH1wokRCz5ooopOifA",
      "scope": "GOOGLE",
      "types": [
        "point_of_interest",
        "establishment"
      ],
      "user_ratings_total": 109,
      "vicinity": "575 Walton Avenue, The Bronx"
    },
    {
      "business_status": "OPERATIONAL",
      "geometry": {
        "location": {
          "lat": 40.817374,
          "lng": -73.9240962
        },
        "viewport": {
          "northeast": {
            "lat": 40.8185190302915,
            "lng": -73.9223364197085
          },
          "southwest": {
            "lat": 40.81582106970851,
            "lng": -73.9250343802915
          }
        }
      },
      "icon": "https://maps.gstatic.com/mapfiles/place_api/icons/v1/png_71/generic_business-71.png",
      "icon_background_color": "#7B9EB0",
      "icon_mask_base_uri": "https://maps.gstatic.com/mapfiles/place_api/icons/v2/generic_pinlet",
      "name": "Dr. Francisco J. Gonzalez-Franco, MD",
      "place_id": "ChIJ56F418_1wokRYhxifUTsT_A",
      "plus_code": {
        "compound_code": "R38G+W9 \u7f8e\u570b\u7d10\u7d04\u5e03\u6717\u514b\u65af",
        "global_code": "87G8R38G+W9"
      },
      "reference": "ChIJ56F418_1wokRYhxifUTsT_A",
      "scope": "GOOGLE",
      "types": [
        "doctor",
        "health",
        "point_of_interest",
        "establishment"
      ],
      "vicinity": "234 East 149th Street, The Bronx"
    },
    {
      "business_status": "OPERATIONAL",
      "geometry": {
        "location": {
          "lat": 40.817374,
          "lng": -73.9240962
        },
        "viewport": {
          "northeast": {
            "lat": 40.8185190302915,
            "lng": -73.9223364197085
          },
          "southwest": {
            "lat": 40.81582106970851,
            "lng": -73.9250343802915
          }
        }
      },
      "icon": "https://maps.gstatic.com/mapfiles/place_api/icons/v1/png_71/generic_business-71.png",
      "icon_background_color": "#7B9EB0",
      "icon_mask_base_uri": "https://maps.gstatic.com/mapfiles/place_api/icons/v2/generic_pinlet",
      "name": "Trakht Asya MD",
      "place_id": "ChIJ56F418_1wokRGGljpJJMOsI",
      "plus_code": {
        "compound_code": "R38G+W9 \u7f8e\u570b\u7d10\u7d04\u5e03\u6717\u514b\u65af",
        "global_code": "87G8R38G+W9"
      },
      "reference": "ChIJ56F418_1wokRGGljpJJMOsI",
      "scope": "GOOGLE",
      "types": [
        "doctor",
        "health",
        "point_of_interest",
        "establishment"
      ],
      "vicinity": "234 East 149th Street, The Bronx"
    },
    {
      "business_status": "OPERATIONAL",
      "geometry": {
        "location": {
          "lat": 40.817374,
          "lng": -73.9240962
        },
        "viewport": {
          "northeast": {
            "lat": 40.8185190302915,
            "lng": -73.9223364197085
          },
          "southwest": {
            "lat": 40.81582106970851,
            "lng": -73.9250343802915
          }
        }
      },
      "icon": "https://maps.gstatic.com/mapfiles/place_api/icons/v1/png_71/generic_business-71.png",
      "icon_background_color": "#7B9EB0",
      "icon_mask_base_uri": "https://maps.gstatic.com/mapfiles/place_api/icons/v2/generic_pinlet",
      "name": "Lincoln Medical & Mental Health: Parry Thomas H MD",
      "place_id": "ChIJ56F418_1wokRU5uVAsX0Gy0",
      "plus_code": {
        "compound_code": "R38G+W9 \u7f8e\u570b\u7d10\u7d04\u5e03\u6717\u514b\u65af",
        "global_code": "87G8R38G+W9"
      },
      "reference": "ChIJ56F418_1wokRU5uVAsX0Gy0",
      "scope": "GOOGLE",
      "types": [
        "doctor",
        "health",
        "point_of_interest",
        "establishment"
      ],
      "vicinity": "234 East 149th Street, The Bronx"
    },
    {
      "business_status": "OPERATIONAL",
      "geometry": {
        "location": {
          "lat": 40.817374,
          "lng": -73.9240962
        },
        "viewport": {
          "northeast": {
            "lat": 40.8185190302915,
            "lng": -73.9223364197085
          },
          "southwest": {
            "lat": 40.81582106970851,
            "lng": -73.9250343802915
          }
        }
      },
      "icon": "https://maps.gstatic.com/mapfiles/place_api/icons/v1/png_71/generic_business-71.png",
      "icon_background_color": "#7B9EB0",
      "icon_mask_base_uri": "https://maps.gstatic.com/mapfiles/place_api/icons/v2/generic_pinlet",
      "name": "Dr. Sindhaghatta K. Venkatram, MD",
      "place_id": "ChIJ56F418_1wokRHWcy5kcmUGE",
      "plus_code": {
        "compound_code": "R38G+W9 \u7f8e\u570b\u7d10\u7d04\u5e03\u6717\u514b\u65af",
        "global_code": "87G8R38G+W9"
      },
      "reference": "ChIJ56F418_1wokRHWcy5kcmUGE",
      "scope": "GOOGLE",
      "types": [
        "doctor",
        "health",
        "point_of_interest",
        "establishment"
      ],
      "vicinity": "234 East 149th Street, The Bronx"
    },
    {
      "business_status": "OPERATIONAL",
      "geometry": {
        "location": {
          "lat": 40.817374,
          "lng": -73.9240962
        },
        "viewport": {
          "northeast": {
            "lat": 40.8185190302915,
            "lng": -73.9223364197085
          },
          "southwest": {
            "lat": 40.81582106970851,
            "lng": -73.9250343802915
          }
        }
      },
      "icon": "https://maps.gstatic.com/mapfiles/place_api/icons/v1/png_71/generic_business-71.png",
      "icon_background_color": "#7B9EB0",
      "icon_mask_base_uri": "https://maps.gstatic.com/mapfiles/place_api/icons/v2/generic_pinlet",
      "name": "Josephson Elaine B MD",
      "place_id": "ChIJ56F418_1wokRzRS1NoKFmQM",
      "plus_code": {
        "compound_code": "R38G+W9 \u7f8e\u570b\u7d10\u7d04\u5e03\u6717\u514b\u65af",
        "global_code": "87G8R38G+W9"
      },
      "reference": "ChIJ56F418_1wokRzRS1NoKFmQM",
      "scope": "GOOGLE",
      "types": [
        "doctor",
        "health",
        "point_of_interest",
        "establishment"
      ],
      "vicinity": "234 East 149th Street, The Bronx"
    },
    {
      "business_status": "OPERATIONAL",
      "geometry": {
        "location": {
          "lat": 40.817374,
          "lng": -73.9240962
        },
        "viewport": {
          "northeast": {
            "lat": 40.8185190302915,
            "lng": -73.9223364197085
          },
          "southwest": {
            "lat": 40.81582106970851,
            "lng": -73.9250343802915
          }
        }
      },
      "icon": "https://maps.gstatic.com/mapfiles/place_api/icons/v1/png_71/generic_business-71.png",
      "icon_background_color": "#7B9EB0",
      "icon_mask_base_uri": "https://maps.gstatic.com/mapfiles/place_api/icons/v2/generic_pinlet",
      "name": "Dr. Nirmala Kanna, MD",
      "place_id": "ChIJ56F418_1wokRxwsjn71gT4I",
      "plus_code": {
        "compound_code": "R38G+W9 \u7f8e\u570b\u7d10\u7d04\u5e03\u6717\u514b\u65af",
        "global_code": "87G8R38G+W9"
      },
      "reference": "ChIJ56F418_1wokRxwsjn71gT4I",
      "scope": "GOOGLE",
      "types": [
        "doctor",
        "health",
        "point_of_interest",
        "establishment"
      ],
      "vicinity": "234 East 149th Street, The Bronx"
    },
    {
      "business_status": "OPERATIONAL",
      "geometry": {
        "location": {
          "lat": 40.817374,
          "lng": -73.9240962
        },
        "viewport": {
          "northeast": {
            "lat": 40.8185190302915,
            "lng": -73.9223364197085
          },
          "southwest": {
            "lat": 40.81582106970851,
            "lng": -73.9250343802915
          }
        }
      },
      "icon": "https://maps.gstatic.com/mapfiles/place_api/icons/v1/png_71/generic_business-71.png",
      "icon_background_color": "#7B9EB0",
      "icon_mask_base_uri": "https://maps.gstatic.com/mapfiles/place_api/icons/v2/generic_pinlet",
      "name": "Lincoln Medical & Mental Health: Celentano James MD",
      "place_id": "ChIJ56F418_1wokR4PwHgFPeqJk",
      "plus_code": {
        "compound_code": "R38G+W9 \u7f8e\u570b\u7d10\u7d04\u5e03\u6717\u514b\u65af",
        "global_code": "87G8R38G+W9"
      },
      "reference": "ChIJ56F418_1wokR4PwHgFPeqJk",
      "scope": "GOOGLE",
      "types": [
        "doctor",
        "health",
        "point_of_interest",
        "establishment"
      ],
      "vicinity": "234 East 149th Street, The Bronx"
    },
    {
      "business_status": "OPERATIONAL",
      "geometry": {
        "location": {
          "lat": 40.817374,
          "lng": -73.9240962
        },
        "viewport": {
          "northeast": {
            "lat": 40.8185190302915,
            "lng": -73.9223364197085
          },
          "southwest": {
            "lat": 40.81582106970851,
            "lng": -73.9250343802915
          }
        }
      },
      "icon": "https://maps.gstatic.com/mapfiles/place_api/icons/v1/png_71/generic_business-71.png",
      "icon_background_color": "#7B9EB0",
      "icon_mask_base_uri": "https://maps.gstatic.com/mapfiles/place_api/icons/v2/generic_pinlet",
      "name": "Dr. Ramnath D. Kapoor, MD",
      "place_id": "ChIJ56F418_1wokR8SfBg9mUFVk",
      "plus_code": {
        "compound_code": "R38G+W9 \u7f8e\u570b\u7d10\u7d04\u5e03\u6717\u514b\u65af",
        "global_code": "87G8R38G+W9"
      },
      "reference": "ChIJ56F418_1wokR8SfBg9mUFVk",
      "scope": "GOOGLE",
      "types": [
        "doctor",
        "health",
        "point_of_interest",
        "establishment"
      ],
      "vicinity": "234 East 149th Street, The Bronx"
    },
    {
      "business_status": "OPERATIONAL",
      "geometry": {
        "location": {
          "lat": 40.817374,
          "lng": -73.9240962
        },
        "viewport": {
          "northeast": {
            "lat": 40.8185190302915,
            "lng": -73.9223364197085
          },
          "southwest": {
            "lat": 40.81582106970851,
            "lng": -73.9250343802915
          }
        }
      },
      "icon": "https://maps.gstatic.com/mapfiles/place_api/icons/v1/png_71/generic_business-71.png",
      "icon_background_color": "#7B9EB0",
      "icon_mask_base_uri": "https://maps.gstatic.com/mapfiles/place_api/icons/v2/generic_pinlet",
      "name": "Narayanan Sivasubrama MD",
      "place_id": "ChIJ56F418_1wokR-KUM4FzutEI",
      "plus_code": {
        "compound_code": "R38G+W9 \u7f8e\u570b\u7d10\u7d04\u5e03\u6717\u514b\u65af",
        "global_code": "87G8R38G+W9"
      },
      "reference": "ChIJ56F418_1wokR-KUM4FzutEI",
      "scope": "GOOGLE",
      "types": [
        "doctor",
        "health",
        "point_of_interest",
        "establishment"
      ],
      "vicinity": "234 East 149th Street, The Bronx"
    },
    {
      "business_status": "OPERATIONAL",
      "geometry": {
        "location": {
          "lat": 40.817374,
          "lng": -73.9240962
        },
        "viewport": {
          "northeast": {
            "lat": 40.8185190302915,
            "lng": -73.9223364197085
          },
          "southwest": {
            "lat": 40.81582106970851,
            "lng": -73.9250343802915
          }
        }
      },
      "icon": "https://maps.gstatic.com/mapfiles/place_api/icons/v1/png_71/generic_business-71.png",
      "icon_background_color": "#7B9EB0",
      "icon_mask_base_uri": "https://maps.gstatic.com/mapfiles/place_api/icons/v2/generic_pinlet",
      "name": "Dr. Jean J. Cadet, MD",
      "place_id": "ChIJ56F418_1wokRthIBu8PM87o",
      "plus_code": {
        "compound_code": "R38G+W9 \u7f8e\u570b\u7d10\u7d04\u5e03\u6717\u514b\u65af",
        "global_code": "87G8R38G+W9"
      },
      "reference": "ChIJ56F418_1wokRthIBu8PM87o",
      "scope": "GOOGLE",
      "types": [
        "doctor",
        "health",
        "point_of_interest",
        "establishment"
      ],
      "vicinity": "234 East 149th Street, The Bronx"
    },
    {
      "business_status": "OPERATIONAL",
      "geometry": {
        "location": {
          "lat": 40.8181733,
          "lng": -73.9294242
        },
        "viewport": {
          "northeast": {
            "lat": 40.8195285802915,
            "lng": -73.92814601970849
          },
          "southwest": {
            "lat": 40.8168306197085,
            "lng": -73.9308439802915
          }
        }
      },
      "icon": "https://maps.gstatic.com/mapfiles/place_api/icons/v1/png_71/generic_business-71.png",
      "icon_background_color": "#7B9EB0",
      "icon_mask_base_uri": "https://maps.gstatic.com/mapfiles/place_api/icons/v2/generic_pinlet",
      "name": "Gauchos Gym",
      "opening_hours": {
        "open_now": true
      },
      "photos": [
        {
          "height": 3036,
          "html_attributions": [
            "<a href=\"https://maps.google.com/maps/contrib/102249037792241514380\">Aaron Holland</a>"
          ],
          "photo_reference": "AeJbb3ecIzmtxTlebijgfz58aXBVgNclBaJNfLanOvbDqqdVZsNzZhpWdJaOpeBEu-IaYOKq3vNHx1GzBDXYs0G4aqHd0DNrEx4YoCyLBIOE8jQnGIHu5v7Fassmoezjv6QGUQlbcldXJJrf6qj-lFyU2awzCTY4yvx-xdWM669j8YIF5BUM",
          "width": 4048
        }
      ],
      "place_id": "ChIJFyt2xtD1wokRcYLu0zShCrE",
      "plus_code": {
        "compound_code": "R39C+76 \u7f8e\u570b\u7d10\u7d04\u5e03\u6717\u514b\u65af",
        "global_code": "87G8R39C+76"
      },
      "rating": 4.4,
      "reference": "ChIJFyt2xtD1wokRcYLu0zShCrE",
      "scope": "GOOGLE",
      "types": [
        "gym",
        "health",
        "point_of_interest",
        "establishment"
      ],
      "user_ratings_total": 63,
      "vicinity": "478 Gerard Avenue, The Bronx"
    },
    {
      "business_status": "CLOSED_TEMPORARILY",
      "geometry": {
        "location": {
          "lat": 40.8183151,
          "lng": -73.9276915
        },
        "viewport": {
          "northeast": {
            "lat": 40.81964393029149,
            "lng": -73.9262662197085
          },
          "southwest": {
            "lat": 40.8169459697085,
            "lng": -73.9289641802915
          }
        }
      },
      "icon": "https://maps.gstatic.com/mapfiles/place_api/icons/v1/png_71/school-71.png",
      "icon_background_color": "#7B9EB0",
      "icon_mask_base_uri": "https://maps.gstatic.com/mapfiles/place_api/icons/v2/school_pinlet",
      "name": "Hostos Academy",
      "permanently_closed": true,
      "photos": [
        {
          "height": 4032,
          "html_attributions": [
            "<a href=\"https://maps.google.com/maps/contrib/115973349696919279139\">Tarik Washington</a>"
          ],
          "photo_reference": "AeJbb3dC-PahXofZK_DST6oDOOkxF8w-i-lUztEK4kiswnlwbXbpLprkeLi8HoPUipam_2eKJ4wnRM3mOxIQ2Urp9sz3ph6Sv4ia448NWGN4lmFmPZvP68OPXu9Nt1BtNVBwQGSaRkAGMiUGbdjH-zRnXJ898e7eYs2u6MgYtyiQdus-NSU1",
          "width": 1960
        }
      ],
      "place_id": "ChIJPeum8ND1wokRDjBO8-s8Eqo",
      "plus_code": {
        "compound_code": "R39C+8W \u7f8e\u570b\u7d10\u7d04",
        "global_code": "87G8R39C+8W"
      },
      "rating": 5,
      "reference": "ChIJPeum8ND1wokRDjBO8-s8Eqo",
      "scope": "GOOGLE",
      "types": [
        "school",
        "point_of_interest",
        "establishment"
      ],
      "user_ratings_total": 1,
      "vicinity": "477 Grand Concourse, The Bronx"
    },
    {
      "business_status": "OPERATIONAL",
      "geometry": {
        "location": {
          "lat": 40.81734100000001,
          "lng": -73.92328119999999
        },
        "viewport": {
          "northeast": {
            "lat": 40.8185025302915,
            "lng": -73.92196496970848
          },
          "southwest": {
            "lat": 40.8158045697085,
            "lng": -73.9246629302915
          }
        }
      },
      "icon": "https://maps.gstatic.com/mapfiles/place_api/icons/v1/png_71/generic_business-71.png",
      "icon_background_color": "#7B9EB0",
      "icon_mask_base_uri": "https://maps.gstatic.com/mapfiles/place_api/icons/v2/generic_pinlet",
      "name": "G E Healthcare",
      "place_id": "ChIJ56F418_1wokRfgeiKEWXjD0",
      "plus_code": {
        "compound_code": "R38G+WM \u7f8e\u570b\u7d10\u7d04\u5e03\u6717\u514b\u65af",
        "global_code": "87G8R38G+WM"
      },
      "reference": "ChIJ56F418_1wokRfgeiKEWXjD0",
      "scope": "GOOGLE",
      "types": [
        "health",
        "point_of_interest",
        "establishment"
      ],
      "vicinity": "234 East 149th Street, The Bronx"
    },
    {
      "geometry": {
        "location": {
          "lat": 40.8519547,
          "lng": -73.90070899999999
        },
        "viewport": {
          "northeast": {
            "lat": 40.91527805889627,
            "lng": -73.86840408623851
          },
          "southwest": {
            "lat": 40.79678004393696,
            "lng": -73.93340593816593
          }
        }
      },
      "icon": "https://maps.gstatic.com/mapfiles/place_api/icons/v1/png_71/geocode-71.png",
      "icon_background_color": "#7B9EB0",
      "icon_mask_base_uri": "https://maps.gstatic.com/mapfiles/place_api/icons/v2/generic_pinlet",
      "name": "West Bronx",
      "photos": [
        {
          "height": 1024,
          "html_attributions": [
            "<a href=\"https://maps.google.com/maps/contrib/113738462812435835913\">Alex Lin</a>"
          ],
          "photo_reference": "AeJbb3cbLE9NDxhTgeH_ptKrDuJl-zh_Ji-pR1x6MQUAczZIwBQ8t3PaCPiIavoltYribBotOteTaGoZ2S-3A9J1n5d0XwDI0-BCsk1EmYgDb2Xl5iBGwSU4fCmRAA9ESxbjd-rzCgjDu_D6-xIDQjaq97K3Q9tXGprieV_yrS9av1zBXqqp",
          "width": 768
        }
      ],
      "place_id": "ChIJWdLZpnD0wokRgikpekRYd9o",
      "reference": "ChIJWdLZpnD0wokRgikpekRYd9o",
      "scope": "GOOGLE",
      "types": [
        "neighborhood",
        "political"
      ],
      "vicinity": "The Bronx"
    },
    {
      "business_status": "OPERATIONAL",
      "geometry": {
        "location": {
          "lat": 40.817374,
          "lng": -73.9240962
        },
        "viewport": {
          "northeast": {
            "lat": 40.8184815802915,
            "lng": -73.92235351970848
          },
          "southwest": {
            "lat": 40.8157836197085,
            "lng": -73.9250514802915
          }
        }
      },
      "icon": "https://maps.gstatic.com/mapfiles/place_api/icons/v1/png_71/generic_business-71.png",
      "icon_background_color": "#7B9EB0",
      "icon_mask_base_uri": "https://maps.gstatic.com/mapfiles/place_api/icons/v2/generic_pinlet",
      "name": "Mitsianis Dimitra",
      "place_id": "ChIJN_F618_1wokRXYp5nxCy1t8",
      "plus_code": {
        "compound_code": "R38G+W9 The Bronx, NY, USA",
        "global_code": "87G8R38G+W9"
      },
      "reference": "ChIJN_F618_1wokRXYp5nxCy1t8",
      "scope": "GOOGLE",
      "types": [
        "doctor",
        "health",
        "point_of_interest",
        "establishment"
      ],
      "vicinity": "234 East 149th Street #14, The Bronx"
    },
    {
      "business_status": "OPERATIONAL",
      "geometry": {
        "location": {
          "lat": 40.81770379999999,
          "lng": -73.9240054
        },
        "viewport": {
          "northeast": {
            "lat": 40.8190400802915,
            "lng": -73.9226619697085
          },
          "southwest": {
            "lat": 40.8163421197085,
            "lng": -73.9253599302915
          }
        }
      },
      "icon": "https://maps.gstatic.com/mapfiles/place_api/icons/v1/png_71/generic_business-71.png",
      "icon_background_color": "#7B9EB0",
      "icon_mask_base_uri": "https://maps.gstatic.com/mapfiles/place_api/icons/v2/generic_pinlet",
      "name": "Generations Medical Services",
      "place_id": "ChIJN_F618_1wokRQ5C1qNHacxo",
      "plus_code": {
        "compound_code": "R39G+39 The Bronx, NY, USA",
        "global_code": "87G8R39G+39"
      },
      "reference": "ChIJN_F618_1wokRQ5C1qNHacxo",
      "scope": "GOOGLE",
      "types": [
        "health",
        "point_of_interest",
        "establishment"
      ],
      "vicinity": "234 E 149th St # 8D200, The Bronx"
    },
    {
      "business_status": "OPERATIONAL",
      "geometry": {
        "location": {
          "lat": 40.8190242,
          "lng": -73.9274324
        },
        "viewport": {
          "northeast": {
            "lat": 40.8203339302915,
            "lng": -73.9259739697085
          },
          "southwest": {
            "lat": 40.8176359697085,
            "lng": -73.9286719302915
          }
        }
      },
      "icon": "https://maps.gstatic.com/mapfiles/place_api/icons/v1/png_71/shopping-71.png",
      "icon_background_color": "#4B96F3",
      "icon_mask_base_uri": "https://maps.gstatic.com/mapfiles/place_api/icons/v2/shopping_pinlet",
      "name": "PostNet",
      "opening_hours": {
        "open_now": false
      },
      "photos": [
        {
          "height": 768,
          "html_attributions": [
            "<a href=\"https://maps.google.com/maps/contrib/103390199756002664179\">PostNet</a>"
          ],
          "photo_reference": "AeJbb3c5_X3icRJYki6qmgUntbN3Vj-28Zj_qHBJJ28_mbrp_ItPB2nKrcux4BKUqgSVcgluXg1NQqqMJm_CZTSA1B0-8vg8tdtEOT1yNJ_jcNNcu0S9Cp2ZgEI0Y1X3p_IrL0FIvrzMq74hJlvJOopAfXU_TgpPgNCDCBxhm5oelYwcABQ0",
          "width": 1365
        }
      ],
      "place_id": "ChIJQcIjAdH1wokRYhDuotA5gDU",
      "plus_code": {
        "compound_code": "R39F+J2 New York, NY, USA",
        "global_code": "87G8R39F+J2"
      },
      "price_level": 2,
      "rating": 4.5,
      "reference": "ChIJQcIjAdH1wokRYhDuotA5gDU",
      "scope": "GOOGLE",
      "types": [
        "point_of_interest",
        "store",
        "establishment"
      ],
      "user_ratings_total": 115,
      "vicinity": "557 Grand Concourse Ste 3, The Bronx"
    },
    {
      "business_status": "OPERATIONAL",
      "geometry": {
        "location": {
          "lat": 40.8194431,
          "lng": -73.92722049999999
        },
        "viewport": {
          "northeast": {
            "lat": 40.8207683802915,
            "lng": -73.9257613197085
          },
          "southwest": {
            "lat": 40.8180704197085,
            "lng": -73.9284592802915
          }
        }
      },
      "icon": "https://maps.gstatic.com/mapfiles/place_api/icons/v1/png_71/restaurant-71.png",
      "icon_background_color": "#FF9E67",
      "icon_mask_base_uri": "https://maps.gstatic.com/mapfiles/place_api/icons/v2/restaurant_pinlet",
      "name": "Giovanni's",
      "opening_hours": {
        "open_now": true
      },
      "photos": [
        {
          "height": 3024,
          "html_attributions": [
            "<a href=\"https://maps.google.com/maps/contrib/116993096890774455089\">Brittany Holland</a>"
          ],
          "photo_reference": "AeJbb3fESJHFTUJ2qDR_hSOYvU1MoUMJDaxuXxytCaBj7Pn77lb6_QZ0_imfjX1_lWcMzSFocPUJya7N6m_9tHbh9joBITWrJZ2W5mPRcoLmsxo_RiG3uwZvjif1FBLXaPQpJqwNrJKa00RVuvWY5VeERP-quVDaCb0ChT5aNXl5fwBbtx2J",
          "width": 4032
        }
      ],
      "place_id": "ChIJZdK7p9H1wokRXtG1oueAShI",
      "plus_code": {
        "compound_code": "R39F+Q4 The Bronx, NY, USA",
        "global_code": "87G8R39F+Q4"
      },
      "price_level": 2,
      "rating": 3.9,
      "reference": "ChIJZdK7p9H1wokRXtG1oueAShI",
      "scope": "GOOGLE",
      "types": [
        "meal_delivery",
        "bar",
        "restaurant",
        "food",
        "point_of_interest",
        "establishment"
      ],
      "user_ratings_total": 1529,
      "vicinity": "579 Grand Concourse, The Bronx"
    },
    {
      "business_status": "OPERATIONAL",
      "geometry": {
        "location": {
          "lat": 40.815542,
          "lng": -73.9304433
        },
        "viewport": {
          "northeast": {
            "lat": 40.8170136302915,
            "lng": -73.9286122697085
          },
          "southwest": {
            "lat": 40.81431566970851,
            "lng": -73.9313102302915
          }
        }
      },
      "icon": "https://maps.gstatic.com/mapfiles/place_api/icons/v1/png_71/school-71.png",
      "icon_background_color": "#7B9EB0",
      "icon_mask_base_uri": "https://maps.gstatic.com/mapfiles/place_api/icons/v2/school_pinlet",
      "name": "X670 Health Opportunities High School",
      "opening_hours": {
        "open_now": false
      },
      "photos": [
        {
          "height": 4032,
          "html_attributions": [
            "<a href=\"https://maps.google.com/maps/contrib/113039579472990924530\">Nicole Bulls</a>"
          ],
          "photo_reference": "AeJbb3ftxzu4E0CeypKLLrYOcNgYhYix5BetrGLqhQn6zeWUTxc5ZUay3u-6KjKTKVPj8shgvrMObZlxxyzy2UlrrQQHYa3Ws4fAOk-mvfISUgJWmSPI67b4VB2D8REOF19qp3BURzDXBuyNbZVyKP5E0E2vFxqbh9eaXkbiO2Ad5htc6gck",
          "width": 3024
        }
      ],
      "place_id": "ChIJNSyH9Nn1wokRKAaZ5NKiKPk",
      "plus_code": {
        "compound_code": "R389+6R New York, NY, USA",
        "global_code": "87G8R389+6R"
      },
      "rating": 4.3,
      "reference": "ChIJNSyH9Nn1wokRKAaZ5NKiKPk",
      "scope": "GOOGLE",
      "types": [
        "school",
        "point_of_interest",
        "establishment"
      ],
      "user_ratings_total": 28,
      "vicinity": "350 Gerard Avenue, The Bronx"
    },
    {
      "business_status": "OPERATIONAL",
      "geometry": {
        "location": {
          "lat": 40.817374,
          "lng": -73.9240962
        },
        "viewport": {
          "northeast": {
            "lat": 40.8185190302915,
            "lng": -73.9223364197085
          },
          "southwest": {
            "lat": 40.81582106970851,
            "lng": -73.9250343802915
          }
        }
      },
      "icon": "https://maps.gstatic.com/mapfiles/place_api/icons/v1/png_71/generic_business-71.png",
      "icon_background_color": "#7B9EB0",
      "icon_mask_base_uri": "https://maps.gstatic.com/mapfiles/place_api/icons/v2/generic_pinlet",
      "name": "Dr. Harriet I. Jones, MD",
      "place_id": "ChIJ56F418_1wokR-gYzmfxDRUs",
      "plus_code": {
        "compound_code": "R38G+W9 The Bronx, NY, USA",
        "global_code": "87G8R38G+W9"
      },
      "reference": "ChIJ56F418_1wokR-gYzmfxDRUs",
      "scope": "GOOGLE",
      "types": [
        "doctor",
        "health",
        "point_of_interest",
        "establishment"
      ],
      "vicinity": "234 East 149th Street, The Bronx"
    },
    {
      "business_status": "OPERATIONAL",
      "geometry": {
        "location": {
          "lat": 40.817374,
          "lng": -73.9240962
        },
        "viewport": {
          "northeast": {
            "lat": 40.8185190302915,
            "lng": -73.9223364197085
          },
          "southwest": {
            "lat": 40.81582106970851,
            "lng": -73.9250343802915
          }
        }
      },
      "icon": "https://maps.gstatic.com/mapfiles/place_api/icons/v1/png_71/generic_business-71.png",
      "icon_background_color": "#7B9EB0",
      "icon_mask_base_uri": "https://maps.gstatic.com/mapfiles/place_api/icons/v2/generic_pinlet",
      "name": "Cole Helene a MD",
      "place_id": "ChIJ56F418_1wokRuWzqfsbrfQc",
      "plus_code": {
        "compound_code": "R38G+W9 The Bronx, NY, USA",
        "global_code": "87G8R38G+W9"
      },
      "reference": "ChIJ56F418_1wokRuWzqfsbrfQc",
      "scope": "GOOGLE",
      "types": [
        "doctor",
        "health",
        "point_of_interest",
        "establishment"
      ],
      "vicinity": "234 East 149th Street, The Bronx"
    },
    {
      "business_status": "OPERATIONAL",
      "geometry": {
        "location": {
          "lat": 40.817374,
          "lng": -73.9240962
        },
        "viewport": {
          "northeast": {
            "lat": 40.8185190302915,
            "lng": -73.9223364197085
          },
          "southwest": {
            "lat": 40.81582106970851,
            "lng": -73.9250343802915
          }
        }
      },
      "icon": "https://maps.gstatic.com/mapfiles/place_api/icons/v1/png_71/generic_business-71.png",
      "icon_background_color": "#7B9EB0",
      "icon_mask_base_uri": "https://maps.gstatic.com/mapfiles/place_api/icons/v2/generic_pinlet",
      "name": "Dr. Christian R. Gonzalez, MD",
      "place_id": "ChIJ56F418_1wokRRIiHHzNueM4",
      "plus_code": {
        "compound_code": "R38G+W9 The Bronx, NY, USA",
        "global_code": "87G8R38G+W9"
      },
      "reference": "ChIJ56F418_1wokRRIiHHzNueM4",
      "scope": "GOOGLE",
      "types": [
        "doctor",
        "health",
        "point_of_interest",
        "establishment"
      ],
      "vicinity": "234 East 149th Street, The Bronx"
    },
    {
      "business_status": "OPERATIONAL",
      "geometry": {
        "location": {
          "lat": 40.817374,
          "lng": -73.9240962
        },
        "viewport": {
          "northeast": {
            "lat": 40.8185190302915,
            "lng": -73.9223364197085
          },
          "southwest": {
            "lat": 40.81582106970851,
            "lng": -73.9250343802915
          }
        }
      },
      "icon": "https://maps.gstatic.com/mapfiles/place_api/icons/v1/png_71/generic_business-71.png",
      "icon_background_color": "#7B9EB0",
      "icon_mask_base_uri": "https://maps.gstatic.com/mapfiles/place_api/icons/v2/generic_pinlet",
      "name": "Rangsiyakul Subha MD",
      "place_id": "ChIJ56F418_1wokR3Uvl-N9x24I",
      "plus_code": {
        "compound_code": "R38G+W9 The Bronx, NY, USA",
        "global_code": "87G8R38G+W9"
      },
      "reference": "ChIJ56F418_1wokR3Uvl-N9x24I",
      "scope": "GOOGLE",
      "types": [
        "doctor",
        "health",
        "point_of_interest",
        "establishment"
      ],
      "vicinity": "234 East 149th Street, The Bronx"
    },
    {
      "business_status": "OPERATIONAL",
      "geometry": {
        "location": {
          "lat": 40.817374,
          "lng": -73.9240962
        },
        "viewport": {
          "northeast": {
            "lat": 40.8185190302915,
            "lng": -73.9223364197085
          },
          "southwest": {
            "lat": 40.81582106970851,
            "lng": -73.9250343802915
          }
        }
      },
      "icon": "https://maps.gstatic.com/mapfiles/place_api/icons/v1/png_71/generic_business-71.png",
      "icon_background_color": "#7B9EB0",
      "icon_mask_base_uri": "https://maps.gstatic.com/mapfiles/place_api/icons/v2/generic_pinlet",
      "name": "Dr. Abdul S. Mondul, MD",
      "place_id": "ChIJ56F418_1wokR68WkATZlhJ0",
      "plus_code": {
        "compound_code": "R38G+W9 The Bronx, NY, USA",
        "global_code": "87G8R38G+W9"
      },
      "reference": "ChIJ56F418_1wokR68WkATZlhJ0",
      "scope": "GOOGLE",
      "types": [
        "doctor",
        "health",
        "point_of_interest",
        "establishment"
      ],
      "vicinity": "234 East 149th Street, The Bronx"
    },
    {
      "business_status": "OPERATIONAL",
      "geometry": {
        "location": {
          "lat": 40.81672289999999,
          "lng": -73.9304962
        },
        "viewport": {
          "northeast": {
            "lat": 40.8177063802915,
            "lng": -73.9291059697085
          },
          "southwest": {
            "lat": 40.8150084197085,
            "lng": -73.93180393029151
          }
        }
      },
      "icon": "https://maps.gstatic.com/mapfiles/place_api/icons/v1/png_71/generic_business-71.png",
      "icon_background_color": "#7B9EB0",
      "icon_mask_base_uri": "https://maps.gstatic.com/mapfiles/place_api/icons/v2/generic_pinlet",
      "name": "Public Storage",
      "opening_hours": {
        "open_now": true
      },
      "photos": [
        {
          "height": 1080,
          "html_attributions": [
            "<a href=\"https://maps.google.com/maps/contrib/114481650565249488844\">Public Storage</a>"
          ],
          "photo_reference": "AeJbb3ftlBE7DWDOkrMxZfJMGoCcxz8P_jOfT7sbbE1Y69650yYouRAjZpaI_zEbwUPZ2VHDP8Meb7sv0XIsln7Qp1MCMJiAVyPURk9dFzE22l5CPs-TdbygdDi03sRRds0QxJctbMofuK8f7ZePc57WIHZica6qS1LZ2-Eqe_LrBUn5Srw4",
          "width": 1920
        }
      ],
      "place_id": "ChIJDTUAVtf1wokRCVKfA1SEc4U",
      "plus_code": {
        "compound_code": "R389+MR The Bronx, NY, USA",
        "global_code": "87G8R389+MR"
      },
      "rating": 4.6,
      "reference": "ChIJDTUAVtf1wokRCVKfA1SEc4U",
      "scope": "GOOGLE",
      "types": [
        "storage",
        "point_of_interest",
        "store",
        "establishment"
      ],
      "user_ratings_total": 1175,
      "vicinity": "385 Gerard Avenue, The Bronx"
    },
    {
      "business_status": "OPERATIONAL",
      "geometry": {
        "location": {
          "lat": 40.817374,
          "lng": -73.9240962
        },
        "viewport": {
          "northeast": {
            "lat": 40.8185190302915,
            "lng": -73.9223364197085
          },
          "southwest": {
            "lat": 40.81582106970851,
            "lng": -73.9250343802915
          }
        }
      },
      "icon": "https://maps.gstatic.com/mapfiles/place_api/icons/v1/png_71/generic_business-71.png",
      "icon_background_color": "#7B9EB0",
      "icon_mask_base_uri": "https://maps.gstatic.com/mapfiles/place_api/icons/v2/generic_pinlet",
      "name": "Pierre Antonio MD",
      "place_id": "ChIJ56F418_1wokRtBV7NIM3BPs",
      "plus_code": {
        "compound_code": "R38G+W9 The Bronx, NY, USA",
        "global_code": "87G8R38G+W9"
      },
      "reference": "ChIJ56F418_1wokRtBV7NIM3BPs",
      "scope": "GOOGLE",
      "types": [
        "doctor",
        "health",
        "point_of_interest",
        "establishment"
      ],
      "vicinity": "234 East 149th Street, The Bronx"
    },
    {
      "business_status": "OPERATIONAL",
      "geometry": {
        "location": {
          "lat": 40.81689049999999,
          "lng": -73.9244406
        },
        "viewport": {
          "northeast": {
            "lat": 40.8182875302915,
            "lng": -73.92250861970848
          },
          "southwest": {
            "lat": 40.8155895697085,
            "lng": -73.9252065802915
          }
        }
      },
      "icon": "https://maps.gstatic.com/mapfiles/place_api/icons/v1/png_71/generic_business-71.png",
      "icon_background_color": "#7B9EB0",
      "icon_mask_base_uri": "https://maps.gstatic.com/mapfiles/place_api/icons/v2/generic_pinlet",
      "name": "Lincoln Hospital Pediatrics Department",
      "place_id": "ChIJ56F418_1wokRrfTZ1mfZN4g",
      "plus_code": {
        "compound_code": "R38G+Q6 The Bronx, NY, USA",
        "global_code": "87G8R38G+Q6"
      },
      "rating": 3,
      "reference": "ChIJ56F418_1wokRrfTZ1mfZN4g",
      "scope": "GOOGLE",
      "types": [
        "doctor",
        "health",
        "point_of_interest",
        "establishment"
      ],
      "user_ratings_total": 2,
      "vicinity": "234 East 149th Street, The Bronx"
    },
    {
      "business_status": "OPERATIONAL",
      "geometry": {
        "location": {
          "lat": 40.8171495,
          "lng": -73.92421499999999
        },
        "viewport": {
          "northeast": {
            "lat": 40.8184067802915,
            "lng": -73.9223958197085
          },
          "southwest": {
            "lat": 40.8157088197085,
            "lng": -73.9250937802915
          }
        }
      },
      "icon": "https://maps.gstatic.com/mapfiles/place_api/icons/v1/png_71/generic_business-71.png",
      "icon_background_color": "#7B9EB0",
      "icon_mask_base_uri": "https://maps.gstatic.com/mapfiles/place_api/icons/v2/generic_pinlet",
      "name": "Prosper, Gerard, MD",
      "place_id": "ChIJ56F418_1wokR9mfDPs2fiLM",
      "plus_code": {
        "compound_code": "R38G+V8 The Bronx, NY, USA",
        "global_code": "87G8R38G+V8"
      },
      "rating": 5,
      "reference": "ChIJ56F418_1wokR9mfDPs2fiLM",
      "scope": "GOOGLE",
      "types": [
        "doctor",
        "health",
        "point_of_interest",
        "establishment"
      ],
      "user_ratings_total": 1,
      "vicinity": "234 East 149th Street, The Bronx"
    },
    {
      "business_status": "OPERATIONAL",
      "geometry": {
        "location": {
          "lat": 40.8160855,
          "lng": -73.9247762
        },
        "viewport": {
          "northeast": {
            "lat": 40.8172404302915,
            "lng": -73.9235230197085
          },
          "southwest": {
            "lat": 40.8145424697085,
            "lng": -73.9262209802915
          }
        }
      },
      "icon": "https://maps.gstatic.com/mapfiles/place_api/icons/v1/png_71/generic_business-71.png",
      "icon_background_color": "#7B9EB0",
      "icon_mask_base_uri": "https://maps.gstatic.com/mapfiles/place_api/icons/v2/generic_pinlet",
      "name": "GVS @ Lincoln Medical Center",
      "opening_hours": {
        "open_now": false
      },
      "place_id": "ChIJ56F418_1wokRxq12iAQpacQ",
      "plus_code": {
        "compound_code": "R38G+C3 New York, NY, USA",
        "global_code": "87G8R38G+C3"
      },
      "rating": 3.7,
      "reference": "ChIJ56F418_1wokRxq12iAQpacQ",
      "scope": "GOOGLE",
      "types": [
        "health",
        "point_of_interest",
        "store",
        "establishment"
      ],
      "user_ratings_total": 13,
      "vicinity": "234 East 149th Street RM 2-A3, The Bronx"
    },
    {
      "business_status": "OPERATIONAL",
      "geometry": {
        "location": {
          "lat": 40.8160855,
          "lng": -73.9247762
        },
        "viewport": {
          "northeast": {
            "lat": 40.8178850302915,
            "lng": -73.92252380000001
          },
          "southwest": {
            "lat": 40.81518706970851,
            "lng": -73.92552699999999
          }
        }
      },
      "icon": "https://maps.gstatic.com/mapfiles/place_api/icons/v1/png_71/pharmacy-71.png",
      "icon_background_color": "#F88181",
      "icon_mask_base_uri": "https://maps.gstatic.com/mapfiles/place_api/icons/v2/pharmacy_pinlet",
      "name": "Michael G. Thomas, PharmD",
      "place_id": "ChIJ56F418_1wokR8PS3LC40IHQ",
      "plus_code": {
        "compound_code": "R38G+C3 The Bronx, NY, USA",
        "global_code": "87G8R38G+C3"
      },
      "reference": "ChIJ56F418_1wokR8PS3LC40IHQ",
      "scope": "GOOGLE",
      "types": [
        "pharmacy",
        "health",
        "point_of_interest",
        "store",
        "establishment"
      ],
      "vicinity": "The Bronx"
    },
    {
      "business_status": "OPERATIONAL",
      "geometry": {
        "location": {
          "lat": 40.8168904,
          "lng": -73.92444069999999
        },
        "viewport": {
          "northeast": {
            "lat": 40.8182874802915,
            "lng": -73.92250866970848
          },
          "southwest": {
            "lat": 40.8155895197085,
            "lng": -73.9252066302915
          }
        }
      },
      "icon": "https://maps.gstatic.com/mapfiles/place_api/icons/v1/png_71/generic_business-71.png",
      "icon_background_color": "#7B9EB0",
      "icon_mask_base_uri": "https://maps.gstatic.com/mapfiles/place_api/icons/v2/generic_pinlet",
      "name": "Cassandra M. Clay, PA",
      "place_id": "ChIJ56F418_1wokRGw5SZk3AsR0",
      "plus_code": {
        "compound_code": "R38G+Q6 The Bronx, NY, USA",
        "global_code": "87G8R38G+Q6"
      },
      "reference": "ChIJ56F418_1wokRGw5SZk3AsR0",
      "scope": "GOOGLE",
      "types": [
        "doctor",
        "health",
        "point_of_interest",
        "establishment"
      ],
      "vicinity": "234 East 149th Street, The Bronx"
    },
    {
      "business_status": "OPERATIONAL",
      "geometry": {
        "location": {
          "lat": 40.8168904,
          "lng": -73.92444069999999
        },
        "viewport": {
          "northeast": {
            "lat": 40.8182874802915,
            "lng": -73.92250866970848
          },
          "southwest": {
            "lat": 40.8155895197085,
            "lng": -73.9252066302915
          }
        }
      },
      "icon": "https://maps.gstatic.com/mapfiles/place_api/icons/v1/png_71/generic_business-71.png",
      "icon_background_color": "#7B9EB0",
      "icon_mask_base_uri": "https://maps.gstatic.com/mapfiles/place_api/icons/v2/generic_pinlet",
      "name": "Arlene K. Huey, PA",
      "place_id": "ChIJ56F418_1wokRcxgwvNcXJFM",
      "plus_code": {
        "compound_code": "R38G+Q6 The Bronx, NY, USA",
        "global_code": "87G8R38G+Q6"
      },
      "reference": "ChIJ56F418_1wokRcxgwvNcXJFM",
      "scope": "GOOGLE",
      "types": [
        "health",
        "point_of_interest",
        "establishment"
      ],
      "vicinity": "234 East 149th Street, The Bronx"
    },
    {
      "business_status": "OPERATIONAL",
      "geometry": {
        "location": {
          "lat": 40.8168904,
          "lng": -73.92444069999999
        },
        "viewport": {
          "northeast": {
            "lat": 40.8182874802915,
            "lng": -73.92250866970848
          },
          "southwest": {
            "lat": 40.8155895197085,
            "lng": -73.9252066302915
          }
        }
      },
      "icon": "https://maps.gstatic.com/mapfiles/place_api/icons/v1/png_71/generic_business-71.png",
      "icon_background_color": "#7B9EB0",
      "icon_mask_base_uri": "https://maps.gstatic.com/mapfiles/place_api/icons/v2/generic_pinlet",
      "name": "Rena Autar, OT",
      "place_id": "ChIJ56F418_1wokR1uC8GzCwOkA",
      "plus_code": {
        "compound_code": "R38G+Q6 The Bronx, NY, USA",
        "global_code": "87G8R38G+Q6"
      },
      "reference": "ChIJ56F418_1wokR1uC8GzCwOkA",
      "scope": "GOOGLE",
      "types": [
        "health",
        "point_of_interest",
        "establishment"
      ],
      "vicinity": "234 East 149th Street, The Bronx"
    },
    {
      "business_status": "OPERATIONAL",
      "geometry": {
        "location": {
          "lat": 40.8136597,
          "lng": -73.9260025
        },
        "viewport": {
          "northeast": {
            "lat": 40.81491258029149,
            "lng": -73.92437736970851
          },
          "southwest": {
            "lat": 40.81221461970849,
            "lng": -73.92707533029152
          }
        }
      },
      "icon": "https://maps.gstatic.com/mapfiles/place_api/icons/v1/png_71/school-71.png",
      "icon_background_color": "#7B9EB0",
      "icon_mask_base_uri": "https://maps.gstatic.com/mapfiles/place_api/icons/v2/school_pinlet",
      "name": "Is 183 Paul Robeson School is Is 183 Paul Robeson School",
      "place_id": "ChIJNQ3k4dr1wokRlslsOLYH_V4",
      "plus_code": {
        "compound_code": "R37F+FH The Bronx, NY, USA",
        "global_code": "87G8R37F+FH"
      },
      "reference": "ChIJNQ3k4dr1wokRlslsOLYH_V4",
      "scope": "GOOGLE",
      "types": [
        "school",
        "point_of_interest",
        "establishment"
      ],
      "vicinity": "339 Morris Avenue, The Bronx"
    },
    {
      "business_status": "OPERATIONAL",
      "geometry": {
        "location": {
          "lat": 40.8168904,
          "lng": -73.92444069999999
        },
        "viewport": {
          "northeast": {
            "lat": 40.8182874802915,
            "lng": -73.92250866970848
          },
          "southwest": {
            "lat": 40.8155895197085,
            "lng": -73.9252066302915
          }
        }
      },
      "icon": "https://maps.gstatic.com/mapfiles/place_api/icons/v1/png_71/generic_business-71.png",
      "icon_background_color": "#7B9EB0",
      "icon_mask_base_uri": "https://maps.gstatic.com/mapfiles/place_api/icons/v2/generic_pinlet",
      "name": "Eunice V. Mello, PA",
      "place_id": "ChIJ56F418_1wokRb_nzsnIJ6DE",
      "plus_code": {
        "compound_code": "R38G+Q6 The Bronx, NY, USA",
        "global_code": "87G8R38G+Q6"
      },
      "reference": "ChIJ56F418_1wokRb_nzsnIJ6DE",
      "scope": "GOOGLE",
      "types": [
        "health",
        "point_of_interest",
        "establishment"
      ],
      "vicinity": "234 East 149th Street, The Bronx"
    },
    {
      "business_status": "OPERATIONAL",
      "geometry": {
        "location": {
          "lat": 40.8168904,
          "lng": -73.92444069999999
        },
        "viewport": {
          "northeast": {
            "lat": 40.8182874802915,
            "lng": -73.92250866970848
          },
          "southwest": {
            "lat": 40.8155895197085,
            "lng": -73.9252066302915
          }
        }
      },
      "icon": "https://maps.gstatic.com/mapfiles/place_api/icons/v1/png_71/pharmacy-71.png",
      "icon_background_color": "#F88181",
      "icon_mask_base_uri": "https://maps.gstatic.com/mapfiles/place_api/icons/v2/pharmacy_pinlet",
      "name": "Hansook Han, RPh",
      "place_id": "ChIJ56F418_1wokRuX4Rsm9hs5s",
      "plus_code": {
        "compound_code": "R38G+Q6 The Bronx, NY, USA",
        "global_code": "87G8R38G+Q6"
      },
      "reference": "ChIJ56F418_1wokRuX4Rsm9hs5s",
      "scope": "GOOGLE",
      "types": [
        "pharmacy",
        "store",
        "health",
        "point_of_interest",
        "establishment"
      ],
      "vicinity": "234 East 149th Street, The Bronx"
    },
    {
      "business_status": "OPERATIONAL",
      "geometry": {
        "location": {
          "lat": 40.8168904,
          "lng": -73.92444069999999
        },
        "viewport": {
          "northeast": {
            "lat": 40.8182874802915,
            "lng": -73.92250866970848
          },
          "southwest": {
            "lat": 40.8155895197085,
            "lng": -73.9252066302915
          }
        }
      },
      "icon": "https://maps.gstatic.com/mapfiles/place_api/icons/v1/png_71/pharmacy-71.png",
      "icon_background_color": "#F88181",
      "icon_mask_base_uri": "https://maps.gstatic.com/mapfiles/place_api/icons/v2/pharmacy_pinlet",
      "name": "Sung H. Joe, RPh",
      "place_id": "ChIJ56F418_1wokRxElmz_qvlxw",
      "plus_code": {
        "compound_code": "R38G+Q6 The Bronx, NY, USA",
        "global_code": "87G8R38G+Q6"
      },
      "reference": "ChIJ56F418_1wokRxElmz_qvlxw",
      "scope": "GOOGLE",
      "types": [
        "pharmacy",
        "store",
        "health",
        "point_of_interest",
        "establishment"
      ],
      "vicinity": "234 East 149th Street, The Bronx"
    },
    {
      "business_status": "OPERATIONAL",
      "geometry": {
        "location": {
          "lat": 40.8168904,
          "lng": -73.92444069999999
        },
        "viewport": {
          "northeast": {
            "lat": 40.8182874802915,
            "lng": -73.92250866970848
          },
          "southwest": {
            "lat": 40.8155895197085,
            "lng": -73.9252066302915
          }
        }
      },
      "icon": "https://maps.gstatic.com/mapfiles/place_api/icons/v1/png_71/generic_business-71.png",
      "icon_background_color": "#7B9EB0",
      "icon_mask_base_uri": "https://maps.gstatic.com/mapfiles/place_api/icons/v2/generic_pinlet",
      "name": "Lisa C. Schwartz, MSW",
      "photos": [
        {
          "height": 640,
          "html_attributions": [
            "<a href=\"https://maps.google.com/maps/contrib/111839201158954212265\">Maggy Machocho</a>"
          ],
          "photo_reference": "AeJbb3dG0CpvPnqTUzD6-eknspSy-XSltG7mPpeEcFYKzulEMnyQ0iAjevsq7a7ACN4r7XBDZie3CpW6yxK6MXnJT71M-LEgz9GovO0g9R5N3MLePowq8phnVRQPdb8Ebu5Yo0lCrxeMt2g25SWID10nsELw2JtBUQAPAXa40epjbHGz0f1J",
          "width": 640
        }
      ],
      "place_id": "ChIJ56F418_1wokRivKvFg9N_r0",
      "plus_code": {
        "compound_code": "R38G+Q6 The Bronx, NY, USA",
        "global_code": "87G8R38G+Q6"
      },
      "reference": "ChIJ56F418_1wokRivKvFg9N_r0",
      "scope": "GOOGLE",
      "types": [
        "point_of_interest",
        "establishment"
      ],
      "vicinity": "234 East 149th Street, The Bronx"
    },
    {
      "business_status": "OPERATIONAL",
      "geometry": {
        "location": {
          "lat": 40.8168904,
          "lng": -73.92444069999999
        },
        "viewport": {
          "northeast": {
            "lat": 40.8182874802915,
            "lng": -73.92250866970848
          },
          "southwest": {
            "lat": 40.8155895197085,
            "lng": -73.9252066302915
          }
        }
      },
      "icon": "https://maps.gstatic.com/mapfiles/place_api/icons/v1/png_71/generic_business-71.png",
      "icon_background_color": "#7B9EB0",
      "icon_mask_base_uri": "https://maps.gstatic.com/mapfiles/place_api/icons/v2/generic_pinlet",
      "name": "Tracey J. Saffer, Physician",
      "place_id": "ChIJ56F418_1wokRt6UsVRr-cuA",
      "plus_code": {
        "compound_code": "R38G+Q6 The Bronx, NY, USA",
        "global_code": "87G8R38G+Q6"
      },
      "reference": "ChIJ56F418_1wokRt6UsVRr-cuA",
      "scope": "GOOGLE",
      "types": [
        "doctor",
        "health",
        "point_of_interest",
        "establishment"
      ],
      "vicinity": "234 East 149th Street, The Bronx"
    },
    {
      "business_status": "OPERATIONAL",
      "geometry": {
        "location": {
          "lat": 40.817374,
          "lng": -73.9240962
        },
        "viewport": {
          "northeast": {
            "lat": 40.8185190302915,
            "lng": -73.9223364197085
          },
          "southwest": {
            "lat": 40.81582106970851,
            "lng": -73.9250343802915
          }
        }
      },
      "icon": "https://maps.gstatic.com/mapfiles/place_api/icons/v1/png_71/generic_business-71.png",
      "icon_background_color": "#7B9EB0",
      "icon_mask_base_uri": "https://maps.gstatic.com/mapfiles/place_api/icons/v2/generic_pinlet",
      "name": "Downtown Bronx Medical Assocs",
      "place_id": "ChIJ56F418_1wokRCGwMlqSzYjo",
      "plus_code": {
        "compound_code": "R38G+W9 The Bronx, NY, USA",
        "global_code": "87G8R38G+W9"
      },
      "reference": "ChIJ56F418_1wokRCGwMlqSzYjo",
      "scope": "GOOGLE",
      "types": [
        "health",
        "point_of_interest",
        "establishment"
      ],
      "vicinity": "234 East 149th Street, The Bronx"
    },
    {
      "business_status": "OPERATIONAL",
      "geometry": {
        "location": {
          "lat": 40.8168904,
          "lng": -73.92444069999999
        },
        "viewport": {
          "northeast": {
            "lat": 40.8182874802915,
            "lng": -73.92250866970848
          },
          "southwest": {
            "lat": 40.8155895197085,
            "lng": -73.9252066302915
          }
        }
      },
      "icon": "https://maps.gstatic.com/mapfiles/place_api/icons/v1/png_71/generic_business-71.png",
      "icon_background_color": "#7B9EB0",
      "icon_mask_base_uri": "https://maps.gstatic.com/mapfiles/place_api/icons/v2/generic_pinlet",
      "name": "Pegah Bardi, Physician",
      "place_id": "ChIJ56F418_1wokRB8i4a_eMFCs",
      "plus_code": {
        "compound_code": "R38G+Q6 The Bronx, NY, USA",
        "global_code": "87G8R38G+Q6"
      },
      "reference": "ChIJ56F418_1wokRB8i4a_eMFCs",
      "scope": "GOOGLE",
      "types": [
        "doctor",
        "health",
        "point_of_interest",
        "establishment"
      ],
      "vicinity": "234 East 149th Street, The Bronx"
    },
    {
      "business_status": "OPERATIONAL",
      "geometry": {
        "location": {
          "lat": 40.8168904,
          "lng": -73.92444069999999
        },
        "viewport": {
          "northeast": {
            "lat": 40.8182874802915,
            "lng": -73.92250866970848
          },
          "southwest": {
            "lat": 40.8155895197085,
            "lng": -73.9252066302915
          }
        }
      },
      "icon": "https://maps.gstatic.com/mapfiles/place_api/icons/v1/png_71/pharmacy-71.png",
      "icon_background_color": "#F88181",
      "icon_mask_base_uri": "https://maps.gstatic.com/mapfiles/place_api/icons/v2/pharmacy_pinlet",
      "name": "George Leo, RPh",
      "place_id": "ChIJ56F418_1wokRlPwCTfoNQ0o",
      "plus_code": {
        "compound_code": "R38G+Q6 The Bronx, NY, USA",
        "global_code": "87G8R38G+Q6"
      },
      "reference": "ChIJ56F418_1wokRlPwCTfoNQ0o",
      "scope": "GOOGLE",
      "types": [
        "pharmacy",
        "store",
        "health",
        "point_of_interest",
        "establishment"
      ],
      "vicinity": "234 East 149th Street, The Bronx"
    },
    {
      "business_status": "OPERATIONAL",
      "geometry": {
        "location": {
          "lat": 40.8168904,
          "lng": -73.92444069999999
        },
        "viewport": {
          "northeast": {
            "lat": 40.8182874802915,
            "lng": -73.92250866970848
          },
          "southwest": {
            "lat": 40.8155895197085,
            "lng": -73.9252066302915
          }
        }
      },
      "icon": "https://maps.gstatic.com/mapfiles/place_api/icons/v1/png_71/generic_business-71.png",
      "icon_background_color": "#7B9EB0",
      "icon_mask_base_uri": "https://maps.gstatic.com/mapfiles/place_api/icons/v2/generic_pinlet",
      "name": "Michaela Guiteau, PA",
      "place_id": "ChIJ56F418_1wokRsxXr949DeJY",
      "plus_code": {
        "compound_code": "R38G+Q6 The Bronx, NY, USA",
        "global_code": "87G8R38G+Q6"
      },
      "reference": "ChIJ56F418_1wokRsxXr949DeJY",
      "scope": "GOOGLE",
      "types": [
        "doctor",
        "health",
        "point_of_interest",
        "establishment"
      ],
      "vicinity": "234 East 149th Street, The Bronx"
    },
    {
      "business_status": "OPERATIONAL",
      "geometry": {
        "location": {
          "lat": 40.8168904,
          "lng": -73.92444069999999
        },
        "viewport": {
          "northeast": {
            "lat": 40.8182874802915,
            "lng": -73.92250866970848
          },
          "southwest": {
            "lat": 40.8155895197085,
            "lng": -73.9252066302915
          }
        }
      },
      "icon": "https://maps.gstatic.com/mapfiles/place_api/icons/v1/png_71/generic_business-71.png",
      "icon_background_color": "#7B9EB0",
      "icon_mask_base_uri": "https://maps.gstatic.com/mapfiles/place_api/icons/v2/generic_pinlet",
      "name": "Christina A. Persaud, RD",
      "place_id": "ChIJ56F418_1wokRVUH1pk0bx3E",
      "plus_code": {
        "compound_code": "R38G+Q6 The Bronx, NY, USA",
        "global_code": "87G8R38G+Q6"
      },
      "reference": "ChIJ56F418_1wokRVUH1pk0bx3E",
      "scope": "GOOGLE",
      "types": [
        "doctor",
        "health",
        "point_of_interest",
        "establishment"
      ],
      "vicinity": "234 East 149th Street, The Bronx"
    },
    {
      "business_status": "OPERATIONAL",
      "geometry": {
        "location": {
          "lat": 40.8168904,
          "lng": -73.92444069999999
        },
        "viewport": {
          "northeast": {
            "lat": 40.8182874802915,
            "lng": -73.92250866970848
          },
          "southwest": {
            "lat": 40.8155895197085,
            "lng": -73.9252066302915
          }
        }
      },
      "icon": "https://maps.gstatic.com/mapfiles/place_api/icons/v1/png_71/generic_business-71.png",
      "icon_background_color": "#7B9EB0",
      "icon_mask_base_uri": "https://maps.gstatic.com/mapfiles/place_api/icons/v2/generic_pinlet",
      "name": "Regina J. Bonillarodriguez, LMHC",
      "place_id": "ChIJ56F418_1wokRUrDrfbr0yD4",
      "plus_code": {
        "compound_code": "R38G+Q6 The Bronx, NY, USA",
        "global_code": "87G8R38G+Q6"
      },
      "reference": "ChIJ56F418_1wokRUrDrfbr0yD4",
      "scope": "GOOGLE",
      "types": [
        "doctor",
        "health",
        "point_of_interest",
        "establishment"
      ],
      "vicinity": "234 East 149th Street, The Bronx"
    },
    {
      "business_status": "OPERATIONAL",
      "geometry": {
        "location": {
          "lat": 40.8168904,
          "lng": -73.92444069999999
        },
        "viewport": {
          "northeast": {
            "lat": 40.8182874802915,
            "lng": -73.92250866970848
          },
          "southwest": {
            "lat": 40.8155895197085,
            "lng": -73.9252066302915
          }
        }
      },
      "icon": "https://maps.gstatic.com/mapfiles/place_api/icons/v1/png_71/pharmacy-71.png",
      "icon_background_color": "#F88181",
      "icon_mask_base_uri": "https://maps.gstatic.com/mapfiles/place_api/icons/v2/pharmacy_pinlet",
      "name": "Adeline R. Cheff, R",
      "place_id": "ChIJ56F418_1wokRRtx7I0kV7nc",
      "plus_code": {
        "compound_code": "R38G+Q6 The Bronx, NY, USA",
        "global_code": "87G8R38G+Q6"
      },
      "reference": "ChIJ56F418_1wokRRtx7I0kV7nc",
      "scope": "GOOGLE",
      "types": [
        "pharmacy",
        "store",
        "health",
        "point_of_interest",
        "establishment"
      ],
      "vicinity": "234 East 149th Street, The Bronx"
    },
    {
      "business_status": "OPERATIONAL",
      "geometry": {
        "location": {
          "lat": 40.817374,
          "lng": -73.9240962
        },
        "viewport": {
          "northeast": {
            "lat": 40.8185190302915,
            "lng": -73.9223364197085
          },
          "southwest": {
            "lat": 40.81582106970851,
            "lng": -73.9250343802915
          }
        }
      },
      "icon": "https://maps.gstatic.com/mapfiles/place_api/icons/v1/png_71/generic_business-71.png",
      "icon_background_color": "#7B9EB0",
      "icon_mask_base_uri": "https://maps.gstatic.com/mapfiles/place_api/icons/v2/generic_pinlet",
      "name": "Lincoln Medical & Mental Health: Shah Amish M MD",
      "place_id": "ChIJ56F418_1wokRv6vhJOlaejU",
      "plus_code": {
        "compound_code": "R38G+W9 The Bronx, NY, USA",
        "global_code": "87G8R38G+W9"
      },
      "reference": "ChIJ56F418_1wokRv6vhJOlaejU",
      "scope": "GOOGLE",
      "types": [
        "doctor",
        "health",
        "point_of_interest",
        "establishment"
      ],
      "vicinity": "234 East 149th Street, The Bronx"
    },
    {
      "business_status": "OPERATIONAL",
      "geometry": {
        "location": {
          "lat": 40.817374,
          "lng": -73.9240962
        },
        "viewport": {
          "northeast": {
            "lat": 40.8185190302915,
            "lng": -73.9223364197085
          },
          "southwest": {
            "lat": 40.81582106970851,
            "lng": -73.9250343802915
          }
        }
      },
      "icon": "https://maps.gstatic.com/mapfiles/place_api/icons/v1/png_71/generic_business-71.png",
      "icon_background_color": "#7B9EB0",
      "icon_mask_base_uri": "https://maps.gstatic.com/mapfiles/place_api/icons/v2/generic_pinlet",
      "name": "Dr. Marilyn P. Guerrero, MD",
      "place_id": "ChIJ56F418_1wokRKi9hcHspj40",
      "plus_code": {
        "compound_code": "R38G+W9 The Bronx, NY, USA",
        "global_code": "87G8R38G+W9"
      },
      "reference": "ChIJ56F418_1wokRKi9hcHspj40",
      "scope": "GOOGLE",
      "types": [
        "doctor",
        "health",
        "point_of_interest",
        "establishment"
      ],
      "vicinity": "234 East 149th Street, The Bronx"
    },
    {
      "business_status": "OPERATIONAL",
      "geometry": {
        "location": {
          "lat": 40.817374,
          "lng": -73.9240962
        },
        "viewport": {
          "northeast": {
            "lat": 40.8185190302915,
            "lng": -73.9223364197085
          },
          "southwest": {
            "lat": 40.81582106970851,
            "lng": -73.9250343802915
          }
        }
      },
      "icon": "https://maps.gstatic.com/mapfiles/place_api/icons/v1/png_71/generic_business-71.png",
      "icon_background_color": "#7B9EB0",
      "icon_mask_base_uri": "https://maps.gstatic.com/mapfiles/place_api/icons/v2/generic_pinlet",
      "name": "Dr. Katherine D. Schoyer, MD",
      "place_id": "ChIJ56F418_1wokRYEz-xr53-Iw",
      "plus_code": {
        "compound_code": "R38G+W9 The Bronx, NY, USA",
        "global_code": "87G8R38G+W9"
      },
      "reference": "ChIJ56F418_1wokRYEz-xr53-Iw",
      "scope": "GOOGLE",
      "types": [
        "doctor",
        "health",
        "point_of_interest",
        "establishment"
      ],
      "vicinity": "234 East 149th Street, The Bronx"
    },
    {
      "business_status": "OPERATIONAL",
      "geometry": {
        "location": {
          "lat": 40.817374,
          "lng": -73.9240962
        },
        "viewport": {
          "northeast": {
            "lat": 40.8185190302915,
            "lng": -73.9223364197085
          },
          "southwest": {
            "lat": 40.81582106970851,
            "lng": -73.9250343802915
          }
        }
      },
      "icon": "https://maps.gstatic.com/mapfiles/place_api/icons/v1/png_71/generic_business-71.png",
      "icon_background_color": "#7B9EB0",
      "icon_mask_base_uri": "https://maps.gstatic.com/mapfiles/place_api/icons/v2/generic_pinlet",
      "name": "Espejo Maria T MD",
      "place_id": "ChIJ56F418_1wokRzL26zx_PkAM",
      "plus_code": {
        "compound_code": "R38G+W9 The Bronx, NY, USA",
        "global_code": "87G8R38G+W9"
      },
      "reference": "ChIJ56F418_1wokRzL26zx_PkAM",
      "scope": "GOOGLE",
      "types": [
        "doctor",
        "health",
        "point_of_interest",
        "establishment"
      ],
      "vicinity": "234 East 149th Street, The Bronx"
    },
    {
      "business_status": "OPERATIONAL",
      "geometry": {
        "location": {
          "lat": 40.817374,
          "lng": -73.9240962
        },
        "viewport": {
          "northeast": {
            "lat": 40.8185190302915,
            "lng": -73.9223364197085
          },
          "southwest": {
            "lat": 40.81582106970851,
            "lng": -73.9250343802915
          }
        }
      },
      "icon": "https://maps.gstatic.com/mapfiles/place_api/icons/v1/png_71/pharmacy-71.png",
      "icon_background_color": "#F88181",
      "icon_mask_base_uri": "https://maps.gstatic.com/mapfiles/place_api/icons/v2/pharmacy_pinlet",
      "name": "Sini Thomas, RPh",
      "place_id": "ChIJMZ9418_1wokRnl3ceLxxu0w",
      "plus_code": {
        "compound_code": "R38G+W9 The Bronx, NY, USA",
        "global_code": "87G8R38G+W9"
      },
      "reference": "ChIJMZ9418_1wokRnl3ceLxxu0w",
      "scope": "GOOGLE",
      "types": [
        "pharmacy",
        "store",
        "health",
        "point_of_interest",
        "establishment"
      ],
      "vicinity": "234 East 149th Street, The Bronx"
    },
    {
      "business_status": "OPERATIONAL",
      "geometry": {
        "location": {
          "lat": 40.817374,
          "lng": -73.9240962
        },
        "viewport": {
          "northeast": {
            "lat": 40.8185190302915,
            "lng": -73.9223364197085
          },
          "southwest": {
            "lat": 40.81582106970851,
            "lng": -73.9250343802915
          }
        }
      },
      "icon": "https://maps.gstatic.com/mapfiles/place_api/icons/v1/png_71/generic_business-71.png",
      "icon_background_color": "#7B9EB0",
      "icon_mask_base_uri": "https://maps.gstatic.com/mapfiles/place_api/icons/v2/generic_pinlet",
      "name": "Dr. Rhodora P. Tolentino, MD",
      "place_id": "ChIJ56F418_1wokRyDiHpB1w8Qo",
      "plus_code": {
        "compound_code": "R38G+W9 The Bronx, NY, USA",
        "global_code": "87G8R38G+W9"
      },
      "reference": "ChIJ56F418_1wokRyDiHpB1w8Qo",
      "scope": "GOOGLE",
      "types": [
        "doctor",
        "health",
        "point_of_interest",
        "establishment"
      ],
      "vicinity": "234 East 149th Street, The Bronx"
    },
    {
      "business_status": "OPERATIONAL",
      "geometry": {
        "location": {
          "lat": 40.817374,
          "lng": -73.9240962
        },
        "viewport": {
          "northeast": {
            "lat": 40.8185190302915,
            "lng": -73.9223364197085
          },
          "southwest": {
            "lat": 40.81582106970851,
            "lng": -73.9250343802915
          }
        }
      },
      "icon": "https://maps.gstatic.com/mapfiles/place_api/icons/v1/png_71/generic_business-71.png",
      "icon_background_color": "#7B9EB0",
      "icon_mask_base_uri": "https://maps.gstatic.com/mapfiles/place_api/icons/v2/generic_pinlet",
      "name": "Wooding Thomas S",
      "place_id": "ChIJ56F418_1wokR1lenHCPn13o",
      "plus_code": {
        "compound_code": "R38G+W9 The Bronx, NY, USA",
        "global_code": "87G8R38G+W9"
      },
      "reference": "ChIJ56F418_1wokR1lenHCPn13o",
      "scope": "GOOGLE",
      "types": [
        "health",
        "point_of_interest",
        "establishment"
      ],
      "vicinity": "234 East 149th Street, The Bronx"
    },
    {
      "business_status": "OPERATIONAL",
      "geometry": {
        "location": {
          "lat": 40.817374,
          "lng": -73.9240962
        },
        "viewport": {
          "northeast": {
            "lat": 40.8185190302915,
            "lng": -73.9223364197085
          },
          "southwest": {
            "lat": 40.81582106970851,
            "lng": -73.9250343802915
          }
        }
      },
      "icon": "https://maps.gstatic.com/mapfiles/place_api/icons/v1/png_71/generic_business-71.png",
      "icon_background_color": "#7B9EB0",
      "icon_mask_base_uri": "https://maps.gstatic.com/mapfiles/place_api/icons/v2/generic_pinlet",
      "name": "Bateman Dina",
      "place_id": "ChIJ56F418_1wokR3CjqpfKZm7c",
      "plus_code": {
        "compound_code": "R38G+W9 The Bronx, NY, USA",
        "global_code": "87G8R38G+W9"
      },
      "reference": "ChIJ56F418_1wokR3CjqpfKZm7c",
      "scope": "GOOGLE",
      "types": [
        "point_of_interest",
        "establishment"
      ],
      "vicinity": "234 East 149th Street, The Bronx"
    }
  ],
  "status": "OK"
}