{
  "html_attributions": [],
  "results": [
    {
      "geometry": {
        "location": {
          "lat": 40.7127753,
          "lng": -74.0059728
        },
        "viewport": {
          "northeast": {
            "lat": 40.91757705070789,
            "lng": -73.70027206817629
          },
          "southwest": {
            "lat": 40.47739906045452,
            "lng": -74.25908991427882
          }
        }
      },
      "icon": "https://maps.gstatic.com/mapfiles/place_api/icons/v1/png_71/geocode-71.png",
      "icon_background_color": "#7B9EB0",
      "icon_mask_base_uri": "https://maps.gstatic.com/mapfiles/place_api/icons/v2/generic_pinlet",
      "name": "\u7d10\u7d04",
      "photos": [
        {
          "height": 600,
          "html_attributions": [
            "<a href=\"https://maps.google.com/maps/contrib/102389334567210814614\">Bukurie</a>"
          ],
          "photo_reference": "AeJbb3eDq0MhQ22WEFV7f1ecCBVOAR0vngDqMaNOcPv9F2_sc8ArpCOjThqCyh2Klps1pQjers9mbPxebJXL0z9c_l51kmPr-zdeyGDRYg9yclJ0DP3O9oAvVW-vicrBVRdeT8T6DFclb5oM-vGKf7h92QndWnL6q7ARlcroUAiWqp0MbwwA",
          "width": 480
        }
      ],
      "place_id": "ChIJOwg_06VPwokRYv534QaPC8g",
      "reference": "ChIJOwg_06VPwokRYv534QaPC8g",
      "scope": "GOOGLE",
      "types": [
        "locality",
        "political"
      ],
      "vicinity": "\u7d10\u7d04"
    },
    {
      "business_status": "OPERATIONAL",
      "geometry": {
        "location": {
          "lat": 40.8174218,
          "lng": -73.92720729999999
        },
        "viewport": {
          "northeast": {
            "lat": 40.8192605302915,
            "lng": -73.92613521970848
          },
          "southwest": {
            "lat": 40.8165625697085,
            "lng": -73.92883318029149
          }
        }
      },
      "icon": "https://maps.gstatic.com/mapfiles/place_api/icons/v1/png_71/school-71.png",
      "icon_background_color": "#7B9EB0",
      "icon_mask_base_uri": "https://maps.gstatic.com/mapfiles/place_api/icons/v2/school_pinlet",
      "name": "Hostos Community College",
      "opening_hours": {
        "open_now": true
      },
      "photos": [
        {
          "height": 1080,
          "html_attributions": [
            "<a href=\"https://maps.google.com/maps/contrib/110211705390897249088\">Hostos Community College</a>"
          ],
          "photo_reference": "AeJbb3c7KYJbaO2oibiV8ODDZ1ZE58czzhnA2NIKhUwaKwOEd6yaKNjTOw4Ms0bDvdSqvvCx0exejtIGIkf2an1d3MMrCoppWWU1SMVlNLyKgC7JzpnnQOBG6NKGV2uZDPKhwMrflxAz18oDScU6TJ_6py9bQaYrDx4x4n69p2xqOLsEZfwD",
          "width": 1920
        }
      ],
      "place_id": "ChIJ49l0jdD1wokRlJ4NQN2UVJE",
      "plus_code": {
        "compound_code": "R38F+X4 \u7f8e\u570b\u7d10\u7d04",
        "global_code": "87G8R38F+X4"
      },
      "rating": 4,
      "reference": "ChIJ49l0jdD1wokRlJ4NQN2UVJE",
      "scope": "GOOGLE",
      "types": [
        "university",
        "point_of_interest",
        "establishment"
      ],
      "user_ratings_total": 225,
      "vicinity": "500 Grand Concourse, The Bronx"
    },
    {
      "business_status": "OPERATIONAL",
      "geometry": {
        "location": {
          "lat": 40.8201728,
          "lng": -73.93019559999999
        },
        "viewport": {
          "northeast": {
            "lat": 40.82162548029149,
            "lng": -73.9289028197085
          },
          "southwest": {
            "lat": 40.8189275197085,
            "lng": -73.9316007802915
          }
        }
      },
      "icon": "https://maps.gstatic.com/mapfiles/place_api/icons/v1/png_71/generic_business-71.png",
      "icon_background_color": "#7B9EB0",
      "icon_mask_base_uri": "https://maps.gstatic.com/mapfiles/place_api/icons/v2/generic_pinlet",
      "name": "Geek Squad",
      "opening_hours": {
        "open_now": true
      },
      "photos": [
        {
          "height": 2322,
          "html_attributions": [
            "<a href=\"https://maps.google.com/maps/contrib/118095068066906826218\">Jennifer Perez</a>"
          ],
          "photo_reference": "AeJbb3cx-MUoF-GXQ4G9Gs2NotCKCJAbst2Xnb4nt7ovoRrzagEh_HKX7jXI4zsVyJCQemm29UT08gxCf8bBNgl3Be5AAn5g4wR_bIR3AwHEqINhJGDbPFq0vE0A5v4x2s0347yZaNqPfLLC2ll1JF-G6rbMORthOyRvk27sRep5S3aUC0vE",
          "width": 4128
        }
      ],
      "place_id": "ChIJRQnIrNb1wokRAzN1Jv2S5Oo",
      "plus_code": {
        "compound_code": "R3C9+3W \u7f8e\u570b\u7d10\u7d04",
        "global_code": "87G8R3C9+3W"
      },
      "price_level": 2,
      "rating": 3.7,
      "reference": "ChIJRQnIrNb1wokRAzN1Jv2S5Oo",
      "scope": "GOOGLE",
      "types": [
        "point_of_interest",
        "establishment"
      ],
      "user_ratings_total": 50,
      "vicinity": "610 Exterior Street, The Bronx"
    },
    {
      "business_status": "OPERATIONAL",
      "geometry": {
        "location": {
          "lat": 40.8201728,
          "lng": -73.93019559999999
        },
        "viewport": {
          "northeast": {
            "lat": 40.82162548029149,
            "lng": -73.9289028197085
          },
          "southwest": {
            "lat": 40.8189275197085,
            "lng": -73.9316007802915
          }
        }
      },
      "icon": "https://maps.gstatic.com/mapfiles/place_api/icons/v1/png_71/shopping-71.png",
      "icon_background_color": "#4B96F3",
      "icon_mask_base_uri": "https://maps.gstatic.com/mapfiles/place_api/icons/v2/shopping_pinlet",
      "name": "Best Buy",
      "opening_hours": {
        "open_now": true
      },
      "photos": [
        {
          "height": 640,
          "html_attributions": [
            "<a href=\"https://maps.google.com/maps/contrib/111719219215411994893\">Hecatonic</a>"
          ],
          "photo_reference": "AeJbb3erlMT86qP0rK_OFDAFC5XElZENE9FS2h5UMoY7UTh4ujdnEcxCnewKrXsa8mldk93b8NyAR_LFGVJLRDyV3D_U3VModS89p1yCmXhAaHGSXQWXbm-UGrrDswOpSFmbo-ryayCFWUFBrDtPE4NrGouA040jpna4Iul33R2pO3ShQ4Uq",
          "width": 1000
        }
      ],
      "place_id": "ChIJRQnIrNb1wokR30LCUcS0w54",
      "plus_code": {
        "compound_code": "R3C9+3W \u7f8e\u570b\u7d10\u7d04",
        "global_code": "87G8R3C9+3W"
      },
      "price_level": 2,
      "rating": 4.2,
      "reference": "ChIJRQnIrNb1wokR30LCUcS0w54",
      "scope": "GOOGLE",
      "types": [
        "electronics_store",
        "home_goods_store",
        "store",
        "point_of_interest",
        "establishment"
      ],
      "user_ratings_total": 3853,
      "vicinity": "610 Exterior Street, The Bronx"
    },
    {
      "business_status": "OPERATIONAL",
      "geometry": {
        "location": {
          "lat": 40.8214274,
          "lng": -73.9301519
        },
        "viewport": {
          "northeast": {
            "lat": 40.8232091302915,
            "lng": -73.9282075697085
          },
          "southwest": {
            "lat": 40.8205111697085,
            "lng": -73.93090553029151
          }
        }
      },
      "icon": "https://maps.gstatic.com/mapfiles/place_api/icons/v1/png_71/shopping-71.png",
      "icon_background_color": "#4B96F3",
      "icon_mask_base_uri": "https://maps.gstatic.com/mapfiles/place_api/icons/v2/shopping_pinlet",
      "name": "BJ's Wholesale Club",
      "opening_hours": {
        "open_now": true
      },
      "photos": [
        {
          "height": 4032,
          "html_attributions": [
            "<a href=\"https://maps.google.com/maps/contrib/111985775081777630064\">Yanina Calderon S.</a>"
          ],
          "photo_reference": "AeJbb3dpwpIy_g_XlVvjsHswyBQD2_q010-VxIbT6F3BcgybcJUU_AewYAakYHkuwm8Jk5MRFyzMk2E2u84_d2Zpgdi_piYMzdcW1Zbg0JlRqZxOptbj76LvzujQqZPjGmArreDk0PTYPiuGF8U2HWnnNRnW_OiND9tGjr6CXR7oHKySFEkk",
          "width": 3024
        }
      ],
      "place_id": "ChIJRQnIrNb1wokRia-1XQukvq0",
      "plus_code": {
        "compound_code": "R3C9+HW \u7f8e\u570b\u7d10\u7d04",
        "global_code": "87G8R3C9+HW"
      },
      "price_level": 1,
      "rating": 3.6,
      "reference": "ChIJRQnIrNb1wokRia-1XQukvq0",
      "scope": "GOOGLE",
      "types": [
        "supermarket",
        "bakery",
        "grocery_or_supermarket",
        "liquor_store",
        "health",
        "electronics_store",
        "store",
        "food",
        "point_of_interest",
        "establishment"
      ],
      "user_ratings_total": 807,
      "vicinity": "610 Exterior Street, The Bronx"
    },
    {
      "business_status": "OPERATIONAL",
      "geometry": {
        "location": {
          "lat": 40.819558,
          "lng": -73.928313
        },
        "viewport": {
          "northeast": {
            "lat": 40.8209042802915,
            "lng": -73.9268481697085
          },
          "southwest": {
            "lat": 40.8182063197085,
            "lng": -73.92954613029151
          }
        }
      },
      "icon": "https://maps.gstatic.com/mapfiles/place_api/icons/v1/png_71/generic_business-71.png",
      "icon_background_color": "#13B5C7",
      "icon_mask_base_uri": "https://maps.gstatic.com/mapfiles/place_api/icons/v2/generic_pinlet",
      "name": "Pregones/PRTT",
      "photos": [
        {
          "height": 3036,
          "html_attributions": [
            "<a href=\"https://maps.google.com/maps/contrib/115897686072186732981\">Alvester Garnett</a>"
          ],
          "photo_reference": "AeJbb3fVXa-2HjxAcJ4h47Y6AKFyId9R4vO-9E00q2RHbXvHJClsWR99MD3DZtVHTGXQFCX516VlSmGtOeRjn7ysWbPXQZMV6xit0-m4xmX4-su3jEi63uArkpwh9AS9IzspY15Ms-mfnhZeNW-GgF6UxaGYZP-NMBuIFy1BbnXmO309CyTx",
          "width": 4048
        }
      ],
      "place_id": "ChIJtVUDGtH1wokRCz5ooopOifA",
      "plus_code": {
        "compound_code": "R39C+RM \u7f8e\u570b\u7d10\u7d04\u5e03\u6717\u514b\u65af",
        "global_code": "87G8R39C+RM"
      },
      "rating": 4.7,
      "reference": "ChIJtVUDGtH1wokRCz5ooopOifA",
      "scope": "GOOGLE",
      "types": [
        "point_of_interest",
        "establishment"
      ],
      "user_ratings_total": 109,
      "vicinity": "575 Walton Avenue, The Bronx"
    },
    {
      "business_status": "OPERATIONAL",
      "geometry": {
        "location": {
          "lat": 40.816112,
          "lng": -73.9247757
        },
        "viewport": {
          "northeast": {
            "lat": 40.8186809,
            "lng": -73.92249490000002
          },
          "southwest": {
            "lat": 40.81469449999998,
            "lng": -73.92576209999997
          }
        }
      },
      "icon": "https://maps.gstatic.com/mapfiles/place_api/icons/v1/png_71/hospital-71.png",
      "icon_background_color": "#F88181",
      "icon_mask_base_uri": "https://maps.gstatic.com/mapfiles/place_api/icons/v2/hospital-H_pinlet",
      "name": "Lincoln Medical Center",
      "opening_hours": {
        "open_now": true
      },
      "photos": [
        {
          "height": 4000,
          "html_attributions": [
            "<a href=\"https://maps.google.com/maps/contrib/103902073171360095728\">Abdul-Mumin Sanni-Adam</a>"
          ],
          "photo_reference": "AeJbb3cH0Wum-u6LjJhGM5UUDQBq30gKCKL3JzlASW0QxyBI491dzoc5-KlnKtg3pdp7EyGq-aZq5zW7-3u_zgldvabyR_AnPbVCHs1ZzdwTjCa_GOsTcxgqYLn7DMJbY9hIoiQnULkAEiKM8cb_1dtT5-HYBDcfmI-LYy7PUNXsZUf3v_hb",
          "width": 3000
        }
      ],
      "place_id": "ChIJ56F418_1wokRMwWHcUO188E",
      "plus_code": {
        "compound_code": "R38G+C3 \u7f8e\u570b\u7d10\u7d04",
        "global_code": "87G8R38G+C3"
      },
      "rating": 2.6,
      "reference": "ChIJ56F418_1wokRMwWHcUO188E",
      "scope": "GOOGLE",
      "types": [
        "hospital",
        "health",
        "point_of_interest",
        "establishment"
      ],
      "user_ratings_total": 684,
      "vicinity": "234 East 149th Street, The Bronx"
    },
    {
      "business_status": "OPERATIONAL",
      "geometry": {
        "location": {
          "lat": 40.8181733,
          "lng": -73.9294242
        },
        "viewport": {
          "northeast": {
            "lat": 40.8195285802915,
            "lng": -73.92814601970849
          },
          "southwest": {
            "lat": 40.8168306197085,
            "lng": -73.9308439802915
          }
        }
      },
      "icon": "https://maps.gstatic.com/mapfiles/place_api/icons/v1/png_71/generic_business-71.png",
      "icon_background_color": "#7B9EB0",
      "icon_mask_base_uri": "https://maps.gstatic.com/mapfiles/place_api/icons/v2/generic_pinlet",
      "name": "Gauchos Gym",
      "opening_hours": {
        "open_now": true
      },
      "photos": [
        {
          "height": 3036,
          "html_attributions": [
            "<a href=\"https://maps.google.com/maps/contrib/102249037792241514380\">Aaron Holland</a>"
          ],
          "photo_reference": "AeJbb3cQyRmEzjIbmpJi4mCWVUto1sg3BbLXJP52oonyjYd6ugNgGI3FM9Z30vXpdtpukgOXqOd72PO9E_VaOlLPqX1XTqte9urGeECLbRW3Do6kBG3pdaFb0dXmRtGyxY4cDOoAI6lkBWFT3kK1svE6fmDjjZ9_IJeZB89TgcChk3-6A6r0",
          "width": 4048
        }
      ],
      "place_id": "ChIJFyt2xtD1wokRcYLu0zShCrE",
      "plus_code": {
        "compound_code": "R39C+76 \u7f8e\u570b\u7d10\u7d04\u5e03\u6717\u514b\u65af",
        "global_code": "87G8R39C+76"
      },
      "rating": 4.4,
      "reference": "ChIJFyt2xtD1wokRcYLu0zShCrE",
      "scope": "GOOGLE",
      "types": [
        "gym",
        "health",
        "point_of_interest",
        "establishment"
      ],
      "user_ratings_total": 63,
      "vicinity": "478 Gerard Avenue, The Bronx"
    },
    {
      "business_status": "CLOSED_TEMPORARILY",
      "geometry": {
        "location": {
          "lat": 40.8183151,
          "lng": -73.9276915
        },
        "viewport": {
          "northeast": {
            "lat": 40.81964393029149,
            "lng": -73.9262662197085
          },
          "southwest": {
            "lat": 40.8169459697085,
            "lng": -73.9289641802915
          }
        }
      },
      "icon": "https://maps.gstatic.com/mapfiles/place_api/icons/v1/png_71/school-71.png",
      "icon_background_color": "#7B9EB0",
      "icon_mask_base_uri": "https://maps.gstatic.com/mapfiles/place_api/icons/v2/school_pinlet",
      "name": "Hostos Academy",
      "permanently_closed": true,
      "photos": [
        {
          "height": 4032,
          "html_attributions": [
            "<a href=\"https://maps.google.com/maps/contrib/115973349696919279139\">Tarik Washington</a>"
          ],
          "photo_reference": "AeJbb3eJLFapQO47mm69_Zzw0Lsgfsdl1hjKR2PE5Dn_KZLcuExkm_09CY4yLLFm6a4XJ47D2rl-UP5A41dUVi-gEKRZBrLrJvmqw2Ko-HKTkghP-FYp8uyGhtS495md6wqP_5ZdejFEjyTAUnQq4zzpH20kdgWHODAj59WHOrf8Ds_GOm9z",
          "width": 1960
        }
      ],
      "place_id": "ChIJPeum8ND1wokRDjBO8-s8Eqo",
      "plus_code": {
        "compound_code": "R39C+8W \u7f8e\u570b\u7d10\u7d04",
        "global_code": "87G8R39C+8W"
      },
      "rating": 5,
      "reference": "ChIJPeum8ND1wokRDjBO8-s8Eqo",
      "scope": "GOOGLE",
      "types": [
        "school",
        "point_of_interest",
        "establishment"
      ],
      "user_ratings_total": 1,
      "vicinity": "477 Grand Concourse, The Bronx"
    },
    {
      "business_status": "OPERATIONAL",
      "geometry": {
        "location": {
          "lat": 40.8218624,
          "lng": -73.930208
        },
        "viewport": {
          "northeast": {
            "lat": 40.82320938029149,
            "lng": -73.92829501970849
          },
          "southwest": {
            "lat": 40.8205114197085,
            "lng": -73.93099298029149
          }
        }
      },
      "icon": "https://maps.gstatic.com/mapfiles/place_api/icons/v1/png_71/shopping-71.png",
      "icon_background_color": "#4B96F3",
      "icon_mask_base_uri": "https://maps.gstatic.com/mapfiles/place_api/icons/v2/shopping_pinlet",
      "name": "Marshalls",
      "opening_hours": {
        "open_now": true
      },
      "photos": [
        {
          "height": 3264,
          "html_attributions": [
            "<a href=\"https://maps.google.com/maps/contrib/108868400730287110660\">Ja M</a>"
          ],
          "photo_reference": "AeJbb3ekkt8m-cTTHhZpOzltw04emZFZ3c8k4hR5NB5Iv4NufASAsjYU6WHPfl9vdlDt5in1iox6F7i-R92r7EpLXN4bxE5dsOLZI3BV9jGX-AeL5k2VBy34QBZKZSoH_A1EG88Q6bjj-2oWt3uDX6W6QqJjdWv7RP7xlgjVJoT8jhhHrxzi",
          "width": 2448
        }
      ],
      "place_id": "ChIJRQnIrNb1wokRyG3oM4FkKsQ",
      "plus_code": {
        "compound_code": "R3C9+PW \u7f8e\u570b\u7d10\u7d04",
        "global_code": "87G8R3C9+PW"
      },
      "rating": 4.2,
      "reference": "ChIJRQnIrNb1wokRyG3oM4FkKsQ",
      "scope": "GOOGLE",
      "types": [
        "department_store",
        "clothing_store",
        "store",
        "point_of_interest",
        "establishment"
      ],
      "user_ratings_total": 927,
      "vicinity": "610 Exterior Street, The Bronx"
    },
    {
      "business_status": "OPERATIONAL",
      "geometry": {
        "location": {
          "lat": 40.8190242,
          "lng": -73.9274324
        },
        "viewport": {
          "northeast": {
            "lat": 40.8203339302915,
            "lng": -73.9259739697085
          },
          "southwest": {
            "lat": 40.8176359697085,
            "lng": -73.9286719302915
          }
        }
      },
      "icon": "https://maps.gstatic.com/mapfiles/place_api/icons/v1/png_71/shopping-71.png",
      "icon_background_color": "#4B96F3",
      "icon_mask_base_uri": "https://maps.gstatic.com/mapfiles/place_api/icons/v2/shopping_pinlet",
      "name": "PostNet",
      "opening_hours": {
        "open_now": false
      },
      "photos": [
        {
          "height": 768,
          "html_attributions": [
            "<a href=\"https://maps.google.com/maps/contrib/103390199756002664179\">PostNet</a>"
          ],
          "photo_reference": "AeJbb3fndzGb0mWKAaCc3MP56ObCa5aClGuR0mdAKZy3coBq2JYEx9svc-cHZ88EYUQX8l4bGK7iwxZXFM8wc8KTQU19uhF2iw8-4DISUOjLcVIBJqbcG7955EvqNlMyxx96yMpdc30eEfpwWII0fYBiSuIrA98dU_rCzVo_Y6aKK_aL6_Wn",
          "width": 1365
        }
      ],
      "place_id": "ChIJQcIjAdH1wokRYhDuotA5gDU",
      "plus_code": {
        "compound_code": "R39F+J2 \u7f8e\u570b\u7d10\u7d04",
        "global_code": "87G8R39F+J2"
      },
      "price_level": 2,
      "rating": 4.5,
      "reference": "ChIJQcIjAdH1wokRYhDuotA5gDU",
      "scope": "GOOGLE",
      "types": [
        "store",
        "point_of_interest",
        "establishment"
      ],
      "user_ratings_total": 115,
      "vicinity": "557 Grand Concourse Ste 3, The Bronx"
    },
    {
      "business_status": "OPERATIONAL",
      "geometry": {
        "location": {
          "lat": 40.8194431,
          "lng": -73.92722049999999
        },
        "viewport": {
          "northeast": {
            "lat": 40.8207683802915,
            "lng": -73.9257613197085
          },
          "southwest": {
            "lat": 40.8180704197085,
            "lng": -73.9284592802915
          }
        }
      },
      "icon": "https://maps.gstatic.com/mapfiles/place_api/icons/v1/png_71/restaurant-71.png",
      "icon_background_color": "#FF9E67",
      "icon_mask_base_uri": "https://maps.gstatic.com/mapfiles/place_api/icons/v2/restaurant_pinlet",
      "name": "Giovanni's",
      "opening_hours": {
        "open_now": true
      },
      "photos": [
        {
          "height": 3024,
          "html_attributions": [
            "<a href=\"https://maps.google.com/maps/contrib/116993096890774455089\">Brittany Holland</a>"
          ],
          "photo_reference": "AeJbb3fMGW9mOoa1NRyGl1QTACybwPAV1YFiArrMkTmzhPj68CLA6pR-QPUGv6djFlQO9gocHT38qTb3dRyRqNkdhhztWJc4eqnQnPUm2OZAgvOIiNM3jh9bAxNeG-NaoEh_VhGkglx1qCqEdNY0uiv5r5UEOzbgtB4Ivne5zjqB78Z84N1O",
          "width": 4032
        }
      ],
      "place_id": "ChIJZdK7p9H1wokRXtG1oueAShI",
      "plus_code": {
        "compound_code": "R39F+Q4 \u7f8e\u570b\u7d10\u7d04\u5e03\u6717\u514b\u65af",
        "global_code": "87G8R39F+Q4"
      },
      "price_level": 2,
      "rating": 3.9,
      "reference": "ChIJZdK7p9H1wokRXtG1oueAShI",
      "scope": "GOOGLE",
      "types": [
        "meal_delivery",
        "bar",
        "restaurant",
        "food",
        "point_of_interest",
        "establishment"
      ],
      "user_ratings_total": 1529,
      "vicinity": "579 Grand Concourse, The Bronx"
    },
    {
      "business_status": "OPERATIONAL",
      "geometry": {
        "location": {
          "lat": 40.817374,
          "lng": -73.9240962
        },
        "viewport": {
          "northeast": {
            "lat": 40.8185190302915,
            "lng": -73.9223364197085
          },
          "southwest": {
            "lat": 40.81582106970851,
            "lng": -73.9250343802915
          }
        }
      },
      "icon": "https://maps.gstatic.com/mapfiles/place_api/icons/v1/png_71/generic_business-71.png",
      "icon_background_color": "#7B9EB0",
      "icon_mask_base_uri": "https://maps.gstatic.com/mapfiles/place_api/icons/v2/generic_pinlet",
      "name": "Dr. Francisco J. Gonzalez-Franco, MD",
      "place_id": "ChIJ56F418_1wokRYhxifUTsT_A",
      "plus_code": {
        "compound_code": "R38G+W9 \u7f8e\u570b\u7d10\u7d04\u5e03\u6717\u514b\u65af",
        "global_code": "87G8R38G+W9"
      },
      "reference": "ChIJ56F418_1wokRYhxifUTsT_A",
      "scope": "GOOGLE",
      "types": [
        "doctor",
        "health",
        "point_of_interest",
        "establishment"
      ],
      "vicinity": "234 East 149th Street, The Bronx"
    },
    {
      "business_status": "OPERATIONAL",
      "geometry": {
        "location": {
          "lat": 40.817374,
          "lng": -73.9240962
        },
        "viewport": {
          "northeast": {
            "lat": 40.8185190302915,
            "lng": -73.9223364197085
          },
          "southwest": {
            "lat": 40.81582106970851,
            "lng": -73.9250343802915
          }
        }
      },
      "icon": "https://maps.gstatic.com/mapfiles/place_api/icons/v1/png_71/generic_business-71.png",
      "icon_background_color": "#7B9EB0",
      "icon_mask_base_uri": "https://maps.gstatic.com/mapfiles/place_api/icons/v2/generic_pinlet",
      "name": "Trakht Asya MD",
      "place_id": "ChIJ56F418_1wokRGGljpJJMOsI",
      "plus_code": {
        "compound_code": "R38G+W9 \u7f8e\u570b\u7d10\u7d04\u5e03\u6717\u514b\u65af",
        "global_code": "87G8R38G+W9"
      },
      "reference": "ChIJ56F418_1wokRGGljpJJMOsI",
      "scope": "GOOGLE",
      "types": [
        "doctor",
        "health",
        "point_of_interest",
        "establishment"
      ],
      "vicinity": "234 East 149th Street, The Bronx"
    },
    {
      "business_status": "OPERATIONAL",
      "geometry": {
        "location": {
          "lat": 40.817374,
          "lng": -73.9240962
        },
        "viewport": {
          "northeast": {
            "lat": 40.8185190302915,
            "lng": -73.9223364197085
          },
          "southwest": {
            "lat": 40.81582106970851,
            "lng": -73.9250343802915
          }
        }
      },
      "icon": "https://maps.gstatic.com/mapfiles/place_api/icons/v1/png_71/generic_business-71.png",
      "icon_background_color": "#7B9EB0",
      "icon_mask_base_uri": "https://maps.gstatic.com/mapfiles/place_api/icons/v2/generic_pinlet",
      "name": "Lincoln Medical & Mental Health: Parry Thomas H MD",
      "place_id": "ChIJ56F418_1wokRU5uVAsX0Gy0",
      "plus_code": {
        "compound_code": "R38G+W9 \u7f8e\u570b\u7d10\u7d04\u5e03\u6717\u514b\u65af",
        "global_code": "87G8R38G+W9"
      },
      "reference": "ChIJ56F418_1wokRU5uVAsX0Gy0",
      "scope": "GOOGLE",
      "types": [
        "doctor",
        "health",
        "point_of_interest",
        "establishment"
      ],
      "vicinity": "234 East 149th Street, The Bronx"
    },
    {
      "business_status": "OPERATIONAL",
      "geometry": {
        "location": {
          "lat": 40.817374,
          "lng": -73.9240962
        },
        "viewport": {
          "northeast": {
            "lat": 40.8185190302915,
            "lng": -73.9223364197085
          },
          "southwest": {
            "lat": 40.81582106970851,
            "lng": -73.9250343802915
          }
        }
      },
      "icon": "https://maps.gstatic.com/mapfiles/place_api/icons/v1/png_71/generic_business-71.png",
      "icon_background_color": "#7B9EB0",
      "icon_mask_base_uri": "https://maps.gstatic.com/mapfiles/place_api/icons/v2/generic_pinlet",
      "name": "Dr. Sindhaghatta K. Venkatram, MD",
      "place_id": "ChIJ56F418_1wokRHWcy5kcmUGE",
      "plus_code": {
        "compound_code": "R38G+W9 \u7f8e\u570b\u7d10\u7d04\u5e03\u6717\u514b\u65af",
        "global_code": "87G8R38G+W9"
      },
      "reference": "ChIJ56F418_1wokRHWcy5kcmUGE",
      "scope": "GOOGLE",
      "types": [
        "doctor",
        "health",
        "point_of_interest",
        "establishment"
      ],
      "vicinity": "234 East 149th Street, The Bronx"
    },
    {
      "business_status": "OPERATIONAL",
      "geometry": {
        "location": {
          "lat": 40.817374,
          "lng": -73.9240962
        },
        "viewport": {
          "northeast": {
            "lat": 40.8185190302915,
            "lng": -73.9223364197085
          },
          "southwest": {
            "lat": 40.81582106970851,
            "lng": -73.9250343802915
          }
        }
      },
      "icon": "https://maps.gstatic.com/mapfiles/place_api/icons/v1/png_71/generic_business-71.png",
      "icon_background_color": "#7B9EB0",
      "icon_mask_base_uri": "https://maps.gstatic.com/mapfiles/place_api/icons/v2/generic_pinlet",
      "name": "Josephson Elaine B MD",
      "place_id": "ChIJ56F418_1wokRzRS1NoKFmQM",
      "plus_code": {
        "compound_code": "R38G+W9 \u7f8e\u570b\u7d10\u7d04\u5e03\u6717\u514b\u65af",
        "global_code": "87G8R38G+W9"
      },
      "reference": "ChIJ56F418_1wokRzRS1NoKFmQM",
      "scope": "GOOGLE",
      "types": [
        "doctor",
        "health",
        "point_of_interest",
        "establishment"
      ],
      "vicinity": "234 East 149th Street, The Bronx"
    },
    {
      "business_status": "OPERATIONAL",
      "geometry": {
        "location": {
          "lat": 40.817374,
          "lng": -73.9240962
        },
        "viewport": {
          "northeast": {
            "lat": 40.8185190302915,
            "lng": -73.9223364197085
          },
          "southwest": {
            "lat": 40.81582106970851,
            "lng": -73.9250343802915
          }
        }
      },
      "icon": "https://maps.gstatic.com/mapfiles/place_api/icons/v1/png_71/generic_business-71.png",
      "icon_background_color": "#7B9EB0",
      "icon_mask_base_uri": "https://maps.gstatic.com/mapfiles/place_api/icons/v2/generic_pinlet",
      "name": "Dr. Nirmala Kanna, MD",
      "place_id": "ChIJ56F418_1wokRxwsjn71gT4I",
      "plus_code": {
        "compound_code": "R38G+W9 \u7f8e\u570b\u7d10\u7d04\u5e03\u6717\u514b\u65af",
        "global_code": "87G8R38G+W9"
      },
      "reference": "ChIJ56F418_1wokRxwsjn71gT4I",
      "scope": "GOOGLE",
      "types": [
        "doctor",
        "health",
        "point_of_interest",
        "establishment"
      ],
      "vicinity": "234 East 149th Street, The Bronx"
    },
    {
      "business_status": "OPERATIONAL",
      "geometry": {
        "location": {
          "lat": 40.817374,
          "lng": -73.9240962
        },
        "viewport": {
          "northeast": {
            "lat": 40.8185190302915,
            "lng": -73.9223364197085
          },
          "southwest": {
            "lat": 40.81582106970851,
            "lng": -73.9250343802915
          }
        }
      },
      "icon": "https://maps.gstatic.com/mapfiles/place_api/icons/v1/png_71/generic_business-71.png",
      "icon_background_color": "#7B9EB0",
      "icon_mask_base_uri": "https://maps.gstatic.com/mapfiles/place_api/icons/v2/generic_pinlet",
      "name": "Lincoln Medical & Mental Health: Celentano James MD",
      "place_id": "ChIJ56F418_1wokR4PwHgFPeqJk",
      "plus_code": {
        "compound_code": "R38G+W9 \u7f8e\u570b\u7d10\u7d04\u5e03\u6717\u514b\u65af",
        "global_code": "87G8R38G+W9"
      },
      "reference": "ChIJ56F418_1wokR4PwHgFPeqJk",
      "scope": "GOOGLE",
      "types": [
        "doctor",
        "health",
        "point_of_interest",
        "establishment"
      ],
      "vicinity": "234 East 149th Street, The Bronx"
    },
    {
      "geometry": {
        "location": {
          "lat": 40.8240478,
          "lng": -73.9447643
        },
        "viewport": {
          "northeast": {
            "lat": 40.87822003591612,
            "lng": -73.91064591328563
          },
          "southwest": {
            "lat": 40.78278392408598,
            "lng": -73.97119006413347
          }
        }
      },
      "icon": "https://maps.gstatic.com/mapfiles/place_api/icons/v1/png_71/geocode-71.png",
      "icon_background_color": "#7B9EB0",
      "icon_mask_base_uri": "https://maps.gstatic.com/mapfiles/place_api/icons/v2/generic_pinlet",
      "name": "\u66fc\u54c8\u9813\u4e0a\u57ce",
      "photos": [
        {
          "height": 4000,
          "html_attributions": [
            "<a href=\"https://maps.google.com/maps/contrib/108665206705263687409\">Chris Lidstone</a>"
          ],
          "photo_reference": "AeJbb3eZ4iXgsIdkvKo-akykHUYSSs5b7kuYAVphV8UIn4tYI-C5FAfGn9XmTFIwc0ySBPfMPIzJ5PrP5XSTYy_79GXTeluiNb4ssUlgS4u5jDLnWdnEVvk1icHIzLxviUHwsWxbrW7vld5MiNis5ef5Z0HwC9BjcdCcX-PJLT5kBmV8nhiu",
          "width": 3000
        }
      ],
      "place_id": "ChIJY50xHxP2wokR7WhhDNRmgRU",
      "reference": "ChIJY50xHxP2wokR7WhhDNRmgRU",
      "scope": "GOOGLE",
      "types": [
        "neighborhood",
        "political"
      ],
      "vicinity": "\u66fc\u54c8\u9813"
    },
    {
      "business_status": "OPERATIONAL",
      "geometry": {
        "location": {
          "lat": 40.817374,
          "lng": -73.9240962
        },
        "viewport": {
          "northeast": {
            "lat": 40.8185190302915,
            "lng": -73.9223364197085
          },
          "southwest": {
            "lat": 40.81582106970851,
            "lng": -73.9250343802915
          }
        }
      },
      "icon": "https://maps.gstatic.com/mapfiles/place_api/icons/v1/png_71/generic_business-71.png",
      "icon_background_color": "#7B9EB0",
      "icon_mask_base_uri": "https://maps.gstatic.com/mapfiles/place_api/icons/v2/generic_pinlet",
      "name": "Dr. Ramnath D. Kapoor, MD",
      "place_id": "ChIJ56F418_1wokR8SfBg9mUFVk",
      "plus_code": {
        "compound_code": "R38G+W9 The Bronx, NY, USA",
        "global_code": "87G8R38G+W9"
      },
      "reference": "ChIJ56F418_1wokR8SfBg9mUFVk",
      "scope": "GOOGLE",
      "types": [
        "doctor",
        "point_of_interest",
        "health",
        "establishment"
      ],
      "vicinity": "234 East 149th Street, The Bronx"
    },
    {
      "business_status": "OPERATIONAL",
      "geometry": {
        "location": {
          "lat": 40.817374,
          "lng": -73.9240962
        },
        "viewport": {
          "northeast": {
            "lat": 40.8185190302915,
            "lng": -73.9223364197085
          },
          "southwest": {
            "lat": 40.81582106970851,
            "lng": -73.9250343802915
          }
        }
      },
      "icon": "https://maps.gstatic.com/mapfiles/place_api/icons/v1/png_71/generic_business-71.png",
      "icon_background_color": "#7B9EB0",
      "icon_mask_base_uri": "https://maps.gstatic.com/mapfiles/place_api/icons/v2/generic_pinlet",
      "name": "Narayanan Sivasubrama MD",
      "place_id": "ChIJ56F418_1wokR-KUM4FzutEI",
      "plus_code": {
        "compound_code": "R38G+W9 The Bronx, NY, USA",
        "global_code": "87G8R38G+W9"
      },
      "reference": "ChIJ56F418_1wokR-KUM4FzutEI",
      "scope": "GOOGLE",
      "types": [
        "doctor",
        "point_of_interest",
        "health",
        "establishment"
      ],
      "vicinity": "234 East 149th Street, The Bronx"
    },
    {
      "business_status": "OPERATIONAL",
      "geometry": {
        "location": {
          "lat": 40.817374,
          "lng": -73.9240962
        },
        "viewport": {
          "northeast": {
            "lat": 40.8185190302915,
            "lng": -73.9223364197085
          },
          "southwest": {
            "lat": 40.81582106970851,
            "lng": -73.9250343802915
          }
        }
      },
      "icon": "https://maps.gstatic.com/mapfiles/place_api/icons/v1/png_71/generic_business-71.png",
      "icon_background_color": "#7B9EB0",
      "icon_mask_base_uri": "https://maps.gstatic.com/mapfiles/place_api/icons/v2/generic_pinlet",
      "name": "Dr. Jean J. Cadet, MD",
      "place_id": "ChIJ56F418_1wokRthIBu8PM87o",
      "plus_code": {
        "compound_code": "R38G+W9 The Bronx, NY, USA",
        "global_code": "87G8R38G+W9"
      },
      "reference": "ChIJ56F418_1wokRthIBu8PM87o",
      "scope": "GOOGLE",
      "types": [
        "doctor",
        "point_of_interest",
        "health",
        "establishment"
      ],
      "vicinity": "234 East 149th Street, The Bronx"
    },
    {
      "business_status": "OPERATIONAL",
      "geometry": {
        "location": {
          "lat": 40.815542,
          "lng": -73.9304433
        },
        "viewport": {
          "northeast": {
            "lat": 40.8170136302915,
            "lng": -73.9286122697085
          },
          "southwest": {
            "lat": 40.81431566970851,
            "lng": -73.9313102302915
          }
        }
      },
      "icon": "https://maps.gstatic.com/mapfiles/place_api/icons/v1/png_71/school-71.png",
      "icon_background_color": "#7B9EB0",
      "icon_mask_base_uri": "https://maps.gstatic.com/mapfiles/place_api/icons/v2/school_pinlet",
      "name": "X670 Health Opportunities High School",
      "opening_hours": {
        "open_now": false
      },
      "photos": [
        {
          "height": 4032,
          "html_attributions": [
            "<a href=\"https://maps.google.com/maps/contrib/113039579472990924530\">Nicole Bulls</a>"
          ],
          "photo_reference": "AeJbb3f_4ifSKyaoE5OkL0vUMGUWTHeXFJDZ10fl8h5wFj1_owbNc2bZ7Rl-irn7DJi0XwIhMEmPsWxxteQ9aTWBG0WqI1cW_Qe7IhXUJ_K0hg-jZ1ER-G0WLsA-6r3GDVXpyxECh8eIm8I3aF5G62GF8QdgULrVSYyLhCJ6T2Ygd9En3OBO",
          "width": 3024
        }
      ],
      "place_id": "ChIJNSyH9Nn1wokRKAaZ5NKiKPk",
      "plus_code": {
        "compound_code": "R389+6R New York, NY, USA",
        "global_code": "87G8R389+6R"
      },
      "rating": 4.3,
      "reference": "ChIJNSyH9Nn1wokRKAaZ5NKiKPk",
      "scope": "GOOGLE",
      "types": [
        "school",
        "point_of_interest",
        "establishment"
      ],
      "user_ratings_total": 28,
      "vicinity": "350 Gerard Avenue, The Bronx"
    },
    {
      "business_status": "OPERATIONAL",
      "geometry": {
        "location": {
          "lat": 40.81672289999999,
          "lng": -73.9304962
        },
        "viewport": {
          "northeast": {
            "lat": 40.8177063802915,
            "lng": -73.9291059697085
          },
          "southwest": {
            "lat": 40.8150084197085,
            "lng": -73.93180393029151
          }
        }
      },
      "icon": "https://maps.gstatic.com/mapfiles/place_api/icons/v1/png_71/generic_business-71.png",
      "icon_background_color": "#7B9EB0",
      "icon_mask_base_uri": "https://maps.gstatic.com/mapfiles/place_api/icons/v2/generic_pinlet",
      "name": "Public Storage",
      "opening_hours": {
        "open_now": true
      },
      "photos": [
        {
          "height": 1080,
          "html_attributions": [
            "<a href=\"https://maps.google.com/maps/contrib/114481650565249488844\">Public Storage</a>"
          ],
          "photo_reference": "AeJbb3eEOL0HAde5WzlFjymWuqk4OeskpcHPpZiZt5v0cPlh6D3tWoYY33qHw9kEIkZEHqqvtoVpcC7BBXwFR2Qpu5wC-0bNur34ah2pCKEnbE9s-RXdmXxdrHayWjoEecgsgXYJ4Z-HGA10wBKl88Z05mHoarSHSvKsffVuNA_IO1rs43ca",
          "width": 1920
        }
      ],
      "place_id": "ChIJDTUAVtf1wokRCVKfA1SEc4U",
      "plus_code": {
        "compound_code": "R389+MR The Bronx, NY, USA",
        "global_code": "87G8R389+MR"
      },
      "rating": 4.6,
      "reference": "ChIJDTUAVtf1wokRCVKfA1SEc4U",
      "scope": "GOOGLE",
      "types": [
        "storage",
        "point_of_interest",
        "store",
        "establishment"
      ],
      "user_ratings_total": 1175,
      "vicinity": "385 Gerard Avenue, The Bronx"
    },
    {
      "business_status": "OPERATIONAL",
      "geometry": {
        "location": {
          "lat": 40.817374,
          "lng": -73.9240962
        },
        "viewport": {
          "northeast": {
            "lat": 40.8184815802915,
            "lng": -73.92235351970848
          },
          "southwest": {
            "lat": 40.8157836197085,
            "lng": -73.9250514802915
          }
        }
      },
      "icon": "https://maps.gstatic.com/mapfiles/place_api/icons/v1/png_71/generic_business-71.png",
      "icon_background_color": "#7B9EB0",
      "icon_mask_base_uri": "https://maps.gstatic.com/mapfiles/place_api/icons/v2/generic_pinlet",
      "name": "Mitsianis Dimitra",
      "place_id": "ChIJN_F618_1wokRXYp5nxCy1t8",
      "plus_code": {
        "compound_code": "R38G+W9 The Bronx, NY, USA",
        "global_code": "87G8R38G+W9"
      },
      "reference": "ChIJN_F618_1wokRXYp5nxCy1t8",
      "scope": "GOOGLE",
      "types": [
        "doctor",
        "point_of_interest",
        "health",
        "establishment"
      ],
      "vicinity": "234 East 149th Street #14, The Bronx"
    },
    {
      "business_status": "OPERATIONAL",
      "geometry": {
        "location": {
          "lat": 40.8203967,
          "lng": -73.92743999999999
        },
        "viewport": {
          "northeast": {
            "lat": 40.8216076802915,
            "lng": -73.92591401970849
          },
          "southwest": {
            "lat": 40.8189097197085,
            "lng": -73.92861198029149
          }
        }
      },
      "icon": "https://maps.gstatic.com/mapfiles/place_api/icons/v1/png_71/school-71.png",
      "icon_background_color": "#7B9EB0",
      "icon_mask_base_uri": "https://maps.gstatic.com/mapfiles/place_api/icons/v2/school_pinlet",
      "name": "Public Preparatory Network",
      "photos": [
        {
          "height": 313,
          "html_attributions": [
            "<a href=\"https://maps.google.com/maps/contrib/106655576667852283010\">Public Preparatory Network</a>"
          ],
          "photo_reference": "AeJbb3foBPbvGwh7lDeNMkFvSBtpmnv1MuSB9I2YKw9X13wKRSjjDQ_BNF6Edel8mahy8sPlztk3d2bj2UcO2oHaL4U_Ae_xEV-zC4VUTMoKIlk4AiJFn1cUOPQUgJOmY5Y37VCEu6V6OV4fx9rQ72L351BxfXI3Ld3pLJSiPi38gMjc-bQa",
          "width": 834
        }
      ],
      "place_id": "ChIJSZ8w5iFawokR_ESPlKeqBXA",
      "plus_code": {
        "compound_code": "R3CF+52 The Bronx, NY, USA",
        "global_code": "87G8R3CF+52"
      },
      "rating": 2.3,
      "reference": "ChIJSZ8w5iFawokR_ESPlKeqBXA",
      "scope": "GOOGLE",
      "types": [
        "primary_school",
        "school",
        "point_of_interest",
        "establishment"
      ],
      "user_ratings_total": 3,
      "vicinity": "192 East 151st Street, The Bronx"
    },
    {
      "business_status": "OPERATIONAL",
      "geometry": {
        "location": {
          "lat": 40.81770379999999,
          "lng": -73.9240054
        },
        "viewport": {
          "northeast": {
            "lat": 40.8190400802915,
            "lng": -73.9226619697085
          },
          "southwest": {
            "lat": 40.8163421197085,
            "lng": -73.9253599302915
          }
        }
      },
      "icon": "https://maps.gstatic.com/mapfiles/place_api/icons/v1/png_71/generic_business-71.png",
      "icon_background_color": "#7B9EB0",
      "icon_mask_base_uri": "https://maps.gstatic.com/mapfiles/place_api/icons/v2/generic_pinlet",
      "name": "Generations Medical Services",
      "place_id": "ChIJN_F618_1wokRQ5C1qNHacxo",
      "plus_code": {
        "compound_code": "R39G+39 The Bronx, NY, USA",
        "global_code": "87G8R39G+39"
      },
      "reference": "ChIJN_F618_1wokRQ5C1qNHacxo",
      "scope": "GOOGLE",
      "types": [
        "point_of_interest",
        "health",
        "establishment"
      ],
      "vicinity": "234 E 149th St # 8D200, The Bronx"
    },
    {
      "business_status": "OPERATIONAL",
      "geometry": {
        "location": {
          "lat": 40.818922,
          "lng": -73.9265447
        },
        "viewport": {
          "northeast": {
            "lat": 40.8202019302915,
            "lng": -73.9249822697085
          },
          "southwest": {
            "lat": 40.8175039697085,
            "lng": -73.9276802302915
          }
        }
      },
      "icon": "https://maps.gstatic.com/mapfiles/place_api/icons/v1/png_71/generic_business-71.png",
      "icon_background_color": "#7B9EB0",
      "icon_mask_base_uri": "https://maps.gstatic.com/mapfiles/place_api/icons/v2/generic_pinlet",
      "name": "Bronx Mailhandlers",
      "place_id": "ChIJM3vArdH1wokR9O4VWPOcZTY",
      "plus_code": {
        "compound_code": "R39F+H9 The Bronx, NY, USA",
        "global_code": "87G8R39F+H9"
      },
      "rating": 5,
      "reference": "ChIJM3vArdH1wokR9O4VWPOcZTY",
      "scope": "GOOGLE",
      "types": [
        "point_of_interest",
        "establishment"
      ],
      "user_ratings_total": 1,
      "vicinity": "558 Grand Concourse #318, The Bronx"
    },
    {
      "business_status": "OPERATIONAL",
      "geometry": {
        "location": {
          "lat": 40.81916400000001,
          "lng": -73.92724969999999
        },
        "viewport": {
          "northeast": {
            "lat": 40.8204575302915,
            "lng": -73.92585751970849
          },
          "southwest": {
            "lat": 40.81775956970851,
            "lng": -73.9285554802915
          }
        }
      },
      "icon": "https://maps.gstatic.com/mapfiles/place_api/icons/v1/png_71/generic_business-71.png",
      "icon_background_color": "#7B9EB0",
      "icon_mask_base_uri": "https://maps.gstatic.com/mapfiles/place_api/icons/v2/generic_pinlet",
      "name": "Pena & Kahn PLLC",
      "opening_hours": {
        "open_now": false
      },
      "place_id": "ChIJQcIjAdH1wokRx8qa3IIJpvs",
      "plus_code": {
        "compound_code": "R39F+M4 New York, NY, USA",
        "global_code": "87G8R39F+M4"
      },
      "rating": 3.2,
      "reference": "ChIJQcIjAdH1wokRx8qa3IIJpvs",
      "scope": "GOOGLE",
      "types": [
        "point_of_interest",
        "lawyer",
        "establishment"
      ],
      "user_ratings_total": 5,
      "vicinity": "557 Grand Concourse, The Bronx"
    },
    {
      "business_status": "OPERATIONAL",
      "geometry": {
        "location": {
          "lat": 40.8190183,
          "lng": -73.92731359999999
        },
        "viewport": {
          "northeast": {
            "lat": 40.8203846802915,
            "lng": -73.92589581970849
          },
          "southwest": {
            "lat": 40.8176867197085,
            "lng": -73.92859378029151
          }
        }
      },
      "icon": "https://maps.gstatic.com/mapfiles/place_api/icons/v1/png_71/restaurant-71.png",
      "icon_background_color": "#FF9E67",
      "icon_mask_base_uri": "https://maps.gstatic.com/mapfiles/place_api/icons/v2/restaurant_pinlet",
      "name": "Burger King",
      "opening_hours": {
        "open_now": true
      },
      "photos": [
        {
          "height": 1960,
          "html_attributions": [
            "<a href=\"https://maps.google.com/maps/contrib/101214414976060054235\">Boris P.</a>"
          ],
          "photo_reference": "AeJbb3c94NY0CK486BSuOgK75uSJIEEl4x5sIsMw7C300i2Ep_NjBH6XcuM0C0yYqS659f0GL1qaAlb0EqIwO4jEBN1njAAPcd1f_p2tcaXs3fs-e6ZvmOTlqxA4NWGGCWKpjZmO8-tAgW7orKVlEUr8pNlYNYU-GB6bow-h2Q1dgWKrX7Zr",
          "width": 4032
        }
      ],
      "place_id": "ChIJQcIjAdH1wokRTbOarzSsaU0",
      "plus_code": {
        "compound_code": "R39F+J3 New York, NY, USA",
        "global_code": "87G8R39F+J3"
      },
      "price_level": 1,
      "rating": 3.7,
      "reference": "ChIJQcIjAdH1wokRTbOarzSsaU0",
      "scope": "GOOGLE",
      "types": [
        "restaurant",
        "point_of_interest",
        "food",
        "establishment"
      ],
      "user_ratings_total": 383,
      "vicinity": "557 Grand Concourse, The Bronx"
    },
    {
      "business_status": "OPERATIONAL",
      "geometry": {
        "location": {
          "lat": 40.8204238,
          "lng": -73.9280162
        },
        "viewport": {
          "northeast": {
            "lat": 40.82174578029149,
            "lng": -73.92655551970851
          },
          "southwest": {
            "lat": 40.81904781970849,
            "lng": -73.92925348029152
          }
        }
      },
      "icon": "https://maps.gstatic.com/mapfiles/place_api/icons/v1/png_71/generic_business-71.png",
      "icon_background_color": "#7B9EB0",
      "icon_mask_base_uri": "https://maps.gstatic.com/mapfiles/place_api/icons/v2/generic_pinlet",
      "name": "Johnson Security Bureau, Inc.",
      "opening_hours": {
        "open_now": false
      },
      "photos": [
        {
          "height": 1080,
          "html_attributions": [
            "<a href=\"https://maps.google.com/maps/contrib/115163069282615343157\">Johnson Security Bureau, Inc.</a>"
          ],
          "photo_reference": "AeJbb3egvN5glRq8GlMXchZHLofARE3acoGtWxjVoZ0ZK7RHzvQgH8jzb4pn2yKRrErd_AmFsM4ps-3OdhE4_vIHfmsh1J-VtOxp9ao3t38EOKHy8tkLFdk7X57vGmIkDkpum4v5BkQlGP04oF1rM_ZxkU0Os1s6slgjvy1v_b_9M3GSK6D1",
          "width": 1080
        }
      ],
      "place_id": "ChIJq2JubtH1wokR1b4FPxUozDw",
      "plus_code": {
        "compound_code": "R3CC+5Q The Bronx, NY, USA",
        "global_code": "87G8R3CC+5Q"
      },
      "rating": 2.9,
      "reference": "ChIJq2JubtH1wokR1b4FPxUozDw",
      "scope": "GOOGLE",
      "types": [
        "point_of_interest",
        "health",
        "establishment"
      ],
      "user_ratings_total": 30,
      "vicinity": "609 Walton Avenue, The Bronx"
    },
    {
      "business_status": "OPERATIONAL",
      "geometry": {
        "location": {
          "lat": 40.81689049999999,
          "lng": -73.9244406
        },
        "viewport": {
          "northeast": {
            "lat": 40.8182875302915,
            "lng": -73.92250861970848
          },
          "southwest": {
            "lat": 40.8155895697085,
            "lng": -73.9252065802915
          }
        }
      },
      "icon": "https://maps.gstatic.com/mapfiles/place_api/icons/v1/png_71/generic_business-71.png",
      "icon_background_color": "#7B9EB0",
      "icon_mask_base_uri": "https://maps.gstatic.com/mapfiles/place_api/icons/v2/generic_pinlet",
      "name": "Lincoln Hospital Pediatrics Department",
      "place_id": "ChIJ56F418_1wokRrfTZ1mfZN4g",
      "plus_code": {
        "compound_code": "R38G+Q6 The Bronx, NY, USA",
        "global_code": "87G8R38G+Q6"
      },
      "rating": 3,
      "reference": "ChIJ56F418_1wokRrfTZ1mfZN4g",
      "scope": "GOOGLE",
      "types": [
        "doctor",
        "point_of_interest",
        "health",
        "establishment"
      ],
      "user_ratings_total": 2,
      "vicinity": "234 East 149th Street, The Bronx"
    },
    {
      "business_status": "OPERATIONAL",
      "geometry": {
        "location": {
          "lat": 40.8179948,
          "lng": -73.9245029
        },
        "viewport": {
          "northeast": {
            "lat": 40.8192716302915,
            "lng": -73.9229196197085
          },
          "southwest": {
            "lat": 40.8165736697085,
            "lng": -73.9256175802915
          }
        }
      },
      "icon": "https://maps.gstatic.com/mapfiles/place_api/icons/v1/png_71/generic_business-71.png",
      "icon_background_color": "#7B9EB0",
      "icon_mask_base_uri": "https://maps.gstatic.com/mapfiles/place_api/icons/v2/generic_pinlet",
      "name": "Dr. Jean-Paul Menoscal, MD",
      "place_id": "ChIJ56F418_1wokRJhZhHaLAJtk",
      "plus_code": {
        "compound_code": "R39G+55 The Bronx, NY, USA",
        "global_code": "87G8R39G+55"
      },
      "reference": "ChIJ56F418_1wokRJhZhHaLAJtk",
      "scope": "GOOGLE",
      "types": [
        "doctor",
        "point_of_interest",
        "health",
        "establishment"
      ],
      "vicinity": "234 East 149th Street, The Bronx"
    },
    {
      "business_status": "OPERATIONAL",
      "geometry": {
        "location": {
          "lat": 40.8160855,
          "lng": -73.9247762
        },
        "viewport": {
          "northeast": {
            "lat": 40.8172404302915,
            "lng": -73.9235230197085
          },
          "southwest": {
            "lat": 40.8145424697085,
            "lng": -73.9262209802915
          }
        }
      },
      "icon": "https://maps.gstatic.com/mapfiles/place_api/icons/v1/png_71/generic_business-71.png",
      "icon_background_color": "#7B9EB0",
      "icon_mask_base_uri": "https://maps.gstatic.com/mapfiles/place_api/icons/v2/generic_pinlet",
      "name": "GVS @ Lincoln Medical Center",
      "opening_hours": {
        "open_now": false
      },
      "place_id": "ChIJ56F418_1wokRxq12iAQpacQ",
      "plus_code": {
        "compound_code": "R38G+C3 New York, NY, USA",
        "global_code": "87G8R38G+C3"
      },
      "rating": 3.7,
      "reference": "ChIJ56F418_1wokRxq12iAQpacQ",
      "scope": "GOOGLE",
      "types": [
        "point_of_interest",
        "store",
        "health",
        "establishment"
      ],
      "user_ratings_total": 13,
      "vicinity": "234 East 149th Street RM 2-A3, The Bronx"
    },
    {
      "business_status": "OPERATIONAL",
      "geometry": {
        "location": {
          "lat": 40.8168904,
          "lng": -73.92444069999999
        },
        "viewport": {
          "northeast": {
            "lat": 40.8182874802915,
            "lng": -73.92250866970848
          },
          "southwest": {
            "lat": 40.8155895197085,
            "lng": -73.9252066302915
          }
        }
      },
      "icon": "https://maps.gstatic.com/mapfiles/place_api/icons/v1/png_71/generic_business-71.png",
      "icon_background_color": "#7B9EB0",
      "icon_mask_base_uri": "https://maps.gstatic.com/mapfiles/place_api/icons/v2/generic_pinlet",
      "name": "Cassandra M. Clay, PA",
      "place_id": "ChIJ56F418_1wokRGw5SZk3AsR0",
      "plus_code": {
        "compound_code": "R38G+Q6 The Bronx, NY, USA",
        "global_code": "87G8R38G+Q6"
      },
      "reference": "ChIJ56F418_1wokRGw5SZk3AsR0",
      "scope": "GOOGLE",
      "types": [
        "doctor",
        "point_of_interest",
        "health",
        "establishment"
      ],
      "vicinity": "234 East 149th Street, The Bronx"
    },
    {
      "business_status": "OPERATIONAL",
      "geometry": {
        "location": {
          "lat": 40.8168904,
          "lng": -73.92444069999999
        },
        "viewport": {
          "northeast": {
            "lat": 40.8182874802915,
            "lng": -73.92250866970848
          },
          "southwest": {
            "lat": 40.8155895197085,
            "lng": -73.9252066302915
          }
        }
      },
      "icon": "https://maps.gstatic.com/mapfiles/place_api/icons/v1/png_71/generic_business-71.png",
      "icon_background_color": "#7B9EB0",
      "icon_mask_base_uri": "https://maps.gstatic.com/mapfiles/place_api/icons/v2/generic_pinlet",
      "name": "Arlene K. Huey, PA",
      "place_id": "ChIJ56F418_1wokRcxgwvNcXJFM",
      "plus_code": {
        "compound_code": "R38G+Q6 The Bronx, NY, USA",
        "global_code": "87G8R38G+Q6"
      },
      "reference": "ChIJ56F418_1wokRcxgwvNcXJFM",
      "scope": "GOOGLE",
      "types": [
        "point_of_interest",
        "health",
        "establishment"
      ],
      "vicinity": "234 East 149th Street, The Bronx"
    },
    {
      "business_status": "OPERATIONAL",
      "geometry": {
        "location": {
          "lat": 40.8168904,
          "lng": -73.92444069999999
        },
        "viewport": {
          "northeast": {
            "lat": 40.8182874802915,
            "lng": -73.92250866970848
          },
          "southwest": {
            "lat": 40.8155895197085,
            "lng": -73.9252066302915
          }
        }
      },
      "icon": "https://maps.gstatic.com/mapfiles/place_api/icons/v1/png_71/generic_business-71.png",
      "icon_background_color": "#7B9EB0",
      "icon_mask_base_uri": "https://maps.gstatic.com/mapfiles/place_api/icons/v2/generic_pinlet",
      "name": "Rena Autar, OT",
      "place_id": "ChIJ56F418_1wokR1uC8GzCwOkA",
      "plus_code": {
        "compound_code": "R38G+Q6 The Bronx, NY, USA",
        "global_code": "87G8R38G+Q6"
      },
      "reference": "ChIJ56F418_1wokR1uC8GzCwOkA",
      "scope": "GOOGLE",
      "types": [
        "point_of_interest",
        "health",
        "establishment"
      ],
      "vicinity": "234 East 149th Street, The Bronx"
    },
    {
      "business_status": "OPERATIONAL",
      "geometry": {
        "location": {
          "lat": 40.8168904,
          "lng": -73.92444069999999
        },
        "viewport": {
          "northeast": {
            "lat": 40.8182874802915,
            "lng": -73.92250866970848
          },
          "southwest": {
            "lat": 40.8155895197085,
            "lng": -73.9252066302915
          }
        }
      },
      "icon": "https://maps.gstatic.com/mapfiles/place_api/icons/v1/png_71/generic_business-71.png",
      "icon_background_color": "#7B9EB0",
      "icon_mask_base_uri": "https://maps.gstatic.com/mapfiles/place_api/icons/v2/generic_pinlet",
      "name": "Eunice V. Mello, PA",
      "place_id": "ChIJ56F418_1wokRb_nzsnIJ6DE",
      "plus_code": {
        "compound_code": "R38G+Q6 The Bronx, NY, USA",
        "global_code": "87G8R38G+Q6"
      },
      "reference": "ChIJ56F418_1wokRb_nzsnIJ6DE",
      "scope": "GOOGLE",
      "types": [
        "point_of_interest",
        "health",
        "establishment"
      ],
      "vicinity": "234 East 149th Street, The Bronx"
    },
    {
      "business_status": "OPERATIONAL",
      "geometry": {
        "location": {
          "lat": 40.8168904,
          "lng": -73.92444069999999
        },
        "viewport": {
          "northeast": {
            "lat": 40.8182874802915,
            "lng": -73.92250866970848
          },
          "southwest": {
            "lat": 40.8155895197085,
            "lng": -73.9252066302915
          }
        }
      },
      "icon": "https://maps.gstatic.com/mapfiles/place_api/icons/v1/png_71/pharmacy-71.png",
      "icon_background_color": "#F88181",
      "icon_mask_base_uri": "https://maps.gstatic.com/mapfiles/place_api/icons/v2/pharmacy_pinlet",
      "name": "Hansook Han, RPh",
      "place_id": "ChIJ56F418_1wokRuX4Rsm9hs5s",
      "plus_code": {
        "compound_code": "R38G+Q6 The Bronx, NY, USA",
        "global_code": "87G8R38G+Q6"
      },
      "reference": "ChIJ56F418_1wokRuX4Rsm9hs5s",
      "scope": "GOOGLE",
      "types": [
        "pharmacy",
        "point_of_interest",
        "store",
        "health",
        "establishment"
      ],
      "vicinity": "234 East 149th Street, The Bronx"
    },
    {
      "business_status": "OPERATIONAL",
      "geometry": {
        "location": {
          "lat": 40.8168904,
          "lng": -73.92444069999999
        },
        "viewport": {
          "northeast": {
            "lat": 40.8182874802915,
            "lng": -73.92250866970848
          },
          "southwest": {
            "lat": 40.8155895197085,
            "lng": -73.9252066302915
          }
        }
      },
      "icon": "https://maps.gstatic.com/mapfiles/place_api/icons/v1/png_71/pharmacy-71.png",
      "icon_background_color": "#F88181",
      "icon_mask_base_uri": "https://maps.gstatic.com/mapfiles/place_api/icons/v2/pharmacy_pinlet",
      "name": "Sung H. Joe, RPh",
      "place_id": "ChIJ56F418_1wokRxElmz_qvlxw",
      "plus_code": {
        "compound_code": "R38G+Q6 The Bronx, NY, USA",
        "global_code": "87G8R38G+Q6"
      },
      "reference": "ChIJ56F418_1wokRxElmz_qvlxw",
      "scope": "GOOGLE",
      "types": [
        "pharmacy",
        "point_of_interest",
        "health",
        "store",
        "establishment"
      ],
      "vicinity": "234 East 149th Street, The Bronx"
    },
    {
      "business_status": "OPERATIONAL",
      "geometry": {
        "location": {
          "lat": 40.8168904,
          "lng": -73.92444069999999
        },
        "viewport": {
          "northeast": {
            "lat": 40.8182874802915,
            "lng": -73.92250866970848
          },
          "southwest": {
            "lat": 40.8155895197085,
            "lng": -73.9252066302915
          }
        }
      },
      "icon": "https://maps.gstatic.com/mapfiles/place_api/icons/v1/png_71/generic_business-71.png",
      "icon_background_color": "#7B9EB0",
      "icon_mask_base_uri": "https://maps.gstatic.com/mapfiles/place_api/icons/v2/generic_pinlet",
      "name": "Lisa C. Schwartz, MSW",
      "photos": [
        {
          "height": 640,
          "html_attributions": [
            "<a href=\"https://maps.google.com/maps/contrib/111839201158954212265\">Maggy Machocho</a>"
          ],
          "photo_reference": "AeJbb3cmAhQe0s4z3_LEBAF44_ubEZ5moo4VBy9uZnUBPOUZok83CelXH7myXi2n0IaVDnN4Smyq7f2uuSvRbD1E-VikPtQ78Iup4gyUQgv5b29bnxpdPmk9t13pFeN_rXWKxNWjHKCLMJLHQ2n6MIPSYaO9nu4MGuZxf_6MKgGrV4kPdaaZ",
          "width": 640
        }
      ],
      "place_id": "ChIJ56F418_1wokRivKvFg9N_r0",
      "plus_code": {
        "compound_code": "R38G+Q6 The Bronx, NY, USA",
        "global_code": "87G8R38G+Q6"
      },
      "reference": "ChIJ56F418_1wokRivKvFg9N_r0",
      "scope": "GOOGLE",
      "types": [
        "point_of_interest",
        "establishment"
      ],
      "vicinity": "234 East 149th Street, The Bronx"
    },
    {
      "business_status": "OPERATIONAL",
      "geometry": {
        "location": {
          "lat": 40.8168904,
          "lng": -73.92444069999999
        },
        "viewport": {
          "northeast": {
            "lat": 40.8182874802915,
            "lng": -73.92250866970848
          },
          "southwest": {
            "lat": 40.8155895197085,
            "lng": -73.9252066302915
          }
        }
      },
      "icon": "https://maps.gstatic.com/mapfiles/place_api/icons/v1/png_71/generic_business-71.png",
      "icon_background_color": "#7B9EB0",
      "icon_mask_base_uri": "https://maps.gstatic.com/mapfiles/place_api/icons/v2/generic_pinlet",
      "name": "Tracey J. Saffer, Physician",
      "place_id": "ChIJ56F418_1wokRt6UsVRr-cuA",
      "plus_code": {
        "compound_code": "R38G+Q6 The Bronx, NY, USA",
        "global_code": "87G8R38G+Q6"
      },
      "reference": "ChIJ56F418_1wokRt6UsVRr-cuA",
      "scope": "GOOGLE",
      "types": [
        "doctor",
        "point_of_interest",
        "health",
        "establishment"
      ],
      "vicinity": "234 East 149th Street, The Bronx"
    },
    {
      "business_status": "OPERATIONAL",
      "geometry": {
        "location": {
          "lat": 40.8160855,
          "lng": -73.9247762
        },
        "viewport": {
          "northeast": {
            "lat": 40.8178850302915,
            "lng": -73.92252380000001
          },
          "southwest": {
            "lat": 40.81518706970851,
            "lng": -73.92552699999999
          }
        }
      },
      "icon": "https://maps.gstatic.com/mapfiles/place_api/icons/v1/png_71/pharmacy-71.png",
      "icon_background_color": "#F88181",
      "icon_mask_base_uri": "https://maps.gstatic.com/mapfiles/place_api/icons/v2/pharmacy_pinlet",
      "name": "Michael G. Thomas, PharmD",
      "place_id": "ChIJ56F418_1wokR8PS3LC40IHQ",
      "plus_code": {
        "compound_code": "R38G+C3 The Bronx, NY, USA",
        "global_code": "87G8R38G+C3"
      },
      "reference": "ChIJ56F418_1wokR8PS3LC40IHQ",
      "scope": "GOOGLE",
      "types": [
        "pharmacy",
        "point_of_interest",
        "health",
        "store",
        "establishment"
      ],
      "vicinity": "The Bronx"
    },
    {
      "business_status": "OPERATIONAL",
      "geometry": {
        "location": {
          "lat": 40.8168904,
          "lng": -73.92444069999999
        },
        "viewport": {
          "northeast": {
            "lat": 40.8182874802915,
            "lng": -73.92250866970848
          },
          "southwest": {
            "lat": 40.8155895197085,
            "lng": -73.9252066302915
          }
        }
      },
      "icon": "https://maps.gstatic.com/mapfiles/place_api/icons/v1/png_71/generic_business-71.png",
      "icon_background_color": "#7B9EB0",
      "icon_mask_base_uri": "https://maps.gstatic.com/mapfiles/place_api/icons/v2/generic_pinlet",
      "name": "Pegah Bardi, Physician",
      "place_id": "ChIJ56F418_1wokRB8i4a_eMFCs",
      "plus_code": {
        "compound_code": "R38G+Q6 The Bronx, NY, USA",
        "global_code": "87G8R38G+Q6"
      },
      "reference": "ChIJ56F418_1wokRB8i4a_eMFCs",
      "scope": "GOOGLE",
      "types": [
        "doctor",
        "point_of_interest",
        "health",
        "establishment"
      ],
      "vicinity": "234 East 149th Street, The Bronx"
    },
    {
      "business_status": "OPERATIONAL",
      "geometry": {
        "location": {
          "lat": 40.8168904,
          "lng": -73.92444069999999
        },
        "viewport": {
          "northeast": {
            "lat": 40.8182874802915,
            "lng": -73.92250866970848
          },
          "southwest": {
            "lat": 40.8155895197085,
            "lng": -73.9252066302915
          }
        }
      },
      "icon": "https://maps.gstatic.com/mapfiles/place_api/icons/v1/png_71/pharmacy-71.png",
      "icon_background_color": "#F88181",
      "icon_mask_base_uri": "https://maps.gstatic.com/mapfiles/place_api/icons/v2/pharmacy_pinlet",
      "name": "George Leo, RPh",
      "place_id": "ChIJ56F418_1wokRlPwCTfoNQ0o",
      "plus_code": {
        "compound_code": "R38G+Q6 The Bronx, NY, USA",
        "global_code": "87G8R38G+Q6"
      },
      "reference": "ChIJ56F418_1wokRlPwCTfoNQ0o",
      "scope": "GOOGLE",
      "types": [
        "pharmacy",
        "point_of_interest",
        "health",
        "store",
        "establishment"
      ],
      "vicinity": "234 East 149th Street, The Bronx"
    },
    {
      "business_status": "OPERATIONAL",
      "geometry": {
        "location": {
          "lat": 40.8168904,
          "lng": -73.92444069999999
        },
        "viewport": {
          "northeast": {
            "lat": 40.8182874802915,
            "lng": -73.92250866970848
          },
          "southwest": {
            "lat": 40.8155895197085,
            "lng": -73.9252066302915
          }
        }
      },
      "icon": "https://maps.gstatic.com/mapfiles/place_api/icons/v1/png_71/generic_business-71.png",
      "icon_background_color": "#7B9EB0",
      "icon_mask_base_uri": "https://maps.gstatic.com/mapfiles/place_api/icons/v2/generic_pinlet",
      "name": "Michaela Guiteau, PA",
      "place_id": "ChIJ56F418_1wokRsxXr949DeJY",
      "plus_code": {
        "compound_code": "R38G+Q6 The Bronx, NY, USA",
        "global_code": "87G8R38G+Q6"
      },
      "reference": "ChIJ56F418_1wokRsxXr949DeJY",
      "scope": "GOOGLE",
      "types": [
        "doctor",
        "point_of_interest",
        "health",
        "establishment"
      ],
      "vicinity": "234 East 149th Street, The Bronx"
    },
    {
      "business_status": "OPERATIONAL",
      "geometry": {
        "location": {
          "lat": 40.8168904,
          "lng": -73.92444069999999
        },
        "viewport": {
          "northeast": {
            "lat": 40.8182874802915,
            "lng": -73.92250866970848
          },
          "southwest": {
            "lat": 40.8155895197085,
            "lng": -73.9252066302915
          }
        }
      },
      "icon": "https://maps.gstatic.com/mapfiles/place_api/icons/v1/png_71/generic_business-71.png",
      "icon_background_color": "#7B9EB0",
      "icon_mask_base_uri": "https://maps.gstatic.com/mapfiles/place_api/icons/v2/generic_pinlet",
      "name": "Christina A. Persaud, RD",
      "place_id": "ChIJ56F418_1wokRVUH1pk0bx3E",
      "plus_code": {
        "compound_code": "R38G+Q6 The Bronx, NY, USA",
        "global_code": "87G8R38G+Q6"
      },
      "reference": "ChIJ56F418_1wokRVUH1pk0bx3E",
      "scope": "GOOGLE",
      "types": [
        "doctor",
        "point_of_interest",
        "health",
        "establishment"
      ],
      "vicinity": "234 East 149th Street, The Bronx"
    },
    {
      "business_status": "OPERATIONAL",
      "geometry": {
        "location": {
          "lat": 40.8168904,
          "lng": -73.92444069999999
        },
        "viewport": {
          "northeast": {
            "lat": 40.8182874802915,
            "lng": -73.92250866970848
          },
          "southwest": {
            "lat": 40.8155895197085,
            "lng": -73.9252066302915
          }
        }
      },
      "icon": "https://maps.gstatic.com/mapfiles/place_api/icons/v1/png_71/generic_business-71.png",
      "icon_background_color": "#7B9EB0",
      "icon_mask_base_uri": "https://maps.gstatic.com/mapfiles/place_api/icons/v2/generic_pinlet",
      "name": "Regina J. Bonillarodriguez, LMHC",
      "place_id": "ChIJ56F418_1wokRUrDrfbr0yD4",
      "plus_code": {
        "compound_code": "R38G+Q6 The Bronx, NY, USA",
        "global_code": "87G8R38G+Q6"
      },
      "reference": "ChIJ56F418_1wokRUrDrfbr0yD4",
      "scope": "GOOGLE",
      "types": [
        "doctor",
        "point_of_interest",
        "health",
        "establishment"
      ],
      "vicinity": "234 East 149th Street, The Bronx"
    },
    {
      "business_status": "OPERATIONAL",
      "geometry": {
        "location": {
          "lat": 40.8168904,
          "lng": -73.92444069999999
        },
        "viewport": {
          "northeast": {
            "lat": 40.8182874802915,
            "lng": -73.92250866970848
          },
          "southwest": {
            "lat": 40.8155895197085,
            "lng": -73.9252066302915
          }
        }
      },
      "icon": "https://maps.gstatic.com/mapfiles/place_api/icons/v1/png_71/pharmacy-71.png",
      "icon_background_color": "#F88181",
      "icon_mask_base_uri": "https://maps.gstatic.com/mapfiles/place_api/icons/v2/pharmacy_pinlet",
      "name": "Adeline R. Cheff, R",
      "place_id": "ChIJ56F418_1wokRRtx7I0kV7nc",
      "plus_code": {
        "compound_code": "R38G+Q6 The Bronx, NY, USA",
        "global_code": "87G8R38G+Q6"
      },
      "reference": "ChIJ56F418_1wokRRtx7I0kV7nc",
      "scope": "GOOGLE",
      "types": [
        "pharmacy",
        "point_of_interest",
        "health",
        "store",
        "establishment"
      ],
      "vicinity": "234 East 149th Street, The Bronx"
    },
    {
      "business_status": "OPERATIONAL",
      "geometry": {
        "location": {
          "lat": 40.817374,
          "lng": -73.9240962
        },
        "viewport": {
          "northeast": {
            "lat": 40.8185190302915,
            "lng": -73.9223364197085
          },
          "southwest": {
            "lat": 40.81582106970851,
            "lng": -73.9250343802915
          }
        }
      },
      "icon": "https://maps.gstatic.com/mapfiles/place_api/icons/v1/png_71/generic_business-71.png",
      "icon_background_color": "#7B9EB0",
      "icon_mask_base_uri": "https://maps.gstatic.com/mapfiles/place_api/icons/v2/generic_pinlet",
      "name": "Dr. Harriet I. Jones, MD",
      "place_id": "ChIJ56F418_1wokR-gYzmfxDRUs",
      "plus_code": {
        "compound_code": "R38G+W9 The Bronx, NY, USA",
        "global_code": "87G8R38G+W9"
      },
      "reference": "ChIJ56F418_1wokR-gYzmfxDRUs",
      "scope": "GOOGLE",
      "types": [
        "doctor",
        "point_of_interest",
        "health",
        "establishment"
      ],
      "vicinity": "234 East 149th Street, The Bronx"
    },
    {
      "business_status": "OPERATIONAL",
      "geometry": {
        "location": {
          "lat": 40.817374,
          "lng": -73.9240962
        },
        "viewport": {
          "northeast": {
            "lat": 40.8185190302915,
            "lng": -73.9223364197085
          },
          "southwest": {
            "lat": 40.81582106970851,
            "lng": -73.9250343802915
          }
        }
      },
      "icon": "https://maps.gstatic.com/mapfiles/place_api/icons/v1/png_71/generic_business-71.png",
      "icon_background_color": "#7B9EB0",
      "icon_mask_base_uri": "https://maps.gstatic.com/mapfiles/place_api/icons/v2/generic_pinlet",
      "name": "Cole Helene a MD",
      "place_id": "ChIJ56F418_1wokRuWzqfsbrfQc",
      "plus_code": {
        "compound_code": "R38G+W9 The Bronx, NY, USA",
        "global_code": "87G8R38G+W9"
      },
      "reference": "ChIJ56F418_1wokRuWzqfsbrfQc",
      "scope": "GOOGLE",
      "types": [
        "doctor",
        "point_of_interest",
        "health",
        "establishment"
      ],
      "vicinity": "234 East 149th Street, The Bronx"
    },
    {
      "business_status": "OPERATIONAL",
      "geometry": {
        "location": {
          "lat": 40.817374,
          "lng": -73.9240962
        },
        "viewport": {
          "northeast": {
            "lat": 40.8185190302915,
            "lng": -73.9223364197085
          },
          "southwest": {
            "lat": 40.81582106970851,
            "lng": -73.9250343802915
          }
        }
      },
      "icon": "https://maps.gstatic.com/mapfiles/place_api/icons/v1/png_71/generic_business-71.png",
      "icon_background_color": "#7B9EB0",
      "icon_mask_base_uri": "https://maps.gstatic.com/mapfiles/place_api/icons/v2/generic_pinlet",
      "name": "Dr. Christian R. Gonzalez, MD",
      "place_id": "ChIJ56F418_1wokRRIiHHzNueM4",
      "plus_code": {
        "compound_code": "R38G+W9 The Bronx, NY, USA",
        "global_code": "87G8R38G+W9"
      },
      "reference": "ChIJ56F418_1wokRRIiHHzNueM4",
      "scope": "GOOGLE",
      "types": [
        "doctor",
        "point_of_interest",
        "health",
        "establishment"
      ],
      "vicinity": "234 East 149th Street, The Bronx"
    },
    {
      "business_status": "OPERATIONAL",
      "geometry": {
        "location": {
          "lat": 40.817374,
          "lng": -73.9240962
        },
        "viewport": {
          "northeast": {
            "lat": 40.8185190302915,
            "lng": -73.9223364197085
          },
          "southwest": {
            "lat": 40.81582106970851,
            "lng": -73.9250343802915
          }
        }
      },
      "icon": "https://maps.gstatic.com/mapfiles/place_api/icons/v1/png_71/generic_business-71.png",
      "icon_background_color": "#7B9EB0",
      "icon_mask_base_uri": "https://maps.gstatic.com/mapfiles/place_api/icons/v2/generic_pinlet",
      "name": "Rangsiyakul Subha MD",
      "place_id": "ChIJ56F418_1wokR3Uvl-N9x24I",
      "plus_code": {
        "compound_code": "R38G+W9 The Bronx, NY, USA",
        "global_code": "87G8R38G+W9"
      },
      "reference": "ChIJ56F418_1wokR3Uvl-N9x24I",
      "scope": "GOOGLE",
      "types": [
        "doctor",
        "point_of_interest",
        "health",
        "establishment"
      ],
      "vicinity": "234 East 149th Street, The Bronx"
    },
    {
      "business_status": "OPERATIONAL",
      "geometry": {
        "location": {
          "lat": 40.81795210000001,
          "lng": -73.9243297
        },
        "viewport": {
          "northeast": {
            "lat": 40.8192502802915,
            "lng": -73.9228332197085
          },
          "southwest": {
            "lat": 40.8165523197085,
            "lng": -73.9255311802915
          }
        }
      },
      "icon": "https://maps.gstatic.com/mapfiles/place_api/icons/v1/png_71/generic_business-71.png",
      "icon_background_color": "#7B9EB0",
      "icon_mask_base_uri": "https://maps.gstatic.com/mapfiles/place_api/icons/v2/generic_pinlet",
      "name": "Dr. George Trister, MD",
      "place_id": "ChIJ56F418_1wokRYSQnIYCRhIo",
      "plus_code": {
        "compound_code": "R39G+57 The Bronx, NY, USA",
        "global_code": "87G8R39G+57"
      },
      "reference": "ChIJ56F418_1wokRYSQnIYCRhIo",
      "scope": "GOOGLE",
      "types": [
        "doctor",
        "point_of_interest",
        "health",
        "establishment"
      ],
      "vicinity": "234 East 149th Street, The Bronx"
    },
    {
      "business_status": "OPERATIONAL",
      "geometry": {
        "location": {
          "lat": 40.8168904,
          "lng": -73.92444069999999
        },
        "viewport": {
          "northeast": {
            "lat": 40.8182874802915,
            "lng": -73.92250866970848
          },
          "southwest": {
            "lat": 40.8155895197085,
            "lng": -73.9252066302915
          }
        }
      },
      "icon": "https://maps.gstatic.com/mapfiles/place_api/icons/v1/png_71/pharmacy-71.png",
      "icon_background_color": "#F88181",
      "icon_mask_base_uri": "https://maps.gstatic.com/mapfiles/place_api/icons/v2/pharmacy_pinlet",
      "name": "Ancy V. Easo, RPh",
      "place_id": "ChIJ56F418_1wokRb8sl7hNQRR8",
      "plus_code": {
        "compound_code": "R38G+Q6 The Bronx, NY, USA",
        "global_code": "87G8R38G+Q6"
      },
      "reference": "ChIJ56F418_1wokRb8sl7hNQRR8",
      "scope": "GOOGLE",
      "types": [
        "pharmacy",
        "point_of_interest",
        "health",
        "store",
        "establishment"
      ],
      "vicinity": "234 East 149th Street, The Bronx"
    },
    {
      "business_status": "OPERATIONAL",
      "geometry": {
        "location": {
          "lat": 40.8168904,
          "lng": -73.92444069999999
        },
        "viewport": {
          "northeast": {
            "lat": 40.8182874802915,
            "lng": -73.92250866970848
          },
          "southwest": {
            "lat": 40.8155895197085,
            "lng": -73.9252066302915
          }
        }
      },
      "icon": "https://maps.gstatic.com/mapfiles/place_api/icons/v1/png_71/generic_business-71.png",
      "icon_background_color": "#7B9EB0",
      "icon_mask_base_uri": "https://maps.gstatic.com/mapfiles/place_api/icons/v2/generic_pinlet",
      "name": "Laura M. Hunt, BA",
      "place_id": "ChIJ56F418_1wokRxYhV-Qfzor0",
      "plus_code": {
        "compound_code": "R38G+Q6 The Bronx, NY, USA",
        "global_code": "87G8R38G+Q6"
      },
      "reference": "ChIJ56F418_1wokRxYhV-Qfzor0",
      "scope": "GOOGLE",
      "types": [
        "point_of_interest",
        "health",
        "establishment"
      ],
      "vicinity": "234 East 149th Street, The Bronx"
    },
    {
      "business_status": "OPERATIONAL",
      "geometry": {
        "location": {
          "lat": 40.8168904,
          "lng": -73.92444069999999
        },
        "viewport": {
          "northeast": {
            "lat": 40.8182874802915,
            "lng": -73.92250866970848
          },
          "southwest": {
            "lat": 40.8155895197085,
            "lng": -73.9252066302915
          }
        }
      },
      "icon": "https://maps.gstatic.com/mapfiles/place_api/icons/v1/png_71/generic_business-71.png",
      "icon_background_color": "#7B9EB0",
      "icon_mask_base_uri": "https://maps.gstatic.com/mapfiles/place_api/icons/v2/generic_pinlet",
      "name": "Kara Goldschmidt, LMSW",
      "place_id": "ChIJ56F418_1wokRaeEh22i8DWM",
      "plus_code": {
        "compound_code": "R38G+Q6 The Bronx, NY, USA",
        "global_code": "87G8R38G+Q6"
      },
      "reference": "ChIJ56F418_1wokRaeEh22i8DWM",
      "scope": "GOOGLE",
      "types": [
        "doctor",
        "point_of_interest",
        "health",
        "establishment"
      ],
      "vicinity": "234 East 149th Street, The Bronx"
    },
    {
      "business_status": "OPERATIONAL",
      "geometry": {
        "location": {
          "lat": 40.8171495,
          "lng": -73.92421499999999
        },
        "viewport": {
          "northeast": {
            "lat": 40.8184067802915,
            "lng": -73.9223958197085
          },
          "southwest": {
            "lat": 40.8157088197085,
            "lng": -73.9250937802915
          }
        }
      },
      "icon": "https://maps.gstatic.com/mapfiles/place_api/icons/v1/png_71/generic_business-71.png",
      "icon_background_color": "#7B9EB0",
      "icon_mask_base_uri": "https://maps.gstatic.com/mapfiles/place_api/icons/v2/generic_pinlet",
      "name": "Prosper, Gerard, MD",
      "place_id": "ChIJ56F418_1wokR9mfDPs2fiLM",
      "plus_code": {
        "compound_code": "R38G+V8 The Bronx, NY, USA",
        "global_code": "87G8R38G+V8"
      },
      "rating": 5,
      "reference": "ChIJ56F418_1wokR9mfDPs2fiLM",
      "scope": "GOOGLE",
      "types": [
        "doctor",
        "point_of_interest",
        "health",
        "establishment"
      ],
      "user_ratings_total": 1,
      "vicinity": "234 East 149th Street, The Bronx"
    },
    {
      "business_status": "OPERATIONAL",
      "geometry": {
        "location": {
          "lat": 40.817374,
          "lng": -73.9240962
        },
        "viewport": {
          "northeast": {
            "lat": 40.8185190302915,
            "lng": -73.9223364197085
          },
          "southwest": {
            "lat": 40.81582106970851,
            "lng": -73.9250343802915
          }
        }
      },
      "icon": "https://maps.gstatic.com/mapfiles/place_api/icons/v1/png_71/generic_business-71.png",
      "icon_background_color": "#7B9EB0",
      "icon_mask_base_uri": "https://maps.gstatic.com/mapfiles/place_api/icons/v2/generic_pinlet",
      "name": "Dr. Abdul S. Mondul, MD",
      "place_id": "ChIJ56F418_1wokR68WkATZlhJ0",
      "plus_code": {
        "compound_code": "R38G+W9 The Bronx, NY, USA",
        "global_code": "87G8R38G+W9"
      },
      "reference": "ChIJ56F418_1wokR68WkATZlhJ0",
      "scope": "GOOGLE",
      "types": [
        "doctor",
        "point_of_interest",
        "health",
        "establishment"
      ],
      "vicinity": "234 East 149th Street, The Bronx"
    }
  ],
  "status": "OK"
}