{
  "html_attributions": [],
  "results": [
    {
      "geometry": {
        "location": {
          "lat": 40.7127753,
          "lng": -74.0059728
        },
        "viewport": {
          "northeast": {
            "lat": 40.91757705070789,
            "lng": -73.70027206817629
          },
          "southwest": {
            "lat": 40.47739906045452,
            "lng": -74.25908991427882
          }
        }
      },
      "icon": "https://maps.gstatic.com/mapfiles/place_api/icons/v1/png_71/geocode-71.png",
      "icon_background_color": "#7B9EB0",
      "icon_mask_base_uri": "https://maps.gstatic.com/mapfiles/place_api/icons/v2/generic_pinlet",
      "name": "\u7d10\u7d04",
      "photos": [
        {
          "height": 600,
          "html_attributions": [
            "<a href=\"https://maps.google.com/maps/contrib/102389334567210814614\">Bukurie</a>"
          ],
          "photo_reference": "AeJbb3dLePyQ3lRUFBdGFDbHLXx8DJa-A4TJy1NNcPtacD-DmH7Ui-dy8XfZ2_vnAZ8FSA0CzUKRiDPkZwfJGOECxcgGjzGXuiXQmLD--hW5XEWpiTHucF05X3TU9rBrMcaR98defNs1IQbbdNqvI8K5TaHMyu7EoWMiNU7PyBxnSbMXOfb2",
          "width": 480
        }
      ],
      "place_id": "ChIJOwg_06VPwokRYv534QaPC8g",
      "reference": "ChIJOwg_06VPwokRYv534QaPC8g",
      "scope": "GOOGLE",
      "types": [
        "locality",
        "political"
      ],
      "vicinity": "\u7d10\u7d04"
    },
    {
      "business_status": "OPERATIONAL",
      "geometry": {
        "location": {
          "lat": 40.8180979,
          "lng": -73.9608447
        },
        "viewport": {
          "northeast": {
            "lat": 40.8194609802915,
            "lng": -73.95942546970848
          },
          "southwest": {
            "lat": 40.8167630197085,
            "lng": -73.9621234302915
          }
        }
      },
      "icon": "https://maps.gstatic.com/mapfiles/place_api/icons/v1/png_71/restaurant-71.png",
      "icon_background_color": "#FF9E67",
      "icon_mask_base_uri": "https://maps.gstatic.com/mapfiles/place_api/icons/v2/restaurant_pinlet",
      "name": "Dinosaur Bar-B-Que",
      "opening_hours": {
        "open_now": true
      },
      "photos": [
        {
          "height": 1600,
          "html_attributions": [
            "<a href=\"https://maps.google.com/maps/contrib/100992365094241734968\">Dinosaur Bar-B-Que</a>"
          ],
          "photo_reference": "AeJbb3e0-RdGQToBP6k1CrdgCUF93-a4seLdF71ZlObj6B_xmt9E71oJd5c3F4N7EQa_ShYjV4PbOn3s5e1-KSB4WcvkU8maduk2kdOXorKXStkRv42PeDjCh0DzqBeH5qe5On-xBt5Alk0B5DI3EgE67Snqrv6b84ab1GKS3_vyqvn-g7dY",
          "width": 1067
        }
      ],
      "place_id": "ChIJpcanZ0L2wokRoWs8p9gEJcM",
      "plus_code": {
        "compound_code": "R29Q+6M \u7f8e\u570b\u7d10\u7d04",
        "global_code": "87G8R29Q+6M"
      },
      "price_level": 2,
      "rating": 4.4,
      "reference": "ChIJpcanZ0L2wokRoWs8p9gEJcM",
      "scope": "GOOGLE",
      "types": [
        "restaurant",
        "food",
        "point_of_interest",
        "establishment"
      ],
      "user_ratings_total": 5806,
      "vicinity": "700 West 125th Street, New York"
    },
    {
      "business_status": "OPERATIONAL",
      "geometry": {
        "location": {
          "lat": 40.8203471,
          "lng": -73.95522749999999
        },
        "viewport": {
          "northeast": {
            "lat": 40.82167443029149,
            "lng": -73.9537998197085
          },
          "southwest": {
            "lat": 40.8189764697085,
            "lng": -73.9564977802915
          }
        }
      },
      "icon": "https://maps.gstatic.com/mapfiles/place_api/icons/v1/png_71/restaurant-71.png",
      "icon_background_color": "#FF9E67",
      "icon_mask_base_uri": "https://maps.gstatic.com/mapfiles/place_api/icons/v2/restaurant_pinlet",
      "name": "Bus Stop Diner",
      "opening_hours": {
        "open_now": true
      },
      "photos": [
        {
          "height": 2340,
          "html_attributions": [
            "<a href=\"https://maps.google.com/maps/contrib/111975543672082453726\">Sudhir Bhargava</a>"
          ],
          "photo_reference": "AeJbb3djs7Uhz_DPNbr3EFwL6LVe_7Rz4jXRYGLlpy8T3kVbGv6K52jnhkycIBqQgwKXEQm9hQjW4IrbLYUEltt7vLbPK-I5sP5AZEoq5lW8Uc48vDt6kcDcxFPG2EhfbR1364ZUvLZuHBs30T7OBLCDCgdzdES-UUMoqZ7HOn8ESDhza8iG",
          "width": 4160
        }
      ],
      "place_id": "ChIJ1-1nIGb2wokRGkbd6xcyibc",
      "plus_code": {
        "compound_code": "R2CV+4W \u7f8e\u570b\u7d10\u7d04",
        "global_code": "87G8R2CV+4W"
      },
      "price_level": 1,
      "rating": 3.9,
      "reference": "ChIJ1-1nIGb2wokRGkbd6xcyibc",
      "scope": "GOOGLE",
      "types": [
        "meal_delivery",
        "restaurant",
        "food",
        "point_of_interest",
        "establishment"
      ],
      "user_ratings_total": 657,
      "vicinity": "3341 Broadway, New York"
    },
    {
      "business_status": "CLOSED_TEMPORARILY",
      "geometry": {
        "location": {
          "lat": 40.8199852,
          "lng": -73.9585029
        },
        "viewport": {
          "northeast": {
            "lat": 40.8212958302915,
            "lng": -73.9571819697085
          },
          "southwest": {
            "lat": 40.8185978697085,
            "lng": -73.9598799302915
          }
        }
      },
      "icon": "https://maps.gstatic.com/mapfiles/place_api/icons/v1/png_71/generic_business-71.png",
      "icon_background_color": "#7B9EB0",
      "icon_mask_base_uri": "https://maps.gstatic.com/mapfiles/place_api/icons/v2/generic_pinlet",
      "name": "Joshua Allen Photography",
      "permanently_closed": true,
      "place_id": "ChIJRfeDEWj2wokR5zd2L5SL5lM",
      "plus_code": {
        "compound_code": "R29R+XH \u7f8e\u570b\u7d10\u7d04",
        "global_code": "87G8R29R+XH"
      },
      "reference": "ChIJRfeDEWj2wokR5zd2L5SL5lM",
      "scope": "GOOGLE",
      "types": [
        "point_of_interest",
        "establishment"
      ],
      "vicinity": "2331 12th Avenue, New York"
    },
    {
      "business_status": "OPERATIONAL",
      "geometry": {
        "location": {
          "lat": 40.81817879999999,
          "lng": -73.95555620000002
        },
        "viewport": {
          "northeast": {
            "lat": 40.81952458029149,
            "lng": -73.95412076970851
          },
          "southwest": {
            "lat": 40.8168266197085,
            "lng": -73.95681873029152
          }
        }
      },
      "icon": "https://maps.gstatic.com/mapfiles/place_api/icons/v1/png_71/generic_business-71.png",
      "icon_background_color": "#7B9EB0",
      "icon_mask_base_uri": "https://maps.gstatic.com/mapfiles/place_api/icons/v2/generic_pinlet",
      "name": "Manhattanville",
      "opening_hours": {
        "open_now": false
      },
      "place_id": "ChIJHU6h72j2wokRl-tInnQ2N74",
      "plus_code": {
        "compound_code": "R29V+7Q \u7f8e\u570b\u7d10\u7d04",
        "global_code": "87G8R29V+7Q"
      },
      "rating": 4.7,
      "reference": "ChIJHU6h72j2wokRl-tInnQ2N74",
      "scope": "GOOGLE",
      "types": [
        "local_government_office",
        "point_of_interest",
        "establishment"
      ],
      "user_ratings_total": 6,
      "vicinity": "94 Old Broadway, New York"
    },
    {
      "business_status": "OPERATIONAL",
      "geometry": {
        "location": {
          "lat": 40.8194597,
          "lng": -73.9573186
        },
        "viewport": {
          "northeast": {
            "lat": 40.8212469302915,
            "lng": -73.9564328697085
          },
          "southwest": {
            "lat": 40.8185489697085,
            "lng": -73.95913083029151
          }
        }
      },
      "icon": "https://maps.gstatic.com/mapfiles/place_api/icons/v1/png_71/school-71.png",
      "icon_background_color": "#7B9EB0",
      "icon_mask_base_uri": "https://maps.gstatic.com/mapfiles/place_api/icons/v2/school_pinlet",
      "name": "KIPP Infinity Charter School",
      "photos": [
        {
          "height": 3024,
          "html_attributions": [
            "<a href=\"https://maps.google.com/maps/contrib/110449128630256930732\">Dalia Perez</a>"
          ],
          "photo_reference": "AeJbb3fKArRubjwEk3mkHl9FR8xsrIfbDiYIOmydBAnQ4NtQiVQ_wbfKYjN191dtws7-JuW5O2W3rmn9-ImSszaLg7oXkbznNls-6wd0xosPEBHEzwfchQm2WT4yPQek4NIHvkLy02zrDCQCzAXXenBqHhvrlgk3RwPKV3oL93uN0GLoAyNj",
          "width": 4032
        }
      ],
      "place_id": "ChIJH9A8Z2j2wokRWHVzhPCGtRU",
      "plus_code": {
        "compound_code": "R29V+Q3 \u7f8e\u570b\u7d10\u7d04",
        "global_code": "87G8R29V+Q3"
      },
      "rating": 4.4,
      "reference": "ChIJH9A8Z2j2wokRWHVzhPCGtRU",
      "scope": "GOOGLE",
      "types": [
        "school",
        "point_of_interest",
        "establishment"
      ],
      "user_ratings_total": 34,
      "vicinity": "625 West 133rd Street, New York"
    },
    {
      "business_status": "OPERATIONAL",
      "geometry": {
        "location": {
          "lat": 40.820464,
          "lng": -73.95350549999999
        },
        "viewport": {
          "northeast": {
            "lat": 40.8217568802915,
            "lng": -73.95219716970848
          },
          "southwest": {
            "lat": 40.8190589197085,
            "lng": -73.95489513029149
          }
        }
      },
      "icon": "https://maps.gstatic.com/mapfiles/place_api/icons/v1/png_71/school-71.png",
      "icon_background_color": "#7B9EB0",
      "icon_mask_base_uri": "https://maps.gstatic.com/mapfiles/place_api/icons/v2/school_pinlet",
      "name": "P.S. 192 Jacob H. Schiff School",
      "photos": [
        {
          "height": 900,
          "html_attributions": [
            "<a href=\"https://maps.google.com/maps/contrib/108605778596958236375\">Igor Ostrovsky</a>"
          ],
          "photo_reference": "AeJbb3do7rAA6Toqe8m8D5ivx_3upDUaqp7hx_NAJuPS_bzVDvJ37w0KAXsuolLB7uz37k8z8QxvtkBRb8dZmKuRywt6pwj228b6oTP8Fif0v-BlL6Bvpl1pvZ0jylro1ceocBhsNjLplSErvhzeCXZpFVnY3-QZ6La4BbelH7gah7OQOnDu",
          "width": 1200
        }
      ],
      "place_id": "ChIJ30cy5GX2wokRZ7BToaAwxKE",
      "plus_code": {
        "compound_code": "R2CW+5H \u7f8e\u570b\u7d10\u7d04",
        "global_code": "87G8R2CW+5H"
      },
      "rating": 3.9,
      "reference": "ChIJ30cy5GX2wokRZ7BToaAwxKE",
      "scope": "GOOGLE",
      "types": [
        "school",
        "point_of_interest",
        "establishment"
      ],
      "user_ratings_total": 7,
      "vicinity": "500 West 138th Street, New York"
    },
    {
      "business_status": "OPERATIONAL",
      "geometry": {
        "location": {
          "lat": 40.81753299999999,
          "lng": -73.95632549999999
        },
        "viewport": {
          "northeast": {
            "lat": 40.8188501802915,
            "lng": -73.95506931970849
          },
          "southwest": {
            "lat": 40.8161522197085,
            "lng": -73.9577672802915
          }
        }
      },
      "icon": "https://maps.gstatic.com/mapfiles/place_api/icons/v1/png_71/generic_business-71.png",
      "icon_background_color": "#7B9EB0",
      "icon_mask_base_uri": "https://maps.gstatic.com/mapfiles/place_api/icons/v2/generic_pinlet",
      "name": "U-Haul Neighborhood Dealer",
      "opening_hours": {
        "open_now": true
      },
      "photos": [
        {
          "height": 4032,
          "html_attributions": [
            "<a href=\"https://maps.google.com/maps/contrib/116455994093501677140\">Un Chap\u00edn en Nueva York Mynor Osorio</a>"
          ],
          "photo_reference": "AeJbb3c5mIzSjb0gHClpQYr8j34g1yGSR0D2gsYK08kaIkiNbK24ydxp8__gU0BVL-UjOp92ndY3HW7mOQx4hhdiDMe8mzFAHojup8_wlndCfoyBH7nCVFIgPaDujPjI2zcSbhFmMBkyyeoF84SPmWj_zRKoGeXc7TugtYu0Jfu667pWAUpO",
          "width": 3024
        }
      ],
      "place_id": "ChIJr5n6cGv2wokRxKm_TbSPLfw",
      "plus_code": {
        "compound_code": "R29V+2F \u7f8e\u570b\u7d10\u7d04",
        "global_code": "87G8R29V+2F"
      },
      "price_level": 1,
      "rating": 3.4,
      "reference": "ChIJr5n6cGv2wokRxKm_TbSPLfw",
      "scope": "GOOGLE",
      "types": [
        "point_of_interest",
        "establishment"
      ],
      "user_ratings_total": 99,
      "vicinity": "3260 Broadway, New York"
    },
    {
      "business_status": "OPERATIONAL",
      "geometry": {
        "location": {
          "lat": 40.819068,
          "lng": -73.959147
        },
        "viewport": {
          "northeast": {
            "lat": 40.8205289302915,
            "lng": -73.95780481970849
          },
          "southwest": {
            "lat": 40.8178309697085,
            "lng": -73.9605027802915
          }
        }
      },
      "icon": "https://maps.gstatic.com/mapfiles/place_api/icons/v1/png_71/generic_business-71.png",
      "icon_background_color": "#7B9EB0",
      "icon_mask_base_uri": "https://maps.gstatic.com/mapfiles/place_api/icons/v2/generic_pinlet",
      "name": "2020 Auto Service Corp.",
      "opening_hours": {
        "open_now": false
      },
      "photos": [
        {
          "height": 3024,
          "html_attributions": [
            "<a href=\"https://maps.google.com/maps/contrib/108060062712884091042\">Shannon LeDroux</a>"
          ],
          "photo_reference": "AeJbb3fweBExKLQmy6It6qfG_cDFGklVoJIqT_-_3xAlcMhX3emE9TKxNCF9HW1Ib2ih9bUQUOPUiFOGkZsh1LFRaJlWvNxvXo-kTyfMFbkMExhdC1Zd2cAcYKTt_juMEkn3dySLR0A2bICHS8RnF7ksuxw0UKpQEONRHovhAAi13-YMjkVG",
          "width": 4032
        }
      ],
      "place_id": "ChIJ4S-0J2j2wokRqVy-JKxnhfI",
      "plus_code": {
        "compound_code": "R29R+J8 \u7f8e\u570b\u7d10\u7d04",
        "global_code": "87G8R29R+J8"
      },
      "rating": 4.4,
      "reference": "ChIJ4S-0J2j2wokRqVy-JKxnhfI",
      "scope": "GOOGLE",
      "types": [
        "car_repair",
        "point_of_interest",
        "establishment"
      ],
      "user_ratings_total": 75,
      "vicinity": "2315 12th Avenue, New York"
    },
    {
      "business_status": "OPERATIONAL",
      "geometry": {
        "location": {
          "lat": 40.8173409,
          "lng": -73.95599729999999
        },
        "viewport": {
          "northeast": {
            "lat": 40.8186049802915,
            "lng": -73.95468316970849
          },
          "southwest": {
            "lat": 40.8159070197085,
            "lng": -73.95738113029151
          }
        }
      },
      "icon": "https://maps.gstatic.com/mapfiles/place_api/icons/v1/png_71/generic_business-71.png",
      "icon_background_color": "#7B9EB0",
      "icon_mask_base_uri": "https://maps.gstatic.com/mapfiles/place_api/icons/v2/generic_pinlet",
      "name": "Manhattan Alignment & Diagnostic Center",
      "opening_hours": {
        "open_now": false
      },
      "photos": [
        {
          "height": 3024,
          "html_attributions": [
            "<a href=\"https://maps.google.com/maps/contrib/118123394294417367724\">CERULLI BUS</a>"
          ],
          "photo_reference": "AeJbb3fMDBOwwYuyq8yZYleXWkJptL0nyIds4ccPGem2wKrU_ObA1DxcpdmE9Oyduld_wW5YFrMFS3_UaVIcfkVanaVqew2j1e5SMmrC9VL4SRtZ5Z9EEtfzScNKi0qm2cBNtY5myrup-ZnavuyQBWAuxU1h8A_gApen21nTQO_aVxRIFqJC",
          "width": 4032
        }
      ],
      "place_id": "ChIJK-aJBWn2wokRQ9W8mU6AH6U",
      "plus_code": {
        "compound_code": "R28V+WJ \u7f8e\u570b\u7d10\u7d04",
        "global_code": "87G8R28V+WJ"
      },
      "rating": 4.6,
      "reference": "ChIJK-aJBWn2wokRQ9W8mU6AH6U",
      "scope": "GOOGLE",
      "types": [
        "car_repair",
        "store",
        "health",
        "point_of_interest",
        "establishment"
      ],
      "user_ratings_total": 97,
      "vicinity": "555 West 131st Street, New York"
    },
    {
      "business_status": "OPERATIONAL",
      "geometry": {
        "location": {
          "lat": 40.818577,
          "lng": -73.955011
        },
        "viewport": {
          "northeast": {
            "lat": 40.8198523302915,
            "lng": -73.9537466197085
          },
          "southwest": {
            "lat": 40.8171543697085,
            "lng": -73.9564445802915
          }
        }
      },
      "icon": "https://maps.gstatic.com/mapfiles/place_api/icons/v1/png_71/generic_business-71.png",
      "icon_background_color": "#7B9EB0",
      "icon_mask_base_uri": "https://maps.gstatic.com/mapfiles/place_api/icons/v2/generic_pinlet",
      "name": "Prestige Automotive",
      "opening_hours": {
        "open_now": false
      },
      "photos": [
        {
          "height": 1152,
          "html_attributions": [
            "<a href=\"https://maps.google.com/maps/contrib/108415214457362403195\">Prestige Automotive</a>"
          ],
          "photo_reference": "AeJbb3cbo8NteczBPaEcACd2-kJwAlbZcSWJHA8De7cKyErDQTIok8oEcMfG5JfaZxuMpftr17j-qPP9BxJrILMX-zN6X1LeulXzblIUUI0V3314KQ-IsnyaY_zssO2oX0AP-YplYjaNybhUkCBJIftY3rCGQXqj97cuxPWxEAUM9aM_gVbg",
          "width": 2048
        }
      ],
      "place_id": "ChIJ9RA16Gj2wokR55taTWsEo78",
      "plus_code": {
        "compound_code": "R29V+CX \u7f8e\u570b\u7d10\u7d04",
        "global_code": "87G8R29V+CX"
      },
      "rating": 4.5,
      "reference": "ChIJ9RA16Gj2wokR55taTWsEo78",
      "scope": "GOOGLE",
      "types": [
        "car_repair",
        "store",
        "point_of_interest",
        "establishment"
      ],
      "user_ratings_total": 177,
      "vicinity": "547 West 133rd Street, New York"
    },
    {
      "business_status": "OPERATIONAL",
      "geometry": {
        "location": {
          "lat": 40.8197347,
          "lng": -73.95485959999999
        },
        "viewport": {
          "northeast": {
            "lat": 40.8211399302915,
            "lng": -73.9536444197085
          },
          "southwest": {
            "lat": 40.8184419697085,
            "lng": -73.9563423802915
          }
        }
      },
      "icon": "https://maps.gstatic.com/mapfiles/place_api/icons/v1/png_71/generic_business-71.png",
      "icon_background_color": "#7B9EB0",
      "icon_mask_base_uri": "https://maps.gstatic.com/mapfiles/place_api/icons/v2/generic_pinlet",
      "name": "Extra Space Storage",
      "opening_hours": {
        "open_now": true
      },
      "photos": [
        {
          "height": 270,
          "html_attributions": [
            "<a href=\"https://maps.google.com/maps/contrib/115806724902755374992\">Extra Space Storage</a>"
          ],
          "photo_reference": "AeJbb3fz2XkCLA9b42aPcg930ZoFSmqQzHOX8Dwwzy4ujuS37RiBEpCy2UeoWr8gJ8NDBiwFflsXIUk4GcupkgoVi3wIB-luVkOzBkI0XSJMChw3FIcmBgRXq-dpcP3KR0WxwQED2_UW3xIwLliiidPrGzAZRo5DMNhzPZH0FymWMEHs6Opx",
          "width": 480
        }
      ],
      "place_id": "ChIJyw0Bomj2wokRB2G8vHK6RU8",
      "plus_code": {
        "compound_code": "R29W+V3 \u7f8e\u570b\u7d10\u7d04",
        "global_code": "87G8R29W+V3"
      },
      "rating": 4.9,
      "reference": "ChIJyw0Bomj2wokRB2G8vHK6RU8",
      "scope": "GOOGLE",
      "types": [
        "moving_company",
        "storage",
        "store",
        "point_of_interest",
        "establishment"
      ],
      "user_ratings_total": 709,
      "vicinity": "3330 Broadway, New York"
    },
    {
      "business_status": "OPERATIONAL",
      "geometry": {
        "location": {
          "lat": 40.81963319999999,
          "lng": -73.95469539999999
        },
        "viewport": {
          "northeast": {
            "lat": 40.82110418029149,
            "lng": -73.95325646970849
          },
          "southwest": {
            "lat": 40.81840621970849,
            "lng": -73.9559544302915
          }
        }
      },
      "icon": "https://maps.gstatic.com/mapfiles/place_api/icons/v1/png_71/generic_business-71.png",
      "icon_background_color": "#7B9EB0",
      "icon_mask_base_uri": "https://maps.gstatic.com/mapfiles/place_api/icons/v2/generic_pinlet",
      "name": "Henao Joseph",
      "place_id": "ChIJVT9uvGj2wokRKReNdZXMIhM",
      "plus_code": {
        "compound_code": "R29W+V4 \u7f8e\u570b\u7d10\u7d04",
        "global_code": "87G8R29W+V4"
      },
      "reference": "ChIJVT9uvGj2wokRKReNdZXMIhM",
      "scope": "GOOGLE",
      "types": [
        "doctor",
        "health",
        "point_of_interest",
        "establishment"
      ],
      "vicinity": "534 West 135th Street #1, New York"
    },
    {
      "business_status": "OPERATIONAL",
      "geometry": {
        "location": {
          "lat": 40.8217697,
          "lng": -73.95422719999999
        },
        "viewport": {
          "northeast": {
            "lat": 40.8229928802915,
            "lng": -73.9530193697085
          },
          "southwest": {
            "lat": 40.8202949197085,
            "lng": -73.9557173302915
          }
        }
      },
      "icon": "https://maps.gstatic.com/mapfiles/place_api/icons/v1/png_71/shopping-71.png",
      "icon_background_color": "#4B96F3",
      "icon_mask_base_uri": "https://maps.gstatic.com/mapfiles/place_api/icons/v2/convenience_pinlet",
      "name": "Duane Reade",
      "opening_hours": {
        "open_now": true
      },
      "photos": [
        {
          "height": 4032,
          "html_attributions": [
            "<a href=\"https://maps.google.com/maps/contrib/114388924956046639269\">Arlene</a>"
          ],
          "photo_reference": "AeJbb3d08KvM8a6VWaP0-zWTy4OYRmyjKlN0FSVfgsfBW2msRzhHZmG595JStlTuYjwMLLAqPV1melOyxB4uJsEMdOu5dorn_kb-nkLlsAlF6a-ln9iC6lkwixzKlHglMIwKKvCbokxc5SwkuFFDw4c-vVNWPxzdJUImp6X2WnYTOI05Wyks",
          "width": 3024
        }
      ],
      "place_id": "ChIJ-37YQwr2wokRv9n0P0FCmtQ",
      "plus_code": {
        "compound_code": "R2CW+P8 \u7f8e\u570b\u7d10\u7d04",
        "global_code": "87G8R2CW+P8"
      },
      "price_level": 2,
      "rating": 3.3,
      "reference": "ChIJ-37YQwr2wokRv9n0P0FCmtQ",
      "scope": "GOOGLE",
      "types": [
        "convenience_store",
        "clothing_store",
        "store",
        "food",
        "point_of_interest",
        "establishment"
      ],
      "user_ratings_total": 50,
      "vicinity": "3387 Broadway, New York"
    },
    {
      "business_status": "OPERATIONAL",
      "geometry": {
        "location": {
          "lat": 40.8204226,
          "lng": -73.9544329
        },
        "viewport": {
          "northeast": {
            "lat": 40.8218128302915,
            "lng": -73.95319671970849
          },
          "southwest": {
            "lat": 40.8191148697085,
            "lng": -73.95589468029151
          }
        }
      },
      "icon": "https://maps.gstatic.com/mapfiles/place_api/icons/v1/png_71/generic_business-71.png",
      "icon_background_color": "#7B9EB0",
      "icon_mask_base_uri": "https://maps.gstatic.com/mapfiles/place_api/icons/v2/generic_pinlet",
      "name": "PAYOMATIC",
      "opening_hours": {
        "open_now": true
      },
      "place_id": "ChIJoaceJWT2wokReE4QMrehgiI",
      "plus_code": {
        "compound_code": "R2CW+56 \u7f8e\u570b\u7d10\u7d04",
        "global_code": "87G8R2CW+56"
      },
      "rating": 2.6,
      "reference": "ChIJoaceJWT2wokReE4QMrehgiI",
      "scope": "GOOGLE",
      "types": [
        "bank",
        "finance",
        "point_of_interest",
        "establishment"
      ],
      "user_ratings_total": 17,
      "vicinity": "3352 Broadway, New York"
    },
    {
      "business_status": "OPERATIONAL",
      "geometry": {
        "location": {
          "lat": 40.81964070000001,
          "lng": -73.9569314
        },
        "viewport": {
          "northeast": {
            "lat": 40.82083068029151,
            "lng": -73.9557003697085
          },
          "southwest": {
            "lat": 40.81813271970851,
            "lng": -73.9583983302915
          }
        }
      },
      "icon": "https://maps.gstatic.com/mapfiles/place_api/icons/v1/png_71/generic_business-71.png",
      "icon_background_color": "#7B9EB0",
      "icon_mask_base_uri": "https://maps.gstatic.com/mapfiles/place_api/icons/v2/generic_pinlet",
      "name": "Snow Air Conditioning Store",
      "opening_hours": {
        "open_now": false
      },
      "place_id": "ChIJIYbgnmj2wokR1zUkm4IpUjw",
      "plus_code": {
        "compound_code": "R29V+V6 \u7f8e\u570b\u7d10\u7d04",
        "global_code": "87G8R29V+V6"
      },
      "rating": 5,
      "reference": "ChIJIYbgnmj2wokR1zUkm4IpUjw",
      "scope": "GOOGLE",
      "types": [
        "general_contractor",
        "point_of_interest",
        "establishment"
      ],
      "user_ratings_total": 4,
      "vicinity": "3333 Broadway, New York"
    },
    {
      "business_status": "OPERATIONAL",
      "geometry": {
        "location": {
          "lat": 40.818768,
          "lng": -73.956388
        },
        "viewport": {
          "northeast": {
            "lat": 40.82009038029149,
            "lng": -73.9549758197085
          },
          "southwest": {
            "lat": 40.8173924197085,
            "lng": -73.9576737802915
          }
        }
      },
      "icon": "https://maps.gstatic.com/mapfiles/place_api/icons/v1/png_71/pharmacy-71.png",
      "icon_background_color": "#F88181",
      "icon_mask_base_uri": "https://maps.gstatic.com/mapfiles/place_api/icons/v2/pharmacy_pinlet",
      "name": "Hamilton Pharmacy Inc",
      "opening_hours": {
        "open_now": true
      },
      "photos": [
        {
          "height": 384,
          "html_attributions": [
            "<a href=\"https://maps.google.com/maps/contrib/117656871016606677756\">Hamilton Pharmacy Inc</a>"
          ],
          "photo_reference": "AeJbb3fTyaYZHUpi8Ow6ZULaX-1IPBFsSFfC4sDGWHZl5Tg0RQkqBxrsemmewjPwE44hPRTMFw_tfCKNLy1z9uxChTVZu_SgPmc1vNz3-lqXco3sqdUYwWs7xg3HAyLV3PQ7Ug8KnFSp9NbZ6YvY87UxukCmF0Jdtg5qPaJXqlxQ7NxsnYzS",
          "width": 686
        }
      ],
      "place_id": "ChIJG3BX9mj2wokRd_SogzG6wUk",
      "plus_code": {
        "compound_code": "R29V+GC \u7f8e\u570b\u7d10\u7d04",
        "global_code": "87G8R29V+GC"
      },
      "rating": 4.3,
      "reference": "ChIJG3BX9mj2wokRd_SogzG6wUk",
      "scope": "GOOGLE",
      "types": [
        "pharmacy",
        "store",
        "health",
        "point_of_interest",
        "establishment"
      ],
      "user_ratings_total": 16,
      "vicinity": "3293 Broadway, New York"
    },
    {
      "business_status": "OPERATIONAL",
      "geometry": {
        "location": {
          "lat": 40.818444,
          "lng": -73.95679
        },
        "viewport": {
          "northeast": {
            "lat": 40.8197535302915,
            "lng": -73.9553053697085
          },
          "southwest": {
            "lat": 40.8170555697085,
            "lng": -73.9580033302915
          }
        }
      },
      "icon": "https://maps.gstatic.com/mapfiles/place_api/icons/v1/png_71/generic_business-71.png",
      "icon_background_color": "#7B9EB0",
      "icon_mask_base_uri": "https://maps.gstatic.com/mapfiles/place_api/icons/v2/generic_pinlet",
      "name": "Robert W Parchment Plumbing & Heating",
      "place_id": "ChIJz3mkF2P2wokRGqgHxy3TTuM",
      "plus_code": {
        "compound_code": "R29V+97 \u7f8e\u570b\u7d10\u7d04",
        "global_code": "87G8R29V+97"
      },
      "rating": 5,
      "reference": "ChIJz3mkF2P2wokRGqgHxy3TTuM",
      "scope": "GOOGLE",
      "types": [
        "plumber",
        "point_of_interest",
        "establishment"
      ],
      "user_ratings_total": 1,
      "vicinity": "3281 Broadway, New York"
    },
    {
      "business_status": "OPERATIONAL",
      "geometry": {
        "location": {
          "lat": 40.8203695,
          "lng": -73.95634849999999
        },
        "viewport": {
          "northeast": {
            "lat": 40.8218246302915,
            "lng": -73.9549224197085
          },
          "southwest": {
            "lat": 40.8191266697085,
            "lng": -73.9576203802915
          }
        }
      },
      "icon": "https://maps.gstatic.com/mapfiles/place_api/icons/v1/png_71/generic_business-71.png",
      "icon_background_color": "#7B9EB0",
      "icon_mask_base_uri": "https://maps.gstatic.com/mapfiles/place_api/icons/v2/generic_pinlet",
      "name": "Nyc Press Pass",
      "place_id": "ChIJC7QqKmb2wokRdkavOk_mZK4",
      "plus_code": {
        "compound_code": "R2CV+4F \u7f8e\u570b\u7d10\u7d04",
        "global_code": "87G8R2CV+4F"
      },
      "rating": 5,
      "reference": "ChIJC7QqKmb2wokRdkavOk_mZK4",
      "scope": "GOOGLE",
      "types": [
        "point_of_interest",
        "establishment"
      ],
      "user_ratings_total": 2,
      "vicinity": "610 West 135th Street, New York"
    },
    {
      "geometry": {
        "location": {
          "lat": 40.8240478,
          "lng": -73.9447643
        },
        "viewport": {
          "northeast": {
            "lat": 40.87822003591612,
            "lng": -73.91064591328563
          },
          "southwest": {
            "lat": 40.78278392408598,
            "lng": -73.97119006413347
          }
        }
      },
      "icon": "https://maps.gstatic.com/mapfiles/place_api/icons/v1/png_71/geocode-71.png",
      "icon_background_color": "#7B9EB0",
      "icon_mask_base_uri": "https://maps.gstatic.com/mapfiles/place_api/icons/v2/generic_pinlet",
      "name": "\u66fc\u54c8\u9813\u4e0a\u57ce",
      "photos": [
        {
          "height": 4000,
          "html_attributions": [
            "<a href=\"https://maps.google.com/maps/contrib/108665206705263687409\">Chris Lidstone</a>"
          ],
          "photo_reference": "AeJbb3cJAz2ZWOoIQs0Lv0z97QEe9tpyT8y3P3SuYQKFfNdV0PkYxuQZ11ONSZm18cVadW5Z4rYgBlH_UkXPiTtL8bN5sHBlttfIOssYkz897oR6xABCSVNV-OJmIrYWYhcrTpPWRb9OFRMmvOcCTrzYaFCxItx4oEJfe0gDyh3NlANvOA17",
          "width": 3000
        }
      ],
      "place_id": "ChIJY50xHxP2wokR7WhhDNRmgRU",
      "reference": "ChIJY50xHxP2wokR7WhhDNRmgRU",
      "scope": "GOOGLE",
      "types": [
        "neighborhood",
        "political"
      ],
      "vicinity": "\u66fc\u54c8\u9813"
    },
    {
      "business_status": "CLOSED_TEMPORARILY",
      "geometry": {
        "location": {
          "lat": 40.8197643,
          "lng": -73.9572398
        },
        "viewport": {
          "northeast": {
            "lat": 40.8209566302915,
            "lng": -73.95600586970849
          },
          "southwest": {
            "lat": 40.8182586697085,
            "lng": -73.9587038302915
          }
        }
      },
      "icon": "https://maps.gstatic.com/mapfiles/place_api/icons/v1/png_71/generic_business-71.png",
      "icon_background_color": "#7B9EB0",
      "icon_mask_base_uri": "https://maps.gstatic.com/mapfiles/place_api/icons/v2/generic_pinlet",
      "name": "Farrell Tax Services",
      "permanently_closed": true,
      "place_id": "ChIJ6bBJmWj2wokRgCbd2OXvnzc",
      "plus_code": {
        "compound_code": "R29V+W4 New York, NY, USA",
        "global_code": "87G8R29V+W4"
      },
      "reference": "ChIJ6bBJmWj2wokRgCbd2OXvnzc",
      "scope": "GOOGLE",
      "types": [
        "accounting",
        "lawyer",
        "finance",
        "point_of_interest",
        "establishment"
      ],
      "vicinity": "3333 Broadway, New York"
    },
    {
      "business_status": "OPERATIONAL",
      "geometry": {
        "location": {
          "lat": 40.818577,
          "lng": -73.958764
        },
        "viewport": {
          "northeast": {
            "lat": 40.8198382302915,
            "lng": -73.9574782697085
          },
          "southwest": {
            "lat": 40.8171402697085,
            "lng": -73.96017623029151
          }
        }
      },
      "icon": "https://maps.gstatic.com/mapfiles/place_api/icons/v1/png_71/generic_business-71.png",
      "icon_background_color": "#7B9EB0",
      "icon_mask_base_uri": "https://maps.gstatic.com/mapfiles/place_api/icons/v2/generic_pinlet",
      "name": "Midway Electric & Data Supply",
      "place_id": "ChIJ6xb4LWj2wokRTZgiZwcrPr0",
      "plus_code": {
        "compound_code": "R29R+CF New York, NY, USA",
        "global_code": "87G8R29R+CF"
      },
      "reference": "ChIJ6xb4LWj2wokRTZgiZwcrPr0",
      "scope": "GOOGLE",
      "types": [
        "electrician",
        "point_of_interest",
        "establishment"
      ],
      "vicinity": "641 West 131st Street, New York"
    },
    {
      "business_status": "CLOSED_TEMPORARILY",
      "geometry": {
        "location": {
          "lat": 40.820598,
          "lng": -73.9557824
        },
        "viewport": {
          "northeast": {
            "lat": 40.8218749802915,
            "lng": -73.95448571970849
          },
          "southwest": {
            "lat": 40.8191770197085,
            "lng": -73.9571836802915
          }
        }
      },
      "icon": "https://maps.gstatic.com/mapfiles/place_api/icons/v1/png_71/generic_business-71.png",
      "icon_background_color": "#7B9EB0",
      "icon_mask_base_uri": "https://maps.gstatic.com/mapfiles/place_api/icons/v2/generic_pinlet",
      "name": "BERKAY GROUP INC.",
      "permanently_closed": true,
      "place_id": "ChIJW8LqJ2b2wokRZ_8_in5CIL8",
      "plus_code": {
        "compound_code": "R2CV+6M New York, NY, USA",
        "global_code": "87G8R2CV+6M"
      },
      "reference": "ChIJW8LqJ2b2wokRZ_8_in5CIL8",
      "scope": "GOOGLE",
      "types": [
        "school",
        "point_of_interest",
        "establishment"
      ],
      "vicinity": "609 West 135th Street, New York"
    },
    {
      "business_status": "OPERATIONAL",
      "geometry": {
        "location": {
          "lat": 40.8199852,
          "lng": -73.9585029
        },
        "viewport": {
          "northeast": {
            "lat": 40.8212958302915,
            "lng": -73.9571819697085
          },
          "southwest": {
            "lat": 40.8185978697085,
            "lng": -73.9598799302915
          }
        }
      },
      "icon": "https://maps.gstatic.com/mapfiles/place_api/icons/v1/png_71/generic_business-71.png",
      "icon_background_color": "#7B9EB0",
      "icon_mask_base_uri": "https://maps.gstatic.com/mapfiles/place_api/icons/v2/generic_pinlet",
      "name": "Gil Even-Tsur Architecture Workshop",
      "place_id": "ChIJRfeDEWj2wokR3345rgev85c",
      "plus_code": {
        "compound_code": "R29R+XH New York, NY, USA",
        "global_code": "87G8R29R+XH"
      },
      "reference": "ChIJRfeDEWj2wokR3345rgev85c",
      "scope": "GOOGLE",
      "types": [
        "point_of_interest",
        "establishment"
      ],
      "vicinity": "2331 12th Avenue, New York"
    },
    {
      "business_status": "OPERATIONAL",
      "geometry": {
        "location": {
          "lat": 40.82057059999999,
          "lng": -73.9595968
        },
        "viewport": {
          "northeast": {
            "lat": 40.82178628029151,
            "lng": -73.95829021970849
          },
          "southwest": {
            "lat": 40.81908831970851,
            "lng": -73.96098818029151
          }
        }
      },
      "icon": "https://maps.gstatic.com/mapfiles/place_api/icons/v1/png_71/park-71.png",
      "icon_background_color": "#4DB546",
      "icon_mask_base_uri": "https://maps.gstatic.com/mapfiles/place_api/icons/v2/tree_pinlet",
      "name": "Kayak & Canoe Launch",
      "photos": [
        {
          "height": 4032,
          "html_attributions": [
            "<a href=\"https://maps.google.com/maps/contrib/115144107771828826648\">HERNANDEZ GOMEZ</a>"
          ],
          "photo_reference": "AeJbb3cOPtWUhXYP__0megnDMzGKsRpoQUit3Q3-rt6UT9g0qR4CWR-d77kqcwd36KeXbABWDr0L5sxZVX9jbomLxTO80wseJM3LKilWddBJFMOXSjLlq7Mc1iKjOIs_8KwAJeKtwlyt9T4JGTT88Z6ZpnEDN3VBV27ZtcaFkelKn_0NgUZd",
          "width": 3024
        }
      ],
      "place_id": "ChIJ7QCLqUL2wokRwXFlcXKNtdg",
      "plus_code": {
        "compound_code": "R2CR+65 New York, NY, USA",
        "global_code": "87G8R2CR+65"
      },
      "rating": 4,
      "reference": "ChIJ7QCLqUL2wokRwXFlcXKNtdg",
      "scope": "GOOGLE",
      "types": [
        "park",
        "tourist_attraction",
        "point_of_interest",
        "establishment"
      ],
      "user_ratings_total": 9,
      "vicinity": "Hudson River Greenway, New York"
    },
    {
      "business_status": "OPERATIONAL",
      "geometry": {
        "location": {
          "lat": 40.8206468,
          "lng": -73.9579626
        },
        "viewport": {
          "northeast": {
            "lat": 40.8219183302915,
            "lng": -73.9567207197085
          },
          "southwest": {
            "lat": 40.8192203697085,
            "lng": -73.9594186802915
          }
        }
      },
      "icon": "https://maps.gstatic.com/mapfiles/place_api/icons/v1/png_71/parking-71.png",
      "icon_background_color": "#7B9EB0",
      "icon_mask_base_uri": "https://maps.gstatic.com/mapfiles/place_api/icons/v2/parking_pinlet",
      "name": "Garage",
      "place_id": "ChIJ-92-4Wf2wokRoGt-xmJNj1k",
      "plus_code": {
        "compound_code": "R2CR+7R New York, NY, USA",
        "global_code": "87G8R2CR+7R"
      },
      "rating": 4.5,
      "reference": "ChIJ-92-4Wf2wokRoGt-xmJNj1k",
      "scope": "GOOGLE",
      "types": [
        "parking",
        "point_of_interest",
        "establishment"
      ],
      "user_ratings_total": 2,
      "vicinity": "571-575 Riverside Drive Viaduct, New York"
    },
    {
      "business_status": "OPERATIONAL",
      "geometry": {
        "location": {
          "lat": 40.8207428,
          "lng": -73.9574928
        },
        "viewport": {
          "northeast": {
            "lat": 40.82223618029149,
            "lng": -73.95603371970849
          },
          "southwest": {
            "lat": 40.81953821970849,
            "lng": -73.95873168029149
          }
        }
      },
      "icon": "https://maps.gstatic.com/mapfiles/place_api/icons/v1/png_71/generic_business-71.png",
      "icon_background_color": "#7B9EB0",
      "icon_mask_base_uri": "https://maps.gstatic.com/mapfiles/place_api/icons/v2/generic_pinlet",
      "name": "Paul Peterson Design Build",
      "photos": [
        {
          "height": 3024,
          "html_attributions": [
            "<a href=\"https://maps.google.com/maps/contrib/104905424060289364891\">Paul Peterson</a>"
          ],
          "photo_reference": "AeJbb3cSGJkhe9OyfNGgeIHSx9D-8spHQfMJRQxhTWS-5usJm_DWg71FS0_XBOeE48Z9aiqaMdlnjXp3462zK9Cj8x3FxYacRabvSyyjIYUPx38SQlfEKUkRIAxY1I-hPh1vGxIYXlPm6jg-Czpcx70K_zpO5xk74oia6qSBQOyAezLbsPsB",
          "width": 4032
        }
      ],
      "place_id": "ChIJmRv-2Gf2wokRqUTfpipPaWY",
      "plus_code": {
        "compound_code": "R2CV+72 New York, NY, USA",
        "global_code": "87G8R2CV+72"
      },
      "reference": "ChIJmRv-2Gf2wokRqUTfpipPaWY",
      "scope": "GOOGLE",
      "types": [
        "general_contractor",
        "point_of_interest",
        "establishment"
      ],
      "vicinity": "634 West 135th Street, New York"
    },
    {
      "business_status": "CLOSED_TEMPORARILY",
      "geometry": {
        "location": {
          "lat": 40.8197252,
          "lng": -73.9570658
        },
        "viewport": {
          "northeast": {
            "lat": 40.8209054802915,
            "lng": -73.95584416970848
          },
          "southwest": {
            "lat": 40.8182075197085,
            "lng": -73.9585421302915
          }
        }
      },
      "icon": "https://maps.gstatic.com/mapfiles/place_api/icons/v1/png_71/generic_business-71.png",
      "icon_background_color": "#7B9EB0",
      "icon_mask_base_uri": "https://maps.gstatic.com/mapfiles/place_api/icons/v2/generic_pinlet",
      "name": "Margaritas Art Gallery",
      "permanently_closed": true,
      "place_id": "ChIJj2pQZGj2wokRIr1kGNuzZ78",
      "plus_code": {
        "compound_code": "R29V+V5 New York, NY, USA",
        "global_code": "87G8R29V+V5"
      },
      "reference": "ChIJj2pQZGj2wokRIr1kGNuzZ78",
      "scope": "GOOGLE",
      "types": [
        "art_gallery",
        "point_of_interest",
        "establishment"
      ],
      "vicinity": "3333 Broadway, New York"
    },
    {
      "business_status": "OPERATIONAL",
      "geometry": {
        "location": {
          "lat": 40.8209127,
          "lng": -73.95741129999999
        },
        "viewport": {
          "northeast": {
            "lat": 40.82232903029151,
            "lng": -73.95601101970848
          },
          "southwest": {
            "lat": 40.81963106970851,
            "lng": -73.95870898029149
          }
        }
      },
      "icon": "https://maps.gstatic.com/mapfiles/place_api/icons/v1/png_71/worship_general-71.png",
      "icon_background_color": "#7B9EB0",
      "icon_mask_base_uri": "https://maps.gstatic.com/mapfiles/place_api/icons/v2/worship_christian_pinlet",
      "name": "Riverside Associate",
      "photos": [
        {
          "height": 4096,
          "html_attributions": [
            "<a href=\"https://maps.google.com/maps/contrib/105511064964814831301\">Katherine Howard Garcia</a>"
          ],
          "photo_reference": "AeJbb3furA0kf7s-5Gw9urWAkSidTN8pGwzG3ANPdSZPlRmqvIiOs0zmPsO3sRVW0izgozwNsPlhLtLBMzIS2TqzzIMkc6fEE_rQ84NWBLH4XlpMYnLYIxsUlszxeGbjdUGrdB4DgWF_J4h9Lz_akDXg0q3eGQ7aI_IIzOsfw0-btuE-w5uZ",
          "width": 2304
        }
      ],
      "place_id": "ChIJKdK3y2f2wokRQSh7BHKDhKg",
      "plus_code": {
        "compound_code": "R2CV+92 New York, NY, USA",
        "global_code": "87G8R2CV+92"
      },
      "rating": 4.7,
      "reference": "ChIJKdK3y2f2wokRQSh7BHKDhKg",
      "scope": "GOOGLE",
      "types": [
        "church",
        "place_of_worship",
        "point_of_interest",
        "establishment"
      ],
      "user_ratings_total": 3,
      "vicinity": "587 Riverside Drive, New York"
    },
    {
      "business_status": "OPERATIONAL",
      "geometry": {
        "location": {
          "lat": 40.8212489,
          "lng": -73.9577537
        },
        "viewport": {
          "northeast": {
            "lat": 40.82262798029151,
            "lng": -73.95645331970849
          },
          "southwest": {
            "lat": 40.81993001970851,
            "lng": -73.95915128029151
          }
        }
      },
      "icon": "https://maps.gstatic.com/mapfiles/place_api/icons/v1/png_71/generic_business-71.png",
      "icon_background_color": "#7B9EB0",
      "icon_mask_base_uri": "https://maps.gstatic.com/mapfiles/place_api/icons/v2/generic_pinlet",
      "name": "NYC Env Protection",
      "place_id": "ChIJRQMww2f2wokRHKtWCqXYHy8",
      "plus_code": {
        "compound_code": "R2CR+FV New York, NY, USA",
        "global_code": "87G8R2CR+FV"
      },
      "rating": 2.3,
      "reference": "ChIJRQMww2f2wokRHKtWCqXYHy8",
      "scope": "GOOGLE",
      "types": [
        "point_of_interest",
        "establishment"
      ],
      "user_ratings_total": 3,
      "vicinity": "725 West 135th Street, New York"
    },
    {
      "business_status": "OPERATIONAL",
      "geometry": {
        "location": {
          "lat": 40.819803,
          "lng": -73.95682699999999
        },
        "viewport": {
          "northeast": {
            "lat": 40.8209144302915,
            "lng": -73.95565426970849
          },
          "southwest": {
            "lat": 40.8182164697085,
            "lng": -73.9583522302915
          }
        }
      },
      "icon": "https://maps.gstatic.com/mapfiles/place_api/icons/v1/png_71/school-71.png",
      "icon_background_color": "#7B9EB0",
      "icon_mask_base_uri": "https://maps.gstatic.com/mapfiles/place_api/icons/v2/school_pinlet",
      "name": "Kipp Star Harlem College Prep Elementary School",
      "photos": [
        {
          "height": 3456,
          "html_attributions": [
            "<a href=\"https://maps.google.com/maps/contrib/100789150857758761653\">taichi matsuo</a>"
          ],
          "photo_reference": "AeJbb3fw5PyKyCJTLLJr5viWv09MvyOFNIHKqOklR8P_YscR8GxJkei_IIBaYFImuOMe3c3JB1YAPPaCpk2V6ivXk4yXSD6wj6U0z_5CBcEw-56KQYJjCk9R9ZBiEEVSqrFlh5E9-4eGNw-zXdeNfK_Nx9wUQdJJ6q04zTpk2rC8p4_WIaTO",
          "width": 4608
        }
      ],
      "place_id": "ChIJO6ecZWj2wokRMI1n2JM1Xk0",
      "plus_code": {
        "compound_code": "R29V+W7 New York, NY, USA",
        "global_code": "87G8R29V+W7"
      },
      "rating": 4.1,
      "reference": "ChIJO6ecZWj2wokRMI1n2JM1Xk0",
      "scope": "GOOGLE",
      "types": [
        "primary_school",
        "school",
        "point_of_interest",
        "establishment"
      ],
      "user_ratings_total": 10,
      "vicinity": "625 West 133rd Street, New York"
    },
    {
      "business_status": "OPERATIONAL",
      "geometry": {
        "location": {
          "lat": 40.8190738,
          "lng": -73.9555007
        },
        "viewport": {
          "northeast": {
            "lat": 40.82045043029149,
            "lng": -73.9542195197085
          },
          "southwest": {
            "lat": 40.81775246970849,
            "lng": -73.95691748029151
          }
        }
      },
      "icon": "https://maps.gstatic.com/mapfiles/place_api/icons/v1/png_71/shopping-71.png",
      "icon_background_color": "#4B96F3",
      "icon_mask_base_uri": "https://maps.gstatic.com/mapfiles/place_api/icons/v2/shopping_pinlet",
      "name": "El Mundo",
      "opening_hours": {
        "open_now": true
      },
      "photos": [
        {
          "height": 2340,
          "html_attributions": [
            "<a href=\"https://maps.google.com/maps/contrib/111975543672082453726\">Sudhir Bhargava</a>"
          ],
          "photo_reference": "AeJbb3ckaPL7jlrbsvW0Bu4kQMZnr3bc9cPEqd1Jkrbg5agjP2cGJN5IBc5G4tHkVQ3knZOZMSW1HZbWPT5kAo6x3h6uBAxlJ-b1VTd72tQNx4WLeATtrVJ2jmlB5Qcrh3-BDpenO5Rd67pNAnAgtiJ53SqQ1M564nMM0tsx66vybuTpc6Cz",
          "width": 4160
        }
      ],
      "place_id": "ChIJ78zE7Gj2wokRxYafEaEEmeI",
      "plus_code": {
        "compound_code": "R29V+JQ New York, NY, USA",
        "global_code": "87G8R29V+JQ"
      },
      "rating": 3.9,
      "reference": "ChIJ78zE7Gj2wokRxYafEaEEmeI",
      "scope": "GOOGLE",
      "types": [
        "department_store",
        "store",
        "point_of_interest",
        "establishment"
      ],
      "user_ratings_total": 217,
      "vicinity": "3300 Broadway, New York"
    },
    {
      "business_status": "OPERATIONAL",
      "geometry": {
        "location": {
          "lat": 40.8185316,
          "lng": -73.9575577
        },
        "viewport": {
          "northeast": {
            "lat": 40.8199228802915,
            "lng": -73.9561863197085
          },
          "southwest": {
            "lat": 40.8172249197085,
            "lng": -73.9588842802915
          }
        }
      },
      "icon": "https://maps.gstatic.com/mapfiles/place_api/icons/v1/png_71/school-71.png",
      "icon_background_color": "#7B9EB0",
      "icon_mask_base_uri": "https://maps.gstatic.com/mapfiles/place_api/icons/v2/school_pinlet",
      "name": "Columbia University Information Technologies",
      "photos": [
        {
          "height": 6000,
          "html_attributions": [
            "<a href=\"https://maps.google.com/maps/contrib/105685958168642748296\">Jes\u00fas Guerra Ocampo</a>"
          ],
          "photo_reference": "AeJbb3egaquR9eOtzGA4kqc1f4MMk4zQ1sRCnKDtqM9gYbxnJLEGU74_lqo8fqJUUKAVjRFkbVGRLXC4W-fBRXRdraNAzjI-Vb_TvV_3hMX-1jKGPhzLlnkNLDPOnw9asBBPFdHl96aDsuDKz13LMBbRJa0deSVOe9sFVyU0YQzNsXyN29an",
          "width": 4000
        }
      ],
      "place_id": "ChIJeV8WfTz2wokR7lxgDnLrdhE",
      "plus_code": {
        "compound_code": "R29R+CX New York, NY, USA",
        "global_code": "87G8R29R+CX"
      },
      "rating": 3.5,
      "reference": "ChIJeV8WfTz2wokR7lxgDnLrdhE",
      "scope": "GOOGLE",
      "types": [
        "point_of_interest",
        "establishment"
      ],
      "user_ratings_total": 6,
      "vicinity": "615 West 131st Street #5, New York"
    },
    {
      "business_status": "OPERATIONAL",
      "geometry": {
        "location": {
          "lat": 40.8181855,
          "lng": -73.9581812
        },
        "viewport": {
          "northeast": {
            "lat": 40.8195034302915,
            "lng": -73.9568557197085
          },
          "southwest": {
            "lat": 40.8168054697085,
            "lng": -73.9595536802915
          }
        }
      },
      "icon": "https://maps.gstatic.com/mapfiles/place_api/icons/v1/png_71/atm-71.png",
      "icon_background_color": "#909CE1",
      "icon_mask_base_uri": "https://maps.gstatic.com/mapfiles/place_api/icons/v2/atm_pinlet",
      "name": "Santander Bank ATM",
      "opening_hours": {
        "open_now": true
      },
      "photos": [
        {
          "height": 2326,
          "html_attributions": [
            "<a href=\"https://maps.google.com/maps/contrib/106556144661317766121\">Santander Bank ATM</a>"
          ],
          "photo_reference": "AeJbb3crWaG76hQzU9A-iiJQeyBB4CPIZkkqmGDpnSEfnvKO6PoKiQU0auhRLwoP4wqAMwuF0QyZQtQ8B9XtmOTCmOLG4uruxUyxLc40d-LRuiKg_rym8ca0yJPGKdAkRIBUAmXmVdNvs3W0Fqo2FkGQVi5bO98uwsWy4Jt0bc9mQx-HhVQS",
          "width": 2326
        }
      ],
      "place_id": "ChIJt7sjSWj2wokRX4ivswtmOH4",
      "plus_code": {
        "compound_code": "R29R+7P New York, NY, USA",
        "global_code": "87G8R29R+7P"
      },
      "rating": 2.3,
      "reference": "ChIJt7sjSWj2wokRX4ivswtmOH4",
      "scope": "GOOGLE",
      "types": [
        "atm",
        "finance",
        "point_of_interest",
        "establishment"
      ],
      "user_ratings_total": 3,
      "vicinity": "622 West 132nd Street, New York"
    },
    {
      "business_status": "OPERATIONAL",
      "geometry": {
        "location": {
          "lat": 40.817812,
          "lng": -73.95823109999999
        },
        "viewport": {
          "northeast": {
            "lat": 40.8192786302915,
            "lng": -73.9567930197085
          },
          "southwest": {
            "lat": 40.8165806697085,
            "lng": -73.9594909802915
          }
        }
      },
      "icon": "https://maps.gstatic.com/mapfiles/place_api/icons/v1/png_71/school-71.png",
      "icon_background_color": "#7B9EB0",
      "icon_mask_base_uri": "https://maps.gstatic.com/mapfiles/place_api/icons/v2/school_pinlet",
      "name": "Columbia Business School, Manhattanville Campus",
      "place_id": "ChIJ1yu0yWn2wokRbz2t3ia1LG0",
      "plus_code": {
        "compound_code": "R29R+4P New York, NY, USA",
        "global_code": "87G8R29R+4P"
      },
      "reference": "ChIJ1yu0yWn2wokRbz2t3ia1LG0",
      "scope": "GOOGLE",
      "types": [
        "school",
        "point_of_interest",
        "establishment"
      ],
      "vicinity": "614 West 131st Street, New York"
    },
    {
      "business_status": "OPERATIONAL",
      "geometry": {
        "location": {
          "lat": 40.81684699999999,
          "lng": -73.95795799999999
        },
        "viewport": {
          "northeast": {
            "lat": 40.81814098029149,
            "lng": -73.95647931970849
          },
          "southwest": {
            "lat": 40.8154430197085,
            "lng": -73.9591772802915
          }
        }
      },
      "icon": "https://maps.gstatic.com/mapfiles/place_api/icons/v1/png_71/generic_business-71.png",
      "icon_background_color": "#7B9EB0",
      "icon_mask_base_uri": "https://maps.gstatic.com/mapfiles/place_api/icons/v2/generic_pinlet",
      "name": "The Laboratory of Richard S Mann",
      "place_id": "ChIJLWlU8Jv2wokRXP_wysvp4_0",
      "plus_code": {
        "compound_code": "R28R+PR New York, NY, USA",
        "global_code": "87G8R28R+PR"
      },
      "reference": "ChIJLWlU8Jv2wokRXP_wysvp4_0",
      "scope": "GOOGLE",
      "types": [
        "point_of_interest",
        "establishment"
      ],
      "vicinity": "3227 Broadway, New York"
    },
    {
      "business_status": "OPERATIONAL",
      "geometry": {
        "location": {
          "lat": 40.8170235,
          "lng": -73.95886639999999
        },
        "viewport": {
          "northeast": {
            "lat": 40.8182705802915,
            "lng": -73.95759051970848
          },
          "southwest": {
            "lat": 40.8155726197085,
            "lng": -73.9602884802915
          }
        }
      },
      "icon": "https://maps.gstatic.com/mapfiles/place_api/icons/v1/png_71/generic_business-71.png",
      "icon_background_color": "#7B9EB0",
      "icon_mask_base_uri": "https://maps.gstatic.com/mapfiles/place_api/icons/v2/generic_pinlet",
      "name": "Fashion Award Cleaners",
      "place_id": "ChIJbyCtwmn2wokRCaoLYLm6EmM",
      "plus_code": {
        "compound_code": "R28R+RF New York, NY, USA",
        "global_code": "87G8R28R+RF"
      },
      "rating": 5,
      "reference": "ChIJbyCtwmn2wokRCaoLYLm6EmM",
      "scope": "GOOGLE",
      "types": [
        "point_of_interest",
        "establishment"
      ],
      "user_ratings_total": 2,
      "vicinity": "623 West 129th Street, New York"
    },
    {
      "business_status": "OPERATIONAL",
      "geometry": {
        "location": {
          "lat": 40.8171525,
          "lng": -73.9588298
        },
        "viewport": {
          "northeast": {
            "lat": 40.81834378029151,
            "lng": -73.9575935197085
          },
          "southwest": {
            "lat": 40.81564581970851,
            "lng": -73.9602914802915
          }
        }
      },
      "icon": "https://maps.gstatic.com/mapfiles/place_api/icons/v1/png_71/generic_business-71.png",
      "icon_background_color": "#7B9EB0",
      "icon_mask_base_uri": "https://maps.gstatic.com/mapfiles/place_api/icons/v2/generic_pinlet",
      "name": "The Lenfest Gallery for the Arts",
      "photos": [
        {
          "height": 3024,
          "html_attributions": [
            "<a href=\"https://maps.google.com/maps/contrib/105678424652023151807\">Tea Didikai</a>"
          ],
          "photo_reference": "AeJbb3eR5xBXFRSbO93UwlKJ__014dOKznA7DoFMr3arzkyxJSqGi3AASxw-ZMTDumCfZwn2X3hRXOmx9Y_5r8iFugYaTIB4snD-AF_WClvvAOfgZjpeDsb7uDPa-Xe6jgBz5d9hYTZD1rSnv3P9TUaf2R9Bdgd4yXNds8ljt78a4toc44TW",
          "width": 4032
        }
      ],
      "place_id": "ChIJUexn3Wn2wokRlhR7EYNoVcY",
      "plus_code": {
        "compound_code": "R28R+VF New York, NY, USA",
        "global_code": "87G8R28R+VF"
      },
      "rating": 5,
      "reference": "ChIJUexn3Wn2wokRlhR7EYNoVcY",
      "scope": "GOOGLE",
      "types": [
        "art_gallery",
        "point_of_interest",
        "establishment"
      ],
      "user_ratings_total": 2,
      "vicinity": "627 West 129th Street, New York"
    },
    {
      "business_status": "OPERATIONAL",
      "geometry": {
        "location": {
          "lat": 40.8215148,
          "lng": -73.9557775
        },
        "viewport": {
          "northeast": {
            "lat": 40.82277148029149,
            "lng": -73.9544968697085
          },
          "southwest": {
            "lat": 40.82007351970849,
            "lng": -73.95719483029151
          }
        }
      },
      "icon": "https://maps.gstatic.com/mapfiles/place_api/icons/v1/png_71/generic_business-71.png",
      "icon_background_color": "#7B9EB0",
      "icon_mask_base_uri": "https://maps.gstatic.com/mapfiles/place_api/icons/v2/generic_pinlet",
      "name": "AFC Productions",
      "opening_hours": {
        "open_now": false
      },
      "photos": [
        {
          "height": 1638,
          "html_attributions": [
            "<a href=\"https://maps.google.com/maps/contrib/114825597272785789836\">Carlos Guzm\u00e1n</a>"
          ],
          "photo_reference": "AeJbb3csa3miuLfNhVYnQZlxRLgc5W1LHBnThTeRwnkQVv-fymDSnwWZVXZvzWXThrjRowIpqDvKRwOKW5nXcOzpiIlAzw-g5kmhsp_bQYLvOD9vOOE6uFowV3a9rmvhXBD_ruG7iSAGBdoy9OBZ9dYakK0BpOAzLdcCKo_MRtfOI7ESqLz-",
          "width": 1638
        }
      ],
      "place_id": "ChIJ0YJ7Nmb2wokR_LQ8ftx13uk",
      "plus_code": {
        "compound_code": "R2CV+JM New York, NY, USA",
        "global_code": "87G8R2CV+JM"
      },
      "reference": "ChIJ0YJ7Nmb2wokR_LQ8ftx13uk",
      "scope": "GOOGLE",
      "types": [
        "point_of_interest",
        "establishment"
      ],
      "vicinity": "623 West 136th Street, New York"
    },
    {
      "business_status": "OPERATIONAL",
      "geometry": {
        "location": {
          "lat": 40.81822450000001,
          "lng": -73.95973359999999
        },
        "viewport": {
          "northeast": {
            "lat": 40.81946843029151,
            "lng": -73.9584624697085
          },
          "southwest": {
            "lat": 40.81677046970851,
            "lng": -73.9611604302915
          }
        }
      },
      "icon": "https://maps.gstatic.com/mapfiles/place_api/icons/v1/png_71/school-71.png",
      "icon_background_color": "#7B9EB0",
      "icon_mask_base_uri": "https://maps.gstatic.com/mapfiles/place_api/icons/v2/school_pinlet",
      "name": "Columbia Business School",
      "photos": [
        {
          "height": 800,
          "html_attributions": [
            "<a href=\"https://maps.google.com/maps/contrib/113180124302110094776\">sean yang</a>"
          ],
          "photo_reference": "AeJbb3ftuyBKZHD2VKe-4iN7ozge55eQ3mI-DaLcEIW9D__yRA70bo8X1gAEBTfHU69QnJgHkUulpry-UckoBprnUKvLN_TAqGBrhl_CymXohwIVs5IOeBwjtoIHXywajUCeg73qn3HdHydATYjd93X71tfg2ONnyJa_iyit7oImUbYG6OSB",
          "width": 1200
        }
      ],
      "place_id": "ChIJ4URc3z32wokRzmcw-PgWgWI",
      "plus_code": {
        "compound_code": "R29R+74 New York, NY, USA",
        "global_code": "87G8R29R+74"
      },
      "rating": 4.6,
      "reference": "ChIJ4URc3z32wokRzmcw-PgWgWI",
      "scope": "GOOGLE",
      "types": [
        "university",
        "school",
        "point_of_interest",
        "establishment"
      ],
      "user_ratings_total": 26,
      "vicinity": "665 West 130th Street, New York"
    },
    {
      "business_status": "OPERATIONAL",
      "geometry": {
        "location": {
          "lat": 40.8195627,
          "lng": -73.9551415
        },
        "viewport": {
          "northeast": {
            "lat": 40.8209662302915,
            "lng": -73.95384031970849
          },
          "southwest": {
            "lat": 40.8182682697085,
            "lng": -73.9565382802915
          }
        }
      },
      "icon": "https://maps.gstatic.com/mapfiles/place_api/icons/v1/png_71/generic_business-71.png",
      "icon_background_color": "#7B9EB0",
      "icon_mask_base_uri": "https://maps.gstatic.com/mapfiles/place_api/icons/v2/generic_pinlet",
      "name": "Western Union",
      "opening_hours": {
        "open_now": true
      },
      "photos": [
        {
          "height": 1000,
          "html_attributions": [
            "<a href=\"https://maps.google.com/maps/contrib/101084536176957663703\">Western Union</a>"
          ],
          "photo_reference": "AeJbb3c4R9MyNji-RSZmK80_a1hrJTppHlDCsHnTKhoQSntNkJb0IbhrfMBech3-Lr0_CZKqlTdBfGI60iJch2JlgnZFQSz6diyHtA9ga6gmyenvER--qSSJhWKsTLw1ukAVhqRD-rSVd4Hp6I4qOFQRUY4Q4hRKcpgHw6ZGuH9fCLbnle0r",
          "width": 1000
        }
      ],
      "place_id": "ChIJF_qaHGb2wokRI8566e_5SWo",
      "plus_code": {
        "compound_code": "R29V+RW New York, NY, USA",
        "global_code": "87G8R29V+RW"
      },
      "rating": 2.3,
      "reference": "ChIJF_qaHGb2wokRI8566e_5SWo",
      "scope": "GOOGLE",
      "types": [
        "finance",
        "point_of_interest",
        "establishment"
      ],
      "user_ratings_total": 16,
      "vicinity": "3352 Broadway Pay-o-matic, New York"
    },
    {
      "business_status": "CLOSED_TEMPORARILY",
      "geometry": {
        "location": {
          "lat": 40.81688010000001,
          "lng": -73.9601368
        },
        "viewport": {
          "northeast": {
            "lat": 40.8183908302915,
            "lng": -73.95867046970851
          },
          "southwest": {
            "lat": 40.8156928697085,
            "lng": -73.96136843029151
          }
        }
      },
      "icon": "https://maps.gstatic.com/mapfiles/place_api/icons/v1/png_71/generic_business-71.png",
      "icon_background_color": "#7B9EB0",
      "icon_mask_base_uri": "https://maps.gstatic.com/mapfiles/place_api/icons/v2/generic_pinlet",
      "name": "Antibody Communications Inc",
      "permanently_closed": true,
      "place_id": "ChIJ15CYDEL2wokRoqfS5gYHA_8",
      "plus_code": {
        "compound_code": "R28Q+QW New York, NY, USA",
        "global_code": "87G8R28Q+QW"
      },
      "reference": "ChIJ15CYDEL2wokRoqfS5gYHA_8",
      "scope": "GOOGLE",
      "types": [
        "point_of_interest",
        "establishment"
      ],
      "vicinity": "22 Saint Clair Place, New York"
    },
    {
      "business_status": "OPERATIONAL",
      "geometry": {
        "location": {
          "lat": 40.81963319999999,
          "lng": -73.95469539999999
        },
        "viewport": {
          "northeast": {
            "lat": 40.82110418029149,
            "lng": -73.95325646970849
          },
          "southwest": {
            "lat": 40.81840621970849,
            "lng": -73.9559544302915
          }
        }
      },
      "icon": "https://maps.gstatic.com/mapfiles/place_api/icons/v1/png_71/generic_business-71.png",
      "icon_background_color": "#7B9EB0",
      "icon_mask_base_uri": "https://maps.gstatic.com/mapfiles/place_api/icons/v2/generic_pinlet",
      "name": "Dr. Evelyn Berger-Jenkins, MD",
      "opening_hours": {
        "open_now": false
      },
      "place_id": "ChIJ2bJHpGj2wokRjkzQ9p34f3k",
      "plus_code": {
        "compound_code": "R29W+V4 New York, NY, USA",
        "global_code": "87G8R29W+V4"
      },
      "rating": 2.3,
      "reference": "ChIJ2bJHpGj2wokRjkzQ9p34f3k",
      "scope": "GOOGLE",
      "types": [
        "doctor",
        "health",
        "point_of_interest",
        "establishment"
      ],
      "user_ratings_total": 6,
      "vicinity": "534 West 135th Street, New York"
    },
    {
      "business_status": "OPERATIONAL",
      "geometry": {
        "location": {
          "lat": 40.8175894,
          "lng": -73.95652989999999
        },
        "viewport": {
          "northeast": {
            "lat": 40.8188718302915,
            "lng": -73.95528156970849
          },
          "southwest": {
            "lat": 40.8161738697085,
            "lng": -73.9579795302915
          }
        }
      },
      "icon": "https://maps.gstatic.com/mapfiles/place_api/icons/v1/png_71/gas_station-71.png",
      "icon_background_color": "#909CE1",
      "icon_mask_base_uri": "https://maps.gstatic.com/mapfiles/place_api/icons/v2/gas_pinlet",
      "name": "Shell",
      "opening_hours": {
        "open_now": true
      },
      "photos": [
        {
          "height": 1536,
          "html_attributions": [
            "<a href=\"https://maps.google.com/maps/contrib/115628147749274036421\">Gianmarco Cantafio</a>"
          ],
          "photo_reference": "AeJbb3dVYEkJRLomo19LHI5RoYbVyPxqXn5__UQWbMsKz7hM5ZK7eV_Hm3qspK2i-IIIrIY-33vBS0jmHjxmklehXS0RPXskxmNz3G0MxusgPYWiolStG6I64rYxEcRqGBaMsnudvGbSdijGBUMZV-IVo5GRnbtTJ-YdYloo675Kav1nsHSM",
          "width": 2560
        }
      ],
      "place_id": "ChIJ8REfB2n2wokRV3uC5ihW22s",
      "plus_code": {
        "compound_code": "R29V+29 New York, NY, USA",
        "global_code": "87G8R29V+29"
      },
      "price_level": 2,
      "rating": 3.7,
      "reference": "ChIJ8REfB2n2wokRV3uC5ihW22s",
      "scope": "GOOGLE",
      "types": [
        "gas_station",
        "atm",
        "convenience_store",
        "finance",
        "food",
        "store",
        "point_of_interest",
        "establishment"
      ],
      "user_ratings_total": 94,
      "vicinity": "3260 Broadway, New York"
    },
    {
      "business_status": "OPERATIONAL",
      "geometry": {
        "location": {
          "lat": 40.8207731,
          "lng": -73.9551441
        },
        "viewport": {
          "northeast": {
            "lat": 40.82220858029151,
            "lng": -73.9537244697085
          },
          "southwest": {
            "lat": 40.81951061970851,
            "lng": -73.95642243029151
          }
        }
      },
      "icon": "https://maps.gstatic.com/mapfiles/place_api/icons/v1/png_71/restaurant-71.png",
      "icon_background_color": "#FF9E67",
      "icon_mask_base_uri": "https://maps.gstatic.com/mapfiles/place_api/icons/v2/restaurant_pinlet",
      "name": "Crown Fried Chicken",
      "opening_hours": {
        "open_now": true
      },
      "photos": [
        {
          "height": 3024,
          "html_attributions": [
            "<a href=\"https://maps.google.com/maps/contrib/114149492407770995080\">Brian Ploszay</a>"
          ],
          "photo_reference": "AeJbb3fBKhTj33_uEjhSotdH_wZmkWjNdPjtK7kbhykuO6JOzj2vJ29LuRfOUEPn02mF-y-Jg9OuWReIXIQCRyab5JdyPkIa_3hfKF0gQHZMks17Nt8XLHREyq-ePalhZwT_NvhVz-nZE185KCm1o424qlA-hirrnbU0iX2sMFevkX2bnrWp",
          "width": 4032
        }
      ],
      "place_id": "ChIJnb-cGGb2wokRFzG-8Ej8AJE",
      "plus_code": {
        "compound_code": "R2CV+8W New York, NY, USA",
        "global_code": "87G8R2CV+8W"
      },
      "price_level": 1,
      "rating": 3.8,
      "reference": "ChIJnb-cGGb2wokRFzG-8Ej8AJE",
      "scope": "GOOGLE",
      "types": [
        "restaurant",
        "food",
        "point_of_interest",
        "establishment"
      ],
      "user_ratings_total": 82,
      "vicinity": "3351 Broadway, New York"
    },
    {
      "business_status": "OPERATIONAL",
      "geometry": {
        "location": {
          "lat": 40.820787,
          "lng": -73.955118
        },
        "viewport": {
          "northeast": {
            "lat": 40.8222152302915,
            "lng": -73.9537097197085
          },
          "southwest": {
            "lat": 40.8195172697085,
            "lng": -73.9564076802915
          }
        }
      },
      "icon": "https://maps.gstatic.com/mapfiles/place_api/icons/v1/png_71/generic_business-71.png",
      "icon_background_color": "#7B9EB0",
      "icon_mask_base_uri": "https://maps.gstatic.com/mapfiles/place_api/icons/v2/generic_pinlet",
      "name": "Manhattan construction corp",
      "opening_hours": {
        "open_now": true
      },
      "place_id": "ChIJKfOYImb2wokRgmDj54_20cs",
      "plus_code": {
        "compound_code": "R2CV+8X New York, NY, USA",
        "global_code": "87G8R2CV+8X"
      },
      "reference": "ChIJKfOYImb2wokRgmDj54_20cs",
      "scope": "GOOGLE",
      "types": [
        "general_contractor",
        "roofing_contractor",
        "point_of_interest",
        "establishment"
      ],
      "vicinity": "600 West 136th Street, New York"
    },
    {
      "business_status": "OPERATIONAL",
      "geometry": {
        "location": {
          "lat": 40.8202861,
          "lng": -73.95463869999999
        },
        "viewport": {
          "northeast": {
            "lat": 40.8216619802915,
            "lng": -73.9533547197085
          },
          "southwest": {
            "lat": 40.8189640197085,
            "lng": -73.9560526802915
          }
        }
      },
      "icon": "https://maps.gstatic.com/mapfiles/place_api/icons/v1/png_71/shopping-71.png",
      "icon_background_color": "#4B96F3",
      "icon_mask_base_uri": "https://maps.gstatic.com/mapfiles/place_api/icons/v2/shopping_pinlet",
      "name": "Manhattan Seafood",
      "opening_hours": {
        "open_now": true
      },
      "photos": [
        {
          "height": 3024,
          "html_attributions": [
            "<a href=\"https://maps.google.com/maps/contrib/109646674521476426234\">Jeff Spade</a>"
          ],
          "photo_reference": "AeJbb3dKHKvk6kqNG1WxkSE5GyrGMY4FdKXU6Dm0J7ZApXpwgzV49KwFXxBjkQnwgDyU7jucgqt-3vvGuWYtpRsB3Xcj5zzXVYgVX1PDH1AECQfkRaTqkx8Uvdg0dlhzMUlNTFD-kF2IdFIiVrQwfbzyS3tKK8gUugYTuwW6tE21POp23_vH",
          "width": 4032
        }
      ],
      "place_id": "ChIJzXW1HWb2wokRpSt0bifW09M",
      "plus_code": {
        "compound_code": "R2CW+44 New York, NY, USA",
        "global_code": "87G8R2CW+44"
      },
      "rating": 4.2,
      "reference": "ChIJzXW1HWb2wokRpSt0bifW09M",
      "scope": "GOOGLE",
      "types": [
        "food",
        "point_of_interest",
        "establishment"
      ],
      "user_ratings_total": 113,
      "vicinity": "3344 Broadway, New York"
    },
    {
      "business_status": "OPERATIONAL",
      "geometry": {
        "location": {
          "lat": 40.8197056,
          "lng": -73.95465089999999
        },
        "viewport": {
          "northeast": {
            "lat": 40.8211418302915,
            "lng": -73.95323761970849
          },
          "southwest": {
            "lat": 40.8184438697085,
            "lng": -73.9559355802915
          }
        }
      },
      "icon": "https://maps.gstatic.com/mapfiles/place_api/icons/v1/png_71/generic_business-71.png",
      "icon_background_color": "#7B9EB0",
      "icon_mask_base_uri": "https://maps.gstatic.com/mapfiles/place_api/icons/v2/generic_pinlet",
      "name": "Dr. Hetty Cunningham, MD",
      "place_id": "ChIJ2bJHpGj2wokRNvM5K8_3UWw",
      "plus_code": {
        "compound_code": "R29W+V4 New York, NY, USA",
        "global_code": "87G8R29W+V4"
      },
      "reference": "ChIJ2bJHpGj2wokRNvM5K8_3UWw",
      "scope": "GOOGLE",
      "types": [
        "doctor",
        "health",
        "point_of_interest",
        "establishment"
      ],
      "vicinity": "534 West 135th Street, New York"
    },
    {
      "business_status": "OPERATIONAL",
      "geometry": {
        "location": {
          "lat": 40.8169125,
          "lng": -73.960137
        },
        "viewport": {
          "northeast": {
            "lat": 40.8184228302915,
            "lng": -73.95917231970849
          },
          "southwest": {
            "lat": 40.8157248697085,
            "lng": -73.9618702802915
          }
        }
      },
      "icon": "https://maps.gstatic.com/mapfiles/place_api/icons/v1/png_71/school-71.png",
      "icon_background_color": "#7B9EB0",
      "icon_mask_base_uri": "https://maps.gstatic.com/mapfiles/place_api/icons/v2/school_pinlet",
      "name": "The Red Balloon Early Childhood Learning Center",
      "opening_hours": {
        "open_now": false
      },
      "photos": [
        {
          "height": 350,
          "html_attributions": [
            "<a href=\"https://maps.google.com/maps/contrib/109629977855450370491\">The Red Balloon Early Childhood Learning Center</a>"
          ],
          "photo_reference": "AeJbb3cqCxLt4GVtTRQz3BMtfsHTTyju-0Hancg5RvOjJemod-0dDb2ZnTEne6Az4tkGTukQJ5KOw0VP3HCLgE4mh5lkNVJQH_wovB1QkyIUf1AYr04cFJLBaJYGZVGtkXKscjGA-eQQO5ROTrAgspIh3kaQzBXqbjK7K9g-eK7dIDrgsNbo",
          "width": 900
        }
      ],
      "place_id": "ChIJz4iSEEL2wokR2slXyirahe0",
      "plus_code": {
        "compound_code": "R28Q+QW New York, NY, USA",
        "global_code": "87G8R28Q+QW"
      },
      "rating": 4.7,
      "reference": "ChIJz4iSEEL2wokR2slXyirahe0",
      "scope": "GOOGLE",
      "types": [
        "point_of_interest",
        "establishment"
      ],
      "user_ratings_total": 12,
      "vicinity": "560 Riverside Drive, New York"
    },
    {
      "business_status": "OPERATIONAL",
      "geometry": {
        "location": {
          "lat": 40.8208193,
          "lng": -73.9550398
        },
        "viewport": {
          "northeast": {
            "lat": 40.8221854302915,
            "lng": -73.9535866697085
          },
          "southwest": {
            "lat": 40.8194874697085,
            "lng": -73.9562846302915
          }
        }
      },
      "icon": "https://maps.gstatic.com/mapfiles/place_api/icons/v1/png_71/generic_business-71.png",
      "icon_background_color": "#7B9EB0",
      "icon_mask_base_uri": "https://maps.gstatic.com/mapfiles/place_api/icons/v2/generic_pinlet",
      "name": "Chase Mortgage",
      "opening_hours": {
        "open_now": true
      },
      "place_id": "ChIJ93O1GWb2wokRFP0yOCEhNww",
      "plus_code": {
        "compound_code": "R2CV+8X New York, NY, USA",
        "global_code": "87G8R2CV+8X"
      },
      "reference": "ChIJ93O1GWb2wokRFP0yOCEhNww",
      "scope": "GOOGLE",
      "types": [
        "finance",
        "point_of_interest",
        "establishment"
      ],
      "vicinity": "3359 Broadway, New York"
    },
    {
      "business_status": "OPERATIONAL",
      "geometry": {
        "location": {
          "lat": 40.8201377,
          "lng": -73.95471169999999
        },
        "viewport": {
          "northeast": {
            "lat": 40.8215638802915,
            "lng": -73.95340841970848
          },
          "southwest": {
            "lat": 40.8188659197085,
            "lng": -73.9561063802915
          }
        }
      },
      "icon": "https://maps.gstatic.com/mapfiles/place_api/icons/v1/png_71/generic_business-71.png",
      "icon_background_color": "#7B9EB0",
      "icon_mask_base_uri": "https://maps.gstatic.com/mapfiles/place_api/icons/v2/generic_pinlet",
      "name": "Dr. Eliscer Guzman, MD",
      "place_id": "ChIJ5TLqHWb2wokRkiemBimUtqg",
      "plus_code": {
        "compound_code": "R2CW+34 New York, NY, USA",
        "global_code": "87G8R2CW+34"
      },
      "rating": 5,
      "reference": "ChIJ5TLqHWb2wokRkiemBimUtqg",
      "scope": "GOOGLE",
      "types": [
        "doctor",
        "health",
        "point_of_interest",
        "establishment"
      ],
      "user_ratings_total": 2,
      "vicinity": "3340 Broadway, New York"
    },
    {
      "business_status": "OPERATIONAL",
      "geometry": {
        "location": {
          "lat": 40.8197321,
          "lng": -73.9548499
        },
        "viewport": {
          "northeast": {
            "lat": 40.8211391802915,
            "lng": -73.95363916970848
          },
          "southwest": {
            "lat": 40.8184412197085,
            "lng": -73.9563371302915
          }
        }
      },
      "icon": "https://maps.gstatic.com/mapfiles/place_api/icons/v1/png_71/generic_business-71.png",
      "icon_background_color": "#7B9EB0",
      "icon_mask_base_uri": "https://maps.gstatic.com/mapfiles/place_api/icons/v2/generic_pinlet",
      "name": "Ferrand Ramon E MD",
      "place_id": "ChIJMV3loWj2wokRlc_-Z43AV2M",
      "plus_code": {
        "compound_code": "R29W+V3 New York, NY, USA",
        "global_code": "87G8R29W+V3"
      },
      "reference": "ChIJMV3loWj2wokRlc_-Z43AV2M",
      "scope": "GOOGLE",
      "types": [
        "doctor",
        "health",
        "point_of_interest",
        "establishment"
      ],
      "vicinity": "3332 Broadway, New York"
    },
    {
      "business_status": "OPERATIONAL",
      "geometry": {
        "location": {
          "lat": 40.8201377,
          "lng": -73.95471169999999
        },
        "viewport": {
          "northeast": {
            "lat": 40.8215638802915,
            "lng": -73.95340841970848
          },
          "southwest": {
            "lat": 40.8188659197085,
            "lng": -73.9561063802915
          }
        }
      },
      "icon": "https://maps.gstatic.com/mapfiles/place_api/icons/v1/png_71/generic_business-71.png",
      "icon_background_color": "#7B9EB0",
      "icon_mask_base_uri": "https://maps.gstatic.com/mapfiles/place_api/icons/v2/generic_pinlet",
      "name": "Cardiology Unlimited",
      "place_id": "ChIJr47DHWb2wokRae2gebxef40",
      "plus_code": {
        "compound_code": "R2CW+34 New York, NY, USA",
        "global_code": "87G8R2CW+34"
      },
      "reference": "ChIJr47DHWb2wokRae2gebxef40",
      "scope": "GOOGLE",
      "types": [
        "doctor",
        "health",
        "point_of_interest",
        "establishment"
      ],
      "vicinity": "3340 Broadway, New York"
    },
    {
      "business_status": "OPERATIONAL",
      "geometry": {
        "location": {
          "lat": 40.8197347,
          "lng": -73.95485959999999
        },
        "viewport": {
          "northeast": {
            "lat": 40.8211399302915,
            "lng": -73.9536444197085
          },
          "southwest": {
            "lat": 40.8184419697085,
            "lng": -73.9563423802915
          }
        }
      },
      "icon": "https://maps.gstatic.com/mapfiles/place_api/icons/v1/png_71/shopping-71.png",
      "icon_background_color": "#4B96F3",
      "icon_mask_base_uri": "https://maps.gstatic.com/mapfiles/place_api/icons/v2/shopping_pinlet",
      "name": "Royal prestige",
      "place_id": "ChIJ2wgGo2j2wokRtDzS_sjDkiE",
      "plus_code": {
        "compound_code": "R29W+V3 New York, NY, USA",
        "global_code": "87G8R29W+V3"
      },
      "reference": "ChIJ2wgGo2j2wokRtDzS_sjDkiE",
      "scope": "GOOGLE",
      "types": [
        "home_goods_store",
        "store",
        "point_of_interest",
        "establishment"
      ],
      "vicinity": "3330 Broadway, New York"
    },
    {
      "business_status": "OPERATIONAL",
      "geometry": {
        "location": {
          "lat": 40.8197361,
          "lng": -73.9548508
        },
        "viewport": {
          "northeast": {
            "lat": 40.82112023029151,
            "lng": -73.9536550197085
          },
          "southwest": {
            "lat": 40.81842226970851,
            "lng": -73.95635298029151
          }
        }
      },
      "icon": "https://maps.gstatic.com/mapfiles/place_api/icons/v1/png_71/generic_business-71.png",
      "icon_background_color": "#7B9EB0",
      "icon_mask_base_uri": "https://maps.gstatic.com/mapfiles/place_api/icons/v2/generic_pinlet",
      "name": "Pediatrics 2000 at 135 street",
      "opening_hours": {
        "open_now": false
      },
      "photos": [
        {
          "height": 2208,
          "html_attributions": [
            "<a href=\"https://maps.google.com/maps/contrib/108130165280324755238\">Jeury Cardoza</a>"
          ],
          "photo_reference": "AeJbb3cEqXetqc06PF02k6VMDRtV8aS_2Jh102D5Ye79iHQFCI7_SzUoUQyhb-Pcr3DwRJAljKye9voOJAc7vUAl7S32l0wKqthAr5QeYM_4IFn0Uj1B2Z33aqo_53j388dzbom581MwEKiM0wvPe-V9IWh6RJ6GL0E0sSsnDI1bWhpMrj0i",
          "width": 1242
        }
      ],
      "place_id": "ChIJAT8wvWj2wokRhG7dD6Ot8_8",
      "plus_code": {
        "compound_code": "R29W+V3 New York, NY, USA",
        "global_code": "87G8R29W+V3"
      },
      "rating": 3.8,
      "reference": "ChIJAT8wvWj2wokRhG7dD6Ot8_8",
      "scope": "GOOGLE",
      "types": [
        "doctor",
        "health",
        "point_of_interest",
        "establishment"
      ],
      "user_ratings_total": 31,
      "vicinity": "3332 Broadway, New York"
    },
    {
      "business_status": "OPERATIONAL",
      "geometry": {
        "location": {
          "lat": 40.8197321,
          "lng": -73.9548499
        },
        "viewport": {
          "northeast": {
            "lat": 40.8211391802915,
            "lng": -73.95363916970848
          },
          "southwest": {
            "lat": 40.8184412197085,
            "lng": -73.9563371302915
          }
        }
      },
      "icon": "https://maps.gstatic.com/mapfiles/place_api/icons/v1/png_71/generic_business-71.png",
      "icon_background_color": "#7B9EB0",
      "icon_mask_base_uri": "https://maps.gstatic.com/mapfiles/place_api/icons/v2/generic_pinlet",
      "name": "Dr. Elizabeth Carre\u00f1o Rijo",
      "place_id": "ChIJ__PxoWj2wokRojgDZs3I58g",
      "plus_code": {
        "compound_code": "R29W+V3 New York, NY, USA",
        "global_code": "87G8R29W+V3"
      },
      "rating": 5,
      "reference": "ChIJ__PxoWj2wokRojgDZs3I58g",
      "scope": "GOOGLE",
      "types": [
        "doctor",
        "health",
        "point_of_interest",
        "establishment"
      ],
      "user_ratings_total": 1,
      "vicinity": "3332 Broadway, New York"
    },
    {
      "business_status": "OPERATIONAL",
      "geometry": {
        "location": {
          "lat": 40.8197321,
          "lng": -73.9548499
        },
        "viewport": {
          "northeast": {
            "lat": 40.8211391802915,
            "lng": -73.95363916970848
          },
          "southwest": {
            "lat": 40.8184412197085,
            "lng": -73.9563371302915
          }
        }
      },
      "icon": "https://maps.gstatic.com/mapfiles/place_api/icons/v1/png_71/generic_business-71.png",
      "icon_background_color": "#7B9EB0",
      "icon_mask_base_uri": "https://maps.gstatic.com/mapfiles/place_api/icons/v2/generic_pinlet",
      "name": "Shah Jesika MD",
      "place_id": "ChIJMV3loWj2wokRomefrohMnJc",
      "plus_code": {
        "compound_code": "R29W+V3 New York, NY, USA",
        "global_code": "87G8R29W+V3"
      },
      "reference": "ChIJMV3loWj2wokRomefrohMnJc",
      "scope": "GOOGLE",
      "types": [
        "doctor",
        "health",
        "point_of_interest",
        "establishment"
      ],
      "vicinity": "3332 Broadway, New York"
    },
    {
      "business_status": "OPERATIONAL",
      "geometry": {
        "location": {
          "lat": 40.8197321,
          "lng": -73.9548499
        },
        "viewport": {
          "northeast": {
            "lat": 40.8211391802915,
            "lng": -73.95363916970848
          },
          "southwest": {
            "lat": 40.8184412197085,
            "lng": -73.9563371302915
          }
        }
      },
      "icon": "https://maps.gstatic.com/mapfiles/place_api/icons/v1/png_71/generic_business-71.png",
      "icon_background_color": "#7B9EB0",
      "icon_mask_base_uri": "https://maps.gstatic.com/mapfiles/place_api/icons/v2/generic_pinlet",
      "name": "Pelletier Marrissa MD",
      "place_id": "ChIJMV3loWj2wokREN-Qt6jVSgM",
      "plus_code": {
        "compound_code": "R29W+V3 New York, NY, USA",
        "global_code": "87G8R29W+V3"
      },
      "reference": "ChIJMV3loWj2wokREN-Qt6jVSgM",
      "scope": "GOOGLE",
      "types": [
        "doctor",
        "health",
        "point_of_interest",
        "establishment"
      ],
      "vicinity": "3332 Broadway, New York"
    },
    {
      "business_status": "OPERATIONAL",
      "geometry": {
        "location": {
          "lat": 40.81684699999999,
          "lng": -73.95795799999999
        },
        "viewport": {
          "northeast": {
            "lat": 40.81814098029149,
            "lng": -73.95647931970849
          },
          "southwest": {
            "lat": 40.8154430197085,
            "lng": -73.9591772802915
          }
        }
      },
      "icon": "https://maps.gstatic.com/mapfiles/place_api/icons/v1/png_71/school-71.png",
      "icon_background_color": "#7B9EB0",
      "icon_mask_base_uri": "https://maps.gstatic.com/mapfiles/place_api/icons/v2/school_pinlet",
      "name": "Columbia | Zuckerman Institute",
      "photos": [
        {
          "height": 4160,
          "html_attributions": [
            "<a href=\"https://maps.google.com/maps/contrib/110723791566911444071\">Qbradley Witover</a>"
          ],
          "photo_reference": "AeJbb3fZ12H_HX42nMVkdjoPKmD4xb_lC98kauoDJUJkjfF2KHF-H_njfek0ZfM3On_pJTbuDPpq1KMeMwgysKlExWtJExamgY6l-bhrga9A0cN_TjB7zTC1aGYSjV40PMFAmHRY7Xor6SqLGL2y626yDr8EOdY4K7XN-p9Ht2cskb3apRWV",
          "width": 3120
        }
      ],
      "place_id": "ChIJ2ejd82n2wokRvjEWPMpVT50",
      "plus_code": {
        "compound_code": "R28R+PR New York, NY, USA",
        "global_code": "87G8R28R+PR"
      },
      "reference": "ChIJ2ejd82n2wokRvjEWPMpVT50",
      "scope": "GOOGLE",
      "types": [
        "point_of_interest",
        "establishment"
      ],
      "vicinity": "3227 Broadway, New York"
    },
    {
      "business_status": "OPERATIONAL",
      "geometry": {
        "location": {
          "lat": 40.8207975,
          "lng": -73.9549156
        },
        "viewport": {
          "northeast": {
            "lat": 40.8221844802915,
            "lng": -73.9535245697085
          },
          "southwest": {
            "lat": 40.8194865197085,
            "lng": -73.95622253029151
          }
        }
      },
      "icon": "https://maps.gstatic.com/mapfiles/place_api/icons/v1/png_71/bank-71.png",
      "icon_background_color": "#909CE1",
      "icon_mask_base_uri": "https://maps.gstatic.com/mapfiles/place_api/icons/v2/bank-intl_pinlet",
      "name": "Chase Bank",
      "opening_hours": {
        "open_now": true
      },
      "photos": [
        {
          "height": 1266,
          "html_attributions": [
            "<a href=\"https://maps.google.com/maps/contrib/104612732837304100618\">Chase Bank</a>"
          ],
          "photo_reference": "AeJbb3dqWlam1mrkIWa8QKkisXQEnXYvNMnbSIjiHJvqWSffgHDfN_LyZfZg-CPvDiO08X4O9cClq6TQuLwfYGFoYN4-Q6IOUR95_w4cht6cTzLzdikf9uwohs4dsq167thpvsYZyMdrHshmfGW1NU66a08HgFB5Pmh-Z2Dc94CsdRMzfgJi",
          "width": 1900
        }
      ],
      "place_id": "ChIJR0YxGGb2wokRpUJS80jIlS8",
      "plus_code": {
        "compound_code": "R2CW+82 New York, NY, USA",
        "global_code": "87G8R2CW+82"
      },
      "rating": 3.5,
      "reference": "ChIJR0YxGGb2wokRpUJS80jIlS8",
      "scope": "GOOGLE",
      "types": [
        "bank",
        "atm",
        "finance",
        "point_of_interest",
        "establishment"
      ],
      "user_ratings_total": 13,
      "vicinity": "3359 Broadway, New York"
    }
  ],
  "status": "OK"
}