{
  "html_attributions": [],
  "results": [
    {
      "geometry": {
        "location": {
          "lat": 40.7127753,
          "lng": -74.0059728
        },
        "viewport": {
          "northeast": {
            "lat": 40.91757705070789,
            "lng": -73.70027206817629
          },
          "southwest": {
            "lat": 40.47739906045452,
            "lng": -74.25908991427882
          }
        }
      },
      "icon": "https://maps.gstatic.com/mapfiles/place_api/icons/v1/png_71/geocode-71.png",
      "icon_background_color": "#7B9EB0",
      "icon_mask_base_uri": "https://maps.gstatic.com/mapfiles/place_api/icons/v2/generic_pinlet",
      "name": "\u7d10\u7d04",
      "photos": [
        {
          "height": 600,
          "html_attributions": [
            "<a href=\"https://maps.google.com/maps/contrib/102389334567210814614\">Bukurie</a>"
          ],
          "photo_reference": "AeJbb3dbwcVmqg9cokp3aFpkQo8IblzQxQnCdAhoTEG6waCGxIN1m0-5zp6G9Kpc1wJJwizqZOcgFkdgvFEsNXZ_pbVIsbNhyhLYcRcgO7V98re2pTy9X_I75vLe6BoztcT6cYvFGbqKXqft8l2JkqmOF4PgF-8swecLrvcKz9kX0N5KaZWe",
          "width": 480
        }
      ],
      "place_id": "ChIJOwg_06VPwokRYv534QaPC8g",
      "reference": "ChIJOwg_06VPwokRYv534QaPC8g",
      "scope": "GOOGLE",
      "types": [
        "locality",
        "political"
      ],
      "vicinity": "\u7d10\u7d04"
    },
    {
      "business_status": "OPERATIONAL",
      "geometry": {
        "location": {
          "lat": 40.80549440000001,
          "lng": -73.91116219999999
        },
        "viewport": {
          "northeast": {
            "lat": 40.80687133029151,
            "lng": -73.9098539197085
          },
          "southwest": {
            "lat": 40.80417336970851,
            "lng": -73.9125518802915
          }
        }
      },
      "icon": "https://maps.gstatic.com/mapfiles/place_api/icons/v1/png_71/gas_station-71.png",
      "icon_background_color": "#909CE1",
      "icon_mask_base_uri": "https://maps.gstatic.com/mapfiles/place_api/icons/v2/gas_pinlet",
      "name": "bp",
      "opening_hours": {
        "open_now": true
      },
      "photos": [
        {
          "height": 3024,
          "html_attributions": [
            "<a href=\"https://maps.google.com/maps/contrib/102669570078334097070\">Davron Kadirov</a>"
          ],
          "photo_reference": "AeJbb3e2NahmBT27aZLxM1IGslfbK6xwCtDiDgOCFN3R_60K2R4PP-IaxLNcEnl3OsfhOr1gUvjG8JFWrnWlgBBTEWDcJc8B8aCzJNcqH0FYzCbQVy4smkKdbbu-x-Ne4a-4Ov5U6506fusLvz8d7JqTcgpFtp7-eSZ1yUX6NvB35CyHke7Q",
          "width": 4032
        }
      ],
      "place_id": "ChIJuQPh6r_1wokR_OQTk70AnJc",
      "plus_code": {
        "compound_code": "R34Q+5G \u7f8e\u570b\u7d10\u7d04",
        "global_code": "87G8R34Q+5G"
      },
      "rating": 3.7,
      "reference": "ChIJuQPh6r_1wokR_OQTk70AnJc",
      "scope": "GOOGLE",
      "types": [
        "gas_station",
        "convenience_store",
        "food",
        "store",
        "point_of_interest",
        "establishment"
      ],
      "user_ratings_total": 45,
      "vicinity": "281 Bruckner Boulevard, The Bronx"
    },
    {
      "business_status": "OPERATIONAL",
      "geometry": {
        "location": {
          "lat": 40.8036846,
          "lng": -73.910454
        },
        "viewport": {
          "northeast": {
            "lat": 40.8050868802915,
            "lng": -73.90907566970849
          },
          "southwest": {
            "lat": 40.8023889197085,
            "lng": -73.91177363029149
          }
        }
      },
      "icon": "https://maps.gstatic.com/mapfiles/place_api/icons/v1/png_71/generic_business-71.png",
      "icon_background_color": "#7B9EB0",
      "icon_mask_base_uri": "https://maps.gstatic.com/mapfiles/place_api/icons/v2/generic_pinlet",
      "name": "Montefiore Medical Center Wellness Center at Port Morris",
      "opening_hours": {
        "open_now": false
      },
      "photos": [
        {
          "height": 4032,
          "html_attributions": [
            "<a href=\"https://maps.google.com/maps/contrib/104542517871553189279\">Paul Santo</a>"
          ],
          "photo_reference": "AeJbb3eyNq1lqnCgPi9eoKnPt7oXEm8KS5utysdbaLEamRsi_X9faxRGewF6b-NeZqQ9G-vHjS9t4sDZxrw59Lipa6WABnXbWpc49g_dHPMPOxtx6YhefNEGOQ98pEeqnuKZQX0v2Scck4lt48-taVNDP9bQ3KO1OomrVtJ-tanhyVMD3IN_",
          "width": 3024
        }
      ],
      "place_id": "ChIJ8-B4ZJX1wokRujis-86InFg",
      "plus_code": {
        "compound_code": "R33Q+FR \u7f8e\u570b\u7d10\u7d04\u5e03\u6717\u514b\u65af",
        "global_code": "87G8R33Q+FR"
      },
      "rating": 3.9,
      "reference": "ChIJ8-B4ZJX1wokRujis-86InFg",
      "scope": "GOOGLE",
      "types": [
        "health",
        "point_of_interest",
        "establishment"
      ],
      "user_ratings_total": 21,
      "vicinity": "804 East 138th Street, The Bronx"
    },
    {
      "business_status": "OPERATIONAL",
      "geometry": {
        "location": {
          "lat": 40.8034439,
          "lng": -73.9104995
        },
        "viewport": {
          "northeast": {
            "lat": 40.80494453029149,
            "lng": -73.9090366697085
          },
          "southwest": {
            "lat": 40.80224656970849,
            "lng": -73.9117346302915
          }
        }
      },
      "icon": "https://maps.gstatic.com/mapfiles/place_api/icons/v1/png_71/school-71.png",
      "icon_background_color": "#7B9EB0",
      "icon_mask_base_uri": "https://maps.gstatic.com/mapfiles/place_api/icons/v2/school_pinlet",
      "name": "Per Scholas",
      "opening_hours": {
        "open_now": false
      },
      "photos": [
        {
          "height": 3024,
          "html_attributions": [
            "<a href=\"https://maps.google.com/maps/contrib/116230202445198316835\">Adam Cruz</a>"
          ],
          "photo_reference": "AeJbb3fWN7kJqBCQNqGFiVPn6hWp9pqCAANPJHrWZ0dBnnqFCsJTuR7XgJErw_aZHK8nDk2N7LAnXvqsYMMn2GqIjuH6_J33d10nxqohdpfgjfpTZFPm2yMDHqTdbZbuauQkgCGR8FcnIGjUQOL-mrgQ3-U7eD3f0-3IfHukHYkQSjNmlRxe",
          "width": 4032
        }
      ],
      "place_id": "ChIJ8-B4ZJX1wokRht5i6o73fF4",
      "plus_code": {
        "compound_code": "R33Q+9R \u7f8e\u570b\u7d10\u7d04",
        "global_code": "87G8R33Q+9R"
      },
      "rating": 3.7,
      "reference": "ChIJ8-B4ZJX1wokRht5i6o73fF4",
      "scope": "GOOGLE",
      "types": [
        "point_of_interest",
        "establishment"
      ],
      "user_ratings_total": 68,
      "vicinity": "804 East 138th Street #2, The Bronx"
    },
    {
      "business_status": "OPERATIONAL",
      "geometry": {
        "location": {
          "lat": 40.80285560000001,
          "lng": -73.9125593
        },
        "viewport": {
          "northeast": {
            "lat": 40.8042779802915,
            "lng": -73.9111864697085
          },
          "southwest": {
            "lat": 40.8015800197085,
            "lng": -73.9138844302915
          }
        }
      },
      "icon": "https://maps.gstatic.com/mapfiles/place_api/icons/v1/png_71/generic_business-71.png",
      "icon_background_color": "#7B9EB0",
      "icon_mask_base_uri": "https://maps.gstatic.com/mapfiles/place_api/icons/v2/generic_pinlet",
      "name": "Titan P & H",
      "place_id": "ChIJ__4Qt-r1wokRugCHQt6-HX0",
      "plus_code": {
        "compound_code": "R33P+4X \u7f8e\u570b\u7d10\u7d04\u5e03\u6717\u514b\u65af",
        "global_code": "87G8R33P+4X"
      },
      "reference": "ChIJ__4Qt-r1wokRugCHQt6-HX0",
      "scope": "GOOGLE",
      "types": [
        "plumber",
        "point_of_interest",
        "establishment"
      ],
      "vicinity": "728 East 136th Street #1, The Bronx"
    },
    {
      "business_status": "OPERATIONAL",
      "geometry": {
        "location": {
          "lat": 40.8059859,
          "lng": -73.91404519999999
        },
        "viewport": {
          "northeast": {
            "lat": 40.8073700802915,
            "lng": -73.91278246970849
          },
          "southwest": {
            "lat": 40.80467211970851,
            "lng": -73.91548043029151
          }
        }
      },
      "icon": "https://maps.gstatic.com/mapfiles/place_api/icons/v1/png_71/restaurant-71.png",
      "icon_background_color": "#FF9E67",
      "icon_mask_base_uri": "https://maps.gstatic.com/mapfiles/place_api/icons/v2/restaurant_pinlet",
      "name": "Pio Pio",
      "opening_hours": {
        "open_now": true
      },
      "photos": [
        {
          "height": 1080,
          "html_attributions": [
            "<a href=\"https://maps.google.com/maps/contrib/108591580168389492223\">Pio Pio</a>"
          ],
          "photo_reference": "AeJbb3ezpiGrAwBJbto70B6n64ohs2O6AuOs42FN235boHvcM3n7MxvdOnRi97N6GRxLL1H5fr7-kzC78l2yuPW_fh1F2GfC4YHIYCFXbMQQvuQRECBDvzKyaefrNmu9AeBBbNowGzXBTmQLh_ycrdAgspbeAL2Ky4ugS-IDBkpUyc6l2R0V",
          "width": 1920
        }
      ],
      "place_id": "ChIJYRGEQcD1wokRw2dpEZ6sc24",
      "plus_code": {
        "compound_code": "R34P+99 \u7f8e\u570b\u7d10\u7d04",
        "global_code": "87G8R34P+99"
      },
      "price_level": 2,
      "rating": 4.3,
      "reference": "ChIJYRGEQcD1wokRw2dpEZ6sc24",
      "scope": "GOOGLE",
      "types": [
        "restaurant",
        "food",
        "point_of_interest",
        "establishment"
      ],
      "user_ratings_total": 1617,
      "vicinity": "264 Cypress Avenue, The Bronx"
    },
    {
      "business_status": "OPERATIONAL",
      "geometry": {
        "location": {
          "lat": 40.80338719999999,
          "lng": -73.91041009999999
        },
        "viewport": {
          "northeast": {
            "lat": 40.80489473029149,
            "lng": -73.90892476970849
          },
          "southwest": {
            "lat": 40.80219676970849,
            "lng": -73.9116227302915
          }
        }
      },
      "icon": "https://maps.gstatic.com/mapfiles/place_api/icons/v1/png_71/generic_business-71.png",
      "icon_background_color": "#7B9EB0",
      "icon_mask_base_uri": "https://maps.gstatic.com/mapfiles/place_api/icons/v2/generic_pinlet",
      "name": "Dr. Margo D. Simon, MD",
      "place_id": "ChIJDbKEZJX1wokRVUnxuy_58Wg",
      "plus_code": {
        "compound_code": "R33Q+9R \u7f8e\u570b\u7d10\u7d04\u5e03\u6717\u514b\u65af",
        "global_code": "87G8R33Q+9R"
      },
      "reference": "ChIJDbKEZJX1wokRVUnxuy_58Wg",
      "scope": "GOOGLE",
      "types": [
        "doctor",
        "health",
        "point_of_interest",
        "establishment"
      ],
      "vicinity": "804 East 138th Street, The Bronx"
    },
    {
      "business_status": "OPERATIONAL",
      "geometry": {
        "location": {
          "lat": 40.8071047,
          "lng": -73.91284999999999
        },
        "viewport": {
          "northeast": {
            "lat": 40.8085576302915,
            "lng": -73.9114187197085
          },
          "southwest": {
            "lat": 40.8058596697085,
            "lng": -73.91411668029151
          }
        }
      },
      "icon": "https://maps.gstatic.com/mapfiles/place_api/icons/v1/png_71/generic_business-71.png",
      "icon_background_color": "#7B9EB0",
      "icon_mask_base_uri": "https://maps.gstatic.com/mapfiles/place_api/icons/v2/generic_pinlet",
      "name": "Diego Beekman Mutual Housing",
      "place_id": "ChIJ0cHpksD1wokRXDhMzmwZa0o",
      "plus_code": {
        "compound_code": "R34P+RV \u7f8e\u570b\u7d10\u7d04\u5e03\u6717\u514b\u65af",
        "global_code": "87G8R34P+RV"
      },
      "rating": 1.9,
      "reference": "ChIJ0cHpksD1wokRXDhMzmwZa0o",
      "scope": "GOOGLE",
      "types": [
        "point_of_interest",
        "establishment"
      ],
      "user_ratings_total": 8,
      "vicinity": "694 East 141st Street #1, The Bronx"
    },
    {
      "business_status": "OPERATIONAL",
      "geometry": {
        "location": {
          "lat": 40.8053197,
          "lng": -73.9067038
        },
        "viewport": {
          "northeast": {
            "lat": 40.80647108029149,
            "lng": -73.9055956697085
          },
          "southwest": {
            "lat": 40.8037731197085,
            "lng": -73.90829363029151
          }
        }
      },
      "icon": "https://maps.gstatic.com/mapfiles/place_api/icons/v1/png_71/generic_business-71.png",
      "icon_background_color": "#7B9EB0",
      "icon_mask_base_uri": "https://maps.gstatic.com/mapfiles/place_api/icons/v2/generic_pinlet",
      "name": "NYC Mini Storage Inc",
      "opening_hours": {
        "open_now": true
      },
      "photos": [
        {
          "height": 867,
          "html_attributions": [
            "<a href=\"https://maps.google.com/maps/contrib/113357846213536062385\">NYC Mini Storage Inc</a>"
          ],
          "photo_reference": "AeJbb3f99HVx_FebX2IMV9FpuevtsEfPEYZDTq6T6t_1VQgQeyphD9nn0BVTv2FerqOj7AMYHG2fwRC00Go_zYDk7ZYj-CFSiF4ngtZqLjMo61bi6shadXR5f8_b_Q74b1pqppOxS-NCW5rdy0Z8mbmbRrQuoqwwXsKc4_UEdbF6yl2HEBwD",
          "width": 1300
        }
      ],
      "place_id": "ChIJE2mlc771wokRF0VY1PfyYvw",
      "plus_code": {
        "compound_code": "R34V+48 \u7f8e\u570b\u7d10\u7d04\u5e03\u6717\u514b\u65af",
        "global_code": "87G8R34V+48"
      },
      "rating": 4.3,
      "reference": "ChIJE2mlc771wokRF0VY1PfyYvw",
      "scope": "GOOGLE",
      "types": [
        "storage",
        "point_of_interest",
        "establishment"
      ],
      "user_ratings_total": 203,
      "vicinity": "863 East 141st Street, The Bronx"
    },
    {
      "business_status": "CLOSED_TEMPORARILY",
      "geometry": {
        "location": {
          "lat": 40.8033384,
          "lng": -73.9105384
        },
        "viewport": {
          "northeast": {
            "lat": 40.8048852302915,
            "lng": -73.90904086970848
          },
          "southwest": {
            "lat": 40.8021872697085,
            "lng": -73.9117388302915
          }
        }
      },
      "icon": "https://maps.gstatic.com/mapfiles/place_api/icons/v1/png_71/generic_business-71.png",
      "icon_background_color": "#7B9EB0",
      "icon_mask_base_uri": "https://maps.gstatic.com/mapfiles/place_api/icons/v2/generic_pinlet",
      "name": "Reinaldo D. Diaz, BS",
      "permanently_closed": true,
      "place_id": "ChIJ8-B4ZJX1wokR4j4yVYdj-OI",
      "plus_code": {
        "compound_code": "R33Q+8Q \u7f8e\u570b\u7d10\u7d04\u5e03\u6717\u514b\u65af",
        "global_code": "87G8R33Q+8Q"
      },
      "reference": "ChIJ8-B4ZJX1wokR4j4yVYdj-OI",
      "scope": "GOOGLE",
      "types": [
        "health",
        "point_of_interest",
        "establishment"
      ],
      "vicinity": "804 East 138th Street, The Bronx"
    },
    {
      "business_status": "OPERATIONAL",
      "geometry": {
        "location": {
          "lat": 40.8033384,
          "lng": -73.9105384
        },
        "viewport": {
          "northeast": {
            "lat": 40.8048852302915,
            "lng": -73.90904086970848
          },
          "southwest": {
            "lat": 40.8021872697085,
            "lng": -73.9117388302915
          }
        }
      },
      "icon": "https://maps.gstatic.com/mapfiles/place_api/icons/v1/png_71/generic_business-71.png",
      "icon_background_color": "#7B9EB0",
      "icon_mask_base_uri": "https://maps.gstatic.com/mapfiles/place_api/icons/v2/generic_pinlet",
      "name": "Wendy A. Hunt, MA",
      "place_id": "ChIJ8-B4ZJX1wokRFGoP5tmId5U",
      "plus_code": {
        "compound_code": "R33Q+8Q \u7f8e\u570b\u7d10\u7d04\u5e03\u6717\u514b\u65af",
        "global_code": "87G8R33Q+8Q"
      },
      "reference": "ChIJ8-B4ZJX1wokRFGoP5tmId5U",
      "scope": "GOOGLE",
      "types": [
        "doctor",
        "health",
        "point_of_interest",
        "establishment"
      ],
      "vicinity": "804 East 138th Street, The Bronx"
    },
    {
      "business_status": "CLOSED_TEMPORARILY",
      "geometry": {
        "location": {
          "lat": 40.8033384,
          "lng": -73.9105384
        },
        "viewport": {
          "northeast": {
            "lat": 40.8048852302915,
            "lng": -73.90904086970848
          },
          "southwest": {
            "lat": 40.8021872697085,
            "lng": -73.9117388302915
          }
        }
      },
      "icon": "https://maps.gstatic.com/mapfiles/place_api/icons/v1/png_71/generic_business-71.png",
      "icon_background_color": "#7B9EB0",
      "icon_mask_base_uri": "https://maps.gstatic.com/mapfiles/place_api/icons/v2/generic_pinlet",
      "name": "David Colon, BA",
      "permanently_closed": true,
      "place_id": "ChIJ8-B4ZJX1wokRBToYRKkXYuk",
      "plus_code": {
        "compound_code": "R33Q+8Q \u7f8e\u570b\u7d10\u7d04\u5e03\u6717\u514b\u65af",
        "global_code": "87G8R33Q+8Q"
      },
      "reference": "ChIJ8-B4ZJX1wokRBToYRKkXYuk",
      "scope": "GOOGLE",
      "types": [
        "health",
        "point_of_interest",
        "establishment"
      ],
      "vicinity": "804 East 138th Street, The Bronx"
    },
    {
      "business_status": "OPERATIONAL",
      "geometry": {
        "location": {
          "lat": 40.8033384,
          "lng": -73.9105384
        },
        "viewport": {
          "northeast": {
            "lat": 40.8048852302915,
            "lng": -73.90904086970848
          },
          "southwest": {
            "lat": 40.8021872697085,
            "lng": -73.9117388302915
          }
        }
      },
      "icon": "https://maps.gstatic.com/mapfiles/place_api/icons/v1/png_71/generic_business-71.png",
      "icon_background_color": "#7B9EB0",
      "icon_mask_base_uri": "https://maps.gstatic.com/mapfiles/place_api/icons/v2/generic_pinlet",
      "name": "Jeremy-Ann Thom, RN",
      "place_id": "ChIJDbKEZJX1wokRWo2U_EslKAI",
      "plus_code": {
        "compound_code": "R33Q+8Q \u7f8e\u570b\u7d10\u7d04\u5e03\u6717\u514b\u65af",
        "global_code": "87G8R33Q+8Q"
      },
      "reference": "ChIJDbKEZJX1wokRWo2U_EslKAI",
      "scope": "GOOGLE",
      "types": [
        "health",
        "point_of_interest",
        "establishment"
      ],
      "vicinity": "804 East 138th Street, The Bronx"
    },
    {
      "business_status": "CLOSED_TEMPORARILY",
      "geometry": {
        "location": {
          "lat": 40.8033384,
          "lng": -73.9105384
        },
        "viewport": {
          "northeast": {
            "lat": 40.8048852302915,
            "lng": -73.90904086970848
          },
          "southwest": {
            "lat": 40.8021872697085,
            "lng": -73.9117388302915
          }
        }
      },
      "icon": "https://maps.gstatic.com/mapfiles/place_api/icons/v1/png_71/generic_business-71.png",
      "icon_background_color": "#7B9EB0",
      "icon_mask_base_uri": "https://maps.gstatic.com/mapfiles/place_api/icons/v2/generic_pinlet",
      "name": "Becky Allen, BA",
      "permanently_closed": true,
      "place_id": "ChIJ8-B4ZJX1wokR2bEELIdqgO4",
      "plus_code": {
        "compound_code": "R33Q+8Q \u7f8e\u570b\u7d10\u7d04\u5e03\u6717\u514b\u65af",
        "global_code": "87G8R33Q+8Q"
      },
      "reference": "ChIJ8-B4ZJX1wokR2bEELIdqgO4",
      "scope": "GOOGLE",
      "types": [
        "health",
        "point_of_interest",
        "establishment"
      ],
      "vicinity": "804 East 138th Street, The Bronx"
    },
    {
      "business_status": "OPERATIONAL",
      "geometry": {
        "location": {
          "lat": 40.8033384,
          "lng": -73.9105384
        },
        "viewport": {
          "northeast": {
            "lat": 40.8048852302915,
            "lng": -73.90904086970848
          },
          "southwest": {
            "lat": 40.8021872697085,
            "lng": -73.9117388302915
          }
        }
      },
      "icon": "https://maps.gstatic.com/mapfiles/place_api/icons/v1/png_71/generic_business-71.png",
      "icon_background_color": "#7B9EB0",
      "icon_mask_base_uri": "https://maps.gstatic.com/mapfiles/place_api/icons/v2/generic_pinlet",
      "name": "Dana F. Mcintosh, RN",
      "place_id": "ChIJDbKEZJX1wokRZSvTHsAxsIU",
      "plus_code": {
        "compound_code": "R33Q+8Q \u7f8e\u570b\u7d10\u7d04\u5e03\u6717\u514b\u65af",
        "global_code": "87G8R33Q+8Q"
      },
      "reference": "ChIJDbKEZJX1wokRZSvTHsAxsIU",
      "scope": "GOOGLE",
      "types": [
        "health",
        "point_of_interest",
        "establishment"
      ],
      "vicinity": "804 East 138th Street, The Bronx"
    },
    {
      "business_status": "CLOSED_TEMPORARILY",
      "geometry": {
        "location": {
          "lat": 40.8033384,
          "lng": -73.9105384
        },
        "viewport": {
          "northeast": {
            "lat": 40.8048852302915,
            "lng": -73.90904086970848
          },
          "southwest": {
            "lat": 40.8021872697085,
            "lng": -73.9117388302915
          }
        }
      },
      "icon": "https://maps.gstatic.com/mapfiles/place_api/icons/v1/png_71/generic_business-71.png",
      "icon_background_color": "#7B9EB0",
      "icon_mask_base_uri": "https://maps.gstatic.com/mapfiles/place_api/icons/v2/generic_pinlet",
      "name": "William A. Thompson, BSW",
      "permanently_closed": true,
      "place_id": "ChIJ8-B4ZJX1wokRicdphA9rNp4",
      "plus_code": {
        "compound_code": "R33Q+8Q \u7f8e\u570b\u7d10\u7d04\u5e03\u6717\u514b\u65af",
        "global_code": "87G8R33Q+8Q"
      },
      "reference": "ChIJ8-B4ZJX1wokRicdphA9rNp4",
      "scope": "GOOGLE",
      "types": [
        "health",
        "point_of_interest",
        "establishment"
      ],
      "vicinity": "804 East 138th Street, The Bronx"
    },
    {
      "business_status": "OPERATIONAL",
      "geometry": {
        "location": {
          "lat": 40.8033384,
          "lng": -73.9105384
        },
        "viewport": {
          "northeast": {
            "lat": 40.8048852302915,
            "lng": -73.90904086970848
          },
          "southwest": {
            "lat": 40.8021872697085,
            "lng": -73.9117388302915
          }
        }
      },
      "icon": "https://maps.gstatic.com/mapfiles/place_api/icons/v1/png_71/generic_business-71.png",
      "icon_background_color": "#7B9EB0",
      "icon_mask_base_uri": "https://maps.gstatic.com/mapfiles/place_api/icons/v2/generic_pinlet",
      "name": "Monique Defreitas-Gordon, RN",
      "place_id": "ChIJDbKEZJX1wokRznUBy6LGIi8",
      "plus_code": {
        "compound_code": "R33Q+8Q \u7f8e\u570b\u7d10\u7d04\u5e03\u6717\u514b\u65af",
        "global_code": "87G8R33Q+8Q"
      },
      "reference": "ChIJDbKEZJX1wokRznUBy6LGIi8",
      "scope": "GOOGLE",
      "types": [
        "health",
        "point_of_interest",
        "establishment"
      ],
      "vicinity": "804 East 138th Street, The Bronx"
    },
    {
      "business_status": "CLOSED_TEMPORARILY",
      "geometry": {
        "location": {
          "lat": 40.8033384,
          "lng": -73.9105384
        },
        "viewport": {
          "northeast": {
            "lat": 40.8048852302915,
            "lng": -73.90904086970848
          },
          "southwest": {
            "lat": 40.8021872697085,
            "lng": -73.9117388302915
          }
        }
      },
      "icon": "https://maps.gstatic.com/mapfiles/place_api/icons/v1/png_71/generic_business-71.png",
      "icon_background_color": "#7B9EB0",
      "icon_mask_base_uri": "https://maps.gstatic.com/mapfiles/place_api/icons/v2/generic_pinlet",
      "name": "Maricela Ramirez Jr, BA",
      "permanently_closed": true,
      "place_id": "ChIJ8-B4ZJX1wokRCCRuGLEOEMg",
      "plus_code": {
        "compound_code": "R33Q+8Q \u7f8e\u570b\u7d10\u7d04\u5e03\u6717\u514b\u65af",
        "global_code": "87G8R33Q+8Q"
      },
      "reference": "ChIJ8-B4ZJX1wokRCCRuGLEOEMg",
      "scope": "GOOGLE",
      "types": [
        "health",
        "point_of_interest",
        "establishment"
      ],
      "vicinity": "804 East 138th Street, The Bronx"
    },
    {
      "business_status": "CLOSED_TEMPORARILY",
      "geometry": {
        "location": {
          "lat": 40.8033384,
          "lng": -73.9105384
        },
        "viewport": {
          "northeast": {
            "lat": 40.8048852302915,
            "lng": -73.90904086970848
          },
          "southwest": {
            "lat": 40.8021872697085,
            "lng": -73.9117388302915
          }
        }
      },
      "icon": "https://maps.gstatic.com/mapfiles/place_api/icons/v1/png_71/generic_business-71.png",
      "icon_background_color": "#7B9EB0",
      "icon_mask_base_uri": "https://maps.gstatic.com/mapfiles/place_api/icons/v2/generic_pinlet",
      "name": "Jennifer Coss, BA",
      "permanently_closed": true,
      "place_id": "ChIJ8-B4ZJX1wokRHUlUF4xLO7s",
      "plus_code": {
        "compound_code": "R33Q+8Q \u7f8e\u570b\u7d10\u7d04\u5e03\u6717\u514b\u65af",
        "global_code": "87G8R33Q+8Q"
      },
      "reference": "ChIJ8-B4ZJX1wokRHUlUF4xLO7s",
      "scope": "GOOGLE",
      "types": [
        "health",
        "point_of_interest",
        "establishment"
      ],
      "vicinity": "804 East 138th Street, The Bronx"
    },
    {
      "geometry": {
        "location": {
          "lat": 40.8519547,
          "lng": -73.90070899999999
        },
        "viewport": {
          "northeast": {
            "lat": 40.91527805889627,
            "lng": -73.86840408623851
          },
          "southwest": {
            "lat": 40.79678004393696,
            "lng": -73.93340593816593
          }
        }
      },
      "icon": "https://maps.gstatic.com/mapfiles/place_api/icons/v1/png_71/geocode-71.png",
      "icon_background_color": "#7B9EB0",
      "icon_mask_base_uri": "https://maps.gstatic.com/mapfiles/place_api/icons/v2/generic_pinlet",
      "name": "West Bronx",
      "photos": [
        {
          "height": 1024,
          "html_attributions": [
            "<a href=\"https://maps.google.com/maps/contrib/113738462812435835913\">Alex Lin</a>"
          ],
          "photo_reference": "AeJbb3eK1IpLP4iz9sOJYrCSjDnom5d2tSjGxf22mh36pfK5G8CD8LlLHWAaBaxIw6MNk4ULriau0Xse3MjUfJ6Go7Va7rq70o7spoKz1Lqz9zInbhsApdHljS67-r17ZJ8EWdC2N2vPLZ7t3bRNZYH9ItOxOBQ9HOTVpVAJyC7SRdNzlB68",
          "width": 768
        }
      ],
      "place_id": "ChIJWdLZpnD0wokRgikpekRYd9o",
      "reference": "ChIJWdLZpnD0wokRgikpekRYd9o",
      "scope": "GOOGLE",
      "types": [
        "neighborhood",
        "political"
      ],
      "vicinity": "The Bronx"
    },
    {
      "business_status": "OPERATIONAL",
      "geometry": {
        "location": {
          "lat": 40.8033384,
          "lng": -73.9105384
        },
        "viewport": {
          "northeast": {
            "lat": 40.8048852302915,
            "lng": -73.90904086970848
          },
          "southwest": {
            "lat": 40.8021872697085,
            "lng": -73.9117388302915
          }
        }
      },
      "icon": "https://maps.gstatic.com/mapfiles/place_api/icons/v1/png_71/generic_business-71.png",
      "icon_background_color": "#7B9EB0",
      "icon_mask_base_uri": "https://maps.gstatic.com/mapfiles/place_api/icons/v2/generic_pinlet",
      "name": "Angelina Lopez, CASAC",
      "place_id": "ChIJ8-B4ZJX1wokRrzHSr9Yxc7Y",
      "plus_code": {
        "compound_code": "R33Q+8Q The Bronx, NY, USA",
        "global_code": "87G8R33Q+8Q"
      },
      "reference": "ChIJ8-B4ZJX1wokRrzHSr9Yxc7Y",
      "scope": "GOOGLE",
      "types": [
        "doctor",
        "health",
        "point_of_interest",
        "establishment"
      ],
      "vicinity": "804 East 138th Street, The Bronx"
    },
    {
      "business_status": "CLOSED_TEMPORARILY",
      "geometry": {
        "location": {
          "lat": 40.8033384,
          "lng": -73.9105384
        },
        "viewport": {
          "northeast": {
            "lat": 40.8048852302915,
            "lng": -73.90904086970848
          },
          "southwest": {
            "lat": 40.8021872697085,
            "lng": -73.9117388302915
          }
        }
      },
      "icon": "https://maps.gstatic.com/mapfiles/place_api/icons/v1/png_71/generic_business-71.png",
      "icon_background_color": "#7B9EB0",
      "icon_mask_base_uri": "https://maps.gstatic.com/mapfiles/place_api/icons/v2/generic_pinlet",
      "name": "Joseph Walker, BA",
      "permanently_closed": true,
      "place_id": "ChIJ8-B4ZJX1wokR-4bayqQeyEY",
      "plus_code": {
        "compound_code": "R33Q+8Q The Bronx, NY, USA",
        "global_code": "87G8R33Q+8Q"
      },
      "reference": "ChIJ8-B4ZJX1wokR-4bayqQeyEY",
      "scope": "GOOGLE",
      "types": [
        "health",
        "point_of_interest",
        "establishment"
      ],
      "vicinity": "804 East 138th Street, The Bronx"
    },
    {
      "business_status": "CLOSED_TEMPORARILY",
      "geometry": {
        "location": {
          "lat": 40.8033384,
          "lng": -73.9105384
        },
        "viewport": {
          "northeast": {
            "lat": 40.8048852302915,
            "lng": -73.90904086970848
          },
          "southwest": {
            "lat": 40.8021872697085,
            "lng": -73.9117388302915
          }
        }
      },
      "icon": "https://maps.gstatic.com/mapfiles/place_api/icons/v1/png_71/generic_business-71.png",
      "icon_background_color": "#7B9EB0",
      "icon_mask_base_uri": "https://maps.gstatic.com/mapfiles/place_api/icons/v2/generic_pinlet",
      "name": "Sheila A. Carter, MPA",
      "permanently_closed": true,
      "place_id": "ChIJ8-B4ZJX1wokRXpDz5dQ2KJI",
      "plus_code": {
        "compound_code": "R33Q+8Q The Bronx, NY, USA",
        "global_code": "87G8R33Q+8Q"
      },
      "rating": 1,
      "reference": "ChIJ8-B4ZJX1wokRXpDz5dQ2KJI",
      "scope": "GOOGLE",
      "types": [
        "health",
        "point_of_interest",
        "establishment"
      ],
      "user_ratings_total": 1,
      "vicinity": "804 East 138th Street, The Bronx"
    },
    {
      "business_status": "OPERATIONAL",
      "geometry": {
        "location": {
          "lat": 40.8033384,
          "lng": -73.9105384
        },
        "viewport": {
          "northeast": {
            "lat": 40.8048852302915,
            "lng": -73.90904086970848
          },
          "southwest": {
            "lat": 40.8021872697085,
            "lng": -73.9117388302915
          }
        }
      },
      "icon": "https://maps.gstatic.com/mapfiles/place_api/icons/v1/png_71/generic_business-71.png",
      "icon_background_color": "#7B9EB0",
      "icon_mask_base_uri": "https://maps.gstatic.com/mapfiles/place_api/icons/v2/generic_pinlet",
      "name": "Opal O. Stewart, RN",
      "place_id": "ChIJDbKEZJX1wokR8vpHFktiMI8",
      "plus_code": {
        "compound_code": "R33Q+8Q The Bronx, NY, USA",
        "global_code": "87G8R33Q+8Q"
      },
      "reference": "ChIJDbKEZJX1wokR8vpHFktiMI8",
      "scope": "GOOGLE",
      "types": [
        "health",
        "point_of_interest",
        "establishment"
      ],
      "vicinity": "804 East 138th Street, The Bronx"
    },
    {
      "business_status": "OPERATIONAL",
      "geometry": {
        "location": {
          "lat": 40.809691,
          "lng": -73.9096174
        },
        "viewport": {
          "northeast": {
            "lat": 40.8109502302915,
            "lng": -73.90830101970849
          },
          "southwest": {
            "lat": 40.8082522697085,
            "lng": -73.91099898029151
          }
        }
      },
      "icon": "https://maps.gstatic.com/mapfiles/place_api/icons/v1/png_71/generic_business-71.png",
      "icon_background_color": "#7B9EB0",
      "icon_mask_base_uri": "https://maps.gstatic.com/mapfiles/place_api/icons/v2/generic_pinlet",
      "name": "Accurate Metal Weatherstrip Co",
      "opening_hours": {
        "open_now": false
      },
      "photos": [
        {
          "height": 265,
          "html_attributions": [
            "<a href=\"https://maps.google.com/maps/contrib/101802222256691259010\">Accurate Metal Weatherstrip Co</a>"
          ],
          "photo_reference": "AeJbb3cHeZQnSgU39_0B5ArHRo3FGmzlTa7sp2mOsr0EinLbuT-RZsOXcLVrNHSzL8UUMDIf6AUZSvfle_Rn8jtDrSXgGiBwq2J8C5pOU0DVH0YAAK8iFp_ySsy9nSrNPrwtPzNcexCZnL6u7QSfMahhY6PggYIGMN-BaX75-l_FcaFvk8Zj",
          "width": 265
        }
      ],
      "place_id": "ChIJLZCaBSSNwokRSYQ0h8YKdjg",
      "plus_code": {
        "compound_code": "R35R+V5 The Bronx, NY, USA",
        "global_code": "87G8R35R+V5"
      },
      "rating": 3.3,
      "reference": "ChIJLZCaBSSNwokRSYQ0h8YKdjg",
      "scope": "GOOGLE",
      "types": [
        "point_of_interest",
        "establishment"
      ],
      "user_ratings_total": 13,
      "vicinity": "415 Concord Avenue, The Bronx"
    },
    {
      "business_status": "OPERATIONAL",
      "geometry": {
        "location": {
          "lat": 40.8093797,
          "lng": -73.9072058
        },
        "viewport": {
          "northeast": {
            "lat": 40.8106866802915,
            "lng": -73.9055441197085
          },
          "southwest": {
            "lat": 40.8079887197085,
            "lng": -73.9082420802915
          }
        }
      },
      "icon": "https://maps.gstatic.com/mapfiles/place_api/icons/v1/png_71/generic_business-71.png",
      "icon_background_color": "#7B9EB0",
      "icon_mask_base_uri": "https://maps.gstatic.com/mapfiles/place_api/icons/v2/generic_pinlet",
      "name": "K & B Furniture",
      "opening_hours": {
        "open_now": false
      },
      "place_id": "ChIJ3ZmqXrn1wokRVA2Ko2tX628",
      "plus_code": {
        "compound_code": "R35V+Q4 The Bronx, NY, USA",
        "global_code": "87G8R35V+Q4"
      },
      "rating": 3.3,
      "reference": "ChIJ3ZmqXrn1wokRVA2Ko2tX628",
      "scope": "GOOGLE",
      "types": [
        "point_of_interest",
        "establishment"
      ],
      "user_ratings_total": 7,
      "vicinity": "430 Southern Boulevard, The Bronx"
    },
    {
      "business_status": "OPERATIONAL",
      "geometry": {
        "location": {
          "lat": 40.80338750000001,
          "lng": -73.90911369999999
        },
        "viewport": {
          "northeast": {
            "lat": 40.8046669802915,
            "lng": -73.9078357697085
          },
          "southwest": {
            "lat": 40.8019690197085,
            "lng": -73.9105337302915
          }
        }
      },
      "icon": "https://maps.gstatic.com/mapfiles/place_api/icons/v1/png_71/generic_business-71.png",
      "icon_background_color": "#7B9EB0",
      "icon_mask_base_uri": "https://maps.gstatic.com/mapfiles/place_api/icons/v2/generic_pinlet",
      "name": "Johnstone Supply Bronx",
      "opening_hours": {
        "open_now": false
      },
      "photos": [
        {
          "height": 720,
          "html_attributions": [
            "<a href=\"https://maps.google.com/maps/contrib/113129014805128746907\">John Buck</a>"
          ],
          "photo_reference": "AeJbb3cAc6C9VNkeP6prg-QxKzJKmL118AC102jfvFl02wFOHsSSUDW5vIpGd0uNc_XFX4yQdZj6_aY-m4F8C3vSps4IDNLjODYml8mZip4pQVDvRjzsI_jvSRqEXqDCaqSzVIgKOJ6GhX411wM7VvLtZwfsiF4SIcMc3_iO98P2Y_jGt2M",
          "width": 1280
        }
      ],
      "place_id": "ChIJpx4Pg5X1wokRcOM-mm3JSX4",
      "plus_code": {
        "compound_code": "R33R+99 New York, NY, USA",
        "global_code": "87G8R33R+99"
      },
      "rating": 4.5,
      "reference": "ChIJpx4Pg5X1wokRcOM-mm3JSX4",
      "scope": "GOOGLE",
      "types": [
        "point_of_interest",
        "establishment"
      ],
      "user_ratings_total": 17,
      "vicinity": "845 East 138th Street, The Bronx"
    },
    {
      "business_status": "OPERATIONAL",
      "geometry": {
        "location": {
          "lat": 40.805521,
          "lng": -73.91589789999999
        },
        "viewport": {
          "northeast": {
            "lat": 40.8069287302915,
            "lng": -73.91469051970849
          },
          "southwest": {
            "lat": 40.8042307697085,
            "lng": -73.9173884802915
          }
        }
      },
      "icon": "https://maps.gstatic.com/mapfiles/place_api/icons/v1/png_71/generic_business-71.png",
      "icon_background_color": "#7B9EB0",
      "icon_mask_base_uri": "https://maps.gstatic.com/mapfiles/place_api/icons/v2/generic_pinlet",
      "name": "Diane Traver MD",
      "place_id": "ChIJSVbez8H1wokRL-BBA95eX2Y",
      "plus_code": {
        "compound_code": "R34M+6J New York, NY, USA",
        "global_code": "87G8R34M+6J"
      },
      "reference": "ChIJSVbez8H1wokRL-BBA95eX2Y",
      "scope": "GOOGLE",
      "types": [
        "doctor",
        "health",
        "point_of_interest",
        "establishment"
      ],
      "vicinity": "625 East 137th Street, The Bronx"
    },
    {
      "business_status": "OPERATIONAL",
      "geometry": {
        "location": {
          "lat": 40.8061504,
          "lng": -73.9076257
        },
        "viewport": {
          "northeast": {
            "lat": 40.8076517802915,
            "lng": -73.9063224697085
          },
          "southwest": {
            "lat": 40.8049538197085,
            "lng": -73.9090204302915
          }
        }
      },
      "icon": "https://maps.gstatic.com/mapfiles/place_api/icons/v1/png_71/generic_business-71.png",
      "icon_background_color": "#7B9EB0",
      "icon_mask_base_uri": "https://maps.gstatic.com/mapfiles/place_api/icons/v2/generic_pinlet",
      "name": "Extra Space Storage",
      "opening_hours": {
        "open_now": true
      },
      "photos": [
        {
          "height": 270,
          "html_attributions": [
            "<a href=\"https://maps.google.com/maps/contrib/113139313255259060198\">Extra Space Storage</a>"
          ],
          "photo_reference": "AeJbb3c7AF3d4fXsaaNVVw16YYVM6ouf88ViDaiQyDKCI9mUYexdcpMU8Cae8XyB1ob86NGrJS9p9CDM8LI5i46g4kWkMztoUIOOe9L7yOaOOV9yOCL7wWNB6UijmvRiUPA6HqHcIe2qMKdJmhPnXqkx22hu5o5ZS1A_Z960fUeOHB45rz2j",
          "width": 480
        }
      ],
      "place_id": "ChIJa2Trir71wokRUTfGqiugq7c",
      "plus_code": {
        "compound_code": "R34R+FW New York, NY, USA",
        "global_code": "87G8R34R+FW"
      },
      "rating": 4.9,
      "reference": "ChIJa2Trir71wokRUTfGqiugq7c",
      "scope": "GOOGLE",
      "types": [
        "moving_company",
        "storage",
        "store",
        "point_of_interest",
        "establishment"
      ],
      "user_ratings_total": 1783,
      "vicinity": "330 Bruckner Boulevard, The Bronx"
    },
    {
      "business_status": "OPERATIONAL",
      "geometry": {
        "location": {
          "lat": 40.8076549,
          "lng": -73.90885399999999
        },
        "viewport": {
          "northeast": {
            "lat": 40.80887713029149,
            "lng": -73.90757251970848
          },
          "southwest": {
            "lat": 40.80617916970849,
            "lng": -73.9102704802915
          }
        }
      },
      "icon": "https://maps.gstatic.com/mapfiles/place_api/icons/v1/png_71/generic_business-71.png",
      "icon_background_color": "#7B9EB0",
      "icon_mask_base_uri": "https://maps.gstatic.com/mapfiles/place_api/icons/v2/generic_pinlet",
      "name": "Campos Vivian A",
      "place_id": "ChIJg9qS5771wokRGSQjsguDNOc",
      "plus_code": {
        "compound_code": "R35R+3F The Bronx, NY, USA",
        "global_code": "87G8R35R+3F"
      },
      "reference": "ChIJg9qS5771wokRGSQjsguDNOc",
      "scope": "GOOGLE",
      "types": [
        "point_of_interest",
        "establishment"
      ],
      "vicinity": "781 East 142nd Street, The Bronx"
    },
    {
      "business_status": "OPERATIONAL",
      "geometry": {
        "location": {
          "lat": 40.8076835,
          "lng": -73.9088389
        },
        "viewport": {
          "northeast": {
            "lat": 40.8088914802915,
            "lng": -73.9075650197085
          },
          "southwest": {
            "lat": 40.8061935197085,
            "lng": -73.9102629802915
          }
        }
      },
      "icon": "https://maps.gstatic.com/mapfiles/place_api/icons/v1/png_71/generic_business-71.png",
      "icon_background_color": "#7B9EB0",
      "icon_mask_base_uri": "https://maps.gstatic.com/mapfiles/place_api/icons/v2/generic_pinlet",
      "name": "Rosa M. Salazar, LMSW",
      "place_id": "ChIJg9qS5771wokRZakzL7vVVV0",
      "plus_code": {
        "compound_code": "R35R+3F The Bronx, NY, USA",
        "global_code": "87G8R35R+3F"
      },
      "reference": "ChIJg9qS5771wokRZakzL7vVVV0",
      "scope": "GOOGLE",
      "types": [
        "point_of_interest",
        "establishment"
      ],
      "vicinity": "781 East 142nd Street, The Bronx"
    },
    {
      "business_status": "OPERATIONAL",
      "geometry": {
        "location": {
          "lat": 40.8076351,
          "lng": -73.9140298
        },
        "viewport": {
          "northeast": {
            "lat": 40.80907773029149,
            "lng": -73.9126114197085
          },
          "southwest": {
            "lat": 40.80637976970849,
            "lng": -73.9153093802915
          }
        }
      },
      "icon": "https://maps.gstatic.com/mapfiles/place_api/icons/v1/png_71/generic_business-71.png",
      "icon_background_color": "#7B9EB0",
      "icon_mask_base_uri": "https://maps.gstatic.com/mapfiles/place_api/icons/v2/generic_pinlet",
      "name": "Diego Beekman",
      "place_id": "ChIJKyhqjcD1wokR4jgN-qQB_Yc",
      "plus_code": {
        "compound_code": "R35P+39 The Bronx, NY, USA",
        "global_code": "87G8R35P+39"
      },
      "rating": 1.6,
      "reference": "ChIJKyhqjcD1wokR4jgN-qQB_Yc",
      "scope": "GOOGLE",
      "types": [
        "point_of_interest",
        "establishment"
      ],
      "user_ratings_total": 7,
      "vicinity": "626 East 141st Street, The Bronx"
    },
    {
      "business_status": "OPERATIONAL",
      "geometry": {
        "location": {
          "lat": 40.8076549,
          "lng": -73.90885399999999
        },
        "viewport": {
          "northeast": {
            "lat": 40.80887713029149,
            "lng": -73.90757251970848
          },
          "southwest": {
            "lat": 40.80617916970849,
            "lng": -73.9102704802915
          }
        }
      },
      "icon": "https://maps.gstatic.com/mapfiles/place_api/icons/v1/png_71/generic_business-71.png",
      "icon_background_color": "#7B9EB0",
      "icon_mask_base_uri": "https://maps.gstatic.com/mapfiles/place_api/icons/v2/generic_pinlet",
      "name": "Castillo Franklin",
      "place_id": "ChIJg9qS5771wokRVAM96CF3zfU",
      "plus_code": {
        "compound_code": "R35R+3F The Bronx, NY, USA",
        "global_code": "87G8R35R+3F"
      },
      "reference": "ChIJg9qS5771wokRVAM96CF3zfU",
      "scope": "GOOGLE",
      "types": [
        "point_of_interest",
        "establishment"
      ],
      "vicinity": "781 East 142nd Street, The Bronx"
    },
    {
      "business_status": "OPERATIONAL",
      "geometry": {
        "location": {
          "lat": 40.8076549,
          "lng": -73.90885399999999
        },
        "viewport": {
          "northeast": {
            "lat": 40.80887713029149,
            "lng": -73.90757251970848
          },
          "southwest": {
            "lat": 40.80617916970849,
            "lng": -73.9102704802915
          }
        }
      },
      "icon": "https://maps.gstatic.com/mapfiles/place_api/icons/v1/png_71/generic_business-71.png",
      "icon_background_color": "#7B9EB0",
      "icon_mask_base_uri": "https://maps.gstatic.com/mapfiles/place_api/icons/v2/generic_pinlet",
      "name": "Bui Phuong M",
      "place_id": "ChIJg9qS5771wokRL1XYOyqyoXE",
      "plus_code": {
        "compound_code": "R35R+3F The Bronx, NY, USA",
        "global_code": "87G8R35R+3F"
      },
      "reference": "ChIJg9qS5771wokRL1XYOyqyoXE",
      "scope": "GOOGLE",
      "types": [
        "doctor",
        "health",
        "point_of_interest",
        "establishment"
      ],
      "vicinity": "781 East 142nd Street, The Bronx"
    },
    {
      "business_status": "OPERATIONAL",
      "geometry": {
        "location": {
          "lat": 40.8076549,
          "lng": -73.90885399999999
        },
        "viewport": {
          "northeast": {
            "lat": 40.80887713029149,
            "lng": -73.90757251970848
          },
          "southwest": {
            "lat": 40.80617916970849,
            "lng": -73.9102704802915
          }
        }
      },
      "icon": "https://maps.gstatic.com/mapfiles/place_api/icons/v1/png_71/generic_business-71.png",
      "icon_background_color": "#7B9EB0",
      "icon_mask_base_uri": "https://maps.gstatic.com/mapfiles/place_api/icons/v2/generic_pinlet",
      "name": "Harris Carol D",
      "place_id": "ChIJg9qS5771wokRTv9V_pBCnoE",
      "plus_code": {
        "compound_code": "R35R+3F The Bronx, NY, USA",
        "global_code": "87G8R35R+3F"
      },
      "reference": "ChIJg9qS5771wokRTv9V_pBCnoE",
      "scope": "GOOGLE",
      "types": [
        "doctor",
        "health",
        "point_of_interest",
        "establishment"
      ],
      "vicinity": "781 East 142nd Street, The Bronx"
    },
    {
      "business_status": "OPERATIONAL",
      "geometry": {
        "location": {
          "lat": 40.8076835,
          "lng": -73.9088389
        },
        "viewport": {
          "northeast": {
            "lat": 40.8088914802915,
            "lng": -73.9075650197085
          },
          "southwest": {
            "lat": 40.8061935197085,
            "lng": -73.9102629802915
          }
        }
      },
      "icon": "https://maps.gstatic.com/mapfiles/place_api/icons/v1/png_71/generic_business-71.png",
      "icon_background_color": "#7B9EB0",
      "icon_mask_base_uri": "https://maps.gstatic.com/mapfiles/place_api/icons/v2/generic_pinlet",
      "name": "Tania C. Fernandez, LMSW",
      "place_id": "ChIJDemO5771wokRNc1-vFO51EY",
      "plus_code": {
        "compound_code": "R35R+3F The Bronx, NY, USA",
        "global_code": "87G8R35R+3F"
      },
      "reference": "ChIJDemO5771wokRNc1-vFO51EY",
      "scope": "GOOGLE",
      "types": [
        "point_of_interest",
        "establishment"
      ],
      "vicinity": "781 East 142nd Street, The Bronx"
    },
    {
      "business_status": "OPERATIONAL",
      "geometry": {
        "location": {
          "lat": 40.8051808,
          "lng": -73.9140051
        },
        "viewport": {
          "northeast": {
            "lat": 40.8065944302915,
            "lng": -73.9126087697085
          },
          "southwest": {
            "lat": 40.8038964697085,
            "lng": -73.9153067302915
          }
        }
      },
      "icon": "https://maps.gstatic.com/mapfiles/place_api/icons/v1/png_71/worship_general-71.png",
      "icon_background_color": "#7B9EB0",
      "icon_mask_base_uri": "https://maps.gstatic.com/mapfiles/place_api/icons/v2/worship_christian_pinlet",
      "name": "Church of God",
      "photos": [
        {
          "height": 3264,
          "html_attributions": [
            "<a href=\"https://maps.google.com/maps/contrib/116566607384718041026\">Fany Taveras</a>"
          ],
          "photo_reference": "AeJbb3fwRYg7ug1i6TtoDOSDG-h2ZjEeJzdi_h6sdD65F4TVnTh7vj5n-EZAV472qoyBkjwSYo8eaxz-SAW-IyorFzvNPaIE8keN8v9Mt6Js-PYhEGI8jCfmE_zXoKBMuYp576valgqI9TXjDRMaGNYCjoUIxh2GcdMPIikhKPhnVpKQMxCu",
          "width": 2448
        }
      ],
      "place_id": "ChIJDzPfF8D1wokRsRmPILbgDvQ",
      "plus_code": {
        "compound_code": "R34P+39 New York, NY, USA",
        "global_code": "87G8R34P+39"
      },
      "rating": 4.8,
      "reference": "ChIJDzPfF8D1wokRsRmPILbgDvQ",
      "scope": "GOOGLE",
      "types": [
        "church",
        "place_of_worship",
        "point_of_interest",
        "establishment"
      ],
      "user_ratings_total": 13,
      "vicinity": "680 East 138th Street, The Bronx"
    },
    {
      "business_status": "OPERATIONAL",
      "geometry": {
        "location": {
          "lat": 40.805894,
          "lng": -73.9140642
        },
        "viewport": {
          "northeast": {
            "lat": 40.80728028029149,
            "lng": -73.91281511970848
          },
          "southwest": {
            "lat": 40.8045823197085,
            "lng": -73.9155130802915
          }
        }
      },
      "icon": "https://maps.gstatic.com/mapfiles/place_api/icons/v1/png_71/restaurant-71.png",
      "icon_background_color": "#FF9E67",
      "icon_mask_base_uri": "https://maps.gstatic.com/mapfiles/place_api/icons/v2/restaurant_pinlet",
      "name": "No.1 Wok",
      "opening_hours": {
        "open_now": true
      },
      "photos": [
        {
          "height": 1080,
          "html_attributions": [
            "<a href=\"https://maps.google.com/maps/contrib/104887270102392330560\">MrGod Nova</a>"
          ],
          "photo_reference": "AeJbb3cOo0JQOQlgcU38HNi-9wUN9rhvWDpBbH-mOn9C_PYxdBJQH4-89VIgRTt5X3-lwdPwCFjdbjIcHS4v6dljh2z7FLAOvHYJZKl_qJnRmDMqbPrmhuGxgco-Ea8ti8yHrtdpcxiJrdqKe1beIgWroGzOj3p9ms5jp30kr_fKWpsV_TWn",
          "width": 1920
        }
      ],
      "place_id": "ChIJyykrQMD1wokR5gzQJGqkWbo",
      "plus_code": {
        "compound_code": "R34P+99 New York, NY, USA",
        "global_code": "87G8R34P+99"
      },
      "price_level": 1,
      "rating": 3.9,
      "reference": "ChIJyykrQMD1wokR5gzQJGqkWbo",
      "scope": "GOOGLE",
      "types": [
        "meal_delivery",
        "restaurant",
        "food",
        "point_of_interest",
        "establishment"
      ],
      "user_ratings_total": 167,
      "vicinity": "260 Cypress Avenue, The Bronx"
    },
    {
      "business_status": "OPERATIONAL",
      "geometry": {
        "location": {
          "lat": 40.8082869,
          "lng": -73.9107772
        },
        "viewport": {
          "northeast": {
            "lat": 40.8096570802915,
            "lng": -73.9095152197085
          },
          "southwest": {
            "lat": 40.8069591197085,
            "lng": -73.9122131802915
          }
        }
      },
      "icon": "https://maps.gstatic.com/mapfiles/place_api/icons/v1/png_71/generic_business-71.png",
      "icon_background_color": "#7B9EB0",
      "icon_mask_base_uri": "https://maps.gstatic.com/mapfiles/place_api/icons/v2/generic_pinlet",
      "name": "Fuel Watchman Sales & Services Inc",
      "opening_hours": {
        "open_now": false
      },
      "place_id": "ChIJ3z1JOL_1wokRN81iu8ThnWc",
      "plus_code": {
        "compound_code": "R35Q+8M The Bronx, NY, USA",
        "global_code": "87G8R35Q+8M"
      },
      "reference": "ChIJ3z1JOL_1wokRN81iu8ThnWc",
      "scope": "GOOGLE",
      "types": [
        "point_of_interest",
        "establishment"
      ],
      "vicinity": "364 Jackson Avenue, The Bronx"
    },
    {
      "business_status": "OPERATIONAL",
      "geometry": {
        "location": {
          "lat": 40.80518139999999,
          "lng": -73.9098147
        },
        "viewport": {
          "northeast": {
            "lat": 40.8065466302915,
            "lng": -73.90840316970849
          },
          "southwest": {
            "lat": 40.8038486697085,
            "lng": -73.91110113029151
          }
        }
      },
      "icon": "https://maps.gstatic.com/mapfiles/place_api/icons/v1/png_71/generic_business-71.png",
      "icon_background_color": "#7B9EB0",
      "icon_mask_base_uri": "https://maps.gstatic.com/mapfiles/place_api/icons/v2/generic_pinlet",
      "name": "Byrne Compressed Air Equipment Co",
      "place_id": "ChIJz8CMtb_1wokRhKOMzN8PnMQ",
      "plus_code": {
        "compound_code": "R34R+33 New York, NY, USA",
        "global_code": "87G8R34R+33"
      },
      "reference": "ChIJz8CMtb_1wokRhKOMzN8PnMQ",
      "scope": "GOOGLE",
      "types": [
        "point_of_interest",
        "establishment"
      ],
      "vicinity": "796 East 140th Street 2nd floor, The Bronx"
    },
    {
      "business_status": "OPERATIONAL",
      "geometry": {
        "location": {
          "lat": 40.8056637,
          "lng": -73.9142428
        },
        "viewport": {
          "northeast": {
            "lat": 40.8069308302915,
            "lng": -73.9129538197085
          },
          "southwest": {
            "lat": 40.8042328697085,
            "lng": -73.91565178029151
          }
        }
      },
      "icon": "https://maps.gstatic.com/mapfiles/place_api/icons/v1/png_71/generic_business-71.png",
      "icon_background_color": "#7B9EB0",
      "icon_mask_base_uri": "https://maps.gstatic.com/mapfiles/place_api/icons/v2/generic_pinlet",
      "name": "Shirts Kim cleaners",
      "opening_hours": {
        "open_now": true
      },
      "place_id": "ChIJy6zNPcD1wokRQxlIR9tVD6w",
      "plus_code": {
        "compound_code": "R34P+78 The Bronx, NY, USA",
        "global_code": "87G8R34P+78"
      },
      "rating": 4.3,
      "reference": "ChIJy6zNPcD1wokRQxlIR9tVD6w",
      "scope": "GOOGLE",
      "types": [
        "laundry",
        "point_of_interest",
        "establishment"
      ],
      "user_ratings_total": 15,
      "vicinity": "679 East 138th Street, The Bronx"
    },
    {
      "business_status": "CLOSED_TEMPORARILY",
      "geometry": {
        "location": {
          "lat": 40.8051779,
          "lng": -73.90979279999999
        },
        "viewport": {
          "northeast": {
            "lat": 40.8065208302915,
            "lng": -73.9083654697085
          },
          "southwest": {
            "lat": 40.8038228697085,
            "lng": -73.9110634302915
          }
        }
      },
      "icon": "https://maps.gstatic.com/mapfiles/place_api/icons/v1/png_71/shopping-71.png",
      "icon_background_color": "#4B96F3",
      "icon_mask_base_uri": "https://maps.gstatic.com/mapfiles/place_api/icons/v2/shopping_pinlet",
      "name": "New Draulic Tools Inc",
      "permanently_closed": true,
      "place_id": "ChIJq_Giyb_1wokRRJYGcqOMusU",
      "plus_code": {
        "compound_code": "R34R+33 The Bronx, NY, USA",
        "global_code": "87G8R34R+33"
      },
      "rating": 3.3,
      "reference": "ChIJq_Giyb_1wokRRJYGcqOMusU",
      "scope": "GOOGLE",
      "types": [
        "store",
        "point_of_interest",
        "establishment"
      ],
      "user_ratings_total": 3,
      "vicinity": "796 East 140th Street 1st floor, The Bronx"
    },
    {
      "business_status": "OPERATIONAL",
      "geometry": {
        "location": {
          "lat": 40.8050534,
          "lng": -73.9128394
        },
        "viewport": {
          "northeast": {
            "lat": 40.8063729802915,
            "lng": -73.91142776970848
          },
          "southwest": {
            "lat": 40.8036750197085,
            "lng": -73.91412573029149
          }
        }
      },
      "icon": "https://maps.gstatic.com/mapfiles/place_api/icons/v1/png_71/atm-71.png",
      "icon_background_color": "#909CE1",
      "icon_mask_base_uri": "https://maps.gstatic.com/mapfiles/place_api/icons/v2/atm_pinlet",
      "name": "ATM",
      "place_id": "ChIJuQPh6r_1wokRsY2vVKhpLBM",
      "plus_code": {
        "compound_code": "R34P+2V New York, NY, USA",
        "global_code": "87G8R34P+2V"
      },
      "reference": "ChIJuQPh6r_1wokRsY2vVKhpLBM",
      "scope": "GOOGLE",
      "types": [
        "atm",
        "finance",
        "point_of_interest",
        "establishment"
      ],
      "vicinity": "715 East 138th Street, The Bronx"
    },
    {
      "business_status": "OPERATIONAL",
      "geometry": {
        "location": {
          "lat": 40.8046873,
          "lng": -73.9126971
        },
        "viewport": {
          "northeast": {
            "lat": 40.8060430802915,
            "lng": -73.91143846970849
          },
          "southwest": {
            "lat": 40.8033451197085,
            "lng": -73.91413643029149
          }
        }
      },
      "icon": "https://maps.gstatic.com/mapfiles/place_api/icons/v1/png_71/park-71.png",
      "icon_background_color": "#4DB546",
      "icon_mask_base_uri": "https://maps.gstatic.com/mapfiles/place_api/icons/v2/tree_pinlet",
      "name": "Gouverneur Morris Triangle",
      "photos": [
        {
          "height": 480,
          "html_attributions": [
            "<a href=\"https://maps.google.com/maps/contrib/112250089374193529475\">Gouverneur Morris Triangle</a>"
          ],
          "photo_reference": "AeJbb3df16bS7mC3AZkJgZM1MDT4vuYTTQmVMl7RYohg44p97rhgt_Xtlh-fjBcZrFdTa_7Oc7eNuuBR8IYS27hyzpuVjw_Fj320Lsy7x92hmn8_1zEEDP6Eks3hA79a05d7G4wptHrt7B4vm3f62LE41jA7KGcOIZb5_GtT9F4SDhbB66Pw",
          "width": 640
        }
      ],
      "place_id": "ChIJzSzPBsD1wokRWPB2uOrSg0A",
      "plus_code": {
        "compound_code": "R33P+VW The Bronx, NY, USA",
        "global_code": "87G8R33P+VW"
      },
      "rating": 4.4,
      "reference": "ChIJzSzPBsD1wokRWPB2uOrSg0A",
      "scope": "GOOGLE",
      "types": [
        "park",
        "tourist_attraction",
        "point_of_interest",
        "establishment"
      ],
      "user_ratings_total": 10,
      "vicinity": "Bruckner Boulevard, East 138th Street, Jackson Avenue, The Bronx"
    },
    {
      "business_status": "OPERATIONAL",
      "geometry": {
        "location": {
          "lat": 40.8070808,
          "lng": -73.9156603
        },
        "viewport": {
          "northeast": {
            "lat": 40.8084398802915,
            "lng": -73.91446431970849
          },
          "southwest": {
            "lat": 40.8057419197085,
            "lng": -73.9171622802915
          }
        }
      },
      "icon": "https://maps.gstatic.com/mapfiles/place_api/icons/v1/png_71/generic_business-71.png",
      "icon_background_color": "#7B9EB0",
      "icon_mask_base_uri": "https://maps.gstatic.com/mapfiles/place_api/icons/v2/generic_pinlet",
      "name": "Norwax Associates Inc",
      "place_id": "ChIJycSzq8H1wokRnXX3PJea20g",
      "plus_code": {
        "compound_code": "R34M+RP The Bronx, NY, USA",
        "global_code": "87G8R34M+RP"
      },
      "rating": 5,
      "reference": "ChIJycSzq8H1wokRnXX3PJea20g",
      "scope": "GOOGLE",
      "types": [
        "point_of_interest",
        "establishment"
      ],
      "user_ratings_total": 1,
      "vicinity": "597 East 139th Street, The Bronx"
    },
    {
      "business_status": "OPERATIONAL",
      "geometry": {
        "location": {
          "lat": 40.8092078,
          "lng": -73.91468189999999
        },
        "viewport": {
          "northeast": {
            "lat": 40.81047288029149,
            "lng": -73.9133737697085
          },
          "southwest": {
            "lat": 40.80777491970849,
            "lng": -73.9160717302915
          }
        }
      },
      "icon": "https://maps.gstatic.com/mapfiles/place_api/icons/v1/png_71/generic_business-71.png",
      "icon_background_color": "#7B9EB0",
      "icon_mask_base_uri": "https://maps.gstatic.com/mapfiles/place_api/icons/v2/generic_pinlet",
      "name": "Beekman Houses",
      "place_id": "ChIJccUCzsD1wokRPswQJMEgxD0",
      "plus_code": {
        "compound_code": "R35P+M4 New York, NY, USA",
        "global_code": "87G8R35P+M4"
      },
      "rating": 2.8,
      "reference": "ChIJccUCzsD1wokRPswQJMEgxD0",
      "scope": "GOOGLE",
      "types": [
        "real_estate_agency",
        "point_of_interest",
        "establishment"
      ],
      "user_ratings_total": 4,
      "vicinity": "593 Oak Terrace, The Bronx"
    },
    {
      "business_status": "OPERATIONAL",
      "geometry": {
        "location": {
          "lat": 40.805169,
          "lng": -73.90890999999999
        },
        "viewport": {
          "northeast": {
            "lat": 40.8064028802915,
            "lng": -73.9076049697085
          },
          "southwest": {
            "lat": 40.8037049197085,
            "lng": -73.91030293029151
          }
        }
      },
      "icon": "https://maps.gstatic.com/mapfiles/place_api/icons/v1/png_71/generic_business-71.png",
      "icon_background_color": "#7B9EB0",
      "icon_mask_base_uri": "https://maps.gstatic.com/mapfiles/place_api/icons/v2/generic_pinlet",
      "name": "Pilgrim Oil Co Inc",
      "opening_hours": {
        "open_now": true
      },
      "photos": [
        {
          "height": 300,
          "html_attributions": [
            "<a href=\"https://maps.google.com/maps/contrib/115354505702698344038\">Pilgrim Oil Co Inc</a>"
          ],
          "photo_reference": "AeJbb3fDRwBkP7gIc2gzcT7cfOAhmYKWSh5WxgVLUwUlqaCBGMmW_osaQaIaZsj849C8FxOz84VaRhFDoZZ28gcDK3HApgoUBipREpq-PgNI3EDRk2b5Yka60sA64CIV94TJW90Q_lihhiVoNEiKet8vywPp-xCLm74GZlMg0fPatPEA4Qfb",
          "width": 400
        }
      ],
      "place_id": "ChIJ6QsUSr71wokRl4jcXlea7y4",
      "plus_code": {
        "compound_code": "R34R+3C The Bronx, NY, USA",
        "global_code": "87G8R34R+3C"
      },
      "reference": "ChIJ6QsUSr71wokRl4jcXlea7y4",
      "scope": "GOOGLE",
      "types": [
        "point_of_interest",
        "establishment"
      ],
      "vicinity": "817 East 140th Street, The Bronx"
    },
    {
      "business_status": "OPERATIONAL",
      "geometry": {
        "location": {
          "lat": 40.8071094,
          "lng": -73.9114116
        },
        "viewport": {
          "northeast": {
            "lat": 40.8084814802915,
            "lng": -73.91014181970849
          },
          "southwest": {
            "lat": 40.80578351970851,
            "lng": -73.91283978029149
          }
        }
      },
      "icon": "https://maps.gstatic.com/mapfiles/place_api/icons/v1/png_71/generic_business-71.png",
      "icon_background_color": "#7B9EB0",
      "icon_mask_base_uri": "https://maps.gstatic.com/mapfiles/place_api/icons/v2/generic_pinlet",
      "name": "JLC Printing & Graphics Inc.",
      "opening_hours": {
        "open_now": false
      },
      "photos": [
        {
          "height": 4032,
          "html_attributions": [
            "<a href=\"https://maps.google.com/maps/contrib/100602499985702144766\">JLC Printing &amp; Graphics Inc.</a>"
          ],
          "photo_reference": "AeJbb3cSUvWtj1ghGNTMT5w71etZfOPme4wmtaXdvDhj2Ajt-MBjlvyfAH5N2APr5QYIOF3vsgZ-18HjkMix4WIOc3dTgWfCaBXZUULfrcRHBBoNWvAYIVaZZ4rnFml0vUV3mpp2k5dxig7ZjMpzungO3WaRKn_qLY7NuLNSY_FDScQ5v-Sd",
          "width": 3024
        }
      ],
      "place_id": "ChIJUY9MIZj0wokR7n9O6hQo2tQ",
      "plus_code": {
        "compound_code": "R34Q+RC The Bronx, NY, USA",
        "global_code": "87G8R34Q+RC"
      },
      "rating": 4.8,
      "reference": "ChIJUY9MIZj0wokR7n9O6hQo2tQ",
      "scope": "GOOGLE",
      "types": [
        "store",
        "point_of_interest",
        "establishment"
      ],
      "user_ratings_total": 16,
      "vicinity": "322 Jackson Avenue, The Bronx"
    },
    {
      "business_status": "OPERATIONAL",
      "geometry": {
        "location": {
          "lat": 40.806334,
          "lng": -73.91163399999999
        },
        "viewport": {
          "northeast": {
            "lat": 40.8077286302915,
            "lng": -73.91044741970849
          },
          "southwest": {
            "lat": 40.8050306697085,
            "lng": -73.9131453802915
          }
        }
      },
      "icon": "https://maps.gstatic.com/mapfiles/place_api/icons/v1/png_71/generic_business-71.png",
      "icon_background_color": "#7B9EB0",
      "icon_mask_base_uri": "https://maps.gstatic.com/mapfiles/place_api/icons/v2/generic_pinlet",
      "name": "Velocity Moving And Storage",
      "opening_hours": {
        "open_now": true
      },
      "photos": [
        {
          "height": 852,
          "html_attributions": [
            "<a href=\"https://maps.google.com/maps/contrib/116241040990048464729\">Velocity Moving And Storage</a>"
          ],
          "photo_reference": "AeJbb3frXkvGbv0kq8GWb9uwqK6qJg8_Ejj6ZsKXcsB-3oXEAF25oCJeevtrNu37VPxPwWIyGMiWRpf5hkOVOpvXu7oiBOtHmRuo0nyJoPMGdooqa9-DAB8U1GUlm8sByc1bR71_ZJ86zivZPs5L6Nw_aG7OgLNyzflFgRiN6pZRQX5yX7Iy",
          "width": 640
        }
      ],
      "place_id": "ChIJD2W7et71wokRjxVp1pwhKgg",
      "plus_code": {
        "compound_code": "R34Q+G8 The Bronx, NY, USA",
        "global_code": "87G8R34Q+G8"
      },
      "rating": 4.6,
      "reference": "ChIJD2W7et71wokRjxVp1pwhKgg",
      "scope": "GOOGLE",
      "types": [
        "moving_company",
        "storage",
        "point_of_interest",
        "establishment"
      ],
      "user_ratings_total": 279,
      "vicinity": "300 Jackson Avenue, The Bronx"
    },
    {
      "business_status": "OPERATIONAL",
      "geometry": {
        "location": {
          "lat": 40.8078226,
          "lng": -73.91178839999999
        },
        "viewport": {
          "northeast": {
            "lat": 40.8092370302915,
            "lng": -73.91063561970849
          },
          "southwest": {
            "lat": 40.8065390697085,
            "lng": -73.91333358029149
          }
        }
      },
      "icon": "https://maps.gstatic.com/mapfiles/place_api/icons/v1/png_71/generic_business-71.png",
      "icon_background_color": "#7B9EB0",
      "icon_mask_base_uri": "https://maps.gstatic.com/mapfiles/place_api/icons/v2/generic_pinlet",
      "name": "New York City Homeless Shelter",
      "photos": [
        {
          "height": 3024,
          "html_attributions": [
            "<a href=\"https://maps.google.com/maps/contrib/104468711454720179311\">Mitzy Sales</a>"
          ],
          "photo_reference": "AeJbb3c5Akc-OiI76VkWv7xTVvvi8Er07MHmlTVoIG1NlAziZmEO3Ag1waPUWroSCrQUX4Ck25WpLxNdPTWPd2uGYM4GqLAQpYZt16OlP3s3nnxaTMvmjoKh2vM65wJffcyPFC42FagaXzbAC1DrbPCjQ0OnKjXzdi115F404xTMoCnf7fL1",
          "width": 4032
        }
      ],
      "place_id": "ChIJtzKUW7_1wokRfxd3BNicu_w",
      "plus_code": {
        "compound_code": "R35Q+47 New York, NY, USA",
        "global_code": "87G8R35Q+47"
      },
      "rating": 3.4,
      "reference": "ChIJtzKUW7_1wokRfxd3BNicu_w",
      "scope": "GOOGLE",
      "types": [
        "point_of_interest",
        "establishment"
      ],
      "user_ratings_total": 22,
      "vicinity": "346 Powers Avenue, The Bronx"
    },
    {
      "business_status": "OPERATIONAL",
      "geometry": {
        "location": {
          "lat": 40.8066344,
          "lng": -73.91013459999999
        },
        "viewport": {
          "northeast": {
            "lat": 40.8079272302915,
            "lng": -73.90881541970849
          },
          "southwest": {
            "lat": 40.8052292697085,
            "lng": -73.91151338029151
          }
        }
      },
      "icon": "https://maps.gstatic.com/mapfiles/place_api/icons/v1/png_71/civic_building-71.png",
      "icon_background_color": "#7B9EB0",
      "icon_mask_base_uri": "https://maps.gstatic.com/mapfiles/place_api/icons/v2/civic-bldg_pinlet",
      "name": "Bronx Tow Pound",
      "opening_hours": {
        "open_now": true
      },
      "photos": [
        {
          "height": 1920,
          "html_attributions": [
            "<a href=\"https://maps.google.com/maps/contrib/116158519777450071001\">jeison pe\u00f1a</a>"
          ],
          "photo_reference": "AeJbb3eHchRHkTAERr-UaehIdk62B9wLyue1mRMPSrU-BzbHG0iCjuBClhFcrkhY0Y5fP7R-oxw73FVfHEZ6bcQ5XN9b8iOGYhbJhYmfOgzM2890dH9rkbtFZYTh9w3NTfdpsWFXVqg_zzxGJGcPmXbFExwxhNSRUlNAX-v0Ik0tTry2dmU-",
          "width": 1080
        }
      ],
      "place_id": "ChIJS9G2Cb_1wokRreflgNKROmE",
      "plus_code": {
        "compound_code": "R34Q+MW New York, NY, USA",
        "global_code": "87G8R34Q+MW"
      },
      "rating": 2,
      "reference": "ChIJS9G2Cb_1wokRreflgNKROmE",
      "scope": "GOOGLE",
      "types": [
        "police",
        "point_of_interest",
        "establishment"
      ],
      "user_ratings_total": 54,
      "vicinity": "745 East 141st Street, The Bronx"
    },
    {
      "business_status": "OPERATIONAL",
      "geometry": {
        "location": {
          "lat": 40.8063474,
          "lng": -73.9137375
        },
        "viewport": {
          "northeast": {
            "lat": 40.8076243802915,
            "lng": -73.91248056970849
          },
          "southwest": {
            "lat": 40.8049264197085,
            "lng": -73.9151785302915
          }
        }
      },
      "icon": "https://maps.gstatic.com/mapfiles/place_api/icons/v1/png_71/generic_business-71.png",
      "icon_background_color": "#7B9EB0",
      "icon_mask_base_uri": "https://maps.gstatic.com/mapfiles/place_api/icons/v2/generic_pinlet",
      "name": "Creative Tech Computer, LLC",
      "place_id": "ChIJpY57XcD1wokRw6AKeH85E3c",
      "plus_code": {
        "compound_code": "R34P+GG New York, NY, USA",
        "global_code": "87G8R34P+GG"
      },
      "rating": 4,
      "reference": "ChIJpY57XcD1wokRw6AKeH85E3c",
      "scope": "GOOGLE",
      "types": [
        "point_of_interest",
        "establishment"
      ],
      "user_ratings_total": 1,
      "vicinity": "282 Cypress Avenue, The Bronx"
    },
    {
      "business_status": "OPERATIONAL",
      "geometry": {
        "location": {
          "lat": 40.8059453,
          "lng": -73.9140183
        },
        "viewport": {
          "northeast": {
            "lat": 40.8073354302915,
            "lng": -73.9127765697085
          },
          "southwest": {
            "lat": 40.8046374697085,
            "lng": -73.9154745302915
          }
        }
      },
      "icon": "https://maps.gstatic.com/mapfiles/place_api/icons/v1/png_71/restaurant-71.png",
      "icon_background_color": "#FF9E67",
      "icon_mask_base_uri": "https://maps.gstatic.com/mapfiles/place_api/icons/v2/restaurant_pinlet",
      "name": "Master Grill",
      "opening_hours": {
        "open_now": true
      },
      "photos": [
        {
          "height": 1932,
          "html_attributions": [
            "<a href=\"https://maps.google.com/maps/contrib/116077056916906671280\">Piry piry</a>"
          ],
          "photo_reference": "AeJbb3f244wPCVBsAYypigoag4YIDLx_Iy3Ati1ovwRywv6auzQ0bqb46vrcXMfWt23wp2el5Iw86fJ4vpKNO41dJlNVSjqgYh7XQlvcRFBCfe47nSyyW9Brg4yYbEPVb2tckcvEHyPIR3wYM-tnkcOpUQeWHwOmrFMjRu-GVS9L8Kjntx4b",
          "width": 2576
        }
      ],
      "place_id": "ChIJe_XSQcD1wokRwRQBY0HlIHg",
      "plus_code": {
        "compound_code": "R34P+99 New York, NY, USA",
        "global_code": "87G8R34P+99"
      },
      "price_level": 1,
      "rating": 4.2,
      "reference": "ChIJe_XSQcD1wokRwRQBY0HlIHg",
      "scope": "GOOGLE",
      "types": [
        "restaurant",
        "food",
        "point_of_interest",
        "establishment"
      ],
      "user_ratings_total": 104,
      "vicinity": "262 Cypress Avenue, The Bronx"
    },
    {
      "business_status": "OPERATIONAL",
      "geometry": {
        "location": {
          "lat": 40.805058,
          "lng": -73.9128357
        },
        "viewport": {
          "northeast": {
            "lat": 40.80637528029149,
            "lng": -73.91142591970849
          },
          "southwest": {
            "lat": 40.8036773197085,
            "lng": -73.91412388029151
          }
        }
      },
      "icon": "https://maps.gstatic.com/mapfiles/place_api/icons/v1/png_71/generic_business-71.png",
      "icon_background_color": "#7B9EB0",
      "icon_mask_base_uri": "https://maps.gstatic.com/mapfiles/place_api/icons/v2/generic_pinlet",
      "name": "MoneyGram",
      "opening_hours": {
        "open_now": true
      },
      "place_id": "ChIJW1fKCMD1wokRYBa8JCsGmv8",
      "plus_code": {
        "compound_code": "R34P+2V The Bronx, NY, USA",
        "global_code": "87G8R34P+2V"
      },
      "rating": 3,
      "reference": "ChIJW1fKCMD1wokRYBa8JCsGmv8",
      "scope": "GOOGLE",
      "types": [
        "finance",
        "point_of_interest",
        "establishment"
      ],
      "user_ratings_total": 3,
      "vicinity": "715 East 138th Street, The Bronx"
    },
    {
      "business_status": "OPERATIONAL",
      "geometry": {
        "location": {
          "lat": 40.80823119999999,
          "lng": -73.9098425
        },
        "viewport": {
          "northeast": {
            "lat": 40.80958218029151,
            "lng": -73.90856211970849
          },
          "southwest": {
            "lat": 40.80688421970851,
            "lng": -73.9112600802915
          }
        }
      },
      "icon": "https://maps.gstatic.com/mapfiles/place_api/icons/v1/png_71/generic_business-71.png",
      "icon_background_color": "#7B9EB0",
      "icon_mask_base_uri": "https://maps.gstatic.com/mapfiles/place_api/icons/v2/generic_pinlet",
      "name": "G&G Electric Supply Warehouse",
      "opening_hours": {
        "open_now": false
      },
      "photos": [
        {
          "height": 339,
          "html_attributions": [
            "<a href=\"https://maps.google.com/maps/contrib/101843686380137761284\">G&amp;G Electric Supply Warehouse</a>"
          ],
          "photo_reference": "AeJbb3f7V2CUCjOn8nMeeUOAE03lZM4fPKo_6YprL9Ls4z2WCJu_vGzVgglW1NuCmokMuv5FAHTtA4jtyHBfgsPodMhZPDL_K4cciSYbHDBzTqg1Gztw05NMo7MgLyq04DxXyvJerbZV_W1wLUw6r9Yy6YaaWcyFY3gHLFe7QpW02g0OrqVB",
          "width": 300
        }
      ],
      "place_id": "ChIJhw5qKb_1wokRB9AKlXWDc3c",
      "plus_code": {
        "compound_code": "R35R+73 The Bronx, NY, USA",
        "global_code": "87G8R35R+73"
      },
      "rating": 4.7,
      "reference": "ChIJhw5qKb_1wokRB9AKlXWDc3c",
      "scope": "GOOGLE",
      "types": [
        "storage",
        "point_of_interest",
        "establishment"
      ],
      "user_ratings_total": 12,
      "vicinity": "382 Concord Avenue, The Bronx"
    },
    {
      "business_status": "OPERATIONAL",
      "geometry": {
        "location": {
          "lat": 40.807323,
          "lng": -73.90833649999999
        },
        "viewport": {
          "northeast": {
            "lat": 40.8086549302915,
            "lng": -73.90690486970848
          },
          "southwest": {
            "lat": 40.8059569697085,
            "lng": -73.90960283029149
          }
        }
      },
      "icon": "https://maps.gstatic.com/mapfiles/place_api/icons/v1/png_71/restaurant-71.png",
      "icon_background_color": "#FF9E67",
      "icon_mask_base_uri": "https://maps.gstatic.com/mapfiles/place_api/icons/v2/restaurant_pinlet",
      "name": "El Don Pichon",
      "opening_hours": {
        "open_now": true
      },
      "photos": [
        {
          "height": 3036,
          "html_attributions": [
            "<a href=\"https://maps.google.com/maps/contrib/108984196215773694455\">ARcinder</a>"
          ],
          "photo_reference": "AeJbb3cbjnUCW4wiI9Zvqfcah-mEY1Lud4t__ziUYOdpydX2rS-kdazSp9YPwUav2peK4mfh0Lyv_ICaDj3juBbzZeCFpolxZzDNYd_10JTzbuEpPL6V_7tklSJnDlsELyT1uHcRcoz7Ogr3fweK-cjBa7Tw3siZkFEoQt-GCxWHrHcLWXpc",
          "width": 4048
        }
      ],
      "place_id": "ChIJ4yKg6r71wokRM8xFl6Fkdmk",
      "plus_code": {
        "compound_code": "R34R+WM The Bronx, NY, USA",
        "global_code": "87G8R34R+WM"
      },
      "price_level": 1,
      "rating": 4,
      "reference": "ChIJ4yKg6r71wokRM8xFl6Fkdmk",
      "scope": "GOOGLE",
      "types": [
        "restaurant",
        "food",
        "point_of_interest",
        "establishment"
      ],
      "user_ratings_total": 90,
      "vicinity": "359 Southern Boulevard, The Bronx"
    },
    {
      "business_status": "OPERATIONAL",
      "geometry": {
        "location": {
          "lat": 40.80783,
          "lng": -73.914473
        },
        "viewport": {
          "northeast": {
            "lat": 40.8092700802915,
            "lng": -73.91305651970849
          },
          "southwest": {
            "lat": 40.8065721197085,
            "lng": -73.9157544802915
          }
        }
      },
      "icon": "https://maps.gstatic.com/mapfiles/place_api/icons/v1/png_71/worship_general-71.png",
      "icon_background_color": "#7B9EB0",
      "icon_mask_base_uri": "https://maps.gstatic.com/mapfiles/place_api/icons/v2/worship_christian_pinlet",
      "name": "Iglesia Espiritu De Hermandad Bx",
      "opening_hours": {
        "open_now": false
      },
      "photos": [
        {
          "height": 1532,
          "html_attributions": [
            "<a href=\"https://maps.google.com/maps/contrib/100509403231005495359\">Iglesia Espiritu De Hermandad Bx</a>"
          ],
          "photo_reference": "AeJbb3d9slrJ60V0pClBQLIiwif_8KRrus3K8kOqnD4RM11n7HKCCkUENzrUf-2CezbaZ0iXeRR6k32L0pmXTM_QFNyzkHAYvKsWpm3SZsjBoJiwRBCB2xhdgH4jYS9OLwLvhvpUk3aMMPPMOn22EWDy9vLX7tLLWUenV1H9pBczUhNd9RWe",
          "width": 2052
        }
      ],
      "place_id": "ChIJeWLzl7n1wokRkoh1nWK4oXg",
      "plus_code": {
        "compound_code": "R35P+46 The Bronx, NY, USA",
        "global_code": "87G8R35P+46"
      },
      "rating": 4.5,
      "reference": "ChIJeWLzl7n1wokRkoh1nWK4oXg",
      "scope": "GOOGLE",
      "types": [
        "church",
        "place_of_worship",
        "point_of_interest",
        "establishment"
      ],
      "user_ratings_total": 2,
      "vicinity": "606-612 East 141st Street, The Bronx"
    },
    {
      "business_status": "OPERATIONAL",
      "geometry": {
        "location": {
          "lat": 40.80884769999999,
          "lng": -73.9105068
        },
        "viewport": {
          "northeast": {
            "lat": 40.8101548802915,
            "lng": -73.90917301970849
          },
          "southwest": {
            "lat": 40.8074569197085,
            "lng": -73.91187098029151
          }
        }
      },
      "icon": "https://maps.gstatic.com/mapfiles/place_api/icons/v1/png_71/generic_business-71.png",
      "icon_background_color": "#7B9EB0",
      "icon_mask_base_uri": "https://maps.gstatic.com/mapfiles/place_api/icons/v2/generic_pinlet",
      "name": "ATM USA",
      "place_id": "ChIJq7-2Mr_1wokRcSnZstaTzks",
      "plus_code": {
        "compound_code": "R35Q+GQ New York, NY, USA",
        "global_code": "87G8R35Q+GQ"
      },
      "reference": "ChIJq7-2Mr_1wokRcSnZstaTzks",
      "scope": "GOOGLE",
      "types": [
        "atm",
        "finance",
        "point_of_interest",
        "establishment"
      ],
      "vicinity": "390 Jackson Avenue, The Bronx"
    },
    {
      "business_status": "OPERATIONAL",
      "geometry": {
        "location": {
          "lat": 40.8047963,
          "lng": -73.9131828
        },
        "viewport": {
          "northeast": {
            "lat": 40.80622718029149,
            "lng": -73.91178151970848
          },
          "southwest": {
            "lat": 40.80352921970849,
            "lng": -73.9144794802915
          }
        }
      },
      "icon": "https://maps.gstatic.com/mapfiles/place_api/icons/v1/png_71/shopping-71.png",
      "icon_background_color": "#4B96F3",
      "icon_mask_base_uri": "https://maps.gstatic.com/mapfiles/place_api/icons/v2/shopping_pinlet",
      "name": "Metro by T-Mobile",
      "opening_hours": {
        "open_now": true
      },
      "photos": [
        {
          "height": 4032,
          "html_attributions": [
            "<a href=\"https://maps.google.com/maps/contrib/110940832572974417747\">Michael Richardson</a>"
          ],
          "photo_reference": "AeJbb3djKIffFBd7U6_d8RTN2odNiTKlzrBhLiYCFKu6kfnPOl44EUwYdY6Z1jBRFwsHSJHACgDyH4sKbJ6wAHLT53BfMEzK4OjiZJar0jZ5ZdG6k9JROXhc6GOZe0FNACf08z61T4dkPOUhIlUMBPCNA6jQ9Z7jiBe_ALpIpYeDPGPy8rM1",
          "width": 3024
        }
      ],
      "place_id": "ChIJ-0rRBMD1wokRtZNdSgXpoFs",
      "plus_code": {
        "compound_code": "R33P+WP New York, NY, USA",
        "global_code": "87G8R33P+WP"
      },
      "price_level": 1,
      "rating": 4.1,
      "reference": "ChIJ-0rRBMD1wokRtZNdSgXpoFs",
      "scope": "GOOGLE",
      "types": [
        "electronics_store",
        "store",
        "point_of_interest",
        "establishment"
      ],
      "user_ratings_total": 11,
      "vicinity": "708 East 138th Street, The Bronx"
    },
    {
      "business_status": "OPERATIONAL",
      "geometry": {
        "location": {
          "lat": 40.8083093,
          "lng": -73.91433839999999
        },
        "viewport": {
          "northeast": {
            "lat": 40.8096327802915,
            "lng": -73.91291616970848
          },
          "southwest": {
            "lat": 40.8069348197085,
            "lng": -73.91561413029149
          }
        }
      },
      "icon": "https://maps.gstatic.com/mapfiles/place_api/icons/v1/png_71/generic_business-71.png",
      "icon_background_color": "#7B9EB0",
      "icon_mask_base_uri": "https://maps.gstatic.com/mapfiles/place_api/icons/v2/generic_pinlet",
      "name": "A House on Beekman - Office Space",
      "opening_hours": {
        "open_now": false
      },
      "place_id": "ChIJkb_-wcD1wokR4yo8YSqAqxs",
      "plus_code": {
        "compound_code": "R35P+87 The Bronx, NY, USA",
        "global_code": "87G8R35P+87"
      },
      "reference": "ChIJkb_-wcD1wokR4yo8YSqAqxs",
      "scope": "GOOGLE",
      "types": [
        "point_of_interest",
        "establishment"
      ],
      "vicinity": "321 Beekman Avenue # 2, The Bronx"
    }
  ],
  "status": "OK"
}