{
  "html_attributions": [],
  "results": [
    {
      "geometry": {
        "location": {
          "lat": 40.7127753,
          "lng": -74.0059728
        },
        "viewport": {
          "northeast": {
            "lat": 40.91757705070789,
            "lng": -73.70027206817629
          },
          "southwest": {
            "lat": 40.47739906045452,
            "lng": -74.25908991427882
          }
        }
      },
      "icon": "https://maps.gstatic.com/mapfiles/place_api/icons/v1/png_71/geocode-71.png",
      "icon_background_color": "#7B9EB0",
      "icon_mask_base_uri": "https://maps.gstatic.com/mapfiles/place_api/icons/v2/generic_pinlet",
      "name": "\u7d10\u7d04",
      "photos": [
        {
          "height": 600,
          "html_attributions": [
            "<a href=\"https://maps.google.com/maps/contrib/102389334567210814614\">Bukurie</a>"
          ],
          "photo_reference": "AeJbb3enGJv83AlSDl00EwC0Cf1edriOf-4ZzqEdqd87LgERgt7bwc2Yat50no3-_LjIV7ZFAr6NsUwr06DyvXPK70FYlHWEGf24vEQlcti6Em7gtF0B49mTpH9wzP1cI1nuCDAfx4Xx05BHvvSKjmE7slzXSs_ST_DK9cuZ38oPpdwKRgX3",
          "width": 480
        }
      ],
      "place_id": "ChIJOwg_06VPwokRYv534QaPC8g",
      "reference": "ChIJOwg_06VPwokRYv534QaPC8g",
      "scope": "GOOGLE",
      "types": [
        "locality",
        "political"
      ],
      "vicinity": "\u7d10\u7d04"
    },
    {
      "business_status": "OPERATIONAL",
      "geometry": {
        "location": {
          "lat": 40.81508669999999,
          "lng": -73.9159466
        },
        "viewport": {
          "northeast": {
            "lat": 40.81654338029149,
            "lng": -73.91453916970849
          },
          "southwest": {
            "lat": 40.81384541970849,
            "lng": -73.9172371302915
          }
        }
      },
      "icon": "https://maps.gstatic.com/mapfiles/place_api/icons/v1/png_71/lodging-71.png",
      "icon_background_color": "#909CE1",
      "icon_mask_base_uri": "https://maps.gstatic.com/mapfiles/place_api/icons/v2/hotel_pinlet",
      "name": "Opera House Hotel",
      "opening_hours": {
        "open_now": true
      },
      "photos": [
        {
          "height": 1641,
          "html_attributions": [
            "<a href=\"https://maps.google.com/maps/contrib/105720796121692198439\">Opera House Hotel</a>"
          ],
          "photo_reference": "AeJbb3dzRn5hfu2BkKpjfnE7cY8UbGhIrLQoGEfOy2PWiQ1WHVGB0o_CbClyGk_WlSHUh-gmFe6SDx6IJ5-5Iu4-Opo65NZnDUyVF695QKghmH3JqeYvfccwCWT_xfVpKEGreAV20OW8Ur2-LR-YcBNPJbxEkbBux83Xb5w56xAdWjc9tQFX",
          "width": 2048
        }
      ],
      "place_id": "ChIJCWzLnMj1wokR5ciYSnXHmmw",
      "plus_code": {
        "compound_code": "R38M+2J \u7f8e\u570b\u7d10\u7d04",
        "global_code": "87G8R38M+2J"
      },
      "rating": 4.5,
      "reference": "ChIJCWzLnMj1wokR5ciYSnXHmmw",
      "scope": "GOOGLE",
      "types": [
        "lodging",
        "point_of_interest",
        "establishment"
      ],
      "user_ratings_total": 1012,
      "vicinity": "436 East 149th Street"
    },
    {
      "business_status": "OPERATIONAL",
      "geometry": {
        "location": {
          "lat": 40.8138277,
          "lng": -73.9189434
        },
        "viewport": {
          "northeast": {
            "lat": 40.8152840802915,
            "lng": -73.9176251697085
          },
          "southwest": {
            "lat": 40.8125861197085,
            "lng": -73.92032313029151
          }
        }
      },
      "icon": "https://maps.gstatic.com/mapfiles/place_api/icons/v1/png_71/generic_business-71.png",
      "icon_background_color": "#7B9EB0",
      "icon_mask_base_uri": "https://maps.gstatic.com/mapfiles/place_api/icons/v2/generic_pinlet",
      "name": "Dennelisse Corporation",
      "place_id": "ChIJjWSlPc_1wokRFZF6hEqf3JE",
      "plus_code": {
        "compound_code": "R37J+GC \u7f8e\u570b\u7d10\u7d04",
        "global_code": "87G8R37J+GC"
      },
      "rating": 3.8,
      "reference": "ChIJjWSlPc_1wokRFZF6hEqf3JE",
      "scope": "GOOGLE",
      "types": [
        "point_of_interest",
        "establishment"
      ],
      "user_ratings_total": 4,
      "vicinity": "460 Willis Avenue, The Bronx"
    },
    {
      "business_status": "OPERATIONAL",
      "geometry": {
        "location": {
          "lat": 40.8164223,
          "lng": -73.91812039999999
        },
        "viewport": {
          "northeast": {
            "lat": 40.8176934802915,
            "lng": -73.9168060697085
          },
          "southwest": {
            "lat": 40.8149955197085,
            "lng": -73.9195040302915
          }
        }
      },
      "icon": "https://maps.gstatic.com/mapfiles/place_api/icons/v1/png_71/civic_building-71.png",
      "icon_background_color": "#7B9EB0",
      "icon_mask_base_uri": "https://maps.gstatic.com/mapfiles/place_api/icons/v2/civic-bldg_pinlet",
      "name": "Towne Nursing",
      "opening_hours": {
        "open_now": false
      },
      "photos": [
        {
          "height": 569,
          "html_attributions": [
            "<a href=\"https://maps.google.com/maps/contrib/105075404412303469049\">Towne Nursing</a>"
          ],
          "photo_reference": "AeJbb3dPBdLfAqlGtiUuB0vhXXGAu8kVVahp3rjRh4FhauzMG2s4LBZWcvk5zAc_9GNgzCCgV00e9npf5RvVkzeJML-EGTv9-gpLZwlKo0R4qnJxQ-SkzGHnh2KE4exfxdDyc8XhXjuSFp-huMUdhHB1lnp1nCQ4apW_o60Yyce5IRN2opgd",
          "width": 1012
        }
      ],
      "place_id": "ChIJSVP6mLv0wokRrZA3x3cADfU",
      "plus_code": {
        "compound_code": "R38J+HQ \u7f8e\u570b\u7d10\u7d04\u5e03\u6717\u514b\u65af",
        "global_code": "87G8R38J+HQ"
      },
      "rating": 1.7,
      "reference": "ChIJSVP6mLv0wokRrZA3x3cADfU",
      "scope": "GOOGLE",
      "types": [
        "health",
        "point_of_interest",
        "establishment"
      ],
      "user_ratings_total": 15,
      "vicinity": "391 East 149th Street 2nd Floor Suite 219, The Bronx"
    },
    {
      "business_status": "OPERATIONAL",
      "geometry": {
        "location": {
          "lat": 40.8168717,
          "lng": -73.9196959
        },
        "viewport": {
          "northeast": {
            "lat": 40.81816138029151,
            "lng": -73.91821776970849
          },
          "southwest": {
            "lat": 40.81546341970851,
            "lng": -73.9209157302915
          }
        }
      },
      "icon": "https://maps.gstatic.com/mapfiles/place_api/icons/v1/png_71/generic_business-71.png",
      "icon_background_color": "#7B9EB0",
      "icon_mask_base_uri": "https://maps.gstatic.com/mapfiles/place_api/icons/v2/generic_pinlet",
      "name": "Volunteers-Amer Aids Scattered",
      "place_id": "ChIJjWSlPc_1wokRJl12SMCa2O4",
      "plus_code": {
        "compound_code": "R38J+P4 \u7f8e\u570b\u7d10\u7d04\u5e03\u6717\u514b\u65af",
        "global_code": "87G8R38J+P4"
      },
      "rating": 4.5,
      "reference": "ChIJjWSlPc_1wokRJl12SMCa2O4",
      "scope": "GOOGLE",
      "types": [
        "point_of_interest",
        "establishment"
      ],
      "user_ratings_total": 2,
      "vicinity": "349 East 149th Street #706, The Bronx"
    },
    {
      "business_status": "OPERATIONAL",
      "geometry": {
        "location": {
          "lat": 40.8172124,
          "lng": -73.91568029999999
        },
        "viewport": {
          "northeast": {
            "lat": 40.8186071802915,
            "lng": -73.9144368697085
          },
          "southwest": {
            "lat": 40.81590921970851,
            "lng": -73.9171348302915
          }
        }
      },
      "icon": "https://maps.gstatic.com/mapfiles/place_api/icons/v1/png_71/generic_business-71.png",
      "icon_background_color": "#7B9EB0",
      "icon_mask_base_uri": "https://maps.gstatic.com/mapfiles/place_api/icons/v2/generic_pinlet",
      "name": "Planet Fitness",
      "opening_hours": {
        "open_now": true
      },
      "photos": [
        {
          "height": 3840,
          "html_attributions": [
            "<a href=\"https://maps.google.com/maps/contrib/107276894677539523336\">Planet Fitness</a>"
          ],
          "photo_reference": "AeJbb3dgIlZ5U4xKKFL4cqhluMMrHqVE3YX7lrvaQjNauATQQxnqMNmDpnhl_u6PsazlkXODDsSiciPUE91y90VaExtUSKsIO7ae_5sGUx6R5fILJedYCoQXuUeAmY34tZJ8s1hncqZWYMancCNhBz7-HAudHfHmgDuoTbFRJOhfEzmdprFe",
          "width": 5760
        }
      ],
      "place_id": "ChIJlwP8_8j1wokRWGMfkDu-ILs",
      "plus_code": {
        "compound_code": "R38M+VP \u7f8e\u570b\u7d10\u7d04",
        "global_code": "87G8R38M+VP"
      },
      "rating": 4.1,
      "reference": "ChIJlwP8_8j1wokRWGMfkDu-ILs",
      "scope": "GOOGLE",
      "types": [
        "gym",
        "health",
        "point_of_interest",
        "establishment"
      ],
      "user_ratings_total": 703,
      "vicinity": "2914 3rd Avenue, New York"
    },
    {
      "business_status": "OPERATIONAL",
      "geometry": {
        "location": {
          "lat": 40.8168149,
          "lng": -73.9198787
        },
        "viewport": {
          "northeast": {
            "lat": 40.8181119302915,
            "lng": -73.91855321970849
          },
          "southwest": {
            "lat": 40.8154139697085,
            "lng": -73.92125118029149
          }
        }
      },
      "icon": "https://maps.gstatic.com/mapfiles/place_api/icons/v1/png_71/generic_business-71.png",
      "icon_background_color": "#7B9EB0",
      "icon_mask_base_uri": "https://maps.gstatic.com/mapfiles/place_api/icons/v2/generic_pinlet",
      "name": "Newmark Frank",
      "place_id": "ChIJjWSlPc_1wokR6KNIzPZbZFU",
      "plus_code": {
        "compound_code": "R38J+P2 \u7f8e\u570b\u7d10\u7d04",
        "global_code": "87G8R38J+P2"
      },
      "reference": "ChIJjWSlPc_1wokR6KNIzPZbZFU",
      "scope": "GOOGLE",
      "types": [
        "real_estate_agency",
        "point_of_interest",
        "establishment"
      ],
      "vicinity": "349 East 149th Street, The Bronx"
    },
    {
      "business_status": "OPERATIONAL",
      "geometry": {
        "location": {
          "lat": 40.816689,
          "lng": -73.916236
        },
        "viewport": {
          "northeast": {
            "lat": 40.8181238302915,
            "lng": -73.91497461970849
          },
          "southwest": {
            "lat": 40.8154258697085,
            "lng": -73.91767258029151
          }
        }
      },
      "icon": "https://maps.gstatic.com/mapfiles/place_api/icons/v1/png_71/shopping-71.png",
      "icon_background_color": "#4B96F3",
      "icon_mask_base_uri": "https://maps.gstatic.com/mapfiles/place_api/icons/v2/shopping_pinlet",
      "name": "AT&T Store",
      "opening_hours": {
        "open_now": true
      },
      "photos": [
        {
          "height": 480,
          "html_attributions": [
            "<a href=\"https://maps.google.com/maps/contrib/104199379397601514922\">AT&amp;T Store</a>"
          ],
          "photo_reference": "AeJbb3e0cyvf2qGWEJ4fSf8bZhdzqCSukpsiPFwa9ntu2RU9a47WtHLlaYn2P_4T-KRxEvyA4jBB4l6_S6GkI50Caboi57CqD4iFK2Pup6WcdiHTs5u3dtEQBEXAZm6-_Jx4AiDDvgAKc_IFf6OgGnrkwzj9B3j3Tl74D8duweQ1ISSF4v0",
          "width": 640
        }
      ],
      "place_id": "ChIJPet55sj1wokRgYVBIOTIAY4",
      "plus_code": {
        "compound_code": "R38M+MG \u7f8e\u570b\u7d10\u7d04",
        "global_code": "87G8R38M+MG"
      },
      "price_level": 2,
      "rating": 4.1,
      "reference": "ChIJPet55sj1wokRgYVBIOTIAY4",
      "scope": "GOOGLE",
      "types": [
        "store",
        "point_of_interest",
        "establishment"
      ],
      "user_ratings_total": 131,
      "vicinity": "2882C 3rd Avenue, New York"
    },
    {
      "business_status": "OPERATIONAL",
      "geometry": {
        "location": {
          "lat": 40.81686189999999,
          "lng": -73.9196783
        },
        "viewport": {
          "northeast": {
            "lat": 40.81815648029149,
            "lng": -73.9182100197085
          },
          "southwest": {
            "lat": 40.8154585197085,
            "lng": -73.92090798029152
          }
        }
      },
      "icon": "https://maps.gstatic.com/mapfiles/place_api/icons/v1/png_71/hospital-71.png",
      "icon_background_color": "#F88181",
      "icon_mask_base_uri": "https://maps.gstatic.com/mapfiles/place_api/icons/v2/hospital-H_pinlet",
      "name": "Planned Parenthood - The Bronx Center",
      "opening_hours": {
        "open_now": false
      },
      "place_id": "ChIJjWSlPc_1wokRsYwioThBIEc",
      "plus_code": {
        "compound_code": "R38J+P4 \u7f8e\u570b\u7d10\u7d04",
        "global_code": "87G8R38J+P4"
      },
      "rating": 3.5,
      "reference": "ChIJjWSlPc_1wokRsYwioThBIEc",
      "scope": "GOOGLE",
      "types": [
        "hospital",
        "health",
        "point_of_interest",
        "establishment"
      ],
      "user_ratings_total": 55,
      "vicinity": "next to Citibank, 349 E 149th Street, 2nd Avenue 2nd Floor"
    },
    {
      "business_status": "OPERATIONAL",
      "geometry": {
        "location": {
          "lat": 40.8168618,
          "lng": -73.9197154
        },
        "viewport": {
          "northeast": {
            "lat": 40.8181189302915,
            "lng": -73.9184080197085
          },
          "southwest": {
            "lat": 40.81542096970851,
            "lng": -73.9211059802915
          }
        }
      },
      "icon": "https://maps.gstatic.com/mapfiles/place_api/icons/v1/png_71/generic_business-71.png",
      "icon_background_color": "#7B9EB0",
      "icon_mask_base_uri": "https://maps.gstatic.com/mapfiles/place_api/icons/v2/generic_pinlet",
      "name": "Cardinal McCloskey Children",
      "place_id": "ChIJjWSlPc_1wokRZDmSlT8ZaVQ",
      "plus_code": {
        "compound_code": "R38J+P4 \u7f8e\u570b\u7d10\u7d04",
        "global_code": "87G8R38J+P4"
      },
      "rating": 1.6,
      "reference": "ChIJjWSlPc_1wokRZDmSlT8ZaVQ",
      "scope": "GOOGLE",
      "types": [
        "point_of_interest",
        "establishment"
      ],
      "user_ratings_total": 12,
      "vicinity": "349 East 149th Street, The Bronx"
    },
    {
      "business_status": "OPERATIONAL",
      "geometry": {
        "location": {
          "lat": 40.8189146,
          "lng": -73.92001309999999
        },
        "viewport": {
          "northeast": {
            "lat": 40.82033393029149,
            "lng": -73.91859786970849
          },
          "southwest": {
            "lat": 40.8176359697085,
            "lng": -73.9212958302915
          }
        }
      },
      "icon": "https://maps.gstatic.com/mapfiles/place_api/icons/v1/png_71/school-71.png",
      "icon_background_color": "#7B9EB0",
      "icon_mask_base_uri": "https://maps.gstatic.com/mapfiles/place_api/icons/v2/school_pinlet",
      "name": "Alfred E. Smith Career and Technical Education High School",
      "opening_hours": {
        "open_now": false
      },
      "place_id": "ChIJGViW6M71wokRCyxHYGVJ09g",
      "plus_code": {
        "compound_code": "R39H+HX \u7f8e\u570b\u7d10\u7d04",
        "global_code": "87G8R39H+HX"
      },
      "rating": 4.3,
      "reference": "ChIJGViW6M71wokRCyxHYGVJ09g",
      "scope": "GOOGLE",
      "types": [
        "secondary_school",
        "school",
        "point_of_interest",
        "establishment"
      ],
      "user_ratings_total": 22,
      "vicinity": "333 East 151st Street, The Bronx"
    },
    {
      "business_status": "OPERATIONAL",
      "geometry": {
        "location": {
          "lat": 40.81444090000001,
          "lng": -73.91933829999999
        },
        "viewport": {
          "northeast": {
            "lat": 40.81573493029151,
            "lng": -73.91784951970848
          },
          "southwest": {
            "lat": 40.81303696970851,
            "lng": -73.9205474802915
          }
        }
      },
      "icon": "https://maps.gstatic.com/mapfiles/place_api/icons/v1/png_71/restaurant-71.png",
      "icon_background_color": "#FF9E67",
      "icon_mask_base_uri": "https://maps.gstatic.com/mapfiles/place_api/icons/v2/restaurant_pinlet",
      "name": "Papa John's Pizza",
      "opening_hours": {
        "open_now": true
      },
      "photos": [
        {
          "height": 2988,
          "html_attributions": [
            "<a href=\"https://maps.google.com/maps/contrib/105123153766062428893\">Jose Miranda</a>"
          ],
          "photo_reference": "AeJbb3et0iboyjhGcYBAs4ByUnpI7lXQiOoahUpUhy8ML6NdJVzP57QMFt_cWRQfaCUE-sM1EKg4J44eJyJgVHB1DD_hGYgvh5aJH5FmlLZcXZ7GZEmbRm6X4FNMAwBXNh8Z-T6Rp_5fLPAa9omX39rWkZ0QBea-hDaysYlDaeOikdxqxtKM",
          "width": 5312
        }
      ],
      "place_id": "ChIJqVNp7sX1wokR8fqArldlt4I",
      "plus_code": {
        "compound_code": "R37J+Q7 \u7f8e\u570b\u7d10\u7d04\u5e03\u6717\u514b\u65af",
        "global_code": "87G8R37J+Q7"
      },
      "price_level": 1,
      "rating": 3.2,
      "reference": "ChIJqVNp7sX1wokR8fqArldlt4I",
      "scope": "GOOGLE",
      "types": [
        "restaurant",
        "food",
        "point_of_interest",
        "establishment"
      ],
      "user_ratings_total": 267,
      "vicinity": "475 Willis Avenue, The Bronx"
    },
    {
      "business_status": "OPERATIONAL",
      "geometry": {
        "location": {
          "lat": 40.8160342,
          "lng": -73.9184523
        },
        "viewport": {
          "northeast": {
            "lat": 40.8174748802915,
            "lng": -73.91706241970851
          },
          "southwest": {
            "lat": 40.8147769197085,
            "lng": -73.91976038029152
          }
        }
      },
      "icon": "https://maps.gstatic.com/mapfiles/place_api/icons/v1/png_71/generic_business-71.png",
      "icon_background_color": "#7B9EB0",
      "icon_mask_base_uri": "https://maps.gstatic.com/mapfiles/place_api/icons/v2/generic_pinlet",
      "name": "Bankers Conseco Life Insurance Company",
      "opening_hours": {
        "open_now": false
      },
      "photos": [
        {
          "height": 1080,
          "html_attributions": [
            "<a href=\"https://maps.google.com/maps/contrib/114601982468046597966\">ekra victor Boouazaud</a>"
          ],
          "photo_reference": "AeJbb3dsjbehvfViFtvpDJj0TOLRYGGe8DaXThM8_5M_J1zXExNmiVcg-dxonIK_Ku2m7uj75MkSGBsbUBY8TphziAfAtcYMkosT3G4pWGEeWYev_RnETaCS96he4z97gJRsbWzUaSYq9sNHrCRkIwuEXq0UdWqryEv3wHr-vyRqi2ETtRc",
          "width": 1920
        }
      ],
      "place_id": "ChIJWZhR8ZCWwokR6Pd08IpU268",
      "plus_code": {
        "compound_code": "R38J+CJ \u7f8e\u570b\u7d10\u7d04",
        "global_code": "87G8R38J+CJ"
      },
      "rating": 4.5,
      "reference": "ChIJWZhR8ZCWwokR6Pd08IpU268",
      "scope": "GOOGLE",
      "types": [
        "insurance_agency",
        "finance",
        "health",
        "point_of_interest",
        "establishment"
      ],
      "user_ratings_total": 45,
      "vicinity": "384 East 149th Street Ste 204, The Bronx"
    },
    {
      "business_status": "CLOSED_TEMPORARILY",
      "geometry": {
        "location": {
          "lat": 40.8168717,
          "lng": -73.9196959
        },
        "viewport": {
          "northeast": {
            "lat": 40.81816138029151,
            "lng": -73.91821776970849
          },
          "southwest": {
            "lat": 40.81546341970851,
            "lng": -73.9209157302915
          }
        }
      },
      "icon": "https://maps.gstatic.com/mapfiles/place_api/icons/v1/png_71/generic_business-71.png",
      "icon_background_color": "#7B9EB0",
      "icon_mask_base_uri": "https://maps.gstatic.com/mapfiles/place_api/icons/v2/generic_pinlet",
      "name": "Bloomfield ESQ",
      "permanently_closed": true,
      "place_id": "ChIJjWSlPc_1wokRFS1i7F6epRI",
      "plus_code": {
        "compound_code": "R38J+P4 \u7f8e\u570b\u7d10\u7d04\u5e03\u6717\u514b\u65af",
        "global_code": "87G8R38J+P4"
      },
      "reference": "ChIJjWSlPc_1wokRFS1i7F6epRI",
      "scope": "GOOGLE",
      "types": [
        "lawyer",
        "point_of_interest",
        "establishment"
      ],
      "vicinity": "349 East 149th Street, The Bronx"
    },
    {
      "business_status": "CLOSED_TEMPORARILY",
      "geometry": {
        "location": {
          "lat": 40.8168717,
          "lng": -73.9196959
        },
        "viewport": {
          "northeast": {
            "lat": 40.81816138029151,
            "lng": -73.91821776970849
          },
          "southwest": {
            "lat": 40.81546341970851,
            "lng": -73.9209157302915
          }
        }
      },
      "icon": "https://maps.gstatic.com/mapfiles/place_api/icons/v1/png_71/generic_business-71.png",
      "icon_background_color": "#7B9EB0",
      "icon_mask_base_uri": "https://maps.gstatic.com/mapfiles/place_api/icons/v2/generic_pinlet",
      "name": "Serra Wesley",
      "permanently_closed": true,
      "place_id": "ChIJjWSlPc_1wokR6AkDdUcfoM8",
      "plus_code": {
        "compound_code": "R38J+P4 \u7f8e\u570b\u7d10\u7d04\u5e03\u6717\u514b\u65af",
        "global_code": "87G8R38J+P4"
      },
      "reference": "ChIJjWSlPc_1wokR6AkDdUcfoM8",
      "scope": "GOOGLE",
      "types": [
        "lawyer",
        "point_of_interest",
        "establishment"
      ],
      "vicinity": "349 East 149th Street #7, The Bronx"
    },
    {
      "business_status": "OPERATIONAL",
      "geometry": {
        "location": {
          "lat": 40.8160555,
          "lng": -73.91859579999999
        },
        "viewport": {
          "northeast": {
            "lat": 40.8175030802915,
            "lng": -73.91720281970849
          },
          "southwest": {
            "lat": 40.8148051197085,
            "lng": -73.9199007802915
          }
        }
      },
      "icon": "https://maps.gstatic.com/mapfiles/place_api/icons/v1/png_71/civic_building-71.png",
      "icon_background_color": "#7B9EB0",
      "icon_mask_base_uri": "https://maps.gstatic.com/mapfiles/place_api/icons/v2/civic-bldg_pinlet",
      "name": "US Army Recruiting Office South Bronx",
      "opening_hours": {
        "open_now": false
      },
      "photos": [
        {
          "height": 4032,
          "html_attributions": [
            "<a href=\"https://maps.google.com/maps/contrib/109099561174014326669\">US Army Recruiting Office South Bronx</a>"
          ],
          "photo_reference": "AeJbb3eZ47F8bErVUBgzP51ZFq_ye-bc2LryWrgIRqDL0R_4l6_piWoTEK2E98MAOvm01Ykeq_6-3HK5ULqz1AMLxD9W1TUdhXdmu5A-5X3ZkEiYmQ9eycfYER8q_fh_WVT8Zutztdx1Vaz-m236yLdC2x-FWCJNtmme1az_Ikn7iiWFZ03X",
          "width": 3024
        }
      ],
      "place_id": "ChIJ6SGhxcj1wokRBxVwW1MK2mE",
      "plus_code": {
        "compound_code": "R38J+CH \u7f8e\u570b\u7d10\u7d04\u5e03\u6717\u514b\u65af",
        "global_code": "87G8R38J+CH"
      },
      "rating": 4.9,
      "reference": "ChIJ6SGhxcj1wokRBxVwW1MK2mE",
      "scope": "GOOGLE",
      "types": [
        "point_of_interest",
        "establishment"
      ],
      "user_ratings_total": 54,
      "vicinity": "374 East 149th Street, The Bronx"
    },
    {
      "business_status": "OPERATIONAL",
      "geometry": {
        "location": {
          "lat": 40.81686189999999,
          "lng": -73.9196783
        },
        "viewport": {
          "northeast": {
            "lat": 40.81815648029149,
            "lng": -73.9182100197085
          },
          "southwest": {
            "lat": 40.8154585197085,
            "lng": -73.92090798029152
          }
        }
      },
      "icon": "https://maps.gstatic.com/mapfiles/place_api/icons/v1/png_71/generic_business-71.png",
      "icon_background_color": "#7B9EB0",
      "icon_mask_base_uri": "https://maps.gstatic.com/mapfiles/place_api/icons/v2/generic_pinlet",
      "name": "Marquita Rodriguez, PA",
      "place_id": "ChIJjWSlPc_1wokRkNniUQMTGqo",
      "plus_code": {
        "compound_code": "R38J+P4 \u7f8e\u570b\u7d10\u7d04",
        "global_code": "87G8R38J+P4"
      },
      "reference": "ChIJjWSlPc_1wokRkNniUQMTGqo",
      "scope": "GOOGLE",
      "types": [
        "health",
        "point_of_interest",
        "establishment"
      ],
      "vicinity": "349 East 149th Street, The Bronx"
    },
    {
      "business_status": "OPERATIONAL",
      "geometry": {
        "location": {
          "lat": 40.81677490000001,
          "lng": -73.9193511
        },
        "viewport": {
          "northeast": {
            "lat": 40.8180286302915,
            "lng": -73.91804446970849
          },
          "southwest": {
            "lat": 40.8153306697085,
            "lng": -73.92074243029151
          }
        }
      },
      "icon": "https://maps.gstatic.com/mapfiles/place_api/icons/v1/png_71/atm-71.png",
      "icon_background_color": "#909CE1",
      "icon_mask_base_uri": "https://maps.gstatic.com/mapfiles/place_api/icons/v2/atm_pinlet",
      "name": "Municipal Credit Union",
      "opening_hours": {
        "open_now": false
      },
      "photos": [
        {
          "height": 2560,
          "html_attributions": [
            "<a href=\"https://maps.google.com/maps/contrib/106038498837146973208\">D G</a>"
          ],
          "photo_reference": "AeJbb3fv22vlNC1yEfnyZY1upEmmmOaEGrdWK_79CDmKutbkxrg_GQ0WdyX1Pwg-4Bb1_Hv0DTNLQAbYTofZafEvRENZqraUPz9z9BOjUAhx6juYPdfCJZKDhDgce59lcbqYXxpiP3k6X5aV4eHK_0K_me6i0Z3M8iEWBLOuh_df9kk1HTou",
          "width": 1440
        }
      ],
      "place_id": "ChIJL_12MM_1wokRxVRFmSCJjb0",
      "plus_code": {
        "compound_code": "R38J+P7 \u7f8e\u570b\u7d10\u7d04",
        "global_code": "87G8R38J+P7"
      },
      "rating": 3.9,
      "reference": "ChIJL_12MM_1wokRxVRFmSCJjb0",
      "scope": "GOOGLE",
      "types": [
        "atm",
        "finance",
        "point_of_interest",
        "establishment"
      ],
      "user_ratings_total": 14,
      "vicinity": "353 East 149th Street, The Bronx"
    },
    {
      "business_status": "OPERATIONAL",
      "geometry": {
        "location": {
          "lat": 40.816638,
          "lng": -73.9177948
        },
        "viewport": {
          "northeast": {
            "lat": 40.8179562302915,
            "lng": -73.9163213697085
          },
          "southwest": {
            "lat": 40.8152582697085,
            "lng": -73.91901933029152
          }
        }
      },
      "icon": "https://maps.gstatic.com/mapfiles/place_api/icons/v1/png_71/shopping-71.png",
      "icon_background_color": "#4B96F3",
      "icon_mask_base_uri": "https://maps.gstatic.com/mapfiles/place_api/icons/v2/shopping_pinlet",
      "name": "Cookie's Department Stores",
      "opening_hours": {
        "open_now": true
      },
      "photos": [
        {
          "height": 2824,
          "html_attributions": [
            "<a href=\"https://maps.google.com/maps/contrib/117768608905090782733\">anthony gopar</a>"
          ],
          "photo_reference": "AeJbb3er45OO6Q7DBpoihcOKAl9Hc32QXoz3Jj96sAXdvHW-xKq8FcWY5Md2AYTp3vPJ-DneYl-KTppmIct4In1oM36pzWlGrhb9VJMFZSLSKy1Gi3sqJn1A13WpUMLGZqMgocL0qbjQbu5rPVTkLcGY8gxAy0tsfbuWJTshri-N359-hrD5",
          "width": 3654
        }
      ],
      "place_id": "ChIJP9Lrt8j1wokR9Ng7_Kh1yk4",
      "plus_code": {
        "compound_code": "R38J+MV \u7f8e\u570b\u7d10\u7d04",
        "global_code": "87G8R38J+MV"
      },
      "rating": 4.2,
      "reference": "ChIJP9Lrt8j1wokR9Ng7_Kh1yk4",
      "scope": "GOOGLE",
      "types": [
        "department_store",
        "furniture_store",
        "home_goods_store",
        "clothing_store",
        "store",
        "point_of_interest",
        "establishment"
      ],
      "user_ratings_total": 1270,
      "vicinity": "567 Melrose Avenue, The Bronx"
    },
    {
      "geometry": {
        "location": {
          "lat": 40.8519547,
          "lng": -73.90070899999999
        },
        "viewport": {
          "northeast": {
            "lat": 40.91527805889627,
            "lng": -73.86840408623851
          },
          "southwest": {
            "lat": 40.79678004393696,
            "lng": -73.93340593816593
          }
        }
      },
      "icon": "https://maps.gstatic.com/mapfiles/place_api/icons/v1/png_71/geocode-71.png",
      "icon_background_color": "#7B9EB0",
      "icon_mask_base_uri": "https://maps.gstatic.com/mapfiles/place_api/icons/v2/generic_pinlet",
      "name": "West Bronx",
      "photos": [
        {
          "height": 1024,
          "html_attributions": [
            "<a href=\"https://maps.google.com/maps/contrib/113738462812435835913\">Alex Lin</a>"
          ],
          "photo_reference": "AeJbb3cqy5bevlIZGSMf3DngpuHbkEmmsmoxNNLZlPDTxx6bnp5bIbW6M0w1uWjTkltyt8CPmvXYYJ4Ru4voGzsnMPpRdhEdB2CtsM8AR26NE2GPacf3-1Zz1UT93BUUVSZTezDF-AS1rimi6kuK4Vy78rekqM3c3-LZhxRqwrSuzCeRJn19",
          "width": 768
        }
      ],
      "place_id": "ChIJWdLZpnD0wokRgikpekRYd9o",
      "reference": "ChIJWdLZpnD0wokRgikpekRYd9o",
      "scope": "GOOGLE",
      "types": [
        "neighborhood",
        "political"
      ],
      "vicinity": "The Bronx"
    },
    {
      "business_status": "OPERATIONAL",
      "geometry": {
        "location": {
          "lat": 40.8159563,
          "lng": -73.9168038
        },
        "viewport": {
          "northeast": {
            "lat": 40.81723078029149,
            "lng": -73.91551251970849
          },
          "southwest": {
            "lat": 40.8145328197085,
            "lng": -73.91821048029149
          }
        }
      },
      "icon": "https://maps.gstatic.com/mapfiles/place_api/icons/v1/png_71/restaurant-71.png",
      "icon_background_color": "#FF9E67",
      "icon_mask_base_uri": "https://maps.gstatic.com/mapfiles/place_api/icons/v2/restaurant_pinlet",
      "name": "Subway",
      "opening_hours": {
        "open_now": true
      },
      "photos": [
        {
          "height": 3456,
          "html_attributions": [
            "<a href=\"https://maps.google.com/maps/contrib/112605130414541213347\">Luis ALBERTO</a>"
          ],
          "photo_reference": "AeJbb3evZ_aqtoVByk-4Y5yngb5ZwoVQY_Sl7NaBKPDKco3YzwTumkTnBP4ib6CkCoc8XkR9dhiMGOCQSt12SMkJFh3QagJ8pik6Aw-VDNC4xGnB4mTWLaJU2Vfa9JVjIeaTsKTn8ITmfOAIWBLSlIuuqZitNfH6QXKXsb-kvDWvlNMJkqhb",
          "width": 4608
        }
      ],
      "place_id": "ChIJS7XHv8j1wokRi0lj5t3XiO8",
      "plus_code": {
        "compound_code": "R38M+97 New York, NY, USA",
        "global_code": "87G8R38M+97"
      },
      "price_level": 1,
      "rating": 3.9,
      "reference": "ChIJS7XHv8j1wokRi0lj5t3XiO8",
      "scope": "GOOGLE",
      "types": [
        "meal_takeaway",
        "restaurant",
        "food",
        "point_of_interest",
        "establishment"
      ],
      "user_ratings_total": 109,
      "vicinity": "423A East 149th Street, The Bronx"
    },
    {
      "business_status": "OPERATIONAL",
      "geometry": {
        "location": {
          "lat": 40.8183333,
          "lng": -73.9177778
        },
        "viewport": {
          "northeast": {
            "lat": 40.8197601302915,
            "lng": -73.91644146970849
          },
          "southwest": {
            "lat": 40.8170621697085,
            "lng": -73.91913943029151
          }
        }
      },
      "icon": "https://maps.gstatic.com/mapfiles/place_api/icons/v1/png_71/generic_business-71.png",
      "icon_background_color": "#7B9EB0",
      "icon_mask_base_uri": "https://maps.gstatic.com/mapfiles/place_api/icons/v2/generic_pinlet",
      "name": "East 152nd Street",
      "photos": [
        {
          "height": 3264,
          "html_attributions": [
            "<a href=\"https://maps.google.com/maps/contrib/107710908804180620542\">Angela Rivera</a>"
          ],
          "photo_reference": "AeJbb3fPaCKUJopp34wqWG73VyumCALsvlhykX_uiZaWDyl1vLGag1XUqbaIO-lLlBgoXdmrQeeB2D3zSEZIkom1sbSnyD1eH-sS_pGN7W_exYD1ozhYflXHGSLKGQ0Y54ELX0VeWw5kFDGAKZsb1xmmWuG452G0AIDM4ctyaJZ4T8YQlHTE",
          "width": 1836
        }
      ],
      "place_id": "ChIJJbmEHbf1wokR-n5tjRipoQo",
      "plus_code": {
        "compound_code": "R39J+8V The Bronx, NY, USA",
        "global_code": "87G8R39J+8V"
      },
      "rating": 3.4,
      "reference": "ChIJJbmEHbf1wokR-n5tjRipoQo",
      "scope": "GOOGLE",
      "types": [
        "point_of_interest",
        "establishment"
      ],
      "user_ratings_total": 24,
      "vicinity": "372 East 152nd Street, The Bronx"
    },
    {
      "business_status": "OPERATIONAL",
      "geometry": {
        "location": {
          "lat": 40.8164223,
          "lng": -73.91812039999999
        },
        "viewport": {
          "northeast": {
            "lat": 40.8176934802915,
            "lng": -73.9168060697085
          },
          "southwest": {
            "lat": 40.8149955197085,
            "lng": -73.9195040302915
          }
        }
      },
      "icon": "https://maps.gstatic.com/mapfiles/place_api/icons/v1/png_71/generic_business-71.png",
      "icon_background_color": "#7B9EB0",
      "icon_mask_base_uri": "https://maps.gstatic.com/mapfiles/place_api/icons/v2/generic_pinlet",
      "name": "Robert Locastro, DPM",
      "place_id": "ChIJrZzry8j1wokRspA5Ba_acn0",
      "plus_code": {
        "compound_code": "R38J+HQ The Bronx, NY, USA",
        "global_code": "87G8R38J+HQ"
      },
      "rating": 4,
      "reference": "ChIJrZzry8j1wokRspA5Ba_acn0",
      "scope": "GOOGLE",
      "types": [
        "doctor",
        "health",
        "point_of_interest",
        "establishment"
      ],
      "user_ratings_total": 1,
      "vicinity": "391 East 149th Street, The Bronx"
    },
    {
      "business_status": "OPERATIONAL",
      "geometry": {
        "location": {
          "lat": 40.8160816,
          "lng": -73.9183535
        },
        "viewport": {
          "northeast": {
            "lat": 40.8174896802915,
            "lng": -73.91697816970849
          },
          "southwest": {
            "lat": 40.8147917197085,
            "lng": -73.91967613029149
          }
        }
      },
      "icon": "https://maps.gstatic.com/mapfiles/place_api/icons/v1/png_71/civic_building-71.png",
      "icon_background_color": "#7B9EB0",
      "icon_mask_base_uri": "https://maps.gstatic.com/mapfiles/place_api/icons/v2/civic-bldg_pinlet",
      "name": "New Era Employment Services Inc",
      "place_id": "ChIJAbzMtMj1wokRlqbYdlFuOto",
      "plus_code": {
        "compound_code": "R38J+CM The Bronx, NY, USA",
        "global_code": "87G8R38J+CM"
      },
      "rating": 5,
      "reference": "ChIJAbzMtMj1wokRlqbYdlFuOto",
      "scope": "GOOGLE",
      "types": [
        "point_of_interest",
        "establishment"
      ],
      "user_ratings_total": 3,
      "vicinity": "384 East 149th Street #320, The Bronx"
    },
    {
      "business_status": "OPERATIONAL",
      "geometry": {
        "location": {
          "lat": 40.8168629,
          "lng": -73.91961719999999
        },
        "viewport": {
          "northeast": {
            "lat": 40.8181436802915,
            "lng": -73.9181961197085
          },
          "southwest": {
            "lat": 40.8154457197085,
            "lng": -73.9208940802915
          }
        }
      },
      "icon": "https://maps.gstatic.com/mapfiles/place_api/icons/v1/png_71/bank-71.png",
      "icon_background_color": "#909CE1",
      "icon_mask_base_uri": "https://maps.gstatic.com/mapfiles/place_api/icons/v2/bank-intl_pinlet",
      "name": "Citi",
      "opening_hours": {
        "open_now": false
      },
      "photos": [
        {
          "height": 2560,
          "html_attributions": [
            "<a href=\"https://maps.google.com/maps/contrib/106038498837146973208\">D G</a>"
          ],
          "photo_reference": "AeJbb3f9HVQv92py6lOi0vKH5427dZkivrUZ3py-3vyr-O84X77O3GWDgnu9FoGmnCC6QpkCFIbtHzrYKQTRe2NKpasVtV1JWPD3EK5rbI8zKeC3NqcTBEQ6m1Fi8RNGr02O5TSZKCbZ83tPwkaOwNC9xVUZ7BZ2onLpEkrV74LQqWPkJnh_",
          "width": 1440
        }
      ],
      "place_id": "ChIJjWSlPc_1wokRc-glKaXfXiU",
      "plus_code": {
        "compound_code": "R38J+P5 New York, NY, USA",
        "global_code": "87G8R38J+P5"
      },
      "rating": 2.9,
      "reference": "ChIJjWSlPc_1wokRc-glKaXfXiU",
      "scope": "GOOGLE",
      "types": [
        "bank",
        "atm",
        "finance",
        "point_of_interest",
        "establishment"
      ],
      "user_ratings_total": 57,
      "vicinity": "349 East 149th Street, The Bronx"
    },
    {
      "business_status": "CLOSED_TEMPORARILY",
      "geometry": {
        "location": {
          "lat": 40.8161082,
          "lng": -73.918734
        },
        "viewport": {
          "northeast": {
            "lat": 40.81754798029149,
            "lng": -73.91734451970851
          },
          "southwest": {
            "lat": 40.81485001970849,
            "lng": -73.92004248029151
          }
        }
      },
      "icon": "https://maps.gstatic.com/mapfiles/place_api/icons/v1/png_71/generic_business-71.png",
      "icon_background_color": "#7B9EB0",
      "icon_mask_base_uri": "https://maps.gstatic.com/mapfiles/place_api/icons/v2/generic_pinlet",
      "name": "Wilks Law Real Estate",
      "permanently_closed": true,
      "place_id": "ChIJsQlmSc_1wokRcWjQunjsKJE",
      "plus_code": {
        "compound_code": "R38J+CG The Bronx, NY, USA",
        "global_code": "87G8R38J+CG"
      },
      "rating": 5,
      "reference": "ChIJsQlmSc_1wokRcWjQunjsKJE",
      "scope": "GOOGLE",
      "types": [
        "point_of_interest",
        "establishment"
      ],
      "user_ratings_total": 1,
      "vicinity": "370 East 149th Street #3, The Bronx"
    },
    {
      "business_status": "OPERATIONAL",
      "geometry": {
        "location": {
          "lat": 40.8160899,
          "lng": -73.9171475
        },
        "viewport": {
          "northeast": {
            "lat": 40.8173281802915,
            "lng": -73.91566346970849
          },
          "southwest": {
            "lat": 40.8146302197085,
            "lng": -73.91836143029151
          }
        }
      },
      "icon": "https://maps.gstatic.com/mapfiles/place_api/icons/v1/png_71/generic_business-71.png",
      "icon_background_color": "#7B9EB0",
      "icon_mask_base_uri": "https://maps.gstatic.com/mapfiles/place_api/icons/v2/generic_pinlet",
      "name": "Cohen's Fashion Optical",
      "opening_hours": {
        "open_now": true
      },
      "photos": [
        {
          "height": 1816,
          "html_attributions": [
            "<a href=\"https://maps.google.com/maps/contrib/118104836039261299094\">Ley P.</a>"
          ],
          "photo_reference": "AeJbb3cUx7fLVA2Px74X-0p41DY0VbhbuRtWD3h7H6a-Zc0kHwy55iTeiOZHsl9VkAZ5ZErApqcObEBxakfQbgiC3duSA7Hq7tvQ0mFQ3WjV5QFQDA20j0Rkz_vWbnF1Q3O760VLbWMHHX9nO8crPXvRP9F5bZLz4IxR7WGXDlu8rJHcqq-d",
          "width": 4032
        }
      ],
      "place_id": "ChIJtU7fwMj1wokRVu9PbMlR6HU",
      "plus_code": {
        "compound_code": "R38M+C4 New York, NY, USA",
        "global_code": "87G8R38M+C4"
      },
      "rating": 2.3,
      "reference": "ChIJtU7fwMj1wokRVu9PbMlR6HU",
      "scope": "GOOGLE",
      "types": [
        "health",
        "store",
        "point_of_interest",
        "establishment"
      ],
      "user_ratings_total": 86,
      "vicinity": "2856 3rd Avenue, The Bronx"
    },
    {
      "business_status": "OPERATIONAL",
      "geometry": {
        "location": {
          "lat": 40.8163871,
          "lng": -73.9179
        },
        "viewport": {
          "northeast": {
            "lat": 40.8176488302915,
            "lng": -73.91658981970849
          },
          "southwest": {
            "lat": 40.8149508697085,
            "lng": -73.9192877802915
          }
        }
      },
      "icon": "https://maps.gstatic.com/mapfiles/place_api/icons/v1/png_71/generic_business-71.png",
      "icon_background_color": "#7B9EB0",
      "icon_mask_base_uri": "https://maps.gstatic.com/mapfiles/place_api/icons/v2/generic_pinlet",
      "name": "Innovative Foot Care",
      "opening_hours": {
        "open_now": false
      },
      "photos": [
        {
          "height": 3024,
          "html_attributions": [
            "<a href=\"https://maps.google.com/maps/contrib/118322632404362094276\">Innovative Foot Care</a>"
          ],
          "photo_reference": "AeJbb3eioOnsBWzMoGynUeChK2piSossd9tCFmGKnSIFDzlzAOJm_gWzoFhuYtHLc979s8ZG8qCL9q8E4hw_Q49OGwdHl6IRd-NSINFlFh1G9YuBY4HumyArfYFq7sQ-yD94axZYn-7m69KuwKHwSqykS2f_0cfgcWE6skNjG5i-l6wGfVVf",
          "width": 4032
        }
      ],
      "place_id": "ChIJrZzry8j1wokRiSik-D3NcC4",
      "plus_code": {
        "compound_code": "R38J+HR New York, NY, USA",
        "global_code": "87G8R38J+HR"
      },
      "rating": 4.9,
      "reference": "ChIJrZzry8j1wokRiSik-D3NcC4",
      "scope": "GOOGLE",
      "types": [
        "doctor",
        "health",
        "point_of_interest",
        "establishment"
      ],
      "user_ratings_total": 109,
      "vicinity": "391 East 149th Street #216, The Bronx"
    },
    {
      "business_status": "OPERATIONAL",
      "geometry": {
        "location": {
          "lat": 40.8138277,
          "lng": -73.9189434
        },
        "viewport": {
          "northeast": {
            "lat": 40.8152569302915,
            "lng": -73.9175659197085
          },
          "southwest": {
            "lat": 40.8125589697085,
            "lng": -73.9202638802915
          }
        }
      },
      "icon": "https://maps.gstatic.com/mapfiles/place_api/icons/v1/png_71/generic_business-71.png",
      "icon_background_color": "#7B9EB0",
      "icon_mask_base_uri": "https://maps.gstatic.com/mapfiles/place_api/icons/v2/generic_pinlet",
      "name": "Lower West Side Household Services",
      "place_id": "ChIJXQHw7gBZwokR1NZ-qwgOtA0",
      "plus_code": {
        "compound_code": "R37J+GC New York, NY, USA",
        "global_code": "87G8R37J+GC"
      },
      "rating": 3,
      "reference": "ChIJXQHw7gBZwokR1NZ-qwgOtA0",
      "scope": "GOOGLE",
      "types": [
        "health",
        "point_of_interest",
        "establishment"
      ],
      "user_ratings_total": 2,
      "vicinity": "460 Willis Avenue, The Bronx"
    },
    {
      "business_status": "OPERATIONAL",
      "geometry": {
        "location": {
          "lat": 40.8164171,
          "lng": -73.9180002
        },
        "viewport": {
          "northeast": {
            "lat": 40.81767683029149,
            "lng": -73.91669091970849
          },
          "southwest": {
            "lat": 40.8149788697085,
            "lng": -73.9193888802915
          }
        }
      },
      "icon": "https://maps.gstatic.com/mapfiles/place_api/icons/v1/png_71/generic_business-71.png",
      "icon_background_color": "#7B9EB0",
      "icon_mask_base_uri": "https://maps.gstatic.com/mapfiles/place_api/icons/v2/generic_pinlet",
      "name": "Project Achieve",
      "place_id": "ChIJrZzry8j1wokRbwnSgUf2wBQ",
      "plus_code": {
        "compound_code": "R38J+HQ The Bronx, NY, USA",
        "global_code": "87G8R38J+HQ"
      },
      "rating": 5,
      "reference": "ChIJrZzry8j1wokRbwnSgUf2wBQ",
      "scope": "GOOGLE",
      "types": [
        "health",
        "point_of_interest",
        "establishment"
      ],
      "user_ratings_total": 1,
      "vicinity": "391 East 149th Street #405, The Bronx"
    },
    {
      "business_status": "OPERATIONAL",
      "geometry": {
        "location": {
          "lat": 40.817313,
          "lng": -73.9213547
        },
        "viewport": {
          "northeast": {
            "lat": 40.8185580302915,
            "lng": -73.9200526697085
          },
          "southwest": {
            "lat": 40.8158600697085,
            "lng": -73.9227506302915
          }
        }
      },
      "icon": "https://maps.gstatic.com/mapfiles/place_api/icons/v1/png_71/shopping-71.png",
      "icon_background_color": "#4B96F3",
      "icon_mask_base_uri": "https://maps.gstatic.com/mapfiles/place_api/icons/v2/shopping_pinlet",
      "name": "New York Pawnbrokers \"The Biggest Pawnshop in the Bronx\"",
      "opening_hours": {
        "open_now": true
      },
      "photos": [
        {
          "height": 500,
          "html_attributions": [
            "<a href=\"https://maps.google.com/maps/contrib/101523293730959956425\">Dave Cook</a>"
          ],
          "photo_reference": "AeJbb3eB7qr4EdkLwbxmuE2UfRx9sSBFxfI1_ejnQrQwhSOG7cmG_-T92i3gqQkMTV2lJI368ZIvEd2aJaJ4HBSnB0WptOFcRcKKj5YCPjkObzqCl3k97Et_-dGi1Ah9Wt1eSRf6VaMmc-arwEkCT0JOULxNdgC2DrPjRoZRKi6qAEO8Km31",
          "width": 750
        }
      ],
      "place_id": "ChIJw-_9p8_1wokR1pYXkTxDS6o",
      "plus_code": {
        "compound_code": "R38H+WF New York, NY, USA",
        "global_code": "87G8R38H+WF"
      },
      "rating": 3.8,
      "reference": "ChIJw-_9p8_1wokR1pYXkTxDS6o",
      "scope": "GOOGLE",
      "types": [
        "finance",
        "store",
        "point_of_interest",
        "establishment"
      ],
      "user_ratings_total": 221,
      "vicinity": "301 East 149th Street, The Bronx"
    },
    {
      "business_status": "OPERATIONAL",
      "geometry": {
        "location": {
          "lat": 40.8164988,
          "lng": -73.9199325
        },
        "viewport": {
          "northeast": {
            "lat": 40.8179007802915,
            "lng": -73.9185527697085
          },
          "southwest": {
            "lat": 40.8152028197085,
            "lng": -73.92125073029152
          }
        }
      },
      "icon": "https://maps.gstatic.com/mapfiles/place_api/icons/v1/png_71/generic_business-71.png",
      "icon_background_color": "#7B9EB0",
      "icon_mask_base_uri": "https://maps.gstatic.com/mapfiles/place_api/icons/v2/generic_pinlet",
      "name": "Free Abortion Alternatives",
      "place_id": "ChIJT4WsFc_1wokRNLi0YUKAJDI",
      "plus_code": {
        "compound_code": "R38J+H2 New York, NY, USA",
        "global_code": "87G8R38J+H2"
      },
      "rating": 4.4,
      "reference": "ChIJT4WsFc_1wokRNLi0YUKAJDI",
      "scope": "GOOGLE",
      "types": [
        "health",
        "point_of_interest",
        "establishment"
      ],
      "user_ratings_total": 165,
      "vicinity": "344 East 149th Street 2nd floor, The Bronx"
    },
    {
      "business_status": "OPERATIONAL",
      "geometry": {
        "location": {
          "lat": 40.8164171,
          "lng": -73.9180002
        },
        "viewport": {
          "northeast": {
            "lat": 40.81767683029149,
            "lng": -73.91669091970849
          },
          "southwest": {
            "lat": 40.8149788697085,
            "lng": -73.9193888802915
          }
        }
      },
      "icon": "https://maps.gstatic.com/mapfiles/place_api/icons/v1/png_71/generic_business-71.png",
      "icon_background_color": "#7B9EB0",
      "icon_mask_base_uri": "https://maps.gstatic.com/mapfiles/place_api/icons/v2/generic_pinlet",
      "name": "Allied Health Services",
      "place_id": "ChIJrZzry8j1wokRAzxQc1Cagm0",
      "plus_code": {
        "compound_code": "R38J+HQ The Bronx, NY, USA",
        "global_code": "87G8R38J+HQ"
      },
      "rating": 4,
      "reference": "ChIJrZzry8j1wokRAzxQc1Cagm0",
      "scope": "GOOGLE",
      "types": [
        "health",
        "point_of_interest",
        "establishment"
      ],
      "user_ratings_total": 1,
      "vicinity": "391 East 149th Street #318, The Bronx"
    },
    {
      "business_status": "OPERATIONAL",
      "geometry": {
        "location": {
          "lat": 40.8176154,
          "lng": -73.9178172
        },
        "viewport": {
          "northeast": {
            "lat": 40.8189984802915,
            "lng": -73.9164527697085
          },
          "southwest": {
            "lat": 40.8163005197085,
            "lng": -73.9191507302915
          }
        }
      },
      "icon": "https://maps.gstatic.com/mapfiles/place_api/icons/v1/png_71/school-71.png",
      "icon_background_color": "#7B9EB0",
      "icon_mask_base_uri": "https://maps.gstatic.com/mapfiles/place_api/icons/v2/school_pinlet",
      "name": "Grace Outreach",
      "opening_hours": {
        "open_now": false
      },
      "photos": [
        {
          "height": 3000,
          "html_attributions": [
            "<a href=\"https://maps.google.com/maps/contrib/105747034710190435665\">Grace Outreach</a>"
          ],
          "photo_reference": "AeJbb3cprysh8E9hzo39etlyl7agp1gLhL_xkAMwcEGXXf6_o1SE0hvtLFoz2HrldN9I7kxPkRy8_fmWdMspi0M32NQv7A6XrGIyKxEe_Tl5ScwMKFh7MPOW_5xqB2642hLw0S3f-eU0i4q2rY-DZc3RzOOUdph4-neU_8uzV80f9mQSeNU5",
          "width": 4500
        }
      ],
      "place_id": "ChIJD3viKMn1wokRLtfTOIfEKPU",
      "plus_code": {
        "compound_code": "R39J+2V The Bronx, NY, USA",
        "global_code": "87G8R39J+2V"
      },
      "rating": 4.6,
      "reference": "ChIJD3viKMn1wokRLtfTOIfEKPU",
      "scope": "GOOGLE",
      "types": [
        "point_of_interest",
        "establishment"
      ],
      "user_ratings_total": 64,
      "vicinity": "378 East 151st Street #5, The Bronx"
    },
    {
      "business_status": "OPERATIONAL",
      "geometry": {
        "location": {
          "lat": 40.8159683,
          "lng": -73.9205374
        },
        "viewport": {
          "northeast": {
            "lat": 40.81735193029151,
            "lng": -73.91917286970849
          },
          "southwest": {
            "lat": 40.81465396970851,
            "lng": -73.92187083029151
          }
        }
      },
      "icon": "https://maps.gstatic.com/mapfiles/place_api/icons/v1/png_71/generic_business-71.png",
      "icon_background_color": "#7B9EB0",
      "icon_mask_base_uri": "https://maps.gstatic.com/mapfiles/place_api/icons/v2/generic_pinlet",
      "name": "Anita Jose, PHD",
      "place_id": "ChIJr0n8b8_1wokR-tBEKsKjHUM",
      "plus_code": {
        "compound_code": "R38H+9Q New York, NY, USA",
        "global_code": "87G8R38H+9Q"
      },
      "reference": "ChIJr0n8b8_1wokR-tBEKsKjHUM",
      "scope": "GOOGLE",
      "types": [
        "health",
        "point_of_interest",
        "establishment"
      ],
      "vicinity": "334 East 148th Street, The Bronx"
    },
    {
      "business_status": "OPERATIONAL",
      "geometry": {
        "location": {
          "lat": 40.8166614,
          "lng": -73.92056269999999
        },
        "viewport": {
          "northeast": {
            "lat": 40.81806373029151,
            "lng": -73.91918966970849
          },
          "southwest": {
            "lat": 40.81536576970851,
            "lng": -73.92188763029151
          }
        }
      },
      "icon": "https://maps.gstatic.com/mapfiles/place_api/icons/v1/png_71/hospital-71.png",
      "icon_background_color": "#F88181",
      "icon_mask_base_uri": "https://maps.gstatic.com/mapfiles/place_api/icons/v2/hospital-H_pinlet",
      "name": "St Barnabas Southern Med Center",
      "place_id": "ChIJs8B9Es_1wokRHGRiWfXmvRw",
      "plus_code": {
        "compound_code": "R38H+MQ The Bronx, NY, USA",
        "global_code": "87G8R38H+MQ"
      },
      "rating": 3,
      "reference": "ChIJs8B9Es_1wokRHGRiWfXmvRw",
      "scope": "GOOGLE",
      "types": [
        "hospital",
        "health",
        "point_of_interest",
        "establishment"
      ],
      "user_ratings_total": 6,
      "vicinity": "326 East 149th Street #8, The Bronx"
    },
    {
      "business_status": "OPERATIONAL",
      "geometry": {
        "location": {
          "lat": 40.8182385,
          "lng": -73.9168002
        },
        "viewport": {
          "northeast": {
            "lat": 40.8195874802915,
            "lng": -73.91545121970849
          },
          "southwest": {
            "lat": 40.8168895197085,
            "lng": -73.91814918029151
          }
        }
      },
      "icon": "https://maps.gstatic.com/mapfiles/place_api/icons/v1/png_71/generic_business-71.png",
      "icon_background_color": "#7B9EB0",
      "icon_mask_base_uri": "https://maps.gstatic.com/mapfiles/place_api/icons/v2/generic_pinlet",
      "name": "Plumbers Pro New York",
      "photos": [
        {
          "height": 4032,
          "html_attributions": [
            "<a href=\"https://maps.google.com/maps/contrib/107274389570308209002\">Victoria \u03b1</a>"
          ],
          "photo_reference": "AeJbb3fh8_TnIiMNnTIcG0UqmIyTQbfjHMGKFT8Gw_v6aEh0f5cgQcUBfi2fb4iMSORwqaE0j1ghQibZ4GbwBMaHH7f7z7nsBdlrcoybSrGTy_UtdacqckgqC-oINFOuVtiNy2pAKzBpK8K_9yb_tB1ytfpi4Hlv3ifov0MfzMH74GgjkA",
          "width": 3024
        }
      ],
      "place_id": "ChIJExRbWqL8wokR9X-sg-Zn64k",
      "plus_code": {
        "compound_code": "R39M+77 New York, NY, USA",
        "global_code": "87G8R39M+77"
      },
      "rating": 4.6,
      "reference": "ChIJExRbWqL8wokR9X-sg-Zn64k",
      "scope": "GOOGLE",
      "types": [
        "plumber",
        "point_of_interest",
        "establishment"
      ],
      "user_ratings_total": 25,
      "vicinity": "1335 East 152nd Street, The Bronx"
    },
    {
      "business_status": "OPERATIONAL",
      "geometry": {
        "location": {
          "lat": 40.81761180000001,
          "lng": -73.91789829999999
        },
        "viewport": {
          "northeast": {
            "lat": 40.8190059302915,
            "lng": -73.9165289197085
          },
          "southwest": {
            "lat": 40.8163079697085,
            "lng": -73.9192268802915
          }
        }
      },
      "icon": "https://maps.gstatic.com/mapfiles/place_api/icons/v1/png_71/school-71.png",
      "icon_background_color": "#7B9EB0",
      "icon_mask_base_uri": "https://maps.gstatic.com/mapfiles/place_api/icons/v2/school_pinlet",
      "name": "Immaculate Conception School",
      "photos": [
        {
          "height": 864,
          "html_attributions": [
            "<a href=\"https://maps.google.com/maps/contrib/102082581322155802969\">Immaculate Conception School</a>"
          ],
          "photo_reference": "AeJbb3dGDuqE-N8kZ6IWFzDg7a-RObsgPzXB_zUjgESkzdnAMJ7x7IEVCaIRdb2yTq1JNtpu8MECfx0JZENu9BG07TaftSYx_dPMuBNfJyqRwknPwPgSix86g_9LjDNsVnNIFVfDW_F73Vig_jpuakH3OQGd7aVny0WAlyKyZzDCMtcTeON5",
          "width": 1296
        }
      ],
      "place_id": "ChIJD3viKMn1wokRpfVEzFoCxDM",
      "plus_code": {
        "compound_code": "R39J+2R The Bronx, NY, USA",
        "global_code": "87G8R39J+2R"
      },
      "rating": 3.6,
      "reference": "ChIJD3viKMn1wokRpfVEzFoCxDM",
      "scope": "GOOGLE",
      "types": [
        "school",
        "point_of_interest",
        "establishment"
      ],
      "user_ratings_total": 24,
      "vicinity": "378 East 151st Street #2, The Bronx"
    },
    {
      "business_status": "OPERATIONAL",
      "geometry": {
        "location": {
          "lat": 40.81879849999999,
          "lng": -73.91400039999999
        },
        "viewport": {
          "northeast": {
            "lat": 40.8201839802915,
            "lng": -73.91270861970848
          },
          "southwest": {
            "lat": 40.8174860197085,
            "lng": -73.9154065802915
          }
        }
      },
      "icon": "https://maps.gstatic.com/mapfiles/place_api/icons/v1/png_71/shopping-71.png",
      "icon_background_color": "#4B96F3",
      "icon_mask_base_uri": "https://maps.gstatic.com/mapfiles/place_api/icons/v2/shopping_pinlet",
      "name": "Mattress Firm The Hub",
      "opening_hours": {
        "open_now": true
      },
      "photos": [
        {
          "height": 750,
          "html_attributions": [
            "<a href=\"https://maps.google.com/maps/contrib/117170947404002347314\">Mattress Firm The Hub</a>"
          ],
          "photo_reference": "AeJbb3cZdWN0mquEP7wjqSTKygNWoNxWeuTKXHaVSB1ZaB3hdHuh-UtZXthsom55GcJZvEw9Shn7UUGemUISxoq83eL736TOof-GQgsG3PW4OE34vDfYyIUr7c_WQ38vwjjfmoS-Q1BFjh1B5YkdX1YCn_3ozP-0je4bkC9HOMk5emPVYID6",
          "width": 1333
        }
      ],
      "place_id": "ChIJj8FstMj1wokRDUBm83ROpUo",
      "plus_code": {
        "compound_code": "R39P+G9 New York, NY, USA",
        "global_code": "87G8R39P+G9"
      },
      "price_level": 1,
      "rating": 4.7,
      "reference": "ChIJj8FstMj1wokRDUBm83ROpUo",
      "scope": "GOOGLE",
      "types": [
        "furniture_store",
        "home_goods_store",
        "store",
        "point_of_interest",
        "establishment"
      ],
      "user_ratings_total": 215,
      "vicinity": "2984 3rd Avenue, The Bronx"
    },
    {
      "business_status": "OPERATIONAL",
      "geometry": {
        "location": {
          "lat": 40.8179993,
          "lng": -73.918599
        },
        "viewport": {
          "northeast": {
            "lat": 40.8193831802915,
            "lng": -73.9173839697085
          },
          "southwest": {
            "lat": 40.8166852197085,
            "lng": -73.9200819302915
          }
        }
      },
      "icon": "https://maps.gstatic.com/mapfiles/place_api/icons/v1/png_71/generic_business-71.png",
      "icon_background_color": "#7B9EB0",
      "icon_mask_base_uri": "https://maps.gstatic.com/mapfiles/place_api/icons/v2/generic_pinlet",
      "name": "Bronx Documentary Center",
      "opening_hours": {
        "open_now": true
      },
      "photos": [
        {
          "height": 3276,
          "html_attributions": [
            "<a href=\"https://maps.google.com/maps/contrib/108585025234485852384\">David Herszenson</a>"
          ],
          "photo_reference": "AeJbb3fNOKUsy9-1YklV0f6oOrKzkne_1fp9mqUo0NW9Yd1NL3Z8F5vTi-NMtz6OlFA-bJepUmC5tL4v3TZuZ4N5JahF0Z5xjsb_EltuZifz0n41U3yXczkN8wW4qct1WYueW0-qJou-HDNhiwgqWxeOwSoap98soHq8xosnURiBPZbwnyQY",
          "width": 2297
        }
      ],
      "place_id": "ChIJ23Am0s71wokRkIXyHKjU-68",
      "plus_code": {
        "compound_code": "R39J+5H New York, NY, USA",
        "global_code": "87G8R39J+5H"
      },
      "rating": 4.5,
      "reference": "ChIJ23Am0s71wokRkIXyHKjU-68",
      "scope": "GOOGLE",
      "types": [
        "art_gallery",
        "point_of_interest",
        "establishment"
      ],
      "user_ratings_total": 112,
      "vicinity": "614 Courtlandt Avenue, The Bronx"
    },
    {
      "business_status": "OPERATIONAL",
      "geometry": {
        "location": {
          "lat": 40.8165862,
          "lng": -73.9186908
        },
        "viewport": {
          "northeast": {
            "lat": 40.8178491302915,
            "lng": -73.91740831970849
          },
          "southwest": {
            "lat": 40.8151511697085,
            "lng": -73.9201062802915
          }
        }
      },
      "icon": "https://maps.gstatic.com/mapfiles/place_api/icons/v1/png_71/generic_business-71.png",
      "icon_background_color": "#7B9EB0",
      "icon_mask_base_uri": "https://maps.gstatic.com/mapfiles/place_api/icons/v2/generic_pinlet",
      "name": "New York Health Care, Inc.",
      "opening_hours": {
        "open_now": false
      },
      "place_id": "ChIJAbzMtMj1wokR9E6VXEJRCSw",
      "plus_code": {
        "compound_code": "R38J+JG New York, NY, USA",
        "global_code": "87G8R38J+JG"
      },
      "rating": 1.7,
      "reference": "ChIJAbzMtMj1wokR9E6VXEJRCSw",
      "scope": "GOOGLE",
      "types": [
        "health",
        "point_of_interest",
        "establishment"
      ],
      "user_ratings_total": 9,
      "vicinity": "369 East 149th Street 5th floor, The Bronx"
    },
    {
      "business_status": "OPERATIONAL",
      "geometry": {
        "location": {
          "lat": 40.8144236,
          "lng": -73.9148787
        },
        "viewport": {
          "northeast": {
            "lat": 40.8158327802915,
            "lng": -73.9136878197085
          },
          "southwest": {
            "lat": 40.8131348197085,
            "lng": -73.9163857802915
          }
        }
      },
      "icon": "https://maps.gstatic.com/mapfiles/place_api/icons/v1/png_71/restaurant-71.png",
      "icon_background_color": "#FF9E67",
      "icon_mask_base_uri": "https://maps.gstatic.com/mapfiles/place_api/icons/v2/restaurant_pinlet",
      "name": "Mi Romance Ecuatoriano Lucho Barrios",
      "opening_hours": {
        "open_now": true
      },
      "photos": [
        {
          "height": 1832,
          "html_attributions": [
            "<a href=\"https://maps.google.com/maps/contrib/102600675964335633407\">Mi Romance Ecuatoriano Lucho Barrios</a>"
          ],
          "photo_reference": "AeJbb3e_vshubt5amJ-Zk_ovqBe7vFF8pjW32164sXs0hVQnPuSdmuM9tlFUi3G1TOI2CV6feSJyzNpD70YUK1gNP2AzZF0Jos_QvlcI3VcACo9B7V38XgeuFfZRQisKnRhGg43IQ0weDD8t2VdImyFgflkn3Y_ElP2A7u4kSeOTR5CTsI8-",
          "width": 1374
        }
      ],
      "place_id": "ChIJb-6KZ8_1wokRtKfgZBSgq_E",
      "plus_code": {
        "compound_code": "R37P+Q2 The Bronx, NY, USA",
        "global_code": "87G8R37P+Q2"
      },
      "price_level": 2,
      "rating": 4.1,
      "reference": "ChIJb-6KZ8_1wokRtKfgZBSgq_E",
      "scope": "GOOGLE",
      "types": [
        "restaurant",
        "food",
        "point_of_interest",
        "establishment"
      ],
      "user_ratings_total": 258,
      "vicinity": "524 A Brook Avenue, The Bronx"
    },
    {
      "business_status": "OPERATIONAL",
      "geometry": {
        "location": {
          "lat": 40.815127,
          "lng": -73.916027
        },
        "viewport": {
          "northeast": {
            "lat": 40.8165635302915,
            "lng": -73.91457936970849
          },
          "southwest": {
            "lat": 40.8138655697085,
            "lng": -73.9172773302915
          }
        }
      },
      "icon": "https://maps.gstatic.com/mapfiles/place_api/icons/v1/png_71/generic_business-71.png",
      "icon_background_color": "#7B9EB0",
      "icon_mask_base_uri": "https://maps.gstatic.com/mapfiles/place_api/icons/v2/generic_pinlet",
      "name": "My Wellness Solutions",
      "opening_hours": {
        "open_now": true
      },
      "photos": [
        {
          "height": 4032,
          "html_attributions": [
            "<a href=\"https://maps.google.com/maps/contrib/101138834413745180863\">My Wellness Solutions</a>"
          ],
          "photo_reference": "AeJbb3c6CjS8t0d42dYavFlpcNs-9dKwOUDzDLPf2osgh_Uomg19vjDPtTYeeIm0ZmZEO1InyQaa5F252_nNk8wQ5M6CTVE4Yr10VrZgenLHSsh7tWx_m8-Pmn2hKPo0RZYkHSqi5dhPoA8wfCLzJqtI3CZH5HfcSSGtXhRbRiwuqR6sKmlc",
          "width": 3024
        }
      ],
      "place_id": "ChIJ2UxUCsr1wokRZlEwWJweJnU",
      "plus_code": {
        "compound_code": "R38M+3H The Bronx, NY, USA",
        "global_code": "87G8R38M+3H"
      },
      "rating": 4.5,
      "reference": "ChIJ2UxUCsr1wokRZlEwWJweJnU",
      "scope": "GOOGLE",
      "types": [
        "spa",
        "health",
        "point_of_interest",
        "establishment"
      ],
      "user_ratings_total": 61,
      "vicinity": "436 East 149th Street, The Bronx"
    },
    {
      "business_status": "OPERATIONAL",
      "geometry": {
        "location": {
          "lat": 40.81692029999999,
          "lng": -73.9222502
        },
        "viewport": {
          "northeast": {
            "lat": 40.8184083302915,
            "lng": -73.92086646970849
          },
          "southwest": {
            "lat": 40.8157103697085,
            "lng": -73.92356443029149
          }
        }
      },
      "icon": "https://maps.gstatic.com/mapfiles/place_api/icons/v1/png_71/generic_business-71.png",
      "icon_background_color": "#4B96F3",
      "icon_mask_base_uri": "https://maps.gstatic.com/mapfiles/place_api/icons/v2/generic_pinlet",
      "name": "CVS",
      "opening_hours": {
        "open_now": true
      },
      "photos": [
        {
          "height": 3264,
          "html_attributions": [
            "<a href=\"https://maps.google.com/maps/contrib/104318656290350571346\">Darlene jackson</a>"
          ],
          "photo_reference": "AeJbb3er2GAa9wUc-slRTgD_BLkYQKQY9h60FHUYvqn6Bf8gV2V8V6twtUMkRKEzcMz6yNnOCq-LDivsvZU9PamAGMPymaNkI6nxEHnG1RgkPmWbY_ZiPKSoMMAFk0KqQOl-pdiAlWukVFEYfbwbuXnGvruO3Y3QKqkYmi2anXoP3FPI2NvI",
          "width": 1836
        }
      ],
      "place_id": "ChIJ15Jlu8_1wokRXSDIxDEPF34",
      "plus_code": {
        "compound_code": "R38H+Q3 New York, NY, USA",
        "global_code": "87G8R38H+Q3"
      },
      "rating": 3.2,
      "reference": "ChIJ15Jlu8_1wokRXSDIxDEPF34",
      "scope": "GOOGLE",
      "types": [
        "drugstore",
        "clothing_store",
        "convenience_store",
        "health",
        "food",
        "store",
        "point_of_interest",
        "establishment"
      ],
      "user_ratings_total": 92,
      "vicinity": "282 East 149th Street, The Bronx"
    },
    {
      "business_status": "OPERATIONAL",
      "geometry": {
        "location": {
          "lat": 40.8175316,
          "lng": -73.92006549999999
        },
        "viewport": {
          "northeast": {
            "lat": 40.8188421802915,
            "lng": -73.9187366197085
          },
          "southwest": {
            "lat": 40.8161442197085,
            "lng": -73.9214345802915
          }
        }
      },
      "icon": "https://maps.gstatic.com/mapfiles/place_api/icons/v1/png_71/school-71.png",
      "icon_background_color": "#7B9EB0",
      "icon_mask_base_uri": "https://maps.gstatic.com/mapfiles/place_api/icons/v2/school_pinlet",
      "name": "Brightside Academy",
      "photos": [
        {
          "height": 571,
          "html_attributions": [
            "<a href=\"https://maps.google.com/maps/contrib/114581965489401448626\">Brightside Academy</a>"
          ],
          "photo_reference": "AeJbb3doOh8NVrN-oOJljfBytYesA7s1p7gYYanjHQBGhPEyBsiuC_CnuWwLetrq6wZQomgbsS2w9mdobCMwMWFpy_2FyxLM4GanDKnKnU_1BeGeVyJM96dlU8XInMSEqbX5qn6cpRdlsdg6on-BK8v44UqmTWkhrKZ3cVbSS8a9TSQ1CcCW",
          "width": 858
        }
      ],
      "place_id": "ChIJVcLzHs_1wokRH1iOy_FGDtU",
      "plus_code": {
        "compound_code": "R39H+2X The Bronx, NY, USA",
        "global_code": "87G8R39H+2X"
      },
      "rating": 4,
      "reference": "ChIJVcLzHs_1wokRH1iOy_FGDtU",
      "scope": "GOOGLE",
      "types": [
        "point_of_interest",
        "establishment"
      ],
      "user_ratings_total": 14,
      "vicinity": "331 East 150th Street, The Bronx"
    },
    {
      "business_status": "OPERATIONAL",
      "geometry": {
        "location": {
          "lat": 40.81459520000001,
          "lng": -73.9192643
        },
        "viewport": {
          "northeast": {
            "lat": 40.8158863802915,
            "lng": -73.91776321970849
          },
          "southwest": {
            "lat": 40.8131884197085,
            "lng": -73.9204611802915
          }
        }
      },
      "icon": "https://maps.gstatic.com/mapfiles/place_api/icons/v1/png_71/generic_business-71.png",
      "icon_background_color": "#7B9EB0",
      "icon_mask_base_uri": "https://maps.gstatic.com/mapfiles/place_api/icons/v2/generic_pinlet",
      "name": "Riverabenet Migdalia MD",
      "place_id": "ChIJ7-XR8cX1wokREpa8hEDozQc",
      "plus_code": {
        "compound_code": "R37J+R7 The Bronx, NY, USA",
        "global_code": "87G8R37J+R7"
      },
      "reference": "ChIJ7-XR8cX1wokREpa8hEDozQc",
      "scope": "GOOGLE",
      "types": [
        "doctor",
        "health",
        "point_of_interest",
        "establishment"
      ],
      "vicinity": "477 Willis Avenue # 479, The Bronx"
    },
    {
      "business_status": "OPERATIONAL",
      "geometry": {
        "location": {
          "lat": 40.8168136,
          "lng": -73.9160988
        },
        "viewport": {
          "northeast": {
            "lat": 40.8182233302915,
            "lng": -73.91486156970849
          },
          "southwest": {
            "lat": 40.8155253697085,
            "lng": -73.9175595302915
          }
        }
      },
      "icon": "https://maps.gstatic.com/mapfiles/place_api/icons/v1/png_71/shopping-71.png",
      "icon_background_color": "#4B96F3",
      "icon_mask_base_uri": "https://maps.gstatic.com/mapfiles/place_api/icons/v2/shopping_pinlet",
      "name": "Foot Locker",
      "opening_hours": {
        "open_now": true
      },
      "photos": [
        {
          "height": 3024,
          "html_attributions": [
            "<a href=\"https://maps.google.com/maps/contrib/108585025234485852384\">David Herszenson</a>"
          ],
          "photo_reference": "AeJbb3ecMirP36VeaQZNpHFoox98G4au1sR2mm2fF69ZagWu26rKTow6JTyRHKO2hYd0V6Kj-HNKllyEpkUY12zo8Dxod1YPBIQxKPNY7JC901mc32e676f3zDFt6ipEpSItHG129H6QZXEVETRGrtNAIr06bNCnt9-FsyOoWO_P4kZJwKe-",
          "width": 4032
        }
      ],
      "place_id": "ChIJD6wf48j1wokRInaFOM_z6rs",
      "plus_code": {
        "compound_code": "R38M+PH New York, NY, USA",
        "global_code": "87G8R38M+PH"
      },
      "price_level": 2,
      "rating": 4.1,
      "reference": "ChIJD6wf48j1wokRInaFOM_z6rs",
      "scope": "GOOGLE",
      "types": [
        "shoe_store",
        "clothing_store",
        "store",
        "point_of_interest",
        "establishment"
      ],
      "user_ratings_total": 440,
      "vicinity": "2886 3rd Avenue, The Bronx"
    },
    {
      "business_status": "CLOSED_TEMPORARILY",
      "geometry": {
        "location": {
          "lat": 40.8160816,
          "lng": -73.9183536
        },
        "viewport": {
          "northeast": {
            "lat": 40.8174896802915,
            "lng": -73.9169782697085
          },
          "southwest": {
            "lat": 40.8147917197085,
            "lng": -73.91967623029151
          }
        }
      },
      "icon": "https://maps.gstatic.com/mapfiles/place_api/icons/v1/png_71/generic_business-71.png",
      "icon_background_color": "#7B9EB0",
      "icon_mask_base_uri": "https://maps.gstatic.com/mapfiles/place_api/icons/v2/generic_pinlet",
      "name": "Frederick B Potack Law Offices",
      "permanently_closed": true,
      "place_id": "ChIJAbzMtMj1wokRkfFJdXxLjwE",
      "plus_code": {
        "compound_code": "R38J+CM The Bronx, NY, USA",
        "global_code": "87G8R38J+CM"
      },
      "reference": "ChIJAbzMtMj1wokRkfFJdXxLjwE",
      "scope": "GOOGLE",
      "types": [
        "lawyer",
        "point_of_interest",
        "establishment"
      ],
      "vicinity": "384 East 149th Street #212, The Bronx"
    },
    {
      "business_status": "OPERATIONAL",
      "geometry": {
        "location": {
          "lat": 40.8160816,
          "lng": -73.9183536
        },
        "viewport": {
          "northeast": {
            "lat": 40.8174896802915,
            "lng": -73.9169782697085
          },
          "southwest": {
            "lat": 40.8147917197085,
            "lng": -73.91967623029151
          }
        }
      },
      "icon": "https://maps.gstatic.com/mapfiles/place_api/icons/v1/png_71/generic_business-71.png",
      "icon_background_color": "#7B9EB0",
      "icon_mask_base_uri": "https://maps.gstatic.com/mapfiles/place_api/icons/v2/generic_pinlet",
      "name": "Maria-Diaz Alba R DDS",
      "place_id": "ChIJAbzMtMj1wokRPNlJIozvkmc",
      "plus_code": {
        "compound_code": "R38J+CM The Bronx, NY, USA",
        "global_code": "87G8R38J+CM"
      },
      "reference": "ChIJAbzMtMj1wokRPNlJIozvkmc",
      "scope": "GOOGLE",
      "types": [
        "dentist",
        "health",
        "point_of_interest",
        "establishment"
      ],
      "vicinity": "384 East 149th Street #200, The Bronx"
    },
    {
      "business_status": "CLOSED_TEMPORARILY",
      "geometry": {
        "location": {
          "lat": 40.8160816,
          "lng": -73.9183536
        },
        "viewport": {
          "northeast": {
            "lat": 40.8174896802915,
            "lng": -73.9169782697085
          },
          "southwest": {
            "lat": 40.8147917197085,
            "lng": -73.91967623029151
          }
        }
      },
      "icon": "https://maps.gstatic.com/mapfiles/place_api/icons/v1/png_71/generic_business-71.png",
      "icon_background_color": "#7B9EB0",
      "icon_mask_base_uri": "https://maps.gstatic.com/mapfiles/place_api/icons/v2/generic_pinlet",
      "name": "New Horizon Management LLC",
      "permanently_closed": true,
      "place_id": "ChIJAbzMtMj1wokRu_I35gdNfHY",
      "plus_code": {
        "compound_code": "R38J+CM The Bronx, NY, USA",
        "global_code": "87G8R38J+CM"
      },
      "reference": "ChIJAbzMtMj1wokRu_I35gdNfHY",
      "scope": "GOOGLE",
      "types": [
        "point_of_interest",
        "establishment"
      ],
      "vicinity": "384 East 149th Street #526, The Bronx"
    },
    {
      "business_status": "OPERATIONAL",
      "geometry": {
        "location": {
          "lat": 40.8160816,
          "lng": -73.9183536
        },
        "viewport": {
          "northeast": {
            "lat": 40.8174896802915,
            "lng": -73.9169782697085
          },
          "southwest": {
            "lat": 40.8147917197085,
            "lng": -73.91967623029151
          }
        }
      },
      "icon": "https://maps.gstatic.com/mapfiles/place_api/icons/v1/png_71/generic_business-71.png",
      "icon_background_color": "#7B9EB0",
      "icon_mask_base_uri": "https://maps.gstatic.com/mapfiles/place_api/icons/v2/generic_pinlet",
      "name": "Roman Clinics: Roman Jaime F MD",
      "place_id": "ChIJAbzMtMj1wokRjnKijNdEBy4",
      "plus_code": {
        "compound_code": "R38J+CM The Bronx, NY, USA",
        "global_code": "87G8R38J+CM"
      },
      "reference": "ChIJAbzMtMj1wokRjnKijNdEBy4",
      "scope": "GOOGLE",
      "types": [
        "doctor",
        "health",
        "point_of_interest",
        "establishment"
      ],
      "vicinity": "384 East 149th Street, The Bronx"
    },
    {
      "business_status": "CLOSED_TEMPORARILY",
      "geometry": {
        "location": {
          "lat": 40.81712,
          "lng": -73.92034009999999
        },
        "viewport": {
          "northeast": {
            "lat": 40.8183339302915,
            "lng": -73.9190521197085
          },
          "southwest": {
            "lat": 40.8156359697085,
            "lng": -73.9217500802915
          }
        }
      },
      "icon": "https://maps.gstatic.com/mapfiles/place_api/icons/v1/png_71/school-71.png",
      "icon_background_color": "#7B9EB0",
      "icon_mask_base_uri": "https://maps.gstatic.com/mapfiles/place_api/icons/v2/school_pinlet",
      "name": "Sobro Strive & Excel",
      "permanently_closed": true,
      "place_id": "ChIJvXEMGs_1wokR7eHwo0qkYWU",
      "plus_code": {
        "compound_code": "R38H+RV New York, NY, USA",
        "global_code": "87G8R38H+RV"
      },
      "reference": "ChIJvXEMGs_1wokR7eHwo0qkYWU",
      "scope": "GOOGLE",
      "types": [
        "school",
        "point_of_interest",
        "establishment"
      ],
      "vicinity": "329 East 149th Street, The Bronx"
    },
    {
      "business_status": "OPERATIONAL",
      "geometry": {
        "location": {
          "lat": 40.8128,
          "lng": -73.91929999999999
        },
        "viewport": {
          "northeast": {
            "lat": 40.81403958029149,
            "lng": -73.91798246970848
          },
          "southwest": {
            "lat": 40.81134161970849,
            "lng": -73.9206804302915
          }
        }
      },
      "icon": "https://maps.gstatic.com/mapfiles/place_api/icons/v1/png_71/school-71.png",
      "icon_background_color": "#7B9EB0",
      "icon_mask_base_uri": "https://maps.gstatic.com/mapfiles/place_api/icons/v2/school_pinlet",
      "name": "Brilla Public Charter Schools - Brilla College Prep Elementary",
      "opening_hours": {
        "open_now": false
      },
      "photos": [
        {
          "height": 2988,
          "html_attributions": [
            "<a href=\"https://maps.google.com/maps/contrib/105214056743342860322\">P. E</a>"
          ],
          "photo_reference": "AeJbb3czGtd9cAFMa8x3yLOQ9F2SXohIlI5EkzoP_Nc34iHPNNWB76OSgEnef8FemrLQOafroB9Hs7BStTXQ3iNLq2SrjXbT2aaifMSrAbdA_ed8CLEdlEhv8-6simy1HsK2DSkHIyEnIE6nwfc8pmmdUmEXLOHKt0OjhFQnA2GV8yB1gW9g",
          "width": 5312
        }
      ],
      "place_id": "ChIJsdX6zMX1wokRlsUKDCyiB-I",
      "plus_code": {
        "compound_code": "R37J+47 New York, NY, USA",
        "global_code": "87G8R37J+47"
      },
      "rating": 4.3,
      "reference": "ChIJsdX6zMX1wokRlsUKDCyiB-I",
      "scope": "GOOGLE",
      "types": [
        "school",
        "point_of_interest",
        "establishment"
      ],
      "user_ratings_total": 22,
      "vicinity": "413 East 144th Street, The Bronx"
    },
    {
      "business_status": "OPERATIONAL",
      "geometry": {
        "location": {
          "lat": 40.8196661,
          "lng": -73.9132353
        },
        "viewport": {
          "northeast": {
            "lat": 40.82104743029149,
            "lng": -73.9119587197085
          },
          "southwest": {
            "lat": 40.8183494697085,
            "lng": -73.91465668029151
          }
        }
      },
      "icon": "https://maps.gstatic.com/mapfiles/place_api/icons/v1/png_71/civic_building-71.png",
      "icon_background_color": "#7B9EB0",
      "icon_mask_base_uri": "https://maps.gstatic.com/mapfiles/place_api/icons/v2/civic-bldg_pinlet",
      "name": "Bronx Community Board 1",
      "opening_hours": {
        "open_now": true
      },
      "place_id": "ChIJAbzMtMj1wokRHPAjb1xQYPM",
      "plus_code": {
        "compound_code": "R39P+VP New York, NY, USA",
        "global_code": "87G8R39P+VP"
      },
      "rating": 3.7,
      "reference": "ChIJAbzMtMj1wokRHPAjb1xQYPM",
      "scope": "GOOGLE",
      "types": [
        "local_government_office",
        "point_of_interest",
        "establishment"
      ],
      "user_ratings_total": 6,
      "vicinity": "3024 3rd Avenue, The Bronx"
    },
    {
      "business_status": "OPERATIONAL",
      "geometry": {
        "location": {
          "lat": 40.8177295,
          "lng": -73.9182536
        },
        "viewport": {
          "northeast": {
            "lat": 40.81911213029149,
            "lng": -73.91688941970848
          },
          "southwest": {
            "lat": 40.81641416970849,
            "lng": -73.9195873802915
          }
        }
      },
      "icon": "https://maps.gstatic.com/mapfiles/place_api/icons/v1/png_71/generic_business-71.png",
      "icon_background_color": "#7B9EB0",
      "icon_mask_base_uri": "https://maps.gstatic.com/mapfiles/place_api/icons/v2/generic_pinlet",
      "name": "The New York Foundling Mott Haven Preventive Services",
      "place_id": "ChIJAzV7ZML1wokRTvWrS2v0ISU",
      "plus_code": {
        "compound_code": "R39J+3M The Bronx, NY, USA",
        "global_code": "87G8R39J+3M"
      },
      "rating": 3,
      "reference": "ChIJAzV7ZML1wokRTvWrS2v0ISU",
      "scope": "GOOGLE",
      "types": [
        "point_of_interest",
        "establishment"
      ],
      "user_ratings_total": 12,
      "vicinity": "364 East 151st Street, The Bronx"
    },
    {
      "business_status": "OPERATIONAL",
      "geometry": {
        "location": {
          "lat": 40.817132,
          "lng": -73.9150854
        },
        "viewport": {
          "northeast": {
            "lat": 40.8186823302915,
            "lng": -73.91400271970849
          },
          "southwest": {
            "lat": 40.8159843697085,
            "lng": -73.9167006802915
          }
        }
      },
      "icon": "https://maps.gstatic.com/mapfiles/place_api/icons/v1/png_71/shopping-71.png",
      "icon_background_color": "#4B96F3",
      "icon_mask_base_uri": "https://maps.gstatic.com/mapfiles/place_api/icons/v2/shopping_pinlet",
      "name": "YOUNGLAND STORES",
      "opening_hours": {
        "open_now": true
      },
      "photos": [
        {
          "height": 3264,
          "html_attributions": [
            "<a href=\"https://maps.google.com/maps/contrib/104318656290350571346\">Darlene jackson</a>"
          ],
          "photo_reference": "AeJbb3egxH9F50pYebyweGz2IQPPyVOlVFCtd73ak38hkRBBH75AhnIL2x0rzrpPpA12sXU5EPV9jmkAvPaC1BDB-PcaRbJBKJmYu9TJVBklZ0pTM1KUOz2QybF72DRk-pCVvBAiMwa--xWtRwcLoYfFaXXdZNVlgzNzmRmjdRu4I_ZZf99C",
          "width": 2448
        }
      ],
      "place_id": "ChIJd3k7B8n1wokROwzxv55aU6s",
      "plus_code": {
        "compound_code": "R38M+VX New York, NY, USA",
        "global_code": "87G8R38M+VX"
      },
      "rating": 4.3,
      "reference": "ChIJd3k7B8n1wokROwzxv55aU6s",
      "scope": "GOOGLE",
      "types": [
        "clothing_store",
        "store",
        "point_of_interest",
        "establishment"
      ],
      "user_ratings_total": 264,
      "vicinity": "2922 3rd Avenue, The Bronx"
    },
    {
      "business_status": "OPERATIONAL",
      "geometry": {
        "location": {
          "lat": 40.8194696,
          "lng": -73.9133844
        },
        "viewport": {
          "northeast": {
            "lat": 40.82085423029149,
            "lng": -73.91210836970849
          },
          "southwest": {
            "lat": 40.8181562697085,
            "lng": -73.9148063302915
          }
        }
      },
      "icon": "https://maps.gstatic.com/mapfiles/place_api/icons/v1/png_71/generic_business-71.png",
      "icon_background_color": "#4B96F3",
      "icon_mask_base_uri": "https://maps.gstatic.com/mapfiles/place_api/icons/v2/generic_pinlet",
      "name": "Walgreens",
      "opening_hours": {
        "open_now": true
      },
      "photos": [
        {
          "height": 3000,
          "html_attributions": [
            "<a href=\"https://maps.google.com/maps/contrib/101361015038158888797\">Jorge Canizares</a>"
          ],
          "photo_reference": "AeJbb3dM_AGHi2x59axcOu1M2FUgNoCTUg2ayFE2YxHBJ2UHbSk0oxIjeuKsFruDQ6ZrO6RO-HefIDlUvNyHg_pn8OVCmHOKieAWHYPjHxVSTGp8rPNGberjpri4ZTpzsEXNsYXBNludb7CL2jq_aahDuwwhj-QT5XCkeJYgcKgJ8256tADu",
          "width": 4000
        }
      ],
      "place_id": "ChIJLaxnHMr1wokRVOHSFIdmQY0",
      "plus_code": {
        "compound_code": "R39P+QJ New York, NY, USA",
        "global_code": "87G8R39P+QJ"
      },
      "price_level": 2,
      "rating": 2.3,
      "reference": "ChIJLaxnHMr1wokRVOHSFIdmQY0",
      "scope": "GOOGLE",
      "types": [
        "drugstore",
        "clothing_store",
        "convenience_store",
        "health",
        "food",
        "store",
        "point_of_interest",
        "establishment"
      ],
      "user_ratings_total": 71,
      "vicinity": "3012 3rd Avenue, The Bronx"
    },
    {
      "business_status": "OPERATIONAL",
      "geometry": {
        "location": {
          "lat": 40.8160816,
          "lng": -73.9183536
        },
        "viewport": {
          "northeast": {
            "lat": 40.8174896802915,
            "lng": -73.9169782697085
          },
          "southwest": {
            "lat": 40.8147917197085,
            "lng": -73.91967623029151
          }
        }
      },
      "icon": "https://maps.gstatic.com/mapfiles/place_api/icons/v1/png_71/generic_business-71.png",
      "icon_background_color": "#7B9EB0",
      "icon_mask_base_uri": "https://maps.gstatic.com/mapfiles/place_api/icons/v2/generic_pinlet",
      "name": "Puerto Rican Family Institute",
      "place_id": "ChIJAbzMtMj1wokRtGcN-3-z6j0",
      "plus_code": {
        "compound_code": "R38J+CM The Bronx, NY, USA",
        "global_code": "87G8R38J+CM"
      },
      "rating": 4.5,
      "reference": "ChIJAbzMtMj1wokRtGcN-3-z6j0",
      "scope": "GOOGLE",
      "types": [
        "point_of_interest",
        "establishment"
      ],
      "user_ratings_total": 2,
      "vicinity": "384 East 149th Street #622, The Bronx"
    },
    {
      "business_status": "OPERATIONAL",
      "geometry": {
        "location": {
          "lat": 40.8164171,
          "lng": -73.9180002
        },
        "viewport": {
          "northeast": {
            "lat": 40.81767683029149,
            "lng": -73.91669091970849
          },
          "southwest": {
            "lat": 40.8149788697085,
            "lng": -73.9193888802915
          }
        }
      },
      "icon": "https://maps.gstatic.com/mapfiles/place_api/icons/v1/png_71/generic_business-71.png",
      "icon_background_color": "#7B9EB0",
      "icon_mask_base_uri": "https://maps.gstatic.com/mapfiles/place_api/icons/v2/generic_pinlet",
      "name": "Innovative Foot Care: Vinces Fausto DO",
      "place_id": "ChIJrZzry8j1wokRmPigsXMdxjY",
      "plus_code": {
        "compound_code": "R38J+HQ The Bronx, NY, USA",
        "global_code": "87G8R38J+HQ"
      },
      "reference": "ChIJrZzry8j1wokRmPigsXMdxjY",
      "scope": "GOOGLE",
      "types": [
        "doctor",
        "health",
        "point_of_interest",
        "establishment"
      ],
      "vicinity": "391 East 149th Street #216, The Bronx"
    },
    {
      "business_status": "OPERATIONAL",
      "geometry": {
        "location": {
          "lat": 40.8138868,
          "lng": -73.9201212
        },
        "viewport": {
          "northeast": {
            "lat": 40.8151736302915,
            "lng": -73.9188218697085
          },
          "southwest": {
            "lat": 40.8124756697085,
            "lng": -73.9215198302915
          }
        }
      },
      "icon": "https://maps.gstatic.com/mapfiles/place_api/icons/v1/png_71/generic_business-71.png",
      "icon_background_color": "#7B9EB0",
      "icon_mask_base_uri": "https://maps.gstatic.com/mapfiles/place_api/icons/v2/generic_pinlet",
      "name": "Mercy Center",
      "opening_hours": {
        "open_now": false
      },
      "photos": [
        {
          "height": 480,
          "html_attributions": [
            "<a href=\"https://maps.google.com/maps/contrib/113613667222036821308\">Mercy Center</a>"
          ],
          "photo_reference": "AeJbb3eCiEgalAmiR0X7nkm7iDnnl2CGzZkJ9bfja3VpsAkjnHhYjzQ7UCX8RLA0xFUt-sYV7QXtn9S_zubuiut9bkB6_qzu0Gc31YKuo6slLkaHQzqC4ISgTZqnM8pKEwMEyCfCOyly1rg0-6xufjRGqi1rFwqfJ5yhF4JTdiIJHf-c7l9j",
          "width": 640
        }
      ],
      "place_id": "ChIJT6G0vsX1wokRyttsDvzy1ds",
      "plus_code": {
        "compound_code": "R37H+HX New York, NY, USA",
        "global_code": "87G8R37H+HX"
      },
      "rating": 4.3,
      "reference": "ChIJT6G0vsX1wokRyttsDvzy1ds",
      "scope": "GOOGLE",
      "types": [
        "point_of_interest",
        "establishment"
      ],
      "user_ratings_total": 143,
      "vicinity": "377 East 145th Street, The Bronx"
    }
  ],
  "status": "OK"
}