{
  "html_attributions": [],
  "results": [
    {
      "geometry": {
        "location": {
          "lat": 40.7127753,
          "lng": -74.0059728
        },
        "viewport": {
          "northeast": {
            "lat": 40.91757705070789,
            "lng": -73.70027206817629
          },
          "southwest": {
            "lat": 40.47739906045452,
            "lng": -74.25908991427882
          }
        }
      },
      "icon": "https://maps.gstatic.com/mapfiles/place_api/icons/v1/png_71/geocode-71.png",
      "icon_background_color": "#7B9EB0",
      "icon_mask_base_uri": "https://maps.gstatic.com/mapfiles/place_api/icons/v2/generic_pinlet",
      "name": "\u7d10\u7d04",
      "photos": [
        {
          "height": 600,
          "html_attributions": [
            "<a href=\"https://maps.google.com/maps/contrib/102389334567210814614\">Bukurie</a>"
          ],
          "photo_reference": "AeJbb3dkGrKz1v4jQqJ_1UYAQZ6GEqc6xqrZvcVnjSpuw7IaRaXko9uLLtZEh4dS3RKefdd4HSg4cf5pRSaka_xKueJum8ghnj3HK4TcPC4gh_HLj-rR13hWDC4SmzjZQA-gsBRaDF5VAgg31oZ3MOsJfFWXkwAB2GhijtwurwUl5qc-cv_N",
          "width": 480
        }
      ],
      "place_id": "ChIJOwg_06VPwokRYv534QaPC8g",
      "reference": "ChIJOwg_06VPwokRYv534QaPC8g",
      "scope": "GOOGLE",
      "types": [
        "locality",
        "political"
      ],
      "vicinity": "\u7d10\u7d04"
    },
    {
      "business_status": "OPERATIONAL",
      "geometry": {
        "location": {
          "lat": 40.8143104,
          "lng": -73.93950869999999
        },
        "viewport": {
          "northeast": {
            "lat": 40.8160867302915,
            "lng": -73.93859461970848
          },
          "southwest": {
            "lat": 40.8133887697085,
            "lng": -73.94129258029149
          }
        }
      },
      "icon": "https://maps.gstatic.com/mapfiles/place_api/icons/v1/png_71/hospital-71.png",
      "icon_background_color": "#F88181",
      "icon_mask_base_uri": "https://maps.gstatic.com/mapfiles/place_api/icons/v2/hospital-H_pinlet",
      "name": "Harlem Hospitals",
      "opening_hours": {
        "open_now": true
      },
      "photos": [
        {
          "height": 3669,
          "html_attributions": [
            "<a href=\"https://maps.google.com/maps/contrib/108293363885318832487\">Adele H Rahte</a>"
          ],
          "photo_reference": "AeJbb3dZheo5HAkkGqj_c8_mSrZJV6bXCXswFV3KcJgnRKq3EYL1jsDlPfRN2MC4yuBIuLZPmwUy-RjzrhD7LAH4dLaiutlZgIoAo4tSAS8gWMB42g_VP6-QJsijJzhM2sTQ-JyP2ZcR_FsMeAKngpQwC6kH8XRHEdfaIEBNsY164aluuD58",
          "width": 2842
        }
      ],
      "place_id": "ChIJxyP7YHb2wokRbxR-lIlJmWY",
      "plus_code": {
        "compound_code": "R376+P5 \u7f8e\u570b\u7d10\u7d04",
        "global_code": "87G8R376+P5"
      },
      "rating": 2.7,
      "reference": "ChIJxyP7YHb2wokRbxR-lIlJmWY",
      "scope": "GOOGLE",
      "types": [
        "hospital",
        "health",
        "point_of_interest",
        "establishment"
      ],
      "user_ratings_total": 374,
      "vicinity": "506 Lenox Avenue, New York"
    },
    {
      "business_status": "OPERATIONAL",
      "geometry": {
        "location": {
          "lat": 40.8152098,
          "lng": -73.9442466
        },
        "viewport": {
          "northeast": {
            "lat": 40.8165833802915,
            "lng": -73.9427127197085
          },
          "southwest": {
            "lat": 40.8138854197085,
            "lng": -73.94541068029152
          }
        }
      },
      "icon": "https://maps.gstatic.com/mapfiles/place_api/icons/v1/png_71/restaurant-71.png",
      "icon_background_color": "#FF9E67",
      "icon_mask_base_uri": "https://maps.gstatic.com/mapfiles/place_api/icons/v2/restaurant_pinlet",
      "name": "IHOP",
      "opening_hours": {
        "open_now": true
      },
      "photos": [
        {
          "height": 909,
          "html_attributions": [
            "<a href=\"https://maps.google.com/maps/contrib/112277157820165191857\">Sunny Simantov</a>"
          ],
          "photo_reference": "AeJbb3d3IWkkQGhWJGlVBszclgRIt2pDYO2738Ry8afACRlc-Zrms9mQmZUssZjK7FFV38bwTLVxLI9lAcuYg64ldGSYbNvVXRBWXLn_UQZqZZfc4TgG1O_ti7ljQJfUDjWwoBvTkrHJvxTBHnl4g4teZRRvxYWesFvGpysEQ0gKTD0itsoo",
          "width": 1237
        }
      ],
      "place_id": "ChIJEWqoEnH2wokR3u3rkP28jKA",
      "plus_code": {
        "compound_code": "R384+38 \u7f8e\u570b\u7d10\u7d04",
        "global_code": "87G8R384+38"
      },
      "price_level": 1,
      "rating": 3.7,
      "reference": "ChIJEWqoEnH2wokR3u3rkP28jKA",
      "scope": "GOOGLE",
      "types": [
        "restaurant",
        "point_of_interest",
        "food",
        "establishment"
      ],
      "user_ratings_total": 2079,
      "vicinity": "2294 Adam Clayton Powell Junior Boulevard, New York"
    },
    {
      "business_status": "OPERATIONAL",
      "geometry": {
        "location": {
          "lat": 40.814713,
          "lng": -73.94301089999999
        },
        "viewport": {
          "northeast": {
            "lat": 40.8161990802915,
            "lng": -73.9415450197085
          },
          "southwest": {
            "lat": 40.8135011197085,
            "lng": -73.9442429802915
          }
        }
      },
      "icon": "https://maps.gstatic.com/mapfiles/place_api/icons/v1/png_71/school-71.png",
      "icon_background_color": "#7B9EB0",
      "icon_mask_base_uri": "https://maps.gstatic.com/mapfiles/place_api/icons/v2/school_pinlet",
      "name": "Harlem YMCA",
      "opening_hours": {
        "open_now": false
      },
      "photos": [
        {
          "height": 900,
          "html_attributions": [
            "<a href=\"https://maps.google.com/maps/contrib/108605778596958236375\">Igor Ostrovsky</a>"
          ],
          "photo_reference": "AeJbb3cz9LOT4WUb58hRJSmvFdnYrNTo47oD8bghXl1cd-F267aq2Gn_CpFXLHIA4Tdf5iRr0ahXxxmEucFm9qZDgdl2kjC6DKuMfC8ds_3WaKgycO13ei_498B2_KQV1sVYgCTVjKrI2tdYqnttTS9Q3JSLrSKjw_8l8NKVTYKqJlMaX7T5",
          "width": 1200
        }
      ],
      "place_id": "ChIJyf_MQHH2wokRL7_YjdVKc78",
      "plus_code": {
        "compound_code": "R374+VQ \u7f8e\u570b\u7d10\u7d04",
        "global_code": "87G8R374+VQ"
      },
      "rating": 3.7,
      "reference": "ChIJyf_MQHH2wokRL7_YjdVKc78",
      "scope": "GOOGLE",
      "types": [
        "tourist_attraction",
        "gym",
        "health",
        "point_of_interest",
        "establishment"
      ],
      "user_ratings_total": 138,
      "vicinity": "180 West 135th Street, New York"
    },
    {
      "business_status": "OPERATIONAL",
      "geometry": {
        "location": {
          "lat": 40.8142872,
          "lng": -73.9401278
        },
        "viewport": {
          "northeast": {
            "lat": 40.8156871302915,
            "lng": -73.93899731970849
          },
          "southwest": {
            "lat": 40.8129891697085,
            "lng": -73.9416952802915
          }
        }
      },
      "icon": "https://maps.gstatic.com/mapfiles/place_api/icons/v1/png_71/hospital-71.png",
      "icon_background_color": "#F88181",
      "icon_mask_base_uri": "https://maps.gstatic.com/mapfiles/place_api/icons/v2/hospital-H_pinlet",
      "name": "Harlem Hospital Psychiatry",
      "photos": [
        {
          "height": 2944,
          "html_attributions": [
            "<a href=\"https://maps.google.com/maps/contrib/108293363885318832487\">Adele H Rahte</a>"
          ],
          "photo_reference": "AeJbb3eikEIAd2RMUFutgCKaswUEDjL9fUxsADAfaHyi52NIUrxtMhY0XGFNU_5apF79whzenzHaGmP6GFFeIkcGQQE1-DJXcljLR1K8XwYfY7_sySI1rgk5Bln2kn7obBOPFY1lalOywkGl0aprCeSs5fHe8FV_YGl5lzrhGae_rYI0M3_s",
          "width": 3925
        }
      ],
      "place_id": "ChIJ2TuL6Xb2wokRISkxHMOHQJU",
      "plus_code": {
        "compound_code": "R375+PW \u7f8e\u570b\u7d10\u7d04",
        "global_code": "87G8R375+PW"
      },
      "rating": 1.9,
      "reference": "ChIJ2TuL6Xb2wokRISkxHMOHQJU",
      "scope": "GOOGLE",
      "types": [
        "hospital",
        "health",
        "point_of_interest",
        "establishment"
      ],
      "user_ratings_total": 8,
      "vicinity": "506 Malcolm X Boulevard, New York"
    },
    {
      "business_status": "OPERATIONAL",
      "geometry": {
        "location": {
          "lat": 40.8206701,
          "lng": -73.9438883
        },
        "viewport": {
          "northeast": {
            "lat": 40.8219811302915,
            "lng": -73.9423777197085
          },
          "southwest": {
            "lat": 40.81928316970851,
            "lng": -73.94507568029151
          }
        }
      },
      "icon": "https://maps.gstatic.com/mapfiles/place_api/icons/v1/png_71/restaurant-71.png",
      "icon_background_color": "#FF9E67",
      "icon_mask_base_uri": "https://maps.gstatic.com/mapfiles/place_api/icons/v2/restaurant_pinlet",
      "name": "Mama Tina's Pizzeria",
      "opening_hours": {
        "open_now": true
      },
      "photos": [
        {
          "height": 1960,
          "html_attributions": [
            "<a href=\"https://maps.google.com/maps/contrib/113300531743846554788\">Allen Chukwuhdi</a>"
          ],
          "photo_reference": "AeJbb3dA4qg0nYJv8AneV98e1O3xImKeZD8F1MgsJp64ue64Dveamj6Rae8_VTyqDs9Kdi6M9aON-qw6dnQnbhcCqoUtQhFu1N8nbFj9DlZZqLuHPvjIsFbJbwZDAo5unqHhU7r2BuQElXAzZgg9hktU7fYH5470hJ1PKNldM1fU7RTx5KCt",
          "width": 4032
        }
      ],
      "place_id": "ChIJe4_bTnr2wokRWPwq8n5DKdk",
      "plus_code": {
        "compound_code": "R3C4+7C \u7f8e\u570b\u7d10\u7d04",
        "global_code": "87G8R3C4+7C"
      },
      "price_level": 1,
      "rating": 3.8,
      "reference": "ChIJe4_bTnr2wokRWPwq8n5DKdk",
      "scope": "GOOGLE",
      "types": [
        "meal_delivery",
        "restaurant",
        "point_of_interest",
        "food",
        "establishment"
      ],
      "user_ratings_total": 145,
      "vicinity": "2649 Frederick Douglass Boulevard, New York"
    },
    {
      "business_status": "OPERATIONAL",
      "geometry": {
        "location": {
          "lat": 40.814307,
          "lng": -73.94405189999999
        },
        "viewport": {
          "northeast": {
            "lat": 40.8157043802915,
            "lng": -73.94280821970848
          },
          "southwest": {
            "lat": 40.8130064197085,
            "lng": -73.94550618029149
          }
        }
      },
      "icon": "https://maps.gstatic.com/mapfiles/place_api/icons/v1/png_71/generic_business-71.png",
      "icon_background_color": "#13B5C7",
      "icon_mask_base_uri": "https://maps.gstatic.com/mapfiles/place_api/icons/v2/generic_pinlet",
      "name": "Shrine",
      "opening_hours": {
        "open_now": false
      },
      "photos": [
        {
          "height": 3024,
          "html_attributions": [
            "<a href=\"https://maps.google.com/maps/contrib/116643789240795399865\">India</a>"
          ],
          "photo_reference": "AeJbb3ce3SSIUysB-s41e8ObyR-CxZG-meMjM7WLpzNpOJKTPesujW-AfOO2ctt2h8MjEFH6nZDkN1_7VmFp0ttIUR5LXYv2um2cJ4PSGEaq6JBrlbNY0e0TJTEt9aHMMV5hixKjIbv9vpwQxmQElBm5vmKfOQhRjwXJ5RjNpHWhsSLpcNsa",
          "width": 4032
        }
      ],
      "place_id": "ChIJmU3ycHH2wokR6A8gMLe9sNY",
      "plus_code": {
        "compound_code": "R374+P9 \u7f8e\u570b\u7d10\u7d04",
        "global_code": "87G8R374+P9"
      },
      "price_level": 1,
      "rating": 4.5,
      "reference": "ChIJmU3ycHH2wokR6A8gMLe9sNY",
      "scope": "GOOGLE",
      "types": [
        "tourist_attraction",
        "restaurant",
        "bar",
        "point_of_interest",
        "food",
        "establishment"
      ],
      "user_ratings_total": 1482,
      "vicinity": "2271 Adam Clayton Powell Junior Boulevard, New York"
    },
    {
      "business_status": "OPERATIONAL",
      "geometry": {
        "location": {
          "lat": 40.8159,
          "lng": -73.9418
        },
        "viewport": {
          "northeast": {
            "lat": 40.81736808029149,
            "lng": -73.9403635697085
          },
          "southwest": {
            "lat": 40.8146701197085,
            "lng": -73.9430615302915
          }
        }
      },
      "icon": "https://maps.gstatic.com/mapfiles/place_api/icons/v1/png_71/worship_general-71.png",
      "icon_background_color": "#7B9EB0",
      "icon_mask_base_uri": "https://maps.gstatic.com/mapfiles/place_api/icons/v2/worship_christian_pinlet",
      "name": "Mother AME Zion Church",
      "photos": [
        {
          "height": 400,
          "html_attributions": [
            "<a href=\"https://maps.google.com/maps/contrib/109940272495430378504\">Arthur</a>"
          ],
          "photo_reference": "AeJbb3fGpG1d_jze3Zk98UaDQdgfiGhZJxNjw3vCjxgwB6oyMymkF40gQ8aWtPsesSxsO1WBnKr9HYE0U8cXTwb44XCyYklm5Z00T0yvOg0kqkZRP2ejzYzqdk2otAX0Ib2z3yr65MXfVfARia6wFska4MqTAQ7lB1UKhOF8cPkqlAzN0YHy",
          "width": 600
        }
      ],
      "place_id": "ChIJ96tBLHH2wokRonFCXPqt_0k",
      "plus_code": {
        "compound_code": "R385+97 \u7f8e\u570b\u7d10\u7d04",
        "global_code": "87G8R385+97"
      },
      "rating": 4.4,
      "reference": "ChIJ96tBLHH2wokRonFCXPqt_0k",
      "scope": "GOOGLE",
      "types": [
        "tourist_attraction",
        "church",
        "place_of_worship",
        "point_of_interest",
        "establishment"
      ],
      "user_ratings_total": 102,
      "vicinity": "140 West 137th Street, New York"
    },
    {
      "business_status": "OPERATIONAL",
      "geometry": {
        "location": {
          "lat": 40.817349,
          "lng": -73.94745
        },
        "viewport": {
          "northeast": {
            "lat": 40.81874798029149,
            "lng": -73.94620501970849
          },
          "southwest": {
            "lat": 40.8160500197085,
            "lng": -73.94890298029149
          }
        }
      },
      "icon": "https://maps.gstatic.com/mapfiles/place_api/icons/v1/png_71/school-71.png",
      "icon_background_color": "#7B9EB0",
      "icon_mask_base_uri": "https://maps.gstatic.com/mapfiles/place_api/icons/v2/school_pinlet",
      "name": "Mott Hall High School",
      "opening_hours": {
        "open_now": false
      },
      "photos": [
        {
          "height": 3706,
          "html_attributions": [
            "<a href=\"https://maps.google.com/maps/contrib/115649449634943469330\">Adri\u00e1n RP</a>"
          ],
          "photo_reference": "AeJbb3ewK_Rd0NEDsnRbxnPrpm-5ix6Ku2pdG-xJu59fArCQr9xlDr36YLeQMiZ1nFznzlAIMudwRKVVRGcEaiT7lZbR8dH_jn7EiQY1Qm86TcoNsdUtT-3fvDW38ke9mNBBuOwZqEKwlo-tS1S-9PtWUXc6Bmf9m5_lOUafCnS4IWhchnXK",
          "width": 8028
        }
      ],
      "place_id": "ChIJX1s2JnD2wokRVZy__wMS2Gs",
      "plus_code": {
        "compound_code": "R383+W2 \u7f8e\u570b\u7d10\u7d04",
        "global_code": "87G8R383+W2"
      },
      "rating": 3.3,
      "reference": "ChIJX1s2JnD2wokRVZy__wMS2Gs",
      "scope": "GOOGLE",
      "types": [
        "secondary_school",
        "school",
        "point_of_interest",
        "establishment"
      ],
      "user_ratings_total": 13,
      "vicinity": "6 Edgecombe Avenue 4th floor, New York"
    },
    {
      "business_status": "CLOSED_TEMPORARILY",
      "geometry": {
        "location": {
          "lat": 40.8152484,
          "lng": -73.9443203
        },
        "viewport": {
          "northeast": {
            "lat": 40.8167248802915,
            "lng": -73.94287751970849
          },
          "southwest": {
            "lat": 40.8140269197085,
            "lng": -73.94557548029151
          }
        }
      },
      "icon": "https://maps.gstatic.com/mapfiles/place_api/icons/v1/png_71/school-71.png",
      "icon_background_color": "#7B9EB0",
      "icon_mask_base_uri": "https://maps.gstatic.com/mapfiles/place_api/icons/v2/school_pinlet",
      "name": "New York City Board of Edu",
      "permanently_closed": true,
      "place_id": "ChIJ3a9dDnH2wokRh3xw1BjI9G0",
      "plus_code": {
        "compound_code": "R384+37 \u7f8e\u570b\u7d10\u7d04",
        "global_code": "87G8R384+37"
      },
      "reference": "ChIJ3a9dDnH2wokRh3xw1BjI9G0",
      "scope": "GOOGLE",
      "types": [
        "school",
        "point_of_interest",
        "establishment"
      ],
      "vicinity": "200 West 135th Street #214, New York"
    },
    {
      "business_status": "OPERATIONAL",
      "geometry": {
        "location": {
          "lat": 40.8165905,
          "lng": -73.93944340000002
        },
        "viewport": {
          "northeast": {
            "lat": 40.81791183029151,
            "lng": -73.93797986970851
          },
          "southwest": {
            "lat": 40.81521386970851,
            "lng": -73.94067783029152
          }
        }
      },
      "icon": "https://maps.gstatic.com/mapfiles/place_api/icons/v1/png_71/restaurant-71.png",
      "icon_background_color": "#FF9E67",
      "icon_mask_base_uri": "https://maps.gstatic.com/mapfiles/place_api/icons/v2/restaurant_pinlet",
      "name": "Subway",
      "opening_hours": {
        "open_now": true
      },
      "photos": [
        {
          "height": 2322,
          "html_attributions": [
            "<a href=\"https://maps.google.com/maps/contrib/108483543945650864601\">Kalam Chowdhury M.Ed, MD.</a>"
          ],
          "photo_reference": "AeJbb3cp6J4e2VLhGe3JmgSIMwlVwL4DXTrxg8ZIPGEAkK9H_Vn9lwIeqcKBVspbiQ4ty5hkkEzslWdpY3xozegKIQbVD6dl3VKLJlnvxbzQkObwj4qoSsxytaq2f7Mr7lnpWQjIBGStv8p6-N3Tg6FpQisHB9vTpipX9E7fxW4OKMfjFSHa",
          "width": 4128
        }
      ],
      "place_id": "ChIJRQnIrNb1wokRYfdN3JgKKVI",
      "plus_code": {
        "compound_code": "R386+J6 \u7f8e\u570b\u7d10\u7d04",
        "global_code": "87G8R386+J6"
      },
      "price_level": 1,
      "rating": 3.8,
      "reference": "ChIJRQnIrNb1wokRYfdN3JgKKVI",
      "scope": "GOOGLE",
      "types": [
        "meal_takeaway",
        "restaurant",
        "point_of_interest",
        "food",
        "establishment"
      ],
      "user_ratings_total": 89,
      "vicinity": "563 Malcolm X Boulevard Store #2, New York"
    },
    {
      "business_status": "OPERATIONAL",
      "geometry": {
        "location": {
          "lat": 40.8162917,
          "lng": -73.9373803
        },
        "viewport": {
          "northeast": {
            "lat": 40.8175335302915,
            "lng": -73.9361095697085
          },
          "southwest": {
            "lat": 40.8148355697085,
            "lng": -73.93880753029151
          }
        }
      },
      "icon": "https://maps.gstatic.com/mapfiles/place_api/icons/v1/png_71/generic_business-71.png",
      "icon_background_color": "#7B9EB0",
      "icon_mask_base_uri": "https://maps.gstatic.com/mapfiles/place_api/icons/v2/generic_pinlet",
      "name": "Ragland Yolanda MD",
      "place_id": "ChIJnwi9wHf2wokR1eaysE_2J8Y",
      "plus_code": {
        "compound_code": "R387+G2 \u7f8e\u570b\u7d10\u7d04",
        "global_code": "87G8R387+G2"
      },
      "reference": "ChIJnwi9wHf2wokR1eaysE_2J8Y",
      "scope": "GOOGLE",
      "types": [
        "doctor",
        "health",
        "point_of_interest",
        "establishment"
      ],
      "vicinity": "45 West 139th Street # 14k, New York"
    },
    {
      "business_status": "OPERATIONAL",
      "geometry": {
        "location": {
          "lat": 40.816029,
          "lng": -73.9471605
        },
        "viewport": {
          "northeast": {
            "lat": 40.81733613029149,
            "lng": -73.9457105697085
          },
          "southwest": {
            "lat": 40.81463816970849,
            "lng": -73.94840853029152
          }
        }
      },
      "icon": "https://maps.gstatic.com/mapfiles/place_api/icons/v1/png_71/generic_business-71.png",
      "icon_background_color": "#7B9EB0",
      "icon_mask_base_uri": "https://maps.gstatic.com/mapfiles/place_api/icons/v2/generic_pinlet",
      "name": "Harlem Children's Zone Inc",
      "place_id": "ChIJrVDF2XH2wokRdSzzBuq2mmQ",
      "plus_code": {
        "compound_code": "R383+C4 \u7f8e\u570b\u7d10\u7d04",
        "global_code": "87G8R383+C4"
      },
      "rating": 4.1,
      "reference": "ChIJrVDF2XH2wokRdSzzBuq2mmQ",
      "scope": "GOOGLE",
      "types": [
        "point_of_interest",
        "establishment"
      ],
      "user_ratings_total": 10,
      "vicinity": "309 West 134th Street, New York"
    },
    {
      "business_status": "OPERATIONAL",
      "geometry": {
        "location": {
          "lat": 40.81668210000001,
          "lng": -73.9415561
        },
        "viewport": {
          "northeast": {
            "lat": 40.8181207302915,
            "lng": -73.94014031970849
          },
          "southwest": {
            "lat": 40.8154227697085,
            "lng": -73.9428382802915
          }
        }
      },
      "icon": "https://maps.gstatic.com/mapfiles/place_api/icons/v1/png_71/worship_general-71.png",
      "icon_background_color": "#7B9EB0",
      "icon_mask_base_uri": "https://maps.gstatic.com/mapfiles/place_api/icons/v2/worship_christian_pinlet",
      "name": "The Abyssinian Baptist Church",
      "opening_hours": {
        "open_now": true
      },
      "photos": [
        {
          "height": 4000,
          "html_attributions": [
            "<a href=\"https://maps.google.com/maps/contrib/115995788753552765081\">Nicola Losego</a>"
          ],
          "photo_reference": "AeJbb3dZ6AeUNkpRkLsjSgz4zbI_YWKTv7AcTLiFMpEsdnsRsrfGocxzO-StV1otde5BwSZn-x2u6n5eLi-v1Om-rDJoO44-hMra43XhyUQVawFi9AIctyE0IMrjDC42by24s09Xsdk9KK5ZdCfvZSiSQliPcic3k_coVZQVUp302xhAZt2u",
          "width": 6000
        }
      ],
      "place_id": "ChIJPzx-MXf2wokRErqUVkVnMHA",
      "plus_code": {
        "compound_code": "R385+M9 \u7f8e\u570b\u7d10\u7d04",
        "global_code": "87G8R385+M9"
      },
      "rating": 4.4,
      "reference": "ChIJPzx-MXf2wokRErqUVkVnMHA",
      "scope": "GOOGLE",
      "types": [
        "tourist_attraction",
        "church",
        "place_of_worship",
        "point_of_interest",
        "establishment"
      ],
      "user_ratings_total": 535,
      "vicinity": "132 West 138th Street, New York"
    },
    {
      "business_status": "OPERATIONAL",
      "geometry": {
        "location": {
          "lat": 40.81936,
          "lng": -73.9442579
        },
        "viewport": {
          "northeast": {
            "lat": 40.8207446802915,
            "lng": -73.9429899197085
          },
          "southwest": {
            "lat": 40.8180467197085,
            "lng": -73.9456878802915
          }
        }
      },
      "icon": "https://maps.gstatic.com/mapfiles/place_api/icons/v1/png_71/restaurant-71.png",
      "icon_background_color": "#FF9E67",
      "icon_mask_base_uri": "https://maps.gstatic.com/mapfiles/place_api/icons/v2/restaurant_pinlet",
      "name": "Londel's",
      "opening_hours": {
        "open_now": false
      },
      "photos": [
        {
          "height": 3456,
          "html_attributions": [
            "<a href=\"https://maps.google.com/maps/contrib/112467160281232031706\">sven vanden eeden</a>"
          ],
          "photo_reference": "AeJbb3crQZvuc8CwtGHVwoRS3NVkftqiGiZkEOnRqEnH5i7FvMoWFZ71XjGPkjUh4bzFaVUz8ZiLLtKRfg0P-B3WOxdu3FXlZG8gJkg0ILU0XG5CjzzfISu4nrG9Zu6FlL3fVM7lzxuP1bs5BHkCO-hhngI9l66bRD4FDE32UrgwOVD9PmzS",
          "width": 4608
        }
      ],
      "place_id": "ChIJs_TsZXr2wokRdBl8ZcKroXs",
      "plus_code": {
        "compound_code": "R394+P7 \u7f8e\u570b\u7d10\u7d04",
        "global_code": "87G8R394+P7"
      },
      "price_level": 2,
      "rating": 4.2,
      "reference": "ChIJs_TsZXr2wokRdBl8ZcKroXs",
      "scope": "GOOGLE",
      "types": [
        "restaurant",
        "point_of_interest",
        "food",
        "establishment"
      ],
      "user_ratings_total": 336,
      "vicinity": "2620 Frederick Douglass Boulevard, New York"
    },
    {
      "business_status": "OPERATIONAL",
      "geometry": {
        "location": {
          "lat": 40.81573059999999,
          "lng": -73.9453588
        },
        "viewport": {
          "northeast": {
            "lat": 40.8171939302915,
            "lng": -73.94393786970848
          },
          "southwest": {
            "lat": 40.8144959697085,
            "lng": -73.9466358302915
          }
        }
      },
      "icon": "https://maps.gstatic.com/mapfiles/place_api/icons/v1/png_71/civic_building-71.png",
      "icon_background_color": "#7B9EB0",
      "icon_mask_base_uri": "https://maps.gstatic.com/mapfiles/place_api/icons/v2/civic-bldg_pinlet",
      "name": "New York City Police Department - 32nd Precinct",
      "opening_hours": {
        "open_now": true
      },
      "photos": [
        {
          "height": 545,
          "html_attributions": [
            "<a href=\"https://maps.google.com/maps/contrib/112256927278672253993\">Fl\u00e1vio Souza</a>"
          ],
          "photo_reference": "AeJbb3d3tYQZ_UQoBQ4xQGVo5WS2N_miDNfNNtvCP63U9ZowVhfkyma2D5Whqp-ul7NbxsHMtK0PETCuHHYi0Jg2Lmla9eS4XlP8ruips2BVqCuJ7dnFZk2v65VBuJpqmsyOhnL7xGldBgvdo7-RGvTmLb53Zgpw3k40KlIg_NxLdjt8W7hg",
          "width": 897
        }
      ],
      "place_id": "ChIJcwi3tHH2wokRRAi0QMEdofQ",
      "plus_code": {
        "compound_code": "R383+7V \u7f8e\u570b\u7d10\u7d04",
        "global_code": "87G8R383+7V"
      },
      "rating": 3.3,
      "reference": "ChIJcwi3tHH2wokRRAi0QMEdofQ",
      "scope": "GOOGLE",
      "types": [
        "police",
        "point_of_interest",
        "establishment"
      ],
      "user_ratings_total": 33,
      "vicinity": "250 West 135th Street, New York"
    },
    {
      "business_status": "OPERATIONAL",
      "geometry": {
        "location": {
          "lat": 40.8159832,
          "lng": -73.9466278
        },
        "viewport": {
          "northeast": {
            "lat": 40.8173788802915,
            "lng": -73.9453936697085
          },
          "southwest": {
            "lat": 40.8146809197085,
            "lng": -73.9480916302915
          }
        }
      },
      "icon": "https://maps.gstatic.com/mapfiles/place_api/icons/v1/png_71/generic_business-71.png",
      "icon_background_color": "#7B9EB0",
      "icon_mask_base_uri": "https://maps.gstatic.com/mapfiles/place_api/icons/v2/generic_pinlet",
      "name": "Municipal Credit Union ATM",
      "opening_hours": {
        "open_now": true
      },
      "place_id": "ChIJm2sjz3H2wokRAO5KWSDjHBw",
      "plus_code": {
        "compound_code": "R383+98 \u7f8e\u570b\u7d10\u7d04",
        "global_code": "87G8R383+98"
      },
      "rating": 4,
      "reference": "ChIJm2sjz3H2wokRAO5KWSDjHBw",
      "scope": "GOOGLE",
      "types": [
        "finance",
        "point_of_interest",
        "establishment"
      ],
      "user_ratings_total": 8,
      "vicinity": "2518 Frederick Douglass Boulevard #3C, New York"
    },
    {
      "business_status": "OPERATIONAL",
      "geometry": {
        "location": {
          "lat": 40.8155905,
          "lng": -73.9369924
        },
        "viewport": {
          "northeast": {
            "lat": 40.81695988029149,
            "lng": -73.93544746970849
          },
          "southwest": {
            "lat": 40.81426191970849,
            "lng": -73.9381454302915
          }
        }
      },
      "icon": "https://maps.gstatic.com/mapfiles/place_api/icons/v1/png_71/school-71.png",
      "icon_background_color": "#7B9EB0",
      "icon_mask_base_uri": "https://maps.gstatic.com/mapfiles/place_api/icons/v2/school_pinlet",
      "name": "Child Development Center",
      "place_id": "ChIJa9BDXvdYwokRDT5YMl9et_4",
      "plus_code": {
        "compound_code": "R387+66 \u7f8e\u570b\u7d10\u7d04",
        "global_code": "87G8R387+66"
      },
      "rating": 3.9,
      "reference": "ChIJa9BDXvdYwokRDT5YMl9et_4",
      "scope": "GOOGLE",
      "types": [
        "school",
        "point_of_interest",
        "establishment"
      ],
      "user_ratings_total": 7,
      "vicinity": "34 West 139th Street, New York"
    },
    {
      "business_status": "OPERATIONAL",
      "geometry": {
        "location": {
          "lat": 40.8196118,
          "lng": -73.94105019999999
        },
        "viewport": {
          "northeast": {
            "lat": 40.8208939302915,
            "lng": -73.93956296970848
          },
          "southwest": {
            "lat": 40.8181959697085,
            "lng": -73.9422609302915
          }
        }
      },
      "icon": "https://maps.gstatic.com/mapfiles/place_api/icons/v1/png_71/generic_business-71.png",
      "icon_background_color": "#7B9EB0",
      "icon_mask_base_uri": "https://maps.gstatic.com/mapfiles/place_api/icons/v2/generic_pinlet",
      "name": "Hamilton",
      "opening_hours": {
        "open_now": false
      },
      "place_id": "ChIJ_RPukXn2wokRO4fHiKVRBhg",
      "plus_code": {
        "compound_code": "R395+RH \u7f8e\u570b\u7d10\u7d04",
        "global_code": "87G8R395+RH"
      },
      "rating": 1.8,
      "reference": "ChIJ_RPukXn2wokRO4fHiKVRBhg",
      "scope": "GOOGLE",
      "types": [
        "local_government_office",
        "point_of_interest",
        "establishment"
      ],
      "user_ratings_total": 13,
      "vicinity": "210 West 142nd Street, New York"
    },
    {
      "geometry": {
        "location": {
          "lat": 40.8240478,
          "lng": -73.9447643
        },
        "viewport": {
          "northeast": {
            "lat": 40.87822003591612,
            "lng": -73.91064591328563
          },
          "southwest": {
            "lat": 40.78278392408598,
            "lng": -73.97119006413347
          }
        }
      },
      "icon": "https://maps.gstatic.com/mapfiles/place_api/icons/v1/png_71/geocode-71.png",
      "icon_background_color": "#7B9EB0",
      "icon_mask_base_uri": "https://maps.gstatic.com/mapfiles/place_api/icons/v2/generic_pinlet",
      "name": "\u66fc\u54c8\u9813\u4e0a\u57ce",
      "photos": [
        {
          "height": 4000,
          "html_attributions": [
            "<a href=\"https://maps.google.com/maps/contrib/108665206705263687409\">Chris Lidstone</a>"
          ],
          "photo_reference": "AeJbb3fVoI-9a-nx41T4enNPfSJoB4C0dOLUFq3L56YzJ4WIfmF7M9SteRzQzDK6lod8Fv0IA3V7ixUKph_gqYBvH8ebuvWgwUOgxS8H43JhybONmTSaR-wL0sMe446oFwK4GgYTA4WW_tZz3HjMSnV8gqpfPWxijkhxUqDeQ9DwW80MVocn",
          "width": 3000
        }
      ],
      "place_id": "ChIJY50xHxP2wokR7WhhDNRmgRU",
      "reference": "ChIJY50xHxP2wokR7WhhDNRmgRU",
      "scope": "GOOGLE",
      "types": [
        "neighborhood",
        "political"
      ],
      "vicinity": "\u66fc\u54c8\u9813"
    },
    {
      "business_status": "OPERATIONAL",
      "geometry": {
        "location": {
          "lat": 40.81441960000001,
          "lng": -73.9451739
        },
        "viewport": {
          "northeast": {
            "lat": 40.8156983302915,
            "lng": -73.94387721970848
          },
          "southwest": {
            "lat": 40.8130003697085,
            "lng": -73.9465751802915
          }
        }
      },
      "icon": "https://maps.gstatic.com/mapfiles/place_api/icons/v1/png_71/school-71.png",
      "icon_background_color": "#7B9EB0",
      "icon_mask_base_uri": "https://maps.gstatic.com/mapfiles/place_api/icons/v2/school_pinlet",
      "name": "Democracy Prep Charter School",
      "place_id": "ChIJ9_XjnHH2wokRLEL4xgaarKI",
      "plus_code": {
        "compound_code": "R373+QW New York, NY, USA",
        "global_code": "87G8R373+QW"
      },
      "rating": 4,
      "reference": "ChIJ9_XjnHH2wokRLEL4xgaarKI",
      "scope": "GOOGLE",
      "types": [
        "secondary_school",
        "school",
        "point_of_interest",
        "establishment"
      ],
      "user_ratings_total": 8,
      "vicinity": "222 West 134th Street, New York"
    },
    {
      "business_status": "CLOSED_TEMPORARILY",
      "geometry": {
        "location": {
          "lat": 40.8148226,
          "lng": -73.94594740000001
        },
        "viewport": {
          "northeast": {
            "lat": 40.8163584302915,
            "lng": -73.94438836970849
          },
          "southwest": {
            "lat": 40.8136604697085,
            "lng": -73.9470863302915
          }
        }
      },
      "icon": "https://maps.gstatic.com/mapfiles/place_api/icons/v1/png_71/school-71.png",
      "icon_background_color": "#7B9EB0",
      "icon_mask_base_uri": "https://maps.gstatic.com/mapfiles/place_api/icons/v2/school_pinlet",
      "name": "Opportunity Charter School",
      "permanently_closed": true,
      "place_id": "ChIJM_aTmHH2wokRFlQekF5ZPTI",
      "plus_code": {
        "compound_code": "R373+WJ New York, NY, USA",
        "global_code": "87G8R373+WJ"
      },
      "reference": "ChIJM_aTmHH2wokRFlQekF5ZPTI",
      "scope": "GOOGLE",
      "types": [
        "school",
        "point_of_interest",
        "establishment"
      ],
      "vicinity": "222 West 134th Street, New York"
    },
    {
      "business_status": "OPERATIONAL",
      "geometry": {
        "location": {
          "lat": 40.8174042,
          "lng": -73.940099
        },
        "viewport": {
          "northeast": {
            "lat": 40.8189567302915,
            "lng": -73.9386029697085
          },
          "southwest": {
            "lat": 40.8162587697085,
            "lng": -73.94130093029152
          }
        }
      },
      "icon": "https://maps.gstatic.com/mapfiles/place_api/icons/v1/png_71/generic_business-71.png",
      "icon_background_color": "#7B9EB0",
      "icon_mask_base_uri": "https://maps.gstatic.com/mapfiles/place_api/icons/v2/generic_pinlet",
      "name": "PS 139 Senior Center",
      "place_id": "ChIJv0ZWb3f2wokR2xgIz4LY3Bc",
      "plus_code": {
        "compound_code": "R385+XX New York, NY, USA",
        "global_code": "87G8R385+XX"
      },
      "rating": 4.6,
      "reference": "ChIJv0ZWb3f2wokR2xgIz4LY3Bc",
      "scope": "GOOGLE",
      "types": [
        "point_of_interest",
        "establishment"
      ],
      "user_ratings_total": 8,
      "vicinity": "120 West 140th Street, New York"
    },
    {
      "business_status": "OPERATIONAL",
      "geometry": {
        "location": {
          "lat": 40.8142872,
          "lng": -73.9401278
        },
        "viewport": {
          "northeast": {
            "lat": 40.8156871302915,
            "lng": -73.93899731970849
          },
          "southwest": {
            "lat": 40.8129891697085,
            "lng": -73.9416952802915
          }
        }
      },
      "icon": "https://maps.gstatic.com/mapfiles/place_api/icons/v1/png_71/generic_business-71.png",
      "icon_background_color": "#7B9EB0",
      "icon_mask_base_uri": "https://maps.gstatic.com/mapfiles/place_api/icons/v2/generic_pinlet",
      "name": "Dr. Shearwood J. Mcclelland, MD",
      "place_id": "ChIJ2TuL6Xb2wokR1lDZ24JUXP8",
      "plus_code": {
        "compound_code": "R375+PW New York, NY, USA",
        "global_code": "87G8R375+PW"
      },
      "reference": "ChIJ2TuL6Xb2wokR1lDZ24JUXP8",
      "scope": "GOOGLE",
      "types": [
        "doctor",
        "health",
        "point_of_interest",
        "establishment"
      ],
      "vicinity": "506 Malcolm X Boulevard, New York"
    },
    {
      "business_status": "CLOSED_TEMPORARILY",
      "geometry": {
        "location": {
          "lat": 40.8175184,
          "lng": -73.94242559999999
        },
        "viewport": {
          "northeast": {
            "lat": 40.8188357302915,
            "lng": -73.94099516970849
          },
          "southwest": {
            "lat": 40.8161377697085,
            "lng": -73.9436931302915
          }
        }
      },
      "icon": "https://maps.gstatic.com/mapfiles/place_api/icons/v1/png_71/generic_business-71.png",
      "icon_background_color": "#7B9EB0",
      "icon_mask_base_uri": "https://maps.gstatic.com/mapfiles/place_api/icons/v2/generic_pinlet",
      "name": "Le Femme Suite",
      "permanently_closed": true,
      "photos": [
        {
          "height": 4000,
          "html_attributions": [
            "<a href=\"https://maps.google.com/maps/contrib/102121265381087849334\">TV M</a>"
          ],
          "photo_reference": "AeJbb3ewSXGW6YS0hv7-wV1frNlBz6Tzdepz2CvlBOXpkxevLHG-Ir0_4tojp3b7Uz2R4IPhcdTnOSiTw6C8el1Q3mzLS1L01wFb9-gVXSZvCiUWSxpP8uQM0eGTOnZJbSJaVvjBq-VtGPpwwc349UcmnIp9cUAvPZtclK70DSUw-WnWLFgf",
          "width": 3000
        }
      ],
      "place_id": "ChIJNaOzsHD2wokRYhuw3J8XnBw",
      "plus_code": {
        "compound_code": "R395+22 New York, NY, USA",
        "global_code": "87G8R395+22"
      },
      "rating": 4.5,
      "reference": "ChIJNaOzsHD2wokRYhuw3J8XnBw",
      "scope": "GOOGLE",
      "types": [
        "gym",
        "health",
        "point_of_interest",
        "establishment"
      ],
      "user_ratings_total": 38,
      "vicinity": "2364 Adam Clayton Powell Junior Boulevard, New York"
    },
    {
      "business_status": "OPERATIONAL",
      "geometry": {
        "location": {
          "lat": 40.8142872,
          "lng": -73.9401278
        },
        "viewport": {
          "northeast": {
            "lat": 40.8156871302915,
            "lng": -73.93899731970849
          },
          "southwest": {
            "lat": 40.8129891697085,
            "lng": -73.9416952802915
          }
        }
      },
      "icon": "https://maps.gstatic.com/mapfiles/place_api/icons/v1/png_71/generic_business-71.png",
      "icon_background_color": "#7B9EB0",
      "icon_mask_base_uri": "https://maps.gstatic.com/mapfiles/place_api/icons/v2/generic_pinlet",
      "name": "Dr. Claricio De Castro, MD",
      "place_id": "ChIJ2TuL6Xb2wokR_LuBvoDBnuA",
      "plus_code": {
        "compound_code": "R375+PW New York, NY, USA",
        "global_code": "87G8R375+PW"
      },
      "rating": 5,
      "reference": "ChIJ2TuL6Xb2wokR_LuBvoDBnuA",
      "scope": "GOOGLE",
      "types": [
        "doctor",
        "health",
        "point_of_interest",
        "establishment"
      ],
      "user_ratings_total": 2,
      "vicinity": "506 Malcolm X Boulevard, New York"
    },
    {
      "business_status": "OPERATIONAL",
      "geometry": {
        "location": {
          "lat": 40.8155908,
          "lng": -73.9370485
        },
        "viewport": {
          "northeast": {
            "lat": 40.81702163029149,
            "lng": -73.93552416970849
          },
          "southwest": {
            "lat": 40.8143236697085,
            "lng": -73.93822213029149
          }
        }
      },
      "icon": "https://maps.gstatic.com/mapfiles/place_api/icons/v1/png_71/generic_business-71.png",
      "icon_background_color": "#7B9EB0",
      "icon_mask_base_uri": "https://maps.gstatic.com/mapfiles/place_api/icons/v2/generic_pinlet",
      "name": "Jewish Board-Family & Children",
      "place_id": "ChIJR_dByXf2wokRpB1oxQdSdIo",
      "plus_code": {
        "compound_code": "R387+65 New York, NY, USA",
        "global_code": "87G8R387+65"
      },
      "rating": 2.3,
      "reference": "ChIJR_dByXf2wokRpB1oxQdSdIo",
      "scope": "GOOGLE",
      "types": [
        "health",
        "point_of_interest",
        "establishment"
      ],
      "user_ratings_total": 3,
      "vicinity": "34 West 139th Street # 1, New York"
    },
    {
      "business_status": "OPERATIONAL",
      "geometry": {
        "location": {
          "lat": 40.81416989999999,
          "lng": -73.9397803
        },
        "viewport": {
          "northeast": {
            "lat": 40.8156284802915,
            "lng": -73.93882356970849
          },
          "southwest": {
            "lat": 40.8129305197085,
            "lng": -73.94152153029151
          }
        }
      },
      "icon": "https://maps.gstatic.com/mapfiles/place_api/icons/v1/png_71/generic_business-71.png",
      "icon_background_color": "#7B9EB0",
      "icon_mask_base_uri": "https://maps.gstatic.com/mapfiles/place_api/icons/v2/generic_pinlet",
      "name": "Harlem Hospital: Palmer Orville Dav MD",
      "place_id": "ChIJ2TuL6Xb2wokRgun4vkeLWPI",
      "plus_code": {
        "compound_code": "R376+M3 New York, NY, USA",
        "global_code": "87G8R376+M3"
      },
      "reference": "ChIJ2TuL6Xb2wokRgun4vkeLWPI",
      "scope": "GOOGLE",
      "types": [
        "doctor",
        "health",
        "point_of_interest",
        "establishment"
      ],
      "vicinity": "506 Malcolm X Boulevard, New York"
    },
    {
      "business_status": "OPERATIONAL",
      "geometry": {
        "location": {
          "lat": 40.8155905,
          "lng": -73.9369924
        },
        "viewport": {
          "northeast": {
            "lat": 40.81695988029149,
            "lng": -73.93544746970849
          },
          "southwest": {
            "lat": 40.81426191970849,
            "lng": -73.9381454302915
          }
        }
      },
      "icon": "https://maps.gstatic.com/mapfiles/place_api/icons/v1/png_71/generic_business-71.png",
      "icon_background_color": "#7B9EB0",
      "icon_mask_base_uri": "https://maps.gstatic.com/mapfiles/place_api/icons/v2/generic_pinlet",
      "name": "Heritage Vending, LLC",
      "opening_hours": {
        "open_now": true
      },
      "place_id": "ChIJR_dByXf2wokR0ESWHip4Yd4",
      "plus_code": {
        "compound_code": "R387+66 New York, NY, USA",
        "global_code": "87G8R387+66"
      },
      "reference": "ChIJR_dByXf2wokR0ESWHip4Yd4",
      "scope": "GOOGLE",
      "types": [
        "point_of_interest",
        "establishment"
      ],
      "vicinity": "34 West 139th Street, New York"
    },
    {
      "business_status": "OPERATIONAL",
      "geometry": {
        "location": {
          "lat": 40.81670199999999,
          "lng": -73.9395535
        },
        "viewport": {
          "northeast": {
            "lat": 40.8181224302915,
            "lng": -73.9381528197085
          },
          "southwest": {
            "lat": 40.8154244697085,
            "lng": -73.94085078029151
          }
        }
      },
      "icon": "https://maps.gstatic.com/mapfiles/place_api/icons/v1/png_71/generic_business-71.png",
      "icon_background_color": "#7B9EB0",
      "icon_mask_base_uri": "https://maps.gstatic.com/mapfiles/place_api/icons/v2/generic_pinlet",
      "name": "Heritage Health & Housing",
      "place_id": "ChIJHVsoDXf2wokRFKtM_qHlX7w",
      "plus_code": {
        "compound_code": "R386+M5 New York, NY, USA",
        "global_code": "87G8R386+M5"
      },
      "rating": 5,
      "reference": "ChIJHVsoDXf2wokRFKtM_qHlX7w",
      "scope": "GOOGLE",
      "types": [
        "point_of_interest",
        "establishment"
      ],
      "user_ratings_total": 1,
      "vicinity": "100 West 139th Street, New York"
    },
    {
      "business_status": "OPERATIONAL",
      "geometry": {
        "location": {
          "lat": 40.8142872,
          "lng": -73.9401278
        },
        "viewport": {
          "northeast": {
            "lat": 40.8156871302915,
            "lng": -73.93899731970849
          },
          "southwest": {
            "lat": 40.8129891697085,
            "lng": -73.9416952802915
          }
        }
      },
      "icon": "https://maps.gstatic.com/mapfiles/place_api/icons/v1/png_71/generic_business-71.png",
      "icon_background_color": "#7B9EB0",
      "icon_mask_base_uri": "https://maps.gstatic.com/mapfiles/place_api/icons/v2/generic_pinlet",
      "name": "Dr. Lester F. Bussey, MD",
      "place_id": "ChIJ2TuL6Xb2wokRHQdcOWG65q4",
      "plus_code": {
        "compound_code": "R375+PW New York, NY, USA",
        "global_code": "87G8R375+PW"
      },
      "reference": "ChIJ2TuL6Xb2wokRHQdcOWG65q4",
      "scope": "GOOGLE",
      "types": [
        "doctor",
        "health",
        "point_of_interest",
        "establishment"
      ],
      "vicinity": "506 Malcolm X Boulevard, New York"
    },
    {
      "business_status": "OPERATIONAL",
      "geometry": {
        "location": {
          "lat": 40.8142884,
          "lng": -73.93995699999999
        },
        "viewport": {
          "northeast": {
            "lat": 40.8156877302915,
            "lng": -73.93891191970847
          },
          "southwest": {
            "lat": 40.8129897697085,
            "lng": -73.9416098802915
          }
        }
      },
      "icon": "https://maps.gstatic.com/mapfiles/place_api/icons/v1/png_71/generic_business-71.png",
      "icon_background_color": "#7B9EB0",
      "icon_mask_base_uri": "https://maps.gstatic.com/mapfiles/place_api/icons/v2/generic_pinlet",
      "name": "Hurley Matthews MD",
      "place_id": "ChIJ2TuL6Xb2wokRYOSDnxkORyo",
      "plus_code": {
        "compound_code": "R376+P2 New York, NY, USA",
        "global_code": "87G8R376+P2"
      },
      "reference": "ChIJ2TuL6Xb2wokRYOSDnxkORyo",
      "scope": "GOOGLE",
      "types": [
        "doctor",
        "health",
        "point_of_interest",
        "establishment"
      ],
      "vicinity": "506 Malcolm X Boulevard, New York"
    },
    {
      "business_status": "OPERATIONAL",
      "geometry": {
        "location": {
          "lat": 40.81416989999999,
          "lng": -73.9397803
        },
        "viewport": {
          "northeast": {
            "lat": 40.8156284802915,
            "lng": -73.93882356970849
          },
          "southwest": {
            "lat": 40.8129305197085,
            "lng": -73.94152153029151
          }
        }
      },
      "icon": "https://maps.gstatic.com/mapfiles/place_api/icons/v1/png_71/generic_business-71.png",
      "icon_background_color": "#7B9EB0",
      "icon_mask_base_uri": "https://maps.gstatic.com/mapfiles/place_api/icons/v2/generic_pinlet",
      "name": "Mohan Sumit MD",
      "place_id": "ChIJ2TuL6Xb2wokRAOYmRKTpJv8",
      "plus_code": {
        "compound_code": "R376+M3 New York, NY, USA",
        "global_code": "87G8R376+M3"
      },
      "reference": "ChIJ2TuL6Xb2wokRAOYmRKTpJv8",
      "scope": "GOOGLE",
      "types": [
        "doctor",
        "health",
        "point_of_interest",
        "establishment"
      ],
      "vicinity": "506 Malcolm X Boulevard, New York"
    },
    {
      "business_status": "OPERATIONAL",
      "geometry": {
        "location": {
          "lat": 40.8142287,
          "lng": -73.9396101
        },
        "viewport": {
          "northeast": {
            "lat": 40.8156578802915,
            "lng": -73.9387384697085
          },
          "southwest": {
            "lat": 40.8129599197085,
            "lng": -73.9414364302915
          }
        }
      },
      "icon": "https://maps.gstatic.com/mapfiles/place_api/icons/v1/png_71/generic_business-71.png",
      "icon_background_color": "#7B9EB0",
      "icon_mask_base_uri": "https://maps.gstatic.com/mapfiles/place_api/icons/v2/generic_pinlet",
      "name": "Lucien Monteau, MPH",
      "place_id": "ChIJ2TuL6Xb2wokRkCWPUlpV0a8",
      "plus_code": {
        "compound_code": "R376+M5 New York, NY, USA",
        "global_code": "87G8R376+M5"
      },
      "reference": "ChIJ2TuL6Xb2wokRkCWPUlpV0a8",
      "scope": "GOOGLE",
      "types": [
        "doctor",
        "health",
        "point_of_interest",
        "establishment"
      ],
      "vicinity": "506 Malcolm X Boulevard, New York"
    },
    {
      "business_status": "OPERATIONAL",
      "geometry": {
        "location": {
          "lat": 40.8150216,
          "lng": -73.9384662
        },
        "viewport": {
          "northeast": {
            "lat": 40.8162881802915,
            "lng": -73.9371618697085
          },
          "southwest": {
            "lat": 40.8135902197085,
            "lng": -73.93985983029152
          }
        }
      },
      "icon": "https://maps.gstatic.com/mapfiles/place_api/icons/v1/png_71/generic_business-71.png",
      "icon_background_color": "#7B9EB0",
      "icon_mask_base_uri": "https://maps.gstatic.com/mapfiles/place_api/icons/v2/generic_pinlet",
      "name": "Alma Rangel Gardens Hdfc",
      "opening_hours": {
        "open_now": false
      },
      "place_id": "ChIJhcyvVnb2wokRndbf1sLqRI4",
      "plus_code": {
        "compound_code": "R386+2J New York, NY, USA",
        "global_code": "87G8R386+2J"
      },
      "rating": 4.7,
      "reference": "ChIJhcyvVnb2wokRndbf1sLqRI4",
      "scope": "GOOGLE",
      "types": [
        "health",
        "point_of_interest",
        "establishment"
      ],
      "user_ratings_total": 3,
      "vicinity": "55 West 137th Street #1, New York"
    },
    {
      "business_status": "OPERATIONAL",
      "geometry": {
        "location": {
          "lat": 40.8181467,
          "lng": -73.9420895
        },
        "viewport": {
          "northeast": {
            "lat": 40.8194377302915,
            "lng": -73.94060941970848
          },
          "southwest": {
            "lat": 40.81673976970851,
            "lng": -73.9433073802915
          }
        }
      },
      "icon": "https://maps.gstatic.com/mapfiles/place_api/icons/v1/png_71/restaurant-71.png",
      "icon_background_color": "#FF9E67",
      "icon_mask_base_uri": "https://maps.gstatic.com/mapfiles/place_api/icons/v2/restaurant_pinlet",
      "name": "Make My Cake",
      "opening_hours": {
        "open_now": true
      },
      "photos": [
        {
          "height": 312,
          "html_attributions": [
            "<a href=\"https://maps.google.com/maps/contrib/116148721257811045667\">Fayyaz Shaikh</a>"
          ],
          "photo_reference": "AeJbb3f1dXdIw454atilbk9LJftOroQlAn5KWfgERo7hBO6evGB3tjNNpRh-4zcbNelM4-tWpsyJESscJRiuGsvecEQ5cOz_ZxHMQCBBfxxJe6r2SerlZYUykuTiIaocBK0rK_E5OwclnI7NmN2udgs4EFsjBEdqEXULP3JOwNXuoc4IEST5",
          "width": 471
        }
      ],
      "place_id": "ChIJc7F6q3D2wokRxMCzX3FOX90",
      "plus_code": {
        "compound_code": "R395+75 New York, NY, USA",
        "global_code": "87G8R395+75"
      },
      "price_level": 2,
      "rating": 3.8,
      "reference": "ChIJc7F6q3D2wokRxMCzX3FOX90",
      "scope": "GOOGLE",
      "types": [
        "bakery",
        "store",
        "point_of_interest",
        "food",
        "establishment"
      ],
      "user_ratings_total": 177,
      "vicinity": "2380 Adam Clayton Powell Junior Boulevard, New York"
    },
    {
      "business_status": "OPERATIONAL",
      "geometry": {
        "location": {
          "lat": 40.8143106,
          "lng": -73.9398053
        },
        "viewport": {
          "northeast": {
            "lat": 40.8156952802915,
            "lng": -73.93883606970849
          },
          "southwest": {
            "lat": 40.8129973197085,
            "lng": -73.9415340302915
          }
        }
      },
      "icon": "https://maps.gstatic.com/mapfiles/place_api/icons/v1/png_71/generic_business-71.png",
      "icon_background_color": "#7B9EB0",
      "icon_mask_base_uri": "https://maps.gstatic.com/mapfiles/place_api/icons/v2/generic_pinlet",
      "name": "Dr. Toni Wright, MD",
      "place_id": "ChIJ2TuL6Xb2wokRQ2GdpUWAkII",
      "plus_code": {
        "compound_code": "R376+P3 New York, NY, USA",
        "global_code": "87G8R376+P3"
      },
      "reference": "ChIJ2TuL6Xb2wokRQ2GdpUWAkII",
      "scope": "GOOGLE",
      "types": [
        "doctor",
        "health",
        "point_of_interest",
        "establishment"
      ],
      "vicinity": "506 Malcolm X Boulevard, New York"
    },
    {
      "business_status": "OPERATIONAL",
      "geometry": {
        "location": {
          "lat": 40.8156895,
          "lng": -73.9441495
        },
        "viewport": {
          "northeast": {
            "lat": 40.81697013029149,
            "lng": -73.94280351970848
          },
          "southwest": {
            "lat": 40.8142721697085,
            "lng": -73.9455014802915
          }
        }
      },
      "icon": "https://maps.gstatic.com/mapfiles/place_api/icons/v1/png_71/restaurant-71.png",
      "icon_background_color": "#FF9E67",
      "icon_mask_base_uri": "https://maps.gstatic.com/mapfiles/place_api/icons/v2/restaurant_pinlet",
      "name": "The Original Cake Man Raven",
      "opening_hours": {
        "open_now": false
      },
      "photos": [
        {
          "height": 3024,
          "html_attributions": [
            "<a href=\"https://maps.google.com/maps/contrib/108629954964127577562\">The Original Cake Man Raven</a>"
          ],
          "photo_reference": "AeJbb3cD-ACnm7b2RK37IZzP8nTtqu3w5YsV9KB8LBucXp8Cbn2_ho0Qf7ZDj-TTb_Py6wuSG3WQrtmU7TDcYGAqDbHnp6U-S4kcycoikRn5pyKePrIkyDKVc_-hYdZFWD3RSeR24zCB52PNwoMkC_IL22_ZpafIyCYHdbVT3WkRaS9OPoad",
          "width": 3025
        }
      ],
      "place_id": "ChIJM68Wg7RdwokRrSZxJAZZRpA",
      "plus_code": {
        "compound_code": "R384+78 New York, NY, USA",
        "global_code": "87G8R384+78"
      },
      "rating": 4,
      "reference": "ChIJM68Wg7RdwokRrSZxJAZZRpA",
      "scope": "GOOGLE",
      "types": [
        "bakery",
        "store",
        "point_of_interest",
        "food",
        "establishment"
      ],
      "user_ratings_total": 90,
      "vicinity": "201 West 135th Street, New York"
    },
    {
      "business_status": "OPERATIONAL",
      "geometry": {
        "location": {
          "lat": 40.815546,
          "lng": -73.943112
        },
        "viewport": {
          "northeast": {
            "lat": 40.81694608029149,
            "lng": -73.94187726970848
          },
          "southwest": {
            "lat": 40.81424811970849,
            "lng": -73.9445752302915
          }
        }
      },
      "icon": "https://maps.gstatic.com/mapfiles/place_api/icons/v1/png_71/generic_business-71.png",
      "icon_background_color": "#7B9EB0",
      "icon_mask_base_uri": "https://maps.gstatic.com/mapfiles/place_api/icons/v2/generic_pinlet",
      "name": "Billy Jeans Hair Salon LLC",
      "opening_hours": {
        "open_now": true
      },
      "photos": [
        {
          "height": 4032,
          "html_attributions": [
            "<a href=\"https://maps.google.com/maps/contrib/100198373855599699536\">TIMOTHY HERNANDEZ</a>"
          ],
          "photo_reference": "AeJbb3emGqCuPXgrYQOxawp9MHlHkoB4joAX5kKK6jKgAiHXQ0GXZuS0TnBn86UU92VtgM1Xela2RAmrrt8ZOrokVzWj_tx-BBxfZrdjaPwEiCso5cdcrCULw9dsbAZEkXSTuZH8z4CYXHnNF6abaT65zEiI1DtwHVH46fw-8ZnspRvx8F4V",
          "width": 3024
        }
      ],
      "place_id": "ChIJUbWgRBD2wokRLEhuSspzQPg",
      "plus_code": {
        "compound_code": "R384+6Q New York, NY, USA",
        "global_code": "87G8R384+6Q"
      },
      "rating": 3.8,
      "reference": "ChIJUbWgRBD2wokRLEhuSspzQPg",
      "scope": "GOOGLE",
      "types": [
        "beauty_salon",
        "hair_care",
        "point_of_interest",
        "establishment"
      ],
      "user_ratings_total": 247,
      "vicinity": "2311 Adam Clayton Powell Junior Boulevard, New York"
    },
    {
      "business_status": "OPERATIONAL",
      "geometry": {
        "location": {
          "lat": 40.81793620000001,
          "lng": -73.94133959999999
        },
        "viewport": {
          "northeast": {
            "lat": 40.8192449302915,
            "lng": -73.9400702697085
          },
          "southwest": {
            "lat": 40.8165469697085,
            "lng": -73.9427682302915
          }
        }
      },
      "icon": "https://maps.gstatic.com/mapfiles/place_api/icons/v1/png_71/restaurant-71.png",
      "icon_background_color": "#FF9E67",
      "icon_mask_base_uri": "https://maps.gstatic.com/mapfiles/place_api/icons/v2/restaurant_pinlet",
      "name": "McDonald's",
      "opening_hours": {
        "open_now": true
      },
      "photos": [
        {
          "height": 2625,
          "html_attributions": [
            "<a href=\"https://maps.google.com/maps/contrib/111444671146808251214\">Eric Finkelstein</a>"
          ],
          "photo_reference": "AeJbb3fF0n5CxkleCozpN8GsBEFWKMDQE2c9MxzmE7bOUgm2PTn3AeCOVLWvz7CBtvLKPl62x7TZAKrbz_rVJZik-jP-9eoAjXqX20-4MgVt8d__hSCvsOZhfuBcqLvJXdV_OULxzHIBodLsoGNS-ttREkM_lgXfP2YK_KTuRQSZOsrNsfth",
          "width": 3577
        }
      ],
      "place_id": "ChIJsTcyUnf2wokRkyIfyPX8zPI",
      "plus_code": {
        "compound_code": "R395+5F New York, NY, USA",
        "global_code": "87G8R395+5F"
      },
      "price_level": 1,
      "rating": 3.6,
      "reference": "ChIJsTcyUnf2wokRkyIfyPX8zPI",
      "scope": "GOOGLE",
      "types": [
        "cafe",
        "store",
        "restaurant",
        "point_of_interest",
        "food",
        "establishment"
      ],
      "user_ratings_total": 1572,
      "vicinity": "2379 Adam Clayton Powell Junior Boulevard, New York"
    },
    {
      "business_status": "OPERATIONAL",
      "geometry": {
        "location": {
          "lat": 40.814274,
          "lng": -73.940204
        },
        "viewport": {
          "northeast": {
            "lat": 40.8156805302915,
            "lng": -73.9390354197085
          },
          "southwest": {
            "lat": 40.8129825697085,
            "lng": -73.94173338029151
          }
        }
      },
      "icon": "https://maps.gstatic.com/mapfiles/place_api/icons/v1/png_71/generic_business-71.png",
      "icon_background_color": "#7B9EB0",
      "icon_mask_base_uri": "https://maps.gstatic.com/mapfiles/place_api/icons/v2/generic_pinlet",
      "name": "Municipal Credit Union",
      "photos": [
        {
          "height": 4320,
          "html_attributions": [
            "<a href=\"https://maps.google.com/maps/contrib/103674276249357282017\">Stu Bobb</a>"
          ],
          "photo_reference": "AeJbb3fs8s4cMgjdifBoq3W1mlHJ_bITNzTfQDC31IijgNmTtkQ79h0rBbynet13E05FJqlT1Z7OdfglNq842ZdSx11_uaPnc5iSox928BxrBiy8Arq0Zx0zlIhwOmnTwfBPgEkwtpoG5NVgJAmPu2GjUb1AHZmGNk13OUXiF25rnPhSjrPA",
          "width": 2432
        }
      ],
      "place_id": "ChIJ2TuL6Xb2wokRbS9VaXva6xA",
      "plus_code": {
        "compound_code": "R375+PW New York, NY, USA",
        "global_code": "87G8R375+PW"
      },
      "rating": 3.9,
      "reference": "ChIJ2TuL6Xb2wokRbS9VaXva6xA",
      "scope": "GOOGLE",
      "types": [
        "atm",
        "finance",
        "point_of_interest",
        "establishment"
      ],
      "user_ratings_total": 7,
      "vicinity": "506 Malcolm X Boulevard, New York"
    },
    {
      "business_status": "OPERATIONAL",
      "geometry": {
        "location": {
          "lat": 40.8145578,
          "lng": -73.9408918
        },
        "viewport": {
          "northeast": {
            "lat": 40.8158627802915,
            "lng": -73.93944086970849
          },
          "southwest": {
            "lat": 40.8131648197085,
            "lng": -73.94213883029151
          }
        }
      },
      "icon": "https://maps.gstatic.com/mapfiles/place_api/icons/v1/png_71/school-71.png",
      "icon_background_color": "#7B9EB0",
      "icon_mask_base_uri": "https://maps.gstatic.com/mapfiles/place_api/icons/v2/school_pinlet",
      "name": "New York Public Library",
      "opening_hours": {
        "open_now": true
      },
      "photos": [
        {
          "height": 4608,
          "html_attributions": [
            "<a href=\"https://maps.google.com/maps/contrib/106794303973440380921\">Lola Love</a>"
          ],
          "photo_reference": "AeJbb3fEH0_jyaGzqFzM96lgHKbNjbZ5euLkVKaLJuTp0HjOQrL6JTVpFfPfoKlzphIfJa9Y_WTn_a6fzfEZwT0KsBuJHUIMKwG6iQHodR4IwcHO4DqNwgCePZkmF9e-U74ffyMrNaSPfoBuOrfd2IJzVHMKwOyvEkjOpAFVnKBTIrOFQDgi",
          "width": 3456
        }
      ],
      "place_id": "ChIJ4ZVhx3b2wokRCxVx2VgEAoc",
      "plus_code": {
        "compound_code": "R375+RJ New York, NY, USA",
        "global_code": "87G8R375+RJ"
      },
      "price_level": 2,
      "rating": 4,
      "reference": "ChIJ4ZVhx3b2wokRCxVx2VgEAoc",
      "scope": "GOOGLE",
      "types": [
        "library",
        "point_of_interest",
        "establishment"
      ],
      "user_ratings_total": 24,
      "vicinity": "515 Malcolm X Boulevard (135th St and, Malcolm X Boulevard, New York"
    },
    {
      "business_status": "OPERATIONAL",
      "geometry": {
        "location": {
          "lat": 40.8162675,
          "lng": -73.9469656
        },
        "viewport": {
          "northeast": {
            "lat": 40.8175802302915,
            "lng": -73.94552276970849
          },
          "southwest": {
            "lat": 40.8148822697085,
            "lng": -73.9482207302915
          }
        }
      },
      "icon": "https://maps.gstatic.com/mapfiles/place_api/icons/v1/png_71/shopping-71.png",
      "icon_background_color": "#4B96F3",
      "icon_mask_base_uri": "https://maps.gstatic.com/mapfiles/place_api/icons/v2/convenience_pinlet",
      "name": "Duane Reade",
      "opening_hours": {
        "open_now": true
      },
      "photos": [
        {
          "height": 1836,
          "html_attributions": [
            "<a href=\"https://maps.google.com/maps/contrib/107770886574208588616\">e m s</a>"
          ],
          "photo_reference": "AeJbb3eSA3mirsl536Sw2VDMNpSon9WwfJBGKkgaBkAnT7yMk-5V7VB5Ejsu8CYqeu1citCGIfVMylBcN7Pv5tnlQ2TtSsBVNDFhe_0iTBP6BlVC9-6L8u86VvV3mThbpN3BfDsdyJ6ySPrYdzsg_jOlkhzTckbFPXiI7FAaGEHCU719tJ3-",
          "width": 3264
        }
      ],
      "place_id": "ChIJN4bf02z2wokRQOo2xYGD9rU",
      "plus_code": {
        "compound_code": "R383+G6 New York, NY, USA",
        "global_code": "87G8R383+G6"
      },
      "price_level": 2,
      "rating": 3.5,
      "reference": "ChIJN4bf02z2wokRQOo2xYGD9rU",
      "scope": "GOOGLE",
      "types": [
        "convenience_store",
        "clothing_store",
        "store",
        "food",
        "point_of_interest",
        "establishment"
      ],
      "user_ratings_total": 46,
      "vicinity": "300 West 135th Street, New York"
    },
    {
      "business_status": "OPERATIONAL",
      "geometry": {
        "location": {
          "lat": 40.8153692,
          "lng": -73.9469943
        },
        "viewport": {
          "northeast": {
            "lat": 40.8167771302915,
            "lng": -73.94579061970849
          },
          "southwest": {
            "lat": 40.8140791697085,
            "lng": -73.9484885802915
          }
        }
      },
      "icon": "https://maps.gstatic.com/mapfiles/place_api/icons/v1/png_71/generic_business-71.png",
      "icon_background_color": "#7B9EB0",
      "icon_mask_base_uri": "https://maps.gstatic.com/mapfiles/place_api/icons/v2/generic_pinlet",
      "name": "Denny Moe's Superstar Barbershop",
      "opening_hours": {
        "open_now": true
      },
      "photos": [
        {
          "height": 1388,
          "html_attributions": [
            "<a href=\"https://maps.google.com/maps/contrib/116895133033698061077\">Denny Moe&#39;s Superstar Barbershop</a>"
          ],
          "photo_reference": "AeJbb3f5O22hjqOtzUhTNhKCLpyNvgS7ctR--4btDgO7g1-Z9z7jw3AI0EzBR4J4-1hSqvxKOsGgWVUsyh2S8smgpkCsP4iLwDx-N3m5YYjs1ntYGX1f80Wm5wblv5ghlUlLE81jJHfUDbrdED16fziYyl8ovdMgPctEW7KZ17ZmZ47U-7ng",
          "width": 2466
        }
      ],
      "place_id": "ChIJjbEd6HH2wokR4RfDgx_WekQ",
      "plus_code": {
        "compound_code": "R383+46 New York, NY, USA",
        "global_code": "87G8R383+46"
      },
      "rating": 4.4,
      "reference": "ChIJjbEd6HH2wokR4RfDgx_WekQ",
      "scope": "GOOGLE",
      "types": [
        "hair_care",
        "health",
        "point_of_interest",
        "establishment"
      ],
      "user_ratings_total": 219,
      "vicinity": "2496 Frederick Douglass Boulevard, New York"
    },
    {
      "business_status": "OPERATIONAL",
      "geometry": {
        "location": {
          "lat": 40.8208858,
          "lng": -73.9426739
        },
        "viewport": {
          "northeast": {
            "lat": 40.8223771302915,
            "lng": -73.9415601697085
          },
          "southwest": {
            "lat": 40.8196791697085,
            "lng": -73.94425813029152
          }
        }
      },
      "icon": "https://maps.gstatic.com/mapfiles/place_api/icons/v1/png_71/generic_business-71.png",
      "icon_background_color": "#7B9EB0",
      "icon_mask_base_uri": "https://maps.gstatic.com/mapfiles/place_api/icons/v2/generic_pinlet",
      "name": "Children's Aid - Drew Hamilton Learning Center",
      "opening_hours": {
        "open_now": false
      },
      "place_id": "ChIJgXvbynv2wokRTYlmrmqDG2E",
      "plus_code": {
        "compound_code": "R3C4+9W New York, NY, USA",
        "global_code": "87G8R3C4+9W"
      },
      "rating": 4.3,
      "reference": "ChIJgXvbynv2wokRTYlmrmqDG2E",
      "scope": "GOOGLE",
      "types": [
        "school",
        "point_of_interest",
        "establishment"
      ],
      "user_ratings_total": 4,
      "vicinity": "2672 Frederick Douglass Boulevard, New York"
    },
    {
      "business_status": "CLOSED_TEMPORARILY",
      "geometry": {
        "location": {
          "lat": 40.8166277,
          "lng": -73.94730690000002
        },
        "viewport": {
          "northeast": {
            "lat": 40.8180555802915,
            "lng": -73.94594196970849
          },
          "southwest": {
            "lat": 40.8153576197085,
            "lng": -73.9486399302915
          }
        }
      },
      "icon": "https://maps.gstatic.com/mapfiles/place_api/icons/v1/png_71/restaurant-71.png",
      "icon_background_color": "#FF9E67",
      "icon_mask_base_uri": "https://maps.gstatic.com/mapfiles/place_api/icons/v2/restaurant_pinlet",
      "name": "Subway",
      "permanently_closed": true,
      "photos": [
        {
          "height": 1836,
          "html_attributions": [
            "<a href=\"https://maps.google.com/maps/contrib/107770886574208588616\">e m s</a>"
          ],
          "photo_reference": "AeJbb3d8ezuybdd0pBYYer_CQPZM9s5OlRMLl0DFNCYlbkBDSy_a2IWkASyvEcGxZt-OGFY_CR0o_hEKB6pWqRhCCTTugihYJGX2KkotNaMSESibh-7XZi9oFo_O2iKCy5ykeR6BtQwgllUI5_xvCUkIVLcSQWrxRpgWKJYMLRGsBs0fffhk",
          "width": 3264
        }
      ],
      "place_id": "ChIJq71V03H2wokRdBZ_RLtKaXw",
      "plus_code": {
        "compound_code": "R383+M3 New York, NY, USA",
        "global_code": "87G8R383+M3"
      },
      "price_level": 1,
      "rating": 3.6,
      "reference": "ChIJq71V03H2wokRdBZ_RLtKaXw",
      "scope": "GOOGLE",
      "types": [
        "meal_takeaway",
        "restaurant",
        "food",
        "point_of_interest",
        "establishment"
      ],
      "user_ratings_total": 24,
      "vicinity": "300 West 135th Street, New York"
    },
    {
      "business_status": "CLOSED_TEMPORARILY",
      "geometry": {
        "location": {
          "lat": 40.8172886,
          "lng": -73.94752310000001
        },
        "viewport": {
          "northeast": {
            "lat": 40.81867413029151,
            "lng": -73.94627046970851
          },
          "southwest": {
            "lat": 40.81597616970851,
            "lng": -73.94896843029152
          }
        }
      },
      "icon": "https://maps.gstatic.com/mapfiles/place_api/icons/v1/png_71/school-71.png",
      "icon_background_color": "#7B9EB0",
      "icon_mask_base_uri": "https://maps.gstatic.com/mapfiles/place_api/icons/v2/school_pinlet",
      "name": "Kappa IV",
      "permanently_closed": true,
      "place_id": "ChIJX1s2JnD2wokRH8v4cYWKw0E",
      "plus_code": {
        "compound_code": "R382+WX New York, NY, USA",
        "global_code": "87G8R382+WX"
      },
      "rating": 3.2,
      "reference": "ChIJX1s2JnD2wokRH8v4cYWKw0E",
      "scope": "GOOGLE",
      "types": [
        "school",
        "point_of_interest",
        "establishment"
      ],
      "user_ratings_total": 5,
      "vicinity": "6 Edgecombe Avenue, New York"
    },
    {
      "business_status": "OPERATIONAL",
      "geometry": {
        "location": {
          "lat": 40.8137742,
          "lng": -73.9415978
        },
        "viewport": {
          "northeast": {
            "lat": 40.8151824802915,
            "lng": -73.9402739197085
          },
          "southwest": {
            "lat": 40.8124845197085,
            "lng": -73.94297188029151
          }
        }
      },
      "icon": "https://maps.gstatic.com/mapfiles/place_api/icons/v1/png_71/generic_business-71.png",
      "icon_background_color": "#7B9EB0",
      "icon_mask_base_uri": "https://maps.gstatic.com/mapfiles/place_api/icons/v2/generic_pinlet",
      "name": "Clayton Apartments Inc (@485 Lenox Ave)",
      "place_id": "ChIJm2yVJHj2wokRohLAMmLiICw",
      "plus_code": {
        "compound_code": "R375+G9 New York, NY, USA",
        "global_code": "87G8R375+G9"
      },
      "rating": 5,
      "reference": "ChIJm2yVJHj2wokRohLAMmLiICw",
      "scope": "GOOGLE",
      "types": [
        "point_of_interest",
        "establishment"
      ],
      "user_ratings_total": 2,
      "vicinity": "485 Malcolm X Boulevard, New York"
    },
    {
      "business_status": "OPERATIONAL",
      "geometry": {
        "location": {
          "lat": 40.8150273,
          "lng": -73.9442713
        },
        "viewport": {
          "northeast": {
            "lat": 40.81633728029149,
            "lng": -73.94283251970849
          },
          "southwest": {
            "lat": 40.8136393197085,
            "lng": -73.94553048029151
          }
        }
      },
      "icon": "https://maps.gstatic.com/mapfiles/place_api/icons/v1/png_71/generic_business-71.png",
      "icon_background_color": "#7B9EB0",
      "icon_mask_base_uri": "https://maps.gstatic.com/mapfiles/place_api/icons/v2/generic_pinlet",
      "name": "Claire Oliver Gallery",
      "opening_hours": {
        "open_now": true
      },
      "photos": [
        {
          "height": 2781,
          "html_attributions": [
            "<a href=\"https://maps.google.com/maps/contrib/100795258131611826322\">Claire Oliver Gallery</a>"
          ],
          "photo_reference": "AeJbb3fi5D_MD8YxUAbVWP7QpqiEBWfdtmVyw7bjHOqg6rgltwuiYFzG7VQ2fpC9vA8cyPvyny258t64kDJmgIFgU1Ki7gDEBBh6Buebz4g90IDqjJ_Pq7dciKZiecUIXvyOvB_1wDbjqOO37ukbsLZVF5GFHn8E3sebjmaEMPigJFIXFZ5p",
          "width": 2800
        }
      ],
      "place_id": "ChIJrzdcCLdZwokRxlIRFMlAlQg",
      "plus_code": {
        "compound_code": "R384+27 New York, NY, USA",
        "global_code": "87G8R384+27"
      },
      "rating": 4.2,
      "reference": "ChIJrzdcCLdZwokRxlIRFMlAlQg",
      "scope": "GOOGLE",
      "types": [
        "art_gallery",
        "point_of_interest",
        "establishment"
      ],
      "user_ratings_total": 26,
      "vicinity": "2288 Adam Clayton Powell Junior Boulevard, New York"
    },
    {
      "business_status": "OPERATIONAL",
      "geometry": {
        "location": {
          "lat": 40.8183232,
          "lng": -73.94354899999999
        },
        "viewport": {
          "northeast": {
            "lat": 40.8197640302915,
            "lng": -73.94213196970848
          },
          "southwest": {
            "lat": 40.8170660697085,
            "lng": -73.9448299302915
          }
        }
      },
      "icon": "https://maps.gstatic.com/mapfiles/place_api/icons/v1/png_71/generic_business-71.png",
      "icon_background_color": "#7B9EB0",
      "icon_mask_base_uri": "https://maps.gstatic.com/mapfiles/place_api/icons/v2/generic_pinlet",
      "name": "Bernard D'Orazio & Associates, P.C.",
      "opening_hours": {
        "open_now": false
      },
      "photos": [
        {
          "height": 3456,
          "html_attributions": [
            "<a href=\"https://maps.google.com/maps/contrib/101136791436476959494\">Bernard D&#39;Orazio &amp; Associates, P.C.</a>"
          ],
          "photo_reference": "AeJbb3fwOeGDo1sE-J0unnctuwODmUk1EOINcroYwynYWprJGKzARPEWbkSDPbeu1Noo2RsuWG8AaGK6nAlxula9haF_J5uYaWVX2A1xECSzN76cnVaoD_edyouDvU00p3wkeyx0zXpCpbZquufZsvDNl1voKnpO3QXWKSel3P7KaVXk6qAE",
          "width": 5184
        }
      ],
      "place_id": "ChIJk4U9qiBawokRnexXcHeatC8",
      "plus_code": {
        "compound_code": "R394+8H New York, NY, USA",
        "global_code": "87G8R394+8H"
      },
      "reference": "ChIJk4U9qiBawokRnexXcHeatC8",
      "scope": "GOOGLE",
      "types": [
        "lawyer",
        "point_of_interest",
        "establishment"
      ],
      "vicinity": "238 West 139th Street, New York"
    },
    {
      "business_status": "OPERATIONAL",
      "geometry": {
        "location": {
          "lat": 40.8147275,
          "lng": -73.94488249999999
        },
        "viewport": {
          "northeast": {
            "lat": 40.8161513302915,
            "lng": -73.94347831970849
          },
          "southwest": {
            "lat": 40.8134533697085,
            "lng": -73.9461762802915
          }
        }
      },
      "icon": "https://maps.gstatic.com/mapfiles/place_api/icons/v1/png_71/worship_general-71.png",
      "icon_background_color": "#7B9EB0",
      "icon_mask_base_uri": "https://maps.gstatic.com/mapfiles/place_api/icons/v2/worship_christian_pinlet",
      "name": "St Philip's Church",
      "photos": [
        {
          "height": 4612,
          "html_attributions": [
            "<a href=\"https://maps.google.com/maps/contrib/104596856248078658268\">Rouslan Valonen</a>"
          ],
          "photo_reference": "AeJbb3fyzIyWmCMoS8Js6ZissTpLJRpbnR5VeOqHsChoORjdk6UhjGXsxal9dV-0TQ8rNXimsLFVKmUvbD3jhlfvvnJsH7HwXz_Ew1ULb_f564c-eon3rODeZGTgDWsRELtmaui0cmiKKE6ewT3P0izIA9rlyfs55yW1QtCmg3Dguyc4seeA",
          "width": 2933
        }
      ],
      "place_id": "ChIJOcs2dHH2wokR4ZfaPYYO2AA",
      "plus_code": {
        "compound_code": "R374+V2 New York, NY, USA",
        "global_code": "87G8R374+V2"
      },
      "rating": 4.2,
      "reference": "ChIJOcs2dHH2wokR4ZfaPYYO2AA",
      "scope": "GOOGLE",
      "types": [
        "church",
        "place_of_worship",
        "finance",
        "point_of_interest",
        "establishment"
      ],
      "user_ratings_total": 10,
      "vicinity": "204 West 134th Street, New York"
    },
    {
      "business_status": "OPERATIONAL",
      "geometry": {
        "location": {
          "lat": 40.819583,
          "lng": -73.946469
        },
        "viewport": {
          "northeast": {
            "lat": 40.8208888802915,
            "lng": -73.94497351970848
          },
          "southwest": {
            "lat": 40.8181909197085,
            "lng": -73.9476714802915
          }
        }
      },
      "icon": "https://maps.gstatic.com/mapfiles/place_api/icons/v1/png_71/school-71.png",
      "icon_background_color": "#7B9EB0",
      "icon_mask_base_uri": "https://maps.gstatic.com/mapfiles/place_api/icons/v2/school_pinlet",
      "name": "St. Nicholas Chess And Backgammon, Inc.",
      "opening_hours": {
        "open_now": true
      },
      "photos": [
        {
          "height": 2988,
          "html_attributions": [
            "<a href=\"https://maps.google.com/maps/contrib/102600985800070126714\">St. Nicholas Chess And Backgammon, Inc.</a>"
          ],
          "photo_reference": "AeJbb3c04whKMzBmuIkb27JYGHLYkKveH1xXFOxyV2VlqJuxH-Nt7S5e3ISSKSXCKgJDStzSgccZfpKU2efN2SAxL41_LjQzM9WThFkExE3Pl87v2Q7E02wZudpAWHzc26_GMKew5pvAqF1bIGiSdAwb71utO36jMjvbteIl6pT1a31Xc9jw",
          "width": 5312
        }
      ],
      "place_id": "ChIJdzmUonr2wokRpbCq3wSOF5I",
      "plus_code": {
        "compound_code": "R393+RC New York, NY, USA",
        "global_code": "87G8R393+RC"
      },
      "rating": 4.5,
      "reference": "ChIJdzmUonr2wokRpbCq3wSOF5I",
      "scope": "GOOGLE",
      "types": [
        "school",
        "point_of_interest",
        "establishment"
      ],
      "user_ratings_total": 16,
      "vicinity": "91 Edgecombe Avenue, New York"
    },
    {
      "business_status": "OPERATIONAL",
      "geometry": {
        "location": {
          "lat": 40.8203373,
          "lng": -73.9443402
        },
        "viewport": {
          "northeast": {
            "lat": 40.8214353802915,
            "lng": -73.94311981970849
          },
          "southwest": {
            "lat": 40.8187374197085,
            "lng": -73.9458177802915
          }
        }
      },
      "icon": "https://maps.gstatic.com/mapfiles/place_api/icons/v1/png_71/school-71.png",
      "icon_background_color": "#7B9EB0",
      "icon_mask_base_uri": "https://maps.gstatic.com/mapfiles/place_api/icons/v2/school_pinlet",
      "name": "Success Academy Charter School - Harlem 5",
      "photos": [
        {
          "height": 2667,
          "html_attributions": [
            "<a href=\"https://maps.google.com/maps/contrib/107954543220188030431\">Success Academy Harlem 5</a>"
          ],
          "photo_reference": "AeJbb3dU9TJV-NXGbYoxngKJGNk9R3saQdmnUZoAYc9s_EOfpNWYyHnZtnXpZPze0kpxf5awtoCxantNDlJjbZRxvDz4xKp1W9H4nJjQJYeVUGXDSVPZGhLh-f3DA96WjGg4cRKPzXh7wBb2F2a_G-lJnPhaCLxoia0m7bew0z_XfSITQa0l",
          "width": 4000
        }
      ],
      "place_id": "ChIJLXaSYHr2wokROx6Mq1FzC9A",
      "plus_code": {
        "compound_code": "R3C4+47 New York, NY, USA",
        "global_code": "87G8R3C4+47"
      },
      "rating": 4.2,
      "reference": "ChIJLXaSYHr2wokROx6Mq1FzC9A",
      "scope": "GOOGLE",
      "types": [
        "primary_school",
        "school",
        "point_of_interest",
        "establishment"
      ],
      "user_ratings_total": 17,
      "vicinity": "301 West 140th Street, New York"
    },
    {
      "business_status": "OPERATIONAL",
      "geometry": {
        "location": {
          "lat": 40.8211816,
          "lng": -73.9406654
        },
        "viewport": {
          "northeast": {
            "lat": 40.8226420302915,
            "lng": -73.93927746970849
          },
          "southwest": {
            "lat": 40.81994406970851,
            "lng": -73.94197543029149
          }
        }
      },
      "icon": "https://maps.gstatic.com/mapfiles/place_api/icons/v1/png_71/school-71.png",
      "icon_background_color": "#7B9EB0",
      "icon_mask_base_uri": "https://maps.gstatic.com/mapfiles/place_api/icons/v2/school_pinlet",
      "name": "Harlem Village Academies West Middle",
      "opening_hours": {
        "open_now": false
      },
      "photos": [
        {
          "height": 1333,
          "html_attributions": [
            "<a href=\"https://maps.google.com/maps/contrib/114911858200534929397\">Harlem Village Academies West Middle</a>"
          ],
          "photo_reference": "AeJbb3e_0S8yqbcDkQJza7_cJ4dPBKria-logGZyUvRauKpX4yJ6ozThCKqyxo3J7b1h7aeNRuqw5DuHKU3nwdvLM_FRENUdrIDDbYYiRik6DiTFAHpSVStxyi3hOva_8M_qWYZIQiAUAmUxvPncC9NCDUMzukiQiyaYZFM0fSeK0eu1YflD",
          "width": 2000
        }
      ],
      "place_id": "ChIJGVvw4Gv2wokRsoqeJyCMkbg",
      "plus_code": {
        "compound_code": "R3C5+FP New York, NY, USA",
        "global_code": "87G8R3C5+FP"
      },
      "rating": 3.1,
      "reference": "ChIJGVvw4Gv2wokRsoqeJyCMkbg",
      "scope": "GOOGLE",
      "types": [
        "school",
        "point_of_interest",
        "establishment"
      ],
      "user_ratings_total": 8,
      "vicinity": "244 West 144th Street 5th floor, New York"
    },
    {
      "business_status": "OPERATIONAL",
      "geometry": {
        "location": {
          "lat": 40.81638319999999,
          "lng": -73.9470018
        },
        "viewport": {
          "northeast": {
            "lat": 40.81785953029149,
            "lng": -73.94557036970849
          },
          "southwest": {
            "lat": 40.81516156970849,
            "lng": -73.9482683302915
          }
        }
      },
      "icon": "https://maps.gstatic.com/mapfiles/place_api/icons/v1/png_71/bank-71.png",
      "icon_background_color": "#909CE1",
      "icon_mask_base_uri": "https://maps.gstatic.com/mapfiles/place_api/icons/v2/bank-intl_pinlet",
      "name": "Chase Bank",
      "opening_hours": {
        "open_now": false
      },
      "photos": [
        {
          "height": 1800,
          "html_attributions": [
            "<a href=\"https://maps.google.com/maps/contrib/111322364192988956665\">Alrick collins Sr.</a>"
          ],
          "photo_reference": "AeJbb3dpdZ7sSXWddIQwVHj1hX0NolUSq-xEomQx7erqKcS9jNQjXqMOFn8j8a5nPXjoVq2NgAyYyecR7vhzGPlOhYrgeaS4VbwMcjWINgJNrxngzWs-htAIJOHnpS2QEuGq86qAOBmnkqFz3qcx6WvGXhfrJ6lqc63CFEl1aOdDBlHV-zI4",
          "width": 4000
        }
      ],
      "place_id": "ChIJ1TqPCTz2wokR5F94gk01y54",
      "plus_code": {
        "compound_code": "R383+H5 New York, NY, USA",
        "global_code": "87G8R383+H5"
      },
      "rating": 3.6,
      "reference": "ChIJ1TqPCTz2wokR5F94gk01y54",
      "scope": "GOOGLE",
      "types": [
        "bank",
        "atm",
        "finance",
        "point_of_interest",
        "establishment"
      ],
      "user_ratings_total": 14,
      "vicinity": "300 West 135th Street, New York"
    },
    {
      "business_status": "OPERATIONAL",
      "geometry": {
        "location": {
          "lat": 40.8196272,
          "lng": -73.9416537
        },
        "viewport": {
          "northeast": {
            "lat": 40.8209311302915,
            "lng": -73.94047191970849
          },
          "southwest": {
            "lat": 40.8182331697085,
            "lng": -73.9431698802915
          }
        }
      },
      "icon": "https://maps.gstatic.com/mapfiles/place_api/icons/v1/png_71/worship_general-71.png",
      "icon_background_color": "#7B9EB0",
      "icon_mask_base_uri": "https://maps.gstatic.com/mapfiles/place_api/icons/v2/worship_christian_pinlet",
      "name": "St. Charles Borromeo Church",
      "photos": [
        {
          "height": 3024,
          "html_attributions": [
            "<a href=\"https://maps.google.com/maps/contrib/104485926123293826275\">Luis V. Betances Sansur</a>"
          ],
          "photo_reference": "AeJbb3eFjfPaK3ZEcbgmDw3FsY8b0-YltYU4RaOa29-MD_K5Gowsxh_9iTK6qFNZ0R1ddeLAO6xJHiYoFDmIL6AVNwQYxvVqM0Folv8t1Bw0039o2jZcwFrp3c_qX74ubcwAGUOPi3tEBt5hC8_PbSyvfMU4lbHRzXIt34PiLyAPecQ-ivGr",
          "width": 4032
        }
      ],
      "place_id": "ChIJfeAF9Xn2wokRUV378beO4Ik",
      "plus_code": {
        "compound_code": "R395+V8 Harlem, New York, NY, USA",
        "global_code": "87G8R395+V8"
      },
      "rating": 4.7,
      "reference": "ChIJfeAF9Xn2wokRUV378beO4Ik",
      "scope": "GOOGLE",
      "types": [
        "tourist_attraction",
        "church",
        "place_of_worship",
        "point_of_interest",
        "establishment"
      ],
      "user_ratings_total": 149,
      "vicinity": "211 West 141st Street, Harlem"
    },
    {
      "business_status": "OPERATIONAL",
      "geometry": {
        "location": {
          "lat": 40.8160445,
          "lng": -73.9436795
        },
        "viewport": {
          "northeast": {
            "lat": 40.81744088029149,
            "lng": -73.9422952697085
          },
          "southwest": {
            "lat": 40.81474291970849,
            "lng": -73.9449932302915
          }
        }
      },
      "icon": "https://maps.gstatic.com/mapfiles/place_api/icons/v1/png_71/generic_business-71.png",
      "icon_background_color": "#7B9EB0",
      "icon_mask_base_uri": "https://maps.gstatic.com/mapfiles/place_api/icons/v2/generic_pinlet",
      "name": "The Greater Harlem Chamber of Commerce",
      "photos": [
        {
          "height": 769,
          "html_attributions": [
            "<a href=\"https://maps.google.com/maps/contrib/114329553036567680399\">The Greater Harlem Chamber of Commerce</a>"
          ],
          "photo_reference": "AeJbb3fQ-jURS4hnwelwIyQ90Al4eWbdmJUuuSqAtTNwflDLeCiJaHjB1ZboQ1FaJzplP8NpEcJCdW-aIYDPzTEGewfn68FtFzl2or6hHNxyFeXAIWBdcTuYvkw-SjOhy7C1U1H0EO9o_L4onfGmO_btxP7Df44qeMPz7KdFdANrhiAE6xQb",
          "width": 1118
        }
      ],
      "place_id": "ChIJ0VpyHnH2wokRDg7Yne7AD6U",
      "plus_code": {
        "compound_code": "R384+CG New York, NY, USA",
        "global_code": "87G8R384+CG"
      },
      "rating": 5,
      "reference": "ChIJ0VpyHnH2wokRDg7Yne7AD6U",
      "scope": "GOOGLE",
      "types": [
        "point_of_interest",
        "establishment"
      ],
      "user_ratings_total": 8,
      "vicinity": "200A West 136th Street, New York"
    },
    {
      "business_status": "OPERATIONAL",
      "geometry": {
        "location": {
          "lat": 40.81547969999999,
          "lng": -73.9431699
        },
        "viewport": {
          "northeast": {
            "lat": 40.8168787802915,
            "lng": -73.94193291970849
          },
          "southwest": {
            "lat": 40.8141808197085,
            "lng": -73.9446308802915
          }
        }
      },
      "icon": "https://maps.gstatic.com/mapfiles/place_api/icons/v1/png_71/generic_business-71.png",
      "icon_background_color": "#7B9EB0",
      "icon_mask_base_uri": "https://maps.gstatic.com/mapfiles/place_api/icons/v2/generic_pinlet",
      "name": "Body Lawson Associates",
      "place_id": "ChIJ5fnUPHH2wokRo-78GscJDMM",
      "plus_code": {
        "compound_code": "R384+5P New York, NY, USA",
        "global_code": "87G8R384+5P"
      },
      "rating": 5,
      "reference": "ChIJ5fnUPHH2wokRo-78GscJDMM",
      "scope": "GOOGLE",
      "types": [
        "point_of_interest",
        "establishment"
      ],
      "user_ratings_total": 1,
      "vicinity": "2307 Adam Clayton Powell Junior Boulevard, New York"
    },
    {
      "business_status": "OPERATIONAL",
      "geometry": {
        "location": {
          "lat": 40.8177821,
          "lng": -73.942311
        },
        "viewport": {
          "northeast": {
            "lat": 40.81908353029151,
            "lng": -73.94085111970851
          },
          "southwest": {
            "lat": 40.81638556970851,
            "lng": -73.94354908029152
          }
        }
      },
      "icon": "https://maps.gstatic.com/mapfiles/place_api/icons/v1/png_71/generic_business-71.png",
      "icon_background_color": "#7B9EB0",
      "icon_mask_base_uri": "https://maps.gstatic.com/mapfiles/place_api/icons/v2/generic_pinlet",
      "name": "Ms P's Hair Studio",
      "opening_hours": {
        "open_now": true
      },
      "photos": [
        {
          "height": 4032,
          "html_attributions": [
            "<a href=\"https://maps.google.com/maps/contrib/111578583146239380684\">Paula Dowds</a>"
          ],
          "photo_reference": "AeJbb3e8LdFYfQJ-jsSFBsmRap01-4GFjQExubjo5NZnyDmIDGJgOiQ9OJ0hUU8R9bsgfLSfETJ0VAcT3gYIcmpupJlYCmc0DM6FBN-Gq40Zoy7zed6edSgdCM8JVkgrqo5v_IgRnSIc9bzZMt0ZFRPNK2VGVLqmPlTTzQSeL2o8XYYwXpTF",
          "width": 1960
        }
      ],
      "place_id": "ChIJA9_EAxT2wokREm46dLSLfzA",
      "plus_code": {
        "compound_code": "R395+43 New York, NY, USA",
        "global_code": "87G8R395+43"
      },
      "rating": 4.2,
      "reference": "ChIJA9_EAxT2wokREm46dLSLfzA",
      "scope": "GOOGLE",
      "types": [
        "beauty_salon",
        "point_of_interest",
        "establishment"
      ],
      "user_ratings_total": 18,
      "vicinity": "2374 Adam Clayton Powell Junior Boulevard, New York"
    },
    {
      "business_status": "OPERATIONAL",
      "geometry": {
        "location": {
          "lat": 40.81736859999999,
          "lng": -73.9433093
        },
        "viewport": {
          "northeast": {
            "lat": 40.8186734302915,
            "lng": -73.94199331970849
          },
          "southwest": {
            "lat": 40.8159754697085,
            "lng": -73.94469128029151
          }
        }
      },
      "icon": "https://maps.gstatic.com/mapfiles/place_api/icons/v1/png_71/school-71.png",
      "icon_background_color": "#7B9EB0",
      "icon_mask_base_uri": "https://maps.gstatic.com/mapfiles/place_api/icons/v2/school_pinlet",
      "name": "Air Link LLC",
      "place_id": "ChIJVVVVlXD2wokRI4gqvYOrpi0",
      "plus_code": {
        "compound_code": "R384+WM New York, NY, USA",
        "global_code": "87G8R384+WM"
      },
      "rating": 5,
      "reference": "ChIJVVVVlXD2wokRI4gqvYOrpi0",
      "scope": "GOOGLE",
      "types": [
        "university",
        "point_of_interest",
        "establishment"
      ],
      "user_ratings_total": 1,
      "vicinity": "New York"
    }
  ],
  "status": "OK"
}