{
  "html_attributions": [],
  "results": [
    {
      "geometry": {
        "location": {
          "lat": 40.7127753,
          "lng": -74.0059728
        },
        "viewport": {
          "northeast": {
            "lat": 40.91757705070789,
            "lng": -73.70027206817629
          },
          "southwest": {
            "lat": 40.47739906045452,
            "lng": -74.25908991427882
          }
        }
      },
      "icon": "https://maps.gstatic.com/mapfiles/place_api/icons/v1/png_71/geocode-71.png",
      "icon_background_color": "#7B9EB0",
      "icon_mask_base_uri": "https://maps.gstatic.com/mapfiles/place_api/icons/v2/generic_pinlet",
      "name": "\u7d10\u7d04",
      "photos": [
        {
          "height": 600,
          "html_attributions": [
            "<a href=\"https://maps.google.com/maps/contrib/102389334567210814614\">Bukurie</a>"
          ],
          "photo_reference": "AeJbb3d0lMxdJJtXatLSRp5r4UXJKqdELaG8tL_3nmk5TD6f_YPuI1g-Rik76D0lnoBClfTjxlx5TU7eTkPd2RIokKRLaejsGVlnHb_Sys9cIrtcIYgMysOE0HcPPtUlLvDcms133oEhWYSXmchCxSyDDz1zbbpWaQ0sPvb1C2oEo_iKPFxg",
          "width": 480
        }
      ],
      "place_id": "ChIJOwg_06VPwokRYv534QaPC8g",
      "reference": "ChIJOwg_06VPwokRYv534QaPC8g",
      "scope": "GOOGLE",
      "types": [
        "locality",
        "political"
      ],
      "vicinity": "\u7d10\u7d04"
    },
    {
      "business_status": "OPERATIONAL",
      "geometry": {
        "location": {
          "lat": 40.82642360000001,
          "lng": -73.9559555
        },
        "viewport": {
          "northeast": {
            "lat": 40.82917625000001,
            "lng": -73.95306895
          },
          "southwest": {
            "lat": 40.82128725,
            "lng": -73.95865194999999
          }
        }
      },
      "icon": "https://maps.gstatic.com/mapfiles/place_api/icons/v1/png_71/park-71.png",
      "icon_background_color": "#4DB546",
      "icon_mask_base_uri": "https://maps.gstatic.com/mapfiles/place_api/icons/v2/tree_pinlet",
      "name": "\u6cb3\u5cb8\u5dde\u7acb\u516c\u5712",
      "opening_hours": {
        "open_now": true
      },
      "photos": [
        {
          "height": 4420,
          "html_attributions": [
            "<a href=\"https://maps.google.com/maps/contrib/111735457748892062484\">Max Guliani</a>"
          ],
          "photo_reference": "AeJbb3cFVJLdP4QH3OYG9tUYyd9VIYpx81H3AxSv708HCvlnL4qDtm52yWqMZxrPi8fNFt9yQSQjpJPJEGGqFCiyYT4dlHL0II6y-Rz_ObZe11GJ-E_PT-77pTgIh5v7g9H1gNzhzNv0K3HIVWQjmyAuObzDX8g3f0YPX6LmHFql-wWyxIPt",
          "width": 6630
        }
      ],
      "place_id": "ChIJP_a7lmH2wokRMSi6hHf1eXA",
      "plus_code": {
        "compound_code": "R2GV+HJ \u7f8e\u570b\u7d10\u7d04",
        "global_code": "87G8R2GV+HJ"
      },
      "rating": 4.6,
      "reference": "ChIJP_a7lmH2wokRMSi6hHf1eXA",
      "scope": "GOOGLE",
      "types": [
        "tourist_attraction",
        "park",
        "point_of_interest",
        "establishment"
      ],
      "user_ratings_total": 3584,
      "vicinity": "679 Riverside Drive, New York"
    },
    {
      "business_status": "OPERATIONAL",
      "geometry": {
        "location": {
          "lat": 40.8203471,
          "lng": -73.95522749999999
        },
        "viewport": {
          "northeast": {
            "lat": 40.82167443029149,
            "lng": -73.9537998197085
          },
          "southwest": {
            "lat": 40.8189764697085,
            "lng": -73.9564977802915
          }
        }
      },
      "icon": "https://maps.gstatic.com/mapfiles/place_api/icons/v1/png_71/restaurant-71.png",
      "icon_background_color": "#FF9E67",
      "icon_mask_base_uri": "https://maps.gstatic.com/mapfiles/place_api/icons/v2/restaurant_pinlet",
      "name": "Bus Stop Diner",
      "opening_hours": {
        "open_now": true
      },
      "photos": [
        {
          "height": 2340,
          "html_attributions": [
            "<a href=\"https://maps.google.com/maps/contrib/111975543672082453726\">Sudhir Bhargava</a>"
          ],
          "photo_reference": "AeJbb3earD3LGY9Uo9AX4S7zJoV1H-yUSa4iaAj9Ne5OU2ugemePSSnnkh4qJ6szKi8mH-hMtp-vIpkuZuoaid6CxXcvxZWSg8YSICcLRYhw89xEQbaj3dxIjFfQXmLVbrGkHdcpdhXlWMKrwi9v_pxVP2K-pwz1zb93A0E9mlfeVCqZW4xY",
          "width": 4160
        }
      ],
      "place_id": "ChIJ1-1nIGb2wokRGkbd6xcyibc",
      "plus_code": {
        "compound_code": "R2CV+4W \u7f8e\u570b\u7d10\u7d04",
        "global_code": "87G8R2CV+4W"
      },
      "price_level": 1,
      "rating": 3.9,
      "reference": "ChIJ1-1nIGb2wokRGkbd6xcyibc",
      "scope": "GOOGLE",
      "types": [
        "meal_delivery",
        "restaurant",
        "point_of_interest",
        "food",
        "establishment"
      ],
      "user_ratings_total": 657,
      "vicinity": "3341 Broadway, New York"
    },
    {
      "business_status": "OPERATIONAL",
      "geometry": {
        "location": {
          "lat": 40.820464,
          "lng": -73.95350549999999
        },
        "viewport": {
          "northeast": {
            "lat": 40.8217568802915,
            "lng": -73.95219716970848
          },
          "southwest": {
            "lat": 40.8190589197085,
            "lng": -73.95489513029149
          }
        }
      },
      "icon": "https://maps.gstatic.com/mapfiles/place_api/icons/v1/png_71/school-71.png",
      "icon_background_color": "#7B9EB0",
      "icon_mask_base_uri": "https://maps.gstatic.com/mapfiles/place_api/icons/v2/school_pinlet",
      "name": "P.S. 192 Jacob H. Schiff School",
      "photos": [
        {
          "height": 900,
          "html_attributions": [
            "<a href=\"https://maps.google.com/maps/contrib/108605778596958236375\">Igor Ostrovsky</a>"
          ],
          "photo_reference": "AeJbb3fXbQX-ptaZhtVZ2Xyp4Z1S0iNc246_YyLBUIYM-fcUs6SfnzrZ5SEIKBmllLMbsoG-3_1jW4s6xb6cgB_QcN7nyBTEooa-8Qh0cGLfzirxPSSc2FFg0Tyol04-jm2UZicdWNccIxP94wstIG54gANB6gSsZtpz27RvznBDYClPD2x5",
          "width": 1200
        }
      ],
      "place_id": "ChIJ30cy5GX2wokRZ7BToaAwxKE",
      "plus_code": {
        "compound_code": "R2CW+5H \u7f8e\u570b\u7d10\u7d04",
        "global_code": "87G8R2CW+5H"
      },
      "rating": 3.9,
      "reference": "ChIJ30cy5GX2wokRZ7BToaAwxKE",
      "scope": "GOOGLE",
      "types": [
        "point_of_interest",
        "school",
        "establishment"
      ],
      "user_ratings_total": 7,
      "vicinity": "500 West 138th Street, New York"
    },
    {
      "business_status": "OPERATIONAL",
      "geometry": {
        "location": {
          "lat": 40.82270440000001,
          "lng": -73.953553
        },
        "viewport": {
          "northeast": {
            "lat": 40.8240838802915,
            "lng": -73.9521813197085
          },
          "southwest": {
            "lat": 40.8213859197085,
            "lng": -73.95487928029151
          }
        }
      },
      "icon": "https://maps.gstatic.com/mapfiles/place_api/icons/v1/png_71/restaurant-71.png",
      "icon_background_color": "#FF9E67",
      "icon_mask_base_uri": "https://maps.gstatic.com/mapfiles/place_api/icons/v2/restaurant_pinlet",
      "name": "Subway",
      "opening_hours": {
        "open_now": true
      },
      "photos": [
        {
          "height": 600,
          "html_attributions": [
            "<a href=\"https://maps.google.com/maps/contrib/100710192915401553916\">\u3053\u3069\u3082\u8ab2\u9577</a>"
          ],
          "photo_reference": "AeJbb3cgE9umZDt__oAjTE5XS6inP39afcblglEuaIpgEj3TO-FO9PlXHjrIy3PcS8spMyuh0o93QJi4XIlsnvXrn2VdrP9U9RuTdlYDrvf8CJjC862xiO25lhfpd2vSnwc53JeZCGrZ9FAJzEODpYHl2BWGKUgkrPC010Cgt-nAmYjZmLGy",
          "width": 800
        }
      ],
      "place_id": "ChIJ1-NOKmT2wokRpuZWrQX5KYE",
      "plus_code": {
        "compound_code": "R2FW+3H \u7f8e\u570b\u7d10\u7d04",
        "global_code": "87G8R2FW+3H"
      },
      "price_level": 1,
      "rating": 3.5,
      "reference": "ChIJ1-NOKmT2wokRpuZWrQX5KYE",
      "scope": "GOOGLE",
      "types": [
        "meal_takeaway",
        "restaurant",
        "point_of_interest",
        "food",
        "establishment"
      ],
      "user_ratings_total": 73,
      "vicinity": "Building, 600 West 139th Street, New York"
    },
    {
      "business_status": "CLOSED_TEMPORARILY",
      "geometry": {
        "location": {
          "lat": 40.8199852,
          "lng": -73.9585029
        },
        "viewport": {
          "northeast": {
            "lat": 40.8212958302915,
            "lng": -73.9571819697085
          },
          "southwest": {
            "lat": 40.8185978697085,
            "lng": -73.9598799302915
          }
        }
      },
      "icon": "https://maps.gstatic.com/mapfiles/place_api/icons/v1/png_71/generic_business-71.png",
      "icon_background_color": "#7B9EB0",
      "icon_mask_base_uri": "https://maps.gstatic.com/mapfiles/place_api/icons/v2/generic_pinlet",
      "name": "Joshua Allen Photography",
      "permanently_closed": true,
      "place_id": "ChIJRfeDEWj2wokR5zd2L5SL5lM",
      "plus_code": {
        "compound_code": "R29R+XH \u7f8e\u570b\u7d10\u7d04",
        "global_code": "87G8R29R+XH"
      },
      "reference": "ChIJRfeDEWj2wokR5zd2L5SL5lM",
      "scope": "GOOGLE",
      "types": [
        "point_of_interest",
        "establishment"
      ],
      "vicinity": "2331 12th Avenue, New York"
    },
    {
      "business_status": "OPERATIONAL",
      "geometry": {
        "location": {
          "lat": 40.8194597,
          "lng": -73.9573186
        },
        "viewport": {
          "northeast": {
            "lat": 40.8212469302915,
            "lng": -73.9564328697085
          },
          "southwest": {
            "lat": 40.8185489697085,
            "lng": -73.95913083029151
          }
        }
      },
      "icon": "https://maps.gstatic.com/mapfiles/place_api/icons/v1/png_71/school-71.png",
      "icon_background_color": "#7B9EB0",
      "icon_mask_base_uri": "https://maps.gstatic.com/mapfiles/place_api/icons/v2/school_pinlet",
      "name": "KIPP Infinity Charter School",
      "photos": [
        {
          "height": 3024,
          "html_attributions": [
            "<a href=\"https://maps.google.com/maps/contrib/110449128630256930732\">Dalia Perez</a>"
          ],
          "photo_reference": "AeJbb3fl9TPh3ZCBzdkG-pASs4MiX7N3G0CA4TQPT4MNt8Z-a9K68Yyo--jRPxal7W0RBycqBQ-xh4WcN5sIU-rIRxeSv5vljbKmUHKXzF1DcXmTCdLMxz6YJU5VS2OOgbo1xoVYY4fChs12NgCopo-hUrjvC7IrPvLiMPp_2Un39tS6RflM",
          "width": 4032
        }
      ],
      "place_id": "ChIJH9A8Z2j2wokRWHVzhPCGtRU",
      "plus_code": {
        "compound_code": "R29V+Q3 \u7f8e\u570b\u7d10\u7d04",
        "global_code": "87G8R29V+Q3"
      },
      "rating": 4.4,
      "reference": "ChIJH9A8Z2j2wokRWHVzhPCGtRU",
      "scope": "GOOGLE",
      "types": [
        "point_of_interest",
        "school",
        "establishment"
      ],
      "user_ratings_total": 34,
      "vicinity": "625 West 133rd Street, New York"
    },
    {
      "business_status": "OPERATIONAL",
      "geometry": {
        "location": {
          "lat": 40.824069,
          "lng": -73.9540729
        },
        "viewport": {
          "northeast": {
            "lat": 40.8253271802915,
            "lng": -73.9527997697085
          },
          "southwest": {
            "lat": 40.8226292197085,
            "lng": -73.95549773029151
          }
        }
      },
      "icon": "https://maps.gstatic.com/mapfiles/place_api/icons/v1/png_71/generic_business-71.png",
      "icon_background_color": "#7B9EB0",
      "icon_mask_base_uri": "https://maps.gstatic.com/mapfiles/place_api/icons/v2/generic_pinlet",
      "name": "Fortune Society",
      "opening_hours": {
        "open_now": false
      },
      "photos": [
        {
          "height": 2340,
          "html_attributions": [
            "<a href=\"https://maps.google.com/maps/contrib/102205480040714930113\">Richard Glover</a>"
          ],
          "photo_reference": "AeJbb3fcdjjukqNFdYGd-n8RKrPPDh4dFIdumgSBaqoDsOlxjduyFB0VhCvzHese9RJ3MmT7qkb2eAO316zjwDooKTgx8Nt9y0-6qHBRZXejd0wVEU_FjCE_jBu6voW6G8aYOZGibjrNBSJzBJAmT-gfF0DYwbBGKYftbFHQxDyUUn4-WKrH",
          "width": 4160
        }
      ],
      "place_id": "ChIJnb1WuWb2wokRQMv2adygn60",
      "plus_code": {
        "compound_code": "R2FW+J9 \u7f8e\u570b\u7d10\u7d04",
        "global_code": "87G8R2FW+J9"
      },
      "rating": 4.4,
      "reference": "ChIJnb1WuWb2wokRQMv2adygn60",
      "scope": "GOOGLE",
      "types": [
        "point_of_interest",
        "establishment"
      ],
      "user_ratings_total": 79,
      "vicinity": "625 West 140th Street, New York"
    },
    {
      "business_status": "OPERATIONAL",
      "geometry": {
        "location": {
          "lat": 40.821053,
          "lng": -73.9530544
        },
        "viewport": {
          "northeast": {
            "lat": 40.82236218029151,
            "lng": -73.9516091697085
          },
          "southwest": {
            "lat": 40.81966421970851,
            "lng": -73.95430713029151
          }
        }
      },
      "icon": "https://maps.gstatic.com/mapfiles/place_api/icons/v1/png_71/school-71.png",
      "icon_background_color": "#7B9EB0",
      "icon_mask_base_uri": "https://maps.gstatic.com/mapfiles/place_api/icons/v2/school_pinlet",
      "name": "P.S. 325",
      "place_id": "ChIJ30cy5GX2wokRGX1pPXyTfio",
      "plus_code": {
        "compound_code": "R2CW+CQ \u7f8e\u570b\u7d10\u7d04",
        "global_code": "87G8R2CW+CQ"
      },
      "rating": 1,
      "reference": "ChIJ30cy5GX2wokRGX1pPXyTfio",
      "scope": "GOOGLE",
      "types": [
        "primary_school",
        "point_of_interest",
        "school",
        "establishment"
      ],
      "user_ratings_total": 3,
      "vicinity": "500 West 138th Street, New York"
    },
    {
      "business_status": "OPERATIONAL",
      "geometry": {
        "location": {
          "lat": 40.8227373,
          "lng": -73.95283309999999
        },
        "viewport": {
          "northeast": {
            "lat": 40.8241168802915,
            "lng": -73.95155576970849
          },
          "southwest": {
            "lat": 40.8214189197085,
            "lng": -73.9542537302915
          }
        }
      },
      "icon": "https://maps.gstatic.com/mapfiles/place_api/icons/v1/png_71/restaurant-71.png",
      "icon_background_color": "#FF9E67",
      "icon_mask_base_uri": "https://maps.gstatic.com/mapfiles/place_api/icons/v2/restaurant_pinlet",
      "name": "Picante",
      "opening_hours": {
        "open_now": true
      },
      "photos": [
        {
          "height": 3024,
          "html_attributions": [
            "<a href=\"https://maps.google.com/maps/contrib/102113294558552005157\">Picante</a>"
          ],
          "photo_reference": "AeJbb3dJ5GebcHDXJUwxN8JnzvjomBIjG8qP2DIhYgzxWecqMlIFVOeL_OSTuV5REPI0p8mH596vdRO4kVPra4CtF2p-Q8xMpp0u8qUxmpB2auEZ7ktfYtrL8jPKAknuFmDNN3Rmh3G7RR9_K8mcL76Kg0E-D0agcs6Qg4-JU6DgD_OF_xnq",
          "width": 4032
        }
      ],
      "place_id": "ChIJjW35MWT2wokRSlryWfa3vYE",
      "plus_code": {
        "compound_code": "R2FW+3V \u7f8e\u570b\u7d10\u7d04",
        "global_code": "87G8R2FW+3V"
      },
      "price_level": 2,
      "rating": 4,
      "reference": "ChIJjW35MWT2wokRSlryWfa3vYE",
      "scope": "GOOGLE",
      "types": [
        "bar",
        "restaurant",
        "point_of_interest",
        "food",
        "establishment"
      ],
      "user_ratings_total": 556,
      "vicinity": "3424 Broadway, New York"
    },
    {
      "business_status": "OPERATIONAL",
      "geometry": {
        "location": {
          "lat": 40.82217540000001,
          "lng": -73.9532454
        },
        "viewport": {
          "northeast": {
            "lat": 40.8235690302915,
            "lng": -73.95195666970851
          },
          "southwest": {
            "lat": 40.8208710697085,
            "lng": -73.95465463029151
          }
        }
      },
      "icon": "https://maps.gstatic.com/mapfiles/place_api/icons/v1/png_71/shopping-71.png",
      "icon_background_color": "#4B96F3",
      "icon_mask_base_uri": "https://maps.gstatic.com/mapfiles/place_api/icons/v2/shopping_pinlet",
      "name": "T-Mobile",
      "opening_hours": {
        "open_now": true
      },
      "photos": [
        {
          "height": 480,
          "html_attributions": [
            "<a href=\"https://maps.google.com/maps/contrib/102192544393338631984\">T-Mobile</a>"
          ],
          "photo_reference": "AeJbb3cKcWYqSR-hfWFwjeVskbmrnlsolRYYe2GPWSmertJDeePWwG_GNlboLFGcwffICpWTdpxGTUzhZSVmicgT65K4nFXmXILVXxOEy8gnhGfy023BEm9gz9N2mD0mw1-9J07ZhBkQ3KoVuwj66zcsUxmjuN-cLCf_ZC7UouX97dLj6hb2",
          "width": 640
        }
      ],
      "place_id": "ChIJZfRh1GX2wokRJfwjRJJioso",
      "plus_code": {
        "compound_code": "R2CW+VP \u7f8e\u570b\u7d10\u7d04",
        "global_code": "87G8R2CW+VP"
      },
      "price_level": 2,
      "rating": 4.2,
      "reference": "ChIJZfRh1GX2wokRJfwjRJJioso",
      "scope": "GOOGLE",
      "types": [
        "point_of_interest",
        "store",
        "establishment"
      ],
      "user_ratings_total": 75,
      "vicinity": "3410 Broadway, New York"
    },
    {
      "business_status": "OPERATIONAL",
      "geometry": {
        "location": {
          "lat": 40.8221377,
          "lng": -73.9529275
        },
        "viewport": {
          "northeast": {
            "lat": 40.8233562802915,
            "lng": -73.95177706970851
          },
          "southwest": {
            "lat": 40.82065831970851,
            "lng": -73.95447503029152
          }
        }
      },
      "icon": "https://maps.gstatic.com/mapfiles/place_api/icons/v1/png_71/shopping-71.png",
      "icon_background_color": "#4B96F3",
      "icon_mask_base_uri": "https://maps.gstatic.com/mapfiles/place_api/icons/v2/shoppingcart_pinlet",
      "name": "Food Universe Marketplace",
      "opening_hours": {
        "open_now": true
      },
      "photos": [
        {
          "height": 3024,
          "html_attributions": [
            "<a href=\"https://maps.google.com/maps/contrib/116121481142186409556\">Maxwell Vale</a>"
          ],
          "photo_reference": "AeJbb3ev8aq6SGRz7pdKe0qsWV6T1enve86DTne2CauOF0DgBB1DMlQwTc55RhJ06j3mYq-Zi6pDKW3ZmH9WQ_zxNGSy8Wj5sIly5wUf5NEKDzVdQuBLfAzKXQ9aPTrCeJbagFTCZNDs4bGKsoFnty72dWPSUrsSlrTa3tpN7qycGMQNFDIZ",
          "width": 4032
        }
      ],
      "place_id": "ChIJcxklv2X2wokRGAiyl1eQQOU",
      "plus_code": {
        "compound_code": "R2CW+VR \u7f8e\u570b\u7d10\u7d04",
        "global_code": "87G8R2CW+VR"
      },
      "rating": 4,
      "reference": "ChIJcxklv2X2wokRGAiyl1eQQOU",
      "scope": "GOOGLE",
      "types": [
        "grocery_or_supermarket",
        "supermarket",
        "convenience_store",
        "bakery",
        "point_of_interest",
        "food",
        "store",
        "establishment"
      ],
      "user_ratings_total": 652,
      "vicinity": "538 West 138th Street, New York"
    },
    {
      "business_status": "OPERATIONAL",
      "geometry": {
        "location": {
          "lat": 40.821976,
          "lng": -73.9511136
        },
        "viewport": {
          "northeast": {
            "lat": 40.8232447302915,
            "lng": -73.94982396970849
          },
          "southwest": {
            "lat": 40.8205467697085,
            "lng": -73.95252193029151
          }
        }
      },
      "icon": "https://maps.gstatic.com/mapfiles/place_api/icons/v1/png_71/generic_business-71.png",
      "icon_background_color": "#7B9EB0",
      "icon_mask_base_uri": "https://maps.gstatic.com/mapfiles/place_api/icons/v2/generic_pinlet",
      "name": "Manhattan Landscape Company",
      "opening_hours": {
        "open_now": true
      },
      "photos": [
        {
          "height": 1152,
          "html_attributions": [
            "<a href=\"https://maps.google.com/maps/contrib/116285866313457571403\">Manhattan Landscape Company</a>"
          ],
          "photo_reference": "AeJbb3emm7xrl5OkveDo6wHK7xH2m_lU81veIJs1lkFy48C9HTHC3vYO3ETUIdGJ7Cy1PFw8R9gkgRQtsIDOQ3COTXWVHAh3ez5rG6_1_1bYaPd6bG9kq65RMIvKFWrN9yENdpiYQ8C7n6SEfR0sRCwurMx6bX9BrYadC7RmZZKA4gQh8ME",
          "width": 2048
        }
      ],
      "place_id": "ChIJl8aJrGX2wokRYJDmiCQc-98",
      "plus_code": {
        "compound_code": "R2CX+QH \u7f8e\u570b\u7d10\u7d04",
        "global_code": "87G8R2CX+QH"
      },
      "rating": 5,
      "reference": "ChIJl8aJrGX2wokRYJDmiCQc-98",
      "scope": "GOOGLE",
      "types": [
        "general_contractor",
        "point_of_interest",
        "establishment"
      ],
      "user_ratings_total": 1,
      "vicinity": "511 West 139th Street, New York"
    },
    {
      "business_status": "OPERATIONAL",
      "geometry": {
        "location": {
          "lat": 40.8217697,
          "lng": -73.95422719999999
        },
        "viewport": {
          "northeast": {
            "lat": 40.8229928802915,
            "lng": -73.9530193697085
          },
          "southwest": {
            "lat": 40.8202949197085,
            "lng": -73.9557173302915
          }
        }
      },
      "icon": "https://maps.gstatic.com/mapfiles/place_api/icons/v1/png_71/shopping-71.png",
      "icon_background_color": "#4B96F3",
      "icon_mask_base_uri": "https://maps.gstatic.com/mapfiles/place_api/icons/v2/convenience_pinlet",
      "name": "Duane Reade",
      "opening_hours": {
        "open_now": true
      },
      "photos": [
        {
          "height": 4032,
          "html_attributions": [
            "<a href=\"https://maps.google.com/maps/contrib/114388924956046639269\">Arlene</a>"
          ],
          "photo_reference": "AeJbb3cMHE1YFd9nVzzULZjS2IaWuP6HOW2qIb1Q8QIoVL9TnxCy9yHuESha3-geoRgeJIghFxwN7_ir_7x45s4iLaixKIl7Q87jhmqirTPEC6ortPCO75Ai4a3hQI0jB61Wlg8mQkT3bXcchsMLGxNsfaH4xbdXwF8KfAzKt9crbngEeVMg",
          "width": 3024
        }
      ],
      "place_id": "ChIJ-37YQwr2wokRv9n0P0FCmtQ",
      "plus_code": {
        "compound_code": "R2CW+P8 \u7f8e\u570b\u7d10\u7d04",
        "global_code": "87G8R2CW+P8"
      },
      "price_level": 2,
      "rating": 3.3,
      "reference": "ChIJ-37YQwr2wokRv9n0P0FCmtQ",
      "scope": "GOOGLE",
      "types": [
        "convenience_store",
        "clothing_store",
        "point_of_interest",
        "food",
        "store",
        "establishment"
      ],
      "user_ratings_total": 50,
      "vicinity": "3387 Broadway, New York"
    },
    {
      "business_status": "OPERATIONAL",
      "geometry": {
        "location": {
          "lat": 40.8255035,
          "lng": -73.9527438
        },
        "viewport": {
          "northeast": {
            "lat": 40.8269586802915,
            "lng": -73.95141051970849
          },
          "southwest": {
            "lat": 40.8242607197085,
            "lng": -73.95410848029151
          }
        }
      },
      "icon": "https://maps.gstatic.com/mapfiles/place_api/icons/v1/png_71/generic_business-71.png",
      "icon_background_color": "#7B9EB0",
      "icon_mask_base_uri": "https://maps.gstatic.com/mapfiles/place_api/icons/v2/generic_pinlet",
      "name": "Alberta NYC",
      "photos": [
        {
          "height": 667,
          "html_attributions": [
            "<a href=\"https://maps.google.com/maps/contrib/116426018164102927934\">Ethan Wolvek</a>"
          ],
          "photo_reference": "AeJbb3fsNvbjQ2ykai1eaEvX9GPi8mMw5AJ0qe9mztQgZYW1BOt5tCutDe3V3yNqQBUBlDMz0IYu7cw7WHyWZRYmm8MOpNbU_hyOp9o7jQA0gGYOdPSxAabbP33F2ZN2Nd__rvNz3KQjV74cJ2mvmLei13GKJsv2zn6cmfhXejge4eEUZJOo",
          "width": 1000
        }
      ],
      "place_id": "ChIJLwMn8GP2wokRWKMW5L__F5M",
      "plus_code": {
        "compound_code": "R2GW+6W \u7f8e\u570b\u7d10\u7d04",
        "global_code": "87G8R2GW+6W"
      },
      "rating": 3.1,
      "reference": "ChIJLwMn8GP2wokRWKMW5L__F5M",
      "scope": "GOOGLE",
      "types": [
        "point_of_interest",
        "establishment"
      ],
      "user_ratings_total": 7,
      "vicinity": "620 West 143rd Street, New York"
    },
    {
      "business_status": "OPERATIONAL",
      "geometry": {
        "location": {
          "lat": 40.8218743,
          "lng": -73.9507981
        },
        "viewport": {
          "northeast": {
            "lat": 40.8231279802915,
            "lng": -73.94951066970849
          },
          "southwest": {
            "lat": 40.8204300197085,
            "lng": -73.9522086302915
          }
        }
      },
      "icon": "https://maps.gstatic.com/mapfiles/place_api/icons/v1/png_71/civic_building-71.png",
      "icon_background_color": "#7B9EB0",
      "icon_mask_base_uri": "https://maps.gstatic.com/mapfiles/place_api/icons/v2/civic-bldg_pinlet",
      "name": "FDNY Engine 80/Ladder 23",
      "photos": [
        {
          "height": 4608,
          "html_attributions": [
            "<a href=\"https://maps.google.com/maps/contrib/105096571909275290014\">Abdelkader Boudina</a>"
          ],
          "photo_reference": "AeJbb3foDNKGsLVCmQJIN_BReQOpYA_tV66OH43km_gO713tXfklR-71Yabr0XwnzyjpRdn1QiUWuwPz5sEcBS2E25u00XHDg9Z7L2HmIAudrrT7ZPygElQf-G-W95m8aojQB3VWTyV6yEPYuUI_vz6JOVWjc2-igOWNGaFf7WvdylEJgcWf",
          "width": 3456
        }
      ],
      "place_id": "ChIJZ91_qWX2wokR4BLSFfd16nA",
      "plus_code": {
        "compound_code": "R2CX+PM \u7f8e\u570b\u7d10\u7d04",
        "global_code": "87G8R2CX+PM"
      },
      "rating": 4.4,
      "reference": "ChIJZ91_qWX2wokR4BLSFfd16nA",
      "scope": "GOOGLE",
      "types": [
        "fire_station",
        "point_of_interest",
        "establishment"
      ],
      "user_ratings_total": 8,
      "vicinity": "503 West 139th Street, New York"
    },
    {
      "business_status": "OPERATIONAL",
      "geometry": {
        "location": {
          "lat": 40.8197347,
          "lng": -73.95485959999999
        },
        "viewport": {
          "northeast": {
            "lat": 40.8211399302915,
            "lng": -73.9536444197085
          },
          "southwest": {
            "lat": 40.8184419697085,
            "lng": -73.9563423802915
          }
        }
      },
      "icon": "https://maps.gstatic.com/mapfiles/place_api/icons/v1/png_71/generic_business-71.png",
      "icon_background_color": "#7B9EB0",
      "icon_mask_base_uri": "https://maps.gstatic.com/mapfiles/place_api/icons/v2/generic_pinlet",
      "name": "Extra Space Storage",
      "opening_hours": {
        "open_now": true
      },
      "photos": [
        {
          "height": 270,
          "html_attributions": [
            "<a href=\"https://maps.google.com/maps/contrib/115806724902755374992\">Extra Space Storage</a>"
          ],
          "photo_reference": "AeJbb3ccxkSVY7U_wZCe7v-2pyt-pZ3hb4UzjMmsnrhF_sLA8nVTrEOnl6RocTjJApUH8xHEzxi38zsUtUBvsa_m4xMaskyzhomO56Io-Hu7UX9NlrMXS-3fuTX_UNabEnKjDOunNKYJdpt0h3CxNJGzP8qYpCF6PDrK5cFBQVj2heBLASZK",
          "width": 480
        }
      ],
      "place_id": "ChIJyw0Bomj2wokRB2G8vHK6RU8",
      "plus_code": {
        "compound_code": "R29W+V3 \u7f8e\u570b\u7d10\u7d04",
        "global_code": "87G8R29W+V3"
      },
      "rating": 4.9,
      "reference": "ChIJyw0Bomj2wokRB2G8vHK6RU8",
      "scope": "GOOGLE",
      "types": [
        "moving_company",
        "storage",
        "point_of_interest",
        "store",
        "establishment"
      ],
      "user_ratings_total": 709,
      "vicinity": "3330 Broadway, New York"
    },
    {
      "business_status": "OPERATIONAL",
      "geometry": {
        "location": {
          "lat": 40.82328649999999,
          "lng": -73.9532049
        },
        "viewport": {
          "northeast": {
            "lat": 40.8245785802915,
            "lng": -73.9517320197085
          },
          "southwest": {
            "lat": 40.8218806197085,
            "lng": -73.95442998029151
          }
        }
      },
      "icon": "https://maps.gstatic.com/mapfiles/place_api/icons/v1/png_71/generic_business-71.png",
      "icon_background_color": "#7B9EB0",
      "icon_mask_base_uri": "https://maps.gstatic.com/mapfiles/place_api/icons/v2/generic_pinlet",
      "name": "PAYOMATIC",
      "opening_hours": {
        "open_now": true
      },
      "place_id": "ChIJoaceJWT2wokRMaKU_wRb57o",
      "plus_code": {
        "compound_code": "R2FW+8P \u7f8e\u570b\u7d10\u7d04",
        "global_code": "87G8R2FW+8P"
      },
      "rating": 2.6,
      "reference": "ChIJoaceJWT2wokRMaKU_wRb57o",
      "scope": "GOOGLE",
      "types": [
        "bank",
        "finance",
        "point_of_interest",
        "establishment"
      ],
      "user_ratings_total": 5,
      "vicinity": "3433 Broadway, New York"
    },
    {
      "business_status": "OPERATIONAL",
      "geometry": {
        "location": {
          "lat": 40.8204226,
          "lng": -73.9544329
        },
        "viewport": {
          "northeast": {
            "lat": 40.8218128302915,
            "lng": -73.95319671970849
          },
          "southwest": {
            "lat": 40.8191148697085,
            "lng": -73.95589468029151
          }
        }
      },
      "icon": "https://maps.gstatic.com/mapfiles/place_api/icons/v1/png_71/generic_business-71.png",
      "icon_background_color": "#7B9EB0",
      "icon_mask_base_uri": "https://maps.gstatic.com/mapfiles/place_api/icons/v2/generic_pinlet",
      "name": "PAYOMATIC",
      "opening_hours": {
        "open_now": true
      },
      "place_id": "ChIJoaceJWT2wokReE4QMrehgiI",
      "plus_code": {
        "compound_code": "R2CW+56 \u7f8e\u570b\u7d10\u7d04",
        "global_code": "87G8R2CW+56"
      },
      "rating": 2.6,
      "reference": "ChIJoaceJWT2wokReE4QMrehgiI",
      "scope": "GOOGLE",
      "types": [
        "bank",
        "finance",
        "point_of_interest",
        "establishment"
      ],
      "user_ratings_total": 17,
      "vicinity": "3352 Broadway, New York"
    },
    {
      "geometry": {
        "location": {
          "lat": 40.8240478,
          "lng": -73.9447643
        },
        "viewport": {
          "northeast": {
            "lat": 40.87822003591612,
            "lng": -73.91064591328563
          },
          "southwest": {
            "lat": 40.78278392408598,
            "lng": -73.97119006413347
          }
        }
      },
      "icon": "https://maps.gstatic.com/mapfiles/place_api/icons/v1/png_71/geocode-71.png",
      "icon_background_color": "#7B9EB0",
      "icon_mask_base_uri": "https://maps.gstatic.com/mapfiles/place_api/icons/v2/generic_pinlet",
      "name": "\u66fc\u54c8\u9813\u4e0a\u57ce",
      "photos": [
        {
          "height": 4000,
          "html_attributions": [
            "<a href=\"https://maps.google.com/maps/contrib/108665206705263687409\">Chris Lidstone</a>"
          ],
          "photo_reference": "AeJbb3fexAbisUyD1kPtGZdBT8RbZOf_or8iF-Sh5sKpag7eLq86NNS138lpgXCnut91CTlc_Lo9wAbh4ZwOtOm81w-BHdbPCMXkVUEOEaqH7I6skUcqf88Hk-Bm26YPhQdYRvbn_U0ly9jnyC3BwM8vIare6kSTegD_T7Vt9ZP433vzDckh",
          "width": 3000
        }
      ],
      "place_id": "ChIJY50xHxP2wokR7WhhDNRmgRU",
      "reference": "ChIJY50xHxP2wokR7WhhDNRmgRU",
      "scope": "GOOGLE",
      "types": [
        "neighborhood",
        "political"
      ],
      "vicinity": "\u66fc\u54c8\u9813"
    },
    {
      "business_status": "OPERATIONAL",
      "geometry": {
        "location": {
          "lat": 40.8228521,
          "lng": -73.953406
        },
        "viewport": {
          "northeast": {
            "lat": 40.82416218029149,
            "lng": -73.95211826970849
          },
          "southwest": {
            "lat": 40.8214642197085,
            "lng": -73.9548162302915
          }
        }
      },
      "icon": "https://maps.gstatic.com/mapfiles/place_api/icons/v1/png_71/generic_business-71.png",
      "icon_background_color": "#7B9EB0",
      "icon_mask_base_uri": "https://maps.gstatic.com/mapfiles/place_api/icons/v2/generic_pinlet",
      "name": "First Step Pediatrics",
      "opening_hours": {
        "open_now": false
      },
      "place_id": "ChIJl-yFCmb2wokRuKxNrLuW1Ec",
      "plus_code": {
        "compound_code": "R2FW+4J New York, NY, USA",
        "global_code": "87G8R2FW+4J"
      },
      "rating": 3.5,
      "reference": "ChIJl-yFCmb2wokRuKxNrLuW1Ec",
      "scope": "GOOGLE",
      "types": [
        "doctor",
        "health",
        "point_of_interest",
        "establishment"
      ],
      "user_ratings_total": 10,
      "vicinity": "3421 Broadway # 1, New York"
    },
    {
      "business_status": "OPERATIONAL",
      "geometry": {
        "location": {
          "lat": 40.81963319999999,
          "lng": -73.95469539999999
        },
        "viewport": {
          "northeast": {
            "lat": 40.82110418029149,
            "lng": -73.95325646970849
          },
          "southwest": {
            "lat": 40.81840621970849,
            "lng": -73.9559544302915
          }
        }
      },
      "icon": "https://maps.gstatic.com/mapfiles/place_api/icons/v1/png_71/generic_business-71.png",
      "icon_background_color": "#7B9EB0",
      "icon_mask_base_uri": "https://maps.gstatic.com/mapfiles/place_api/icons/v2/generic_pinlet",
      "name": "Henao Joseph",
      "place_id": "ChIJVT9uvGj2wokRKReNdZXMIhM",
      "plus_code": {
        "compound_code": "R29W+V4 New York, NY, USA",
        "global_code": "87G8R29W+V4"
      },
      "reference": "ChIJVT9uvGj2wokRKReNdZXMIhM",
      "scope": "GOOGLE",
      "types": [
        "doctor",
        "health",
        "point_of_interest",
        "establishment"
      ],
      "vicinity": "534 West 135th Street #1, New York"
    },
    {
      "business_status": "OPERATIONAL",
      "geometry": {
        "location": {
          "lat": 40.8227659,
          "lng": -73.9537509
        },
        "viewport": {
          "northeast": {
            "lat": 40.82403618029151,
            "lng": -73.95221736970849
          },
          "southwest": {
            "lat": 40.82133821970851,
            "lng": -73.95491533029151
          }
        }
      },
      "icon": "https://maps.gstatic.com/mapfiles/place_api/icons/v1/png_71/generic_business-71.png",
      "icon_background_color": "#7B9EB0",
      "icon_mask_base_uri": "https://maps.gstatic.com/mapfiles/place_api/icons/v2/generic_pinlet",
      "name": "VIA TAX PREPARATION INC.",
      "opening_hours": {
        "open_now": false
      },
      "photos": [
        {
          "height": 523,
          "html_attributions": [
            "<a href=\"https://maps.google.com/maps/contrib/116468925914590654314\">VIA TAX PREPARATION INC.</a>"
          ],
          "photo_reference": "AeJbb3dFv_XY9E8X7if-GHFL658N0AJz6MUIhWeuldcViu165inmpPodLoRGLilqx_7pefiPclH8VLb7MKbV7smia71J7pgGXZW5mg1ce6BICSavA79se076LBRKXS40r8DRZf6xtSCUQ1sJIKFzqQnwUxxwx_kuouekEh7aqU0J-1e3YvHQ",
          "width": 697
        }
      ],
      "place_id": "ChIJh6GQgWb2wokRyffO50easd4",
      "plus_code": {
        "compound_code": "R2FW+4F New York, NY, USA",
        "global_code": "87G8R2FW+4F"
      },
      "rating": 4.2,
      "reference": "ChIJh6GQgWb2wokRyffO50easd4",
      "scope": "GOOGLE",
      "types": [
        "accounting",
        "finance",
        "lawyer",
        "point_of_interest",
        "establishment"
      ],
      "user_ratings_total": 11,
      "vicinity": "600 West 139th Street, New York"
    },
    {
      "business_status": "OPERATIONAL",
      "geometry": {
        "location": {
          "lat": 40.8210953,
          "lng": -73.95470159999999
        },
        "viewport": {
          "northeast": {
            "lat": 40.8224184302915,
            "lng": -73.9532647697085
          },
          "southwest": {
            "lat": 40.8197204697085,
            "lng": -73.9559627302915
          }
        }
      },
      "icon": "https://maps.gstatic.com/mapfiles/place_api/icons/v1/png_71/shopping-71.png",
      "icon_background_color": "#4B96F3",
      "icon_mask_base_uri": "https://maps.gstatic.com/mapfiles/place_api/icons/v2/shopping_pinlet",
      "name": "La Nacional - A00005",
      "opening_hours": {
        "open_now": true
      },
      "photos": [
        {
          "height": 2268,
          "html_attributions": [
            "<a href=\"https://maps.google.com/maps/contrib/103047968675444569688\">Diego De La Mota</a>"
          ],
          "photo_reference": "AeJbb3cH--sSl4eOCOuXCTn1qFXAhQbBfL6XA2TSzhl54x2kPlGn0RLUk9182cROO2OMUfGtvzCz9mQcttbkxA5FTqnsPszdv8ebdNjIHiT8RgtSQE9ChxIK6n1Ww7SW2hLUSwCYbQV7QVQfV-WzNE-zvp_wtmbqmTL77L4qerNbQuU17j1x",
          "width": 4032
        }
      ],
      "place_id": "ChIJ9XAfEWb2wokReGkiCR0cgQc",
      "plus_code": {
        "compound_code": "R2CW+C4 New York, NY, USA",
        "global_code": "87G8R2CW+C4"
      },
      "rating": 3.1,
      "reference": "ChIJ9XAfEWb2wokReGkiCR0cgQc",
      "scope": "GOOGLE",
      "types": [
        "store",
        "finance",
        "point_of_interest",
        "establishment"
      ],
      "user_ratings_total": 9,
      "vicinity": "3365 Broadway, New York"
    },
    {
      "business_status": "OPERATIONAL",
      "geometry": {
        "location": {
          "lat": 40.82325709999999,
          "lng": -73.9522616
        },
        "viewport": {
          "northeast": {
            "lat": 40.82452423029149,
            "lng": -73.9509524697085
          },
          "southwest": {
            "lat": 40.82182626970849,
            "lng": -73.9536504302915
          }
        }
      },
      "icon": "https://maps.gstatic.com/mapfiles/place_api/icons/v1/png_71/generic_business-71.png",
      "icon_background_color": "#7B9EB0",
      "icon_mask_base_uri": "https://maps.gstatic.com/mapfiles/place_api/icons/v2/generic_pinlet",
      "name": "Dr. Manuel F. Galan, DDS",
      "opening_hours": {
        "open_now": false
      },
      "photos": [
        {
          "height": 4032,
          "html_attributions": [
            "<a href=\"https://maps.google.com/maps/contrib/113587275097533076868\">Dr. Manuel F. Galan, DDS</a>"
          ],
          "photo_reference": "AeJbb3cFmo1xu_rEOidDNXveLDed8Ze_TmGWklviWOfP66Cjl4jOnqUaTVCCQrdm6MbBFc4TIo20kefp9Qo7azAwfaroKU-Z8MRkyN7ayC2wA7N7o8INuiAsJqwHHHH9x34QJDNsSUI1Xi0lSVxPopPYSR0BQxGigFAaQle1lowBsVno655k",
          "width": 3024
        }
      ],
      "place_id": "ChIJyUpBP2T2wokRIKravbN76F8",
      "plus_code": {
        "compound_code": "R2FX+83 New York, NY, USA",
        "global_code": "87G8R2FX+83"
      },
      "rating": 4,
      "reference": "ChIJyUpBP2T2wokRIKravbN76F8",
      "scope": "GOOGLE",
      "types": [
        "dentist",
        "health",
        "point_of_interest",
        "establishment"
      ],
      "user_ratings_total": 7,
      "vicinity": "3440 Broadway, New York"
    },
    {
      "business_status": "OPERATIONAL",
      "geometry": {
        "location": {
          "lat": 40.8238133,
          "lng": -73.9537988
        },
        "viewport": {
          "northeast": {
            "lat": 40.8251229802915,
            "lng": -73.9524779197085
          },
          "southwest": {
            "lat": 40.8224250197085,
            "lng": -73.9551758802915
          }
        }
      },
      "icon": "https://maps.gstatic.com/mapfiles/place_api/icons/v1/png_71/generic_business-71.png",
      "icon_background_color": "#7B9EB0",
      "icon_mask_base_uri": "https://maps.gstatic.com/mapfiles/place_api/icons/v2/generic_pinlet",
      "name": "Bruce W. Fraser Communications",
      "place_id": "ChIJgw3SoWb2wokR9aEXoWDcd-I",
      "plus_code": {
        "compound_code": "R2FW+GF New York, NY, USA",
        "global_code": "87G8R2FW+GF"
      },
      "reference": "ChIJgw3SoWb2wokR9aEXoWDcd-I",
      "scope": "GOOGLE",
      "types": [
        "finance",
        "point_of_interest",
        "establishment"
      ],
      "vicinity": "619 West 140th Street, New York"
    },
    {
      "business_status": "CLOSED_TEMPORARILY",
      "geometry": {
        "location": {
          "lat": 40.8243603,
          "lng": -73.952857
        },
        "viewport": {
          "northeast": {
            "lat": 40.82561868029149,
            "lng": -73.9515750197085
          },
          "southwest": {
            "lat": 40.82292071970849,
            "lng": -73.9542729802915
          }
        }
      },
      "icon": "https://maps.gstatic.com/mapfiles/place_api/icons/v1/png_71/generic_business-71.png",
      "icon_background_color": "#7B9EB0",
      "icon_mask_base_uri": "https://maps.gstatic.com/mapfiles/place_api/icons/v2/generic_pinlet",
      "name": "Watson Cleaning Service",
      "permanently_closed": true,
      "place_id": "ChIJL5SaD2T2wokRPdeyYwQTOqk",
      "plus_code": {
        "compound_code": "R2FW+PV New York, NY, USA",
        "global_code": "87G8R2FW+PV"
      },
      "reference": "ChIJL5SaD2T2wokRPdeyYwQTOqk",
      "scope": "GOOGLE",
      "types": [
        "point_of_interest",
        "establishment"
      ],
      "vicinity": "605 West 141st Street, New York"
    },
    {
      "business_status": "OPERATIONAL",
      "geometry": {
        "location": {
          "lat": 40.823679,
          "lng": -73.9528194
        },
        "viewport": {
          "northeast": {
            "lat": 40.82499343029149,
            "lng": -73.9513881197085
          },
          "southwest": {
            "lat": 40.8222954697085,
            "lng": -73.9540860802915
          }
        }
      },
      "icon": "https://maps.gstatic.com/mapfiles/place_api/icons/v1/png_71/generic_business-71.png",
      "icon_background_color": "#7B9EB0",
      "icon_mask_base_uri": "https://maps.gstatic.com/mapfiles/place_api/icons/v2/generic_pinlet",
      "name": "Migdol Organization",
      "place_id": "ChIJm5_cF2T2wokRIymTnXiFgYU",
      "plus_code": {
        "compound_code": "R2FW+FV New York, NY, USA",
        "global_code": "87G8R2FW+FV"
      },
      "reference": "ChIJm5_cF2T2wokRIymTnXiFgYU",
      "scope": "GOOGLE",
      "types": [
        "real_estate_agency",
        "point_of_interest",
        "establishment"
      ],
      "vicinity": "3449 Broadway, New York"
    },
    {
      "business_status": "OPERATIONAL",
      "geometry": {
        "location": {
          "lat": 40.8233979,
          "lng": -73.9523492
        },
        "viewport": {
          "northeast": {
            "lat": 40.8246308302915,
            "lng": -73.9510544697085
          },
          "southwest": {
            "lat": 40.8219328697085,
            "lng": -73.9537524302915
          }
        }
      },
      "icon": "https://maps.gstatic.com/mapfiles/place_api/icons/v1/png_71/generic_business-71.png",
      "icon_background_color": "#7B9EB0",
      "icon_mask_base_uri": "https://maps.gstatic.com/mapfiles/place_api/icons/v2/generic_pinlet",
      "name": "F M Tax Services",
      "opening_hours": {
        "open_now": true
      },
      "photos": [
        {
          "height": 320,
          "html_attributions": [
            "<a href=\"https://maps.google.com/maps/contrib/106480629584190263591\">F M Tax Services</a>"
          ],
          "photo_reference": "AeJbb3fQQpTjDpxJx7ES_mSPtcw_f7JVyH2vnPlfAfRsFSJAUQONLHKxzwRQP7JZkgtH6eX3cnX51vxlzjxzGcB8g2gskclYfHCxaXycAdQeg01S70wJKvzSslUPN_0K6unHC66nKL-Spr2KyBpTtHTsPsdJYCv2Ufq3_VQL_uNc-NWo_9lc",
          "width": 350
        }
      ],
      "place_id": "ChIJlXjzPmT2wokRoqA7yVFCV_k",
      "plus_code": {
        "compound_code": "R2FX+93 New York, NY, USA",
        "global_code": "87G8R2FX+93"
      },
      "rating": 5,
      "reference": "ChIJlXjzPmT2wokRoqA7yVFCV_k",
      "scope": "GOOGLE",
      "types": [
        "accounting",
        "finance",
        "point_of_interest",
        "establishment"
      ],
      "user_ratings_total": 4,
      "vicinity": "3448 Broadway # 3, New York"
    },
    {
      "business_status": "CLOSED_TEMPORARILY",
      "geometry": {
        "location": {
          "lat": 40.820598,
          "lng": -73.9557824
        },
        "viewport": {
          "northeast": {
            "lat": 40.8218749802915,
            "lng": -73.95448571970849
          },
          "southwest": {
            "lat": 40.8191770197085,
            "lng": -73.9571836802915
          }
        }
      },
      "icon": "https://maps.gstatic.com/mapfiles/place_api/icons/v1/png_71/generic_business-71.png",
      "icon_background_color": "#7B9EB0",
      "icon_mask_base_uri": "https://maps.gstatic.com/mapfiles/place_api/icons/v2/generic_pinlet",
      "name": "BERKAY GROUP INC.",
      "permanently_closed": true,
      "place_id": "ChIJW8LqJ2b2wokRZ_8_in5CIL8",
      "plus_code": {
        "compound_code": "R2CV+6M New York, NY, USA",
        "global_code": "87G8R2CV+6M"
      },
      "reference": "ChIJW8LqJ2b2wokRZ_8_in5CIL8",
      "scope": "GOOGLE",
      "types": [
        "school",
        "point_of_interest",
        "establishment"
      ],
      "vicinity": "609 West 135th Street, New York"
    },
    {
      "business_status": "OPERATIONAL",
      "geometry": {
        "location": {
          "lat": 40.8234747,
          "lng": -73.9518942
        },
        "viewport": {
          "northeast": {
            "lat": 40.8249181802915,
            "lng": -73.95047536970849
          },
          "southwest": {
            "lat": 40.8222202197085,
            "lng": -73.9531733302915
          }
        }
      },
      "icon": "https://maps.gstatic.com/mapfiles/place_api/icons/v1/png_71/school-71.png",
      "icon_background_color": "#7B9EB0",
      "icon_mask_base_uri": "https://maps.gstatic.com/mapfiles/place_api/icons/v2/school_pinlet",
      "name": "Global Independent Profit Center, LLC",
      "place_id": "ChIJIfLGaWT2wokRVcC9BbsSF-M",
      "plus_code": {
        "compound_code": "R2FX+96 New York, NY, USA",
        "global_code": "87G8R2FX+96"
      },
      "reference": "ChIJIfLGaWT2wokRVcC9BbsSF-M",
      "scope": "GOOGLE",
      "types": [
        "point_of_interest",
        "establishment"
      ],
      "vicinity": "556 West 141st Street, New York"
    },
    {
      "business_status": "CLOSED_TEMPORARILY",
      "geometry": {
        "location": {
          "lat": 40.8231525,
          "lng": -73.95501569999999
        },
        "viewport": {
          "northeast": {
            "lat": 40.8245986302915,
            "lng": -73.95359441970848
          },
          "southwest": {
            "lat": 40.8219006697085,
            "lng": -73.95629238029149
          }
        }
      },
      "icon": "https://maps.gstatic.com/mapfiles/place_api/icons/v1/png_71/generic_business-71.png",
      "icon_background_color": "#7B9EB0",
      "icon_mask_base_uri": "https://maps.gstatic.com/mapfiles/place_api/icons/v2/generic_pinlet",
      "name": "The Money Solution",
      "permanently_closed": true,
      "place_id": "ChIJdTXVjGb2wokRq0JPnN3S3p8",
      "plus_code": {
        "compound_code": "R2FV+7X New York, NY, USA",
        "global_code": "87G8R2FV+7X"
      },
      "reference": "ChIJdTXVjGb2wokRq0JPnN3S3p8",
      "scope": "GOOGLE",
      "types": [
        "point_of_interest",
        "establishment"
      ],
      "vicinity": "640 West 139th Street, New York"
    },
    {
      "business_status": "OPERATIONAL",
      "geometry": {
        "location": {
          "lat": 40.8202861,
          "lng": -73.95463869999999
        },
        "viewport": {
          "northeast": {
            "lat": 40.8216619802915,
            "lng": -73.9533547197085
          },
          "southwest": {
            "lat": 40.8189640197085,
            "lng": -73.9560526802915
          }
        }
      },
      "icon": "https://maps.gstatic.com/mapfiles/place_api/icons/v1/png_71/shopping-71.png",
      "icon_background_color": "#4B96F3",
      "icon_mask_base_uri": "https://maps.gstatic.com/mapfiles/place_api/icons/v2/shopping_pinlet",
      "name": "Manhattan Seafood",
      "opening_hours": {
        "open_now": true
      },
      "photos": [
        {
          "height": 3024,
          "html_attributions": [
            "<a href=\"https://maps.google.com/maps/contrib/109646674521476426234\">Jeff Spade</a>"
          ],
          "photo_reference": "AeJbb3eU7myZ5pTK5RfhjjVzJ_kW1Cppa6PbLK6rzZSmdMFnYlrWO8h-ZGIW2GL6XQwqW2Isp6ky6L51jHY0EIeuhAqSmgtQNy_hVgiSCsuJirn3-C7PkQI5kxOhsKozUJZ3yCP58-ZIqeDkCxbzQOTckKTN6frj2ymReI5r4jkOgqx7TTLM",
          "width": 4032
        }
      ],
      "place_id": "ChIJzXW1HWb2wokRpSt0bifW09M",
      "plus_code": {
        "compound_code": "R2CW+44 New York, NY, USA",
        "global_code": "87G8R2CW+44"
      },
      "rating": 4.2,
      "reference": "ChIJzXW1HWb2wokRpSt0bifW09M",
      "scope": "GOOGLE",
      "types": [
        "food",
        "point_of_interest",
        "establishment"
      ],
      "user_ratings_total": 113,
      "vicinity": "3344 Broadway, New York"
    },
    {
      "business_status": "CLOSED_TEMPORARILY",
      "geometry": {
        "location": {
          "lat": 40.822569,
          "lng": -73.95558
        },
        "viewport": {
          "northeast": {
            "lat": 40.8239549302915,
            "lng": -73.95434876970849
          },
          "southwest": {
            "lat": 40.8212569697085,
            "lng": -73.95704673029151
          }
        }
      },
      "icon": "https://maps.gstatic.com/mapfiles/place_api/icons/v1/png_71/shopping-71.png",
      "icon_background_color": "#4B96F3",
      "icon_mask_base_uri": "https://maps.gstatic.com/mapfiles/place_api/icons/v2/shopping_pinlet",
      "name": "Ipsilon Music Services",
      "permanently_closed": true,
      "place_id": "ChIJ9TQSWWb2wokRMVlEDXi1Kc0",
      "plus_code": {
        "compound_code": "R2FV+2Q New York, NY, USA",
        "global_code": "87G8R2FV+2Q"
      },
      "rating": 5,
      "reference": "ChIJ9TQSWWb2wokRMVlEDXi1Kc0",
      "scope": "GOOGLE",
      "types": [
        "electronics_store",
        "home_goods_store",
        "store",
        "point_of_interest",
        "establishment"
      ],
      "user_ratings_total": 1,
      "vicinity": "604 Riverside Drive #3c, New York"
    },
    {
      "business_status": "OPERATIONAL",
      "geometry": {
        "location": {
          "lat": 40.8236965,
          "lng": -73.95467239999999
        },
        "viewport": {
          "northeast": {
            "lat": 40.82495343029149,
            "lng": -73.9532971197085
          },
          "southwest": {
            "lat": 40.82225546970849,
            "lng": -73.95599508029152
          }
        }
      },
      "icon": "https://maps.gstatic.com/mapfiles/place_api/icons/v1/png_71/generic_business-71.png",
      "icon_background_color": "#7B9EB0",
      "icon_mask_base_uri": "https://maps.gstatic.com/mapfiles/place_api/icons/v2/generic_pinlet",
      "name": "The American Guru",
      "opening_hours": {
        "open_now": false
      },
      "photos": [
        {
          "height": 960,
          "html_attributions": [
            "<a href=\"https://maps.google.com/maps/contrib/107257255519803614746\">The American Guru</a>"
          ],
          "photo_reference": "AeJbb3dvPBdOr0LSzRnn-9Mv8ZJkg7snCzIt4WxodGb9FI6HLFwmTS41QLVAvZufViQ9fr9qerpghh63vrxmPV826dvZcZHgJRFOHQydU55byGnD07s8qtYuCb73QFhyEXE04-2q2lXNqlEPS3TcBsh1CxG6498urtLTkZKShDbdK2-JDA5E",
          "width": 715
        }
      ],
      "place_id": "ChIJIbRLl2b2wokRsfBGvp1mh9A",
      "plus_code": {
        "compound_code": "R2FW+F4 New York, NY, USA",
        "global_code": "87G8R2FW+F4"
      },
      "rating": 5,
      "reference": "ChIJIbRLl2b2wokRsfBGvp1mh9A",
      "scope": "GOOGLE",
      "types": [
        "health",
        "point_of_interest",
        "establishment"
      ],
      "user_ratings_total": 1,
      "vicinity": "626 Riverside Drive #4d, New York"
    },
    {
      "business_status": "OPERATIONAL",
      "geometry": {
        "location": {
          "lat": 40.8230438,
          "lng": -73.95442659999999
        },
        "viewport": {
          "northeast": {
            "lat": 40.8243237302915,
            "lng": -73.9529497697085
          },
          "southwest": {
            "lat": 40.8216257697085,
            "lng": -73.9556477302915
          }
        }
      },
      "icon": "https://maps.gstatic.com/mapfiles/place_api/icons/v1/png_71/school-71.png",
      "icon_background_color": "#7B9EB0",
      "icon_mask_base_uri": "https://maps.gstatic.com/mapfiles/place_api/icons/v2/school_pinlet",
      "name": "Heights Music Academy",
      "opening_hours": {
        "open_now": true
      },
      "photos": [
        {
          "height": 864,
          "html_attributions": [
            "<a href=\"https://maps.google.com/maps/contrib/115477844292785453487\">Heights Music Academy</a>"
          ],
          "photo_reference": "AeJbb3eP6HCswR1oeGtAbNs9LBCUXe9Hkgik5SP3POr31UPQ3R0wCTHcFpKNvseYZPV2jkD1QfGpNdHeAi2UkLbn6t6wwsyPsRS4HaeT6Nh__rwxaRswf4mm9u8fNOGwmi5-MIWdVlpF8rSDiLkVLHvKIoeiAN-RFMqfXhHg5JbPCnYC8wSM",
          "width": 864
        }
      ],
      "place_id": "ChIJqcjihWb2wokRe1SGouHtuQA",
      "plus_code": {
        "compound_code": "R2FW+66 New York, NY, USA",
        "global_code": "87G8R2FW+66"
      },
      "reference": "ChIJqcjihWb2wokRe1SGouHtuQA",
      "scope": "GOOGLE",
      "types": [
        "school",
        "point_of_interest",
        "establishment"
      ],
      "vicinity": "610 West 139th Street, New York"
    },
    {
      "business_status": "OPERATIONAL",
      "geometry": {
        "location": {
          "lat": 40.822727,
          "lng": -73.954028
        },
        "viewport": {
          "northeast": {
            "lat": 40.8241777302915,
            "lng": -73.9526124697085
          },
          "southwest": {
            "lat": 40.8214797697085,
            "lng": -73.9553104302915
          }
        }
      },
      "icon": "https://maps.gstatic.com/mapfiles/place_api/icons/v1/png_71/generic_business-71.png",
      "icon_background_color": "#7B9EB0",
      "icon_mask_base_uri": "https://maps.gstatic.com/mapfiles/place_api/icons/v2/generic_pinlet",
      "name": "Mendez Agency",
      "opening_hours": {
        "open_now": false
      },
      "photos": [
        {
          "height": 768,
          "html_attributions": [
            "<a href=\"https://maps.google.com/maps/contrib/114861830715702588020\">Mendez Agency</a>"
          ],
          "photo_reference": "AeJbb3fYmv8m-klophSrFqFw5ehCLUrGClnW9dLheKIgFg4zKwkg9bpVHTQbxrfDVzXPnpXHMh2UW83JxEhYLS7jJj2dri0zk40weMBG5mCo-27YVihnT4zcJT3pt_1qQTPmL26Mp2ueAbUAGhbope8dSrqRSuHb9h4122GoOXCp3bpR-BMa",
          "width": 1024
        }
      ],
      "place_id": "ChIJ1-UJnmb2wokRz883C1GmEJQ",
      "plus_code": {
        "compound_code": "R2FW+39 New York, NY, USA",
        "global_code": "87G8R2FW+39"
      },
      "rating": 4.7,
      "reference": "ChIJ1-UJnmb2wokRz883C1GmEJQ",
      "scope": "GOOGLE",
      "types": [
        "insurance_agency",
        "accounting",
        "finance",
        "point_of_interest",
        "establishment"
      ],
      "user_ratings_total": 13,
      "vicinity": "602 West 139th Street, New York"
    },
    {
      "business_status": "OPERATIONAL",
      "geometry": {
        "location": {
          "lat": 40.8223199,
          "lng": -73.95406369999999
        },
        "viewport": {
          "northeast": {
            "lat": 40.8236171302915,
            "lng": -73.95275356970849
          },
          "southwest": {
            "lat": 40.8209191697085,
            "lng": -73.9554515302915
          }
        }
      },
      "icon": "https://maps.gstatic.com/mapfiles/place_api/icons/v1/png_71/generic_business-71.png",
      "icon_background_color": "#7B9EB0",
      "icon_mask_base_uri": "https://maps.gstatic.com/mapfiles/place_api/icons/v2/generic_pinlet",
      "name": "HQ Analytics - Healthcare Outsourcing Solutions",
      "opening_hours": {
        "open_now": false
      },
      "place_id": "ChIJ430UfGb2wokRuqhZvEmXtWQ",
      "plus_code": {
        "compound_code": "R2CW+W9 New York, NY, USA",
        "global_code": "87G8R2CW+W9"
      },
      "reference": "ChIJ430UfGb2wokRuqhZvEmXtWQ",
      "scope": "GOOGLE",
      "types": [
        "finance",
        "health",
        "point_of_interest",
        "establishment"
      ],
      "vicinity": "601 West 138th Street, New York"
    },
    {
      "business_status": "OPERATIONAL",
      "geometry": {
        "location": {
          "lat": 40.8215148,
          "lng": -73.9557775
        },
        "viewport": {
          "northeast": {
            "lat": 40.82277148029149,
            "lng": -73.9544968697085
          },
          "southwest": {
            "lat": 40.82007351970849,
            "lng": -73.95719483029151
          }
        }
      },
      "icon": "https://maps.gstatic.com/mapfiles/place_api/icons/v1/png_71/generic_business-71.png",
      "icon_background_color": "#7B9EB0",
      "icon_mask_base_uri": "https://maps.gstatic.com/mapfiles/place_api/icons/v2/generic_pinlet",
      "name": "AFC Productions",
      "opening_hours": {
        "open_now": false
      },
      "photos": [
        {
          "height": 1638,
          "html_attributions": [
            "<a href=\"https://maps.google.com/maps/contrib/114825597272785789836\">Carlos Guzm\u00e1n</a>"
          ],
          "photo_reference": "AeJbb3eLaydIrtPrvfE3djfOX1YnWMFna2U1DIOVm_uprfsjnFaaODPSlc83DzLS1xnxmMU-ihUcDtaZbT0U2CUbkumKmhW99NvW8smoCtsd7YV9570QSdHCH7c8znI0VagVm4Kv_Ic6E3s20dFXpVoqUPflDs8ng2OXzabqXPPUjVU9ODW3",
          "width": 1638
        }
      ],
      "place_id": "ChIJ0YJ7Nmb2wokR_LQ8ftx13uk",
      "plus_code": {
        "compound_code": "R2CV+JM New York, NY, USA",
        "global_code": "87G8R2CV+JM"
      },
      "reference": "ChIJ0YJ7Nmb2wokR_LQ8ftx13uk",
      "scope": "GOOGLE",
      "types": [
        "point_of_interest",
        "establishment"
      ],
      "vicinity": "623 West 136th Street, New York"
    },
    {
      "business_status": "OPERATIONAL",
      "geometry": {
        "location": {
          "lat": 40.8227699,
          "lng": -73.9537349
        },
        "viewport": {
          "northeast": {
            "lat": 40.8240423302915,
            "lng": -73.9522062697085
          },
          "southwest": {
            "lat": 40.82134436970851,
            "lng": -73.9549042302915
          }
        }
      },
      "icon": "https://maps.gstatic.com/mapfiles/place_api/icons/v1/png_71/generic_business-71.png",
      "icon_background_color": "#7B9EB0",
      "icon_mask_base_uri": "https://maps.gstatic.com/mapfiles/place_api/icons/v2/generic_pinlet",
      "name": "J. HILL MANAGEMENT, INC - Professional Services",
      "opening_hours": {
        "open_now": true
      },
      "photos": [
        {
          "height": 1702,
          "html_attributions": [
            "<a href=\"https://maps.google.com/maps/contrib/110807709147162436508\">J. HILL MANAGEMENT, INC - Professional Services</a>"
          ],
          "photo_reference": "AeJbb3f9tc8rCZx9NJjpTNuYmUJ9jn_eSgfgtZO7l4KFHzC73K23iGUKFiUyAvpzpkkgIkf6nHFcte-V04t5v18smTjeultDeXHlUS7n9vsZhxMOeiS9FiBSpKyWYuz4oOMt5rwC3R1LFSWbMydn3ZNmNaLjf-sZPd_QaiDDjmUw4K_LBhDC",
          "width": 3024
        }
      ],
      "place_id": "ChIJD66WgWb2wokRC1v2iumGcLc",
      "plus_code": {
        "compound_code": "R2FW+4G New York, NY, USA",
        "global_code": "87G8R2FW+4G"
      },
      "reference": "ChIJD66WgWb2wokRC1v2iumGcLc",
      "scope": "GOOGLE",
      "types": [
        "point_of_interest",
        "establishment"
      ],
      "vicinity": "600 West 139th Street, New York"
    },
    {
      "business_status": "OPERATIONAL",
      "geometry": {
        "location": {
          "lat": 40.8223208,
          "lng": -73.9537975
        },
        "viewport": {
          "northeast": {
            "lat": 40.8236462302915,
            "lng": -73.95236721970849
          },
          "southwest": {
            "lat": 40.82094826970851,
            "lng": -73.95506518029151
          }
        }
      },
      "icon": "https://maps.gstatic.com/mapfiles/place_api/icons/v1/png_71/shopping-71.png",
      "icon_background_color": "#4B96F3",
      "icon_mask_base_uri": "https://maps.gstatic.com/mapfiles/place_api/icons/v2/shopping_pinlet",
      "name": "NHS Hardware",
      "opening_hours": {
        "open_now": true
      },
      "photos": [
        {
          "height": 3024,
          "html_attributions": [
            "<a href=\"https://maps.google.com/maps/contrib/101468074511191021185\">ARACELY NUNEZ</a>"
          ],
          "photo_reference": "AeJbb3fJpoFjnS72AtUz5oELJ1NWh2YVlaO4mf0jVlyBaOKSjttHZ2KhEAW3ZpQsloQw0-z0uH-MAtOZRA8iP40Ltp6BIPB65ygU0rdtOBq_tFUy9qDl5vOHv9l7Wow9AW7HodqpXpsYlvnHvYMnYiCFJ9JQZIv9iZdxnrwMUjYrEJH6mzbi",
          "width": 4032
        }
      ],
      "place_id": "ChIJeSaH1WX2wokRJe_K_RHtAmc",
      "plus_code": {
        "compound_code": "R2CW+WF New York, NY, USA",
        "global_code": "87G8R2CW+WF"
      },
      "rating": 3.8,
      "reference": "ChIJeSaH1WX2wokRJe_K_RHtAmc",
      "scope": "GOOGLE",
      "types": [
        "hardware_store",
        "point_of_interest",
        "store",
        "establishment"
      ],
      "user_ratings_total": 52,
      "vicinity": "3405 Broadway, New York"
    },
    {
      "business_status": "CLOSED_TEMPORARILY",
      "geometry": {
        "location": {
          "lat": 40.824442,
          "lng": -73.95421
        },
        "viewport": {
          "northeast": {
            "lat": 40.8258873802915,
            "lng": -73.9527897197085
          },
          "southwest": {
            "lat": 40.8231894197085,
            "lng": -73.95548768029151
          }
        }
      },
      "icon": "https://maps.gstatic.com/mapfiles/place_api/icons/v1/png_71/school-71.png",
      "icon_background_color": "#7B9EB0",
      "icon_mask_base_uri": "https://maps.gstatic.com/mapfiles/place_api/icons/v2/school_pinlet",
      "name": "Educational Enterprises LLC",
      "permanently_closed": true,
      "place_id": "ChIJYfCHr2b2wokRceWD6IN37n8",
      "plus_code": {
        "compound_code": "R2FW+Q8 New York, NY, USA",
        "global_code": "87G8R2FW+Q8"
      },
      "reference": "ChIJYfCHr2b2wokRceWD6IN37n8",
      "scope": "GOOGLE",
      "types": [
        "point_of_interest",
        "establishment"
      ],
      "vicinity": "635 Riverside Drive #3B, New York"
    },
    {
      "business_status": "CLOSED_TEMPORARILY",
      "geometry": {
        "location": {
          "lat": 40.8239045,
          "lng": -73.9536979
        },
        "viewport": {
          "northeast": {
            "lat": 40.8251627302915,
            "lng": -73.95241306970848
          },
          "southwest": {
            "lat": 40.8224647697085,
            "lng": -73.9551110302915
          }
        }
      },
      "icon": "https://maps.gstatic.com/mapfiles/place_api/icons/v1/png_71/generic_business-71.png",
      "icon_background_color": "#7B9EB0",
      "icon_mask_base_uri": "https://maps.gstatic.com/mapfiles/place_api/icons/v2/generic_pinlet",
      "name": "Hemisphere Frontiers Consulting",
      "permanently_closed": true,
      "place_id": "ChIJybn1oGb2wokR41JIUg28_I4",
      "plus_code": {
        "compound_code": "R2FW+HG New York, NY, USA",
        "global_code": "87G8R2FW+HG"
      },
      "reference": "ChIJybn1oGb2wokR41JIUg28_I4",
      "scope": "GOOGLE",
      "types": [
        "point_of_interest",
        "establishment"
      ],
      "vicinity": "619 West 140th Street #2h, New York"
    },
    {
      "business_status": "OPERATIONAL",
      "geometry": {
        "location": {
          "lat": 40.8216661,
          "lng": -73.9544887
        },
        "viewport": {
          "northeast": {
            "lat": 40.8229744302915,
            "lng": -73.95318081970849
          },
          "southwest": {
            "lat": 40.8202764697085,
            "lng": -73.9558787802915
          }
        }
      },
      "icon": "https://maps.gstatic.com/mapfiles/place_api/icons/v1/png_71/generic_business-71.png",
      "icon_background_color": "#7B9EB0",
      "icon_mask_base_uri": "https://maps.gstatic.com/mapfiles/place_api/icons/v2/generic_pinlet",
      "name": "Western Union",
      "opening_hours": {
        "open_now": true
      },
      "photos": [
        {
          "height": 1000,
          "html_attributions": [
            "<a href=\"https://maps.google.com/maps/contrib/115971259665345369057\">Western Union</a>"
          ],
          "photo_reference": "AeJbb3f1h_LOzAkd6IOb8Wl3Ztb_zoFkXik3Gyu7Oef16ZZ_f0zRi3Fhw1K7w0uIbu03MYo8llEN57-LWyPWEVEHV6yO7qj_rDIsrTCLmp5dPaR99Fv98n-6SrZhwuHDF8rx6UMloOH0jDST9lY3K_JEYlFzStRHXhyGKFdzc86inWWN6j6w",
          "width": 1000
        }
      ],
      "place_id": "ChIJix6wcWb2wokRtieqfzafl4k",
      "plus_code": {
        "compound_code": "R2CW+M6 New York, NY, USA",
        "global_code": "87G8R2CW+M6"
      },
      "reference": "ChIJix6wcWb2wokRtieqfzafl4k",
      "scope": "GOOGLE",
      "types": [
        "finance",
        "point_of_interest",
        "establishment"
      ],
      "vicinity": "Duane Reade, 3387 Broadway, New York"
    },
    {
      "business_status": "OPERATIONAL",
      "geometry": {
        "location": {
          "lat": 40.82450959999999,
          "lng": -73.9541806
        },
        "viewport": {
          "northeast": {
            "lat": 40.82592443029149,
            "lng": -73.9527826697085
          },
          "southwest": {
            "lat": 40.82322646970849,
            "lng": -73.9554806302915
          }
        }
      },
      "icon": "https://maps.gstatic.com/mapfiles/place_api/icons/v1/png_71/school-71.png",
      "icon_background_color": "#7B9EB0",
      "icon_mask_base_uri": "https://maps.gstatic.com/mapfiles/place_api/icons/v2/school_pinlet",
      "name": "Talk Big English Education Center",
      "opening_hours": {
        "open_now": true
      },
      "place_id": "ChIJyciNr2b2wokRT-9-xUy8daw",
      "plus_code": {
        "compound_code": "R2FW+R8 New York, NY, USA",
        "global_code": "87G8R2FW+R8"
      },
      "rating": 5,
      "reference": "ChIJyciNr2b2wokRT-9-xUy8daw",
      "scope": "GOOGLE",
      "types": [
        "point_of_interest",
        "establishment"
      ],
      "user_ratings_total": 7,
      "vicinity": "635 Riverside Drive, New York"
    },
    {
      "business_status": "OPERATIONAL",
      "geometry": {
        "location": {
          "lat": 40.8237589,
          "lng": -73.95337099999999
        },
        "viewport": {
          "northeast": {
            "lat": 40.8250212302915,
            "lng": -73.95208681970848
          },
          "southwest": {
            "lat": 40.8223232697085,
            "lng": -73.9547847802915
          }
        }
      },
      "icon": "https://maps.gstatic.com/mapfiles/place_api/icons/v1/png_71/generic_business-71.png",
      "icon_background_color": "#7B9EB0",
      "icon_mask_base_uri": "https://maps.gstatic.com/mapfiles/place_api/icons/v2/generic_pinlet",
      "name": "2Bexposed Model Management",
      "opening_hours": {
        "open_now": true
      },
      "place_id": "ChIJ15BuH2T2wokRahqrh8dCosE",
      "plus_code": {
        "compound_code": "R2FW+GM New York, NY, USA",
        "global_code": "87G8R2FW+GM"
      },
      "reference": "ChIJ15BuH2T2wokRahqrh8dCosE",
      "scope": "GOOGLE",
      "types": [
        "point_of_interest",
        "establishment"
      ],
      "vicinity": "603 West 140th Street Suite 29, New York"
    },
    {
      "business_status": "OPERATIONAL",
      "geometry": {
        "location": {
          "lat": 40.820399,
          "lng": -73.954556
        },
        "viewport": {
          "northeast": {
            "lat": 40.8218844302915,
            "lng": -73.95301751970848
          },
          "southwest": {
            "lat": 40.8191864697085,
            "lng": -73.9557154802915
          }
        }
      },
      "icon": "https://maps.gstatic.com/mapfiles/place_api/icons/v1/png_71/generic_business-71.png",
      "icon_background_color": "#7B9EB0",
      "icon_mask_base_uri": "https://maps.gstatic.com/mapfiles/place_api/icons/v2/generic_pinlet",
      "name": "San Martin Jewelry Pawnshop, Inc",
      "opening_hours": {
        "open_now": true
      },
      "photos": [
        {
          "height": 1080,
          "html_attributions": [
            "<a href=\"https://maps.google.com/maps/contrib/116041476304853633786\">San Martin Jewelry Pawnshop, Inc</a>"
          ],
          "photo_reference": "AeJbb3e3fitq61h_McbIP6wZspzRZE7FEcrbO-3yKeVbbsauQOZURl5fn9oH8drxO7GO8AoQiMWbtXQGs3EKUrd0t8Mja-hdQoKkPEXscOMOH1v95vE8p8UwgcnxbL1KiTI75cwEPBpctzHWBYGKoRKlSzuL7VDKXmfgdKzEo34db3Msn8Qq",
          "width": 1920
        }
      ],
      "place_id": "ChIJSS9QA2b2wokRaFnow3nZLhk",
      "plus_code": {
        "compound_code": "R2CW+55 New York, NY, USA",
        "global_code": "87G8R2CW+55"
      },
      "rating": 4.8,
      "reference": "ChIJSS9QA2b2wokRaFnow3nZLhk",
      "scope": "GOOGLE",
      "types": [
        "point_of_interest",
        "establishment"
      ],
      "user_ratings_total": 11,
      "vicinity": "3350 Broadway, New York"
    },
    {
      "business_status": "OPERATIONAL",
      "geometry": {
        "location": {
          "lat": 40.8203695,
          "lng": -73.95634849999999
        },
        "viewport": {
          "northeast": {
            "lat": 40.8218246302915,
            "lng": -73.9549224197085
          },
          "southwest": {
            "lat": 40.8191266697085,
            "lng": -73.9576203802915
          }
        }
      },
      "icon": "https://maps.gstatic.com/mapfiles/place_api/icons/v1/png_71/generic_business-71.png",
      "icon_background_color": "#7B9EB0",
      "icon_mask_base_uri": "https://maps.gstatic.com/mapfiles/place_api/icons/v2/generic_pinlet",
      "name": "Nyc Press Pass",
      "place_id": "ChIJC7QqKmb2wokRdkavOk_mZK4",
      "plus_code": {
        "compound_code": "R2CV+4F New York, NY, USA",
        "global_code": "87G8R2CV+4F"
      },
      "rating": 5,
      "reference": "ChIJC7QqKmb2wokRdkavOk_mZK4",
      "scope": "GOOGLE",
      "types": [
        "point_of_interest",
        "establishment"
      ],
      "user_ratings_total": 2,
      "vicinity": "610 West 135th Street, New York"
    },
    {
      "business_status": "OPERATIONAL",
      "geometry": {
        "location": {
          "lat": 40.8220104,
          "lng": -73.95334319999999
        },
        "viewport": {
          "northeast": {
            "lat": 40.8233115802915,
            "lng": -73.95202421970849
          },
          "southwest": {
            "lat": 40.8206136197085,
            "lng": -73.9547221802915
          }
        }
      },
      "icon": "https://maps.gstatic.com/mapfiles/place_api/icons/v1/png_71/atm-71.png",
      "icon_background_color": "#909CE1",
      "icon_mask_base_uri": "https://maps.gstatic.com/mapfiles/place_api/icons/v2/atm_pinlet",
      "name": "Actors Federal Credit Union - ATM",
      "place_id": "ChIJk3Hg1mX2wokR6MZeN1TBc_o",
      "plus_code": {
        "compound_code": "R2CW+RM New York, NY, USA",
        "global_code": "87G8R2CW+RM"
      },
      "reference": "ChIJk3Hg1mX2wokR6MZeN1TBc_o",
      "scope": "GOOGLE",
      "types": [
        "atm",
        "finance",
        "point_of_interest",
        "establishment"
      ],
      "vicinity": "3410 Broadway, New York"
    },
    {
      "business_status": "OPERATIONAL",
      "geometry": {
        "location": {
          "lat": 40.82222489999999,
          "lng": -73.9531341
        },
        "viewport": {
          "northeast": {
            "lat": 40.8236084802915,
            "lng": -73.95188721970851
          },
          "southwest": {
            "lat": 40.82091051970851,
            "lng": -73.95458518029152
          }
        }
      },
      "icon": "https://maps.gstatic.com/mapfiles/place_api/icons/v1/png_71/generic_business-71.png",
      "icon_background_color": "#7B9EB0",
      "icon_mask_base_uri": "https://maps.gstatic.com/mapfiles/place_api/icons/v2/generic_pinlet",
      "name": "Al-Husaini Plastic and Reconstructive Surgery PC",
      "place_id": "ChIJi9m902X2wokR5_3yO-L90Bo",
      "plus_code": {
        "compound_code": "R2CW+VP New York, NY, USA",
        "global_code": "87G8R2CW+VP"
      },
      "reference": "ChIJi9m902X2wokR5_3yO-L90Bo",
      "scope": "GOOGLE",
      "types": [
        "beauty_salon",
        "hair_care",
        "doctor",
        "health",
        "point_of_interest",
        "establishment"
      ],
      "vicinity": "3410 Broadway, New York"
    },
    {
      "business_status": "OPERATIONAL",
      "geometry": {
        "location": {
          "lat": 40.82222489999999,
          "lng": -73.9531341
        },
        "viewport": {
          "northeast": {
            "lat": 40.8237256802915,
            "lng": -73.95168296970849
          },
          "southwest": {
            "lat": 40.8210277197085,
            "lng": -73.9543809302915
          }
        }
      },
      "icon": "https://maps.gstatic.com/mapfiles/place_api/icons/v1/png_71/generic_business-71.png",
      "icon_background_color": "#7B9EB0",
      "icon_mask_base_uri": "https://maps.gstatic.com/mapfiles/place_api/icons/v2/generic_pinlet",
      "name": "Dr. Jason Lee, MD",
      "place_id": "ChIJI4VILWT2wokR5Z82RRpJ27U",
      "plus_code": {
        "compound_code": "R2CW+VP New York, NY, USA",
        "global_code": "87G8R2CW+VP"
      },
      "reference": "ChIJI4VILWT2wokR5Z82RRpJ27U",
      "scope": "GOOGLE",
      "types": [
        "doctor",
        "health",
        "point_of_interest",
        "establishment"
      ],
      "vicinity": "3418 Broadway, New York"
    },
    {
      "business_status": "OPERATIONAL",
      "geometry": {
        "location": {
          "lat": 40.82222489999999,
          "lng": -73.9531341
        },
        "viewport": {
          "northeast": {
            "lat": 40.8237256802915,
            "lng": -73.95168296970849
          },
          "southwest": {
            "lat": 40.8210277197085,
            "lng": -73.9543809302915
          }
        }
      },
      "icon": "https://maps.gstatic.com/mapfiles/place_api/icons/v1/png_71/shopping-71.png",
      "icon_background_color": "#4B96F3",
      "icon_mask_base_uri": "https://maps.gstatic.com/mapfiles/place_api/icons/v2/shopping_pinlet",
      "name": "Romantic Depot Manhattan Sex Store, Sex Shop & Lingerie Store",
      "opening_hours": {
        "open_now": true
      },
      "photos": [
        {
          "height": 639,
          "html_attributions": [
            "<a href=\"https://maps.google.com/maps/contrib/111631767653346368045\">Romantic Depot Manhattan</a>"
          ],
          "photo_reference": "AeJbb3ev1WmdLUDz9ersaFSzEcb-ylLV44wplLn8mgcIJN7bWWKne7eGUOwnJDL4uGpjVmC1lQUD-2RR5fhovcB7zk8ZUucHdEdCaVjJ9YLxxt6VuoR87YY4kxCkvAUEstr1WrprPcMswI_KXT-H-lrmWyNka0z5liD-GLM_hn0zecuqYNZE",
          "width": 1022
        }
      ],
      "place_id": "ChIJtcEI02X2wokR9DLFaJ5i3nc",
      "plus_code": {
        "compound_code": "R2CW+VP New York, NY, USA",
        "global_code": "87G8R2CW+VP"
      },
      "rating": 4.9,
      "reference": "ChIJtcEI02X2wokR9DLFaJ5i3nc",
      "scope": "GOOGLE",
      "types": [
        "clothing_store",
        "point_of_interest",
        "store",
        "establishment"
      ],
      "user_ratings_total": 2908,
      "vicinity": "3418 Broadway, New York"
    },
    {
      "business_status": "OPERATIONAL",
      "geometry": {
        "location": {
          "lat": 40.82102940000001,
          "lng": -73.9547975
        },
        "viewport": {
          "northeast": {
            "lat": 40.8223689302915,
            "lng": -73.9533502697085
          },
          "southwest": {
            "lat": 40.8196709697085,
            "lng": -73.9560482302915
          }
        }
      },
      "icon": "https://maps.gstatic.com/mapfiles/place_api/icons/v1/png_71/generic_business-71.png",
      "icon_background_color": "#7B9EB0",
      "icon_mask_base_uri": "https://maps.gstatic.com/mapfiles/place_api/icons/v2/generic_pinlet",
      "name": "Cohen's Fashion Optical",
      "opening_hours": {
        "open_now": true
      },
      "photos": [
        {
          "height": 4032,
          "html_attributions": [
            "<a href=\"https://maps.google.com/maps/contrib/103276283186038613884\">Edgar Juarez</a>"
          ],
          "photo_reference": "AeJbb3dRcnnEgtGTbSXOK9gMLvgo30gWhDzHwKhYsVM0YGet7bBH9CeLk3l6FU7O_nfj6t899xPgjzbcSl5wTMhuDlcEdDw89OVLMPhK6DEC5Bg7mw08Meuaufk_ef4Apd_J8xUs6gK19RjruIGThfJffm7ozMWPg31SUUCrGmVfT3l5mvru",
          "width": 3024
        }
      ],
      "place_id": "ChIJ97PDFmb2wokRjwzIuwT78RQ",
      "plus_code": {
        "compound_code": "R2CW+C3 New York, NY, USA",
        "global_code": "87G8R2CW+C3"
      },
      "rating": 2.8,
      "reference": "ChIJ97PDFmb2wokRjwzIuwT78RQ",
      "scope": "GOOGLE",
      "types": [
        "health",
        "point_of_interest",
        "store",
        "establishment"
      ],
      "user_ratings_total": 33,
      "vicinity": "3361 Broadway, New York"
    },
    {
      "business_status": "OPERATIONAL",
      "geometry": {
        "location": {
          "lat": 40.823587,
          "lng": -73.952881
        },
        "viewport": {
          "northeast": {
            "lat": 40.8249023802915,
            "lng": -73.95145191970849
          },
          "southwest": {
            "lat": 40.8222044197085,
            "lng": -73.95414988029151
          }
        }
      },
      "icon": "https://maps.gstatic.com/mapfiles/place_api/icons/v1/png_71/generic_business-71.png",
      "icon_background_color": "#7B9EB0",
      "icon_mask_base_uri": "https://maps.gstatic.com/mapfiles/place_api/icons/v2/generic_pinlet",
      "name": "24/7 Manhattan Plumbing NYC",
      "opening_hours": {
        "open_now": true
      },
      "photos": [
        {
          "height": 629,
          "html_attributions": [
            "<a href=\"https://maps.google.com/maps/contrib/113679617359771960243\">24/7 Manhattan Plumbing NYC</a>"
          ],
          "photo_reference": "AeJbb3ejpP2xKwOExt1BQeBzVy55IxubgSiRC-653ZOz73ns3GWwOJ6fjy3V8o5xMwn5pPd0vbRRW8crmWfVwna6ZRBZmq8tlrwYoz_GW9PPIAe0y5YltrWSBcBKV3hr33THM2yNFPd5D8jcr1Y-WVd91cIQF2NYWgkgkZiwJQrsC7d6k0vp",
          "width": 902
        }
      ],
      "place_id": "ChIJXSpNPWT2wokRILmqqwK0sbk",
      "plus_code": {
        "compound_code": "R2FW+CR New York, NY, USA",
        "global_code": "87G8R2FW+CR"
      },
      "rating": 4.5,
      "reference": "ChIJXSpNPWT2wokRILmqqwK0sbk",
      "scope": "GOOGLE",
      "types": [
        "plumber",
        "point_of_interest",
        "establishment"
      ],
      "user_ratings_total": 42,
      "vicinity": "3441 Broadway, New York"
    },
    {
      "business_status": "OPERATIONAL",
      "geometry": {
        "location": {
          "lat": 40.8239138,
          "lng": -73.95871629999999
        },
        "viewport": {
          "northeast": {
            "lat": 40.8251647802915,
            "lng": -73.95620050000001
          },
          "southwest": {
            "lat": 40.8224668197085,
            "lng": -73.9595549
          }
        }
      },
      "icon": "https://maps.gstatic.com/mapfiles/place_api/icons/v1/png_71/generic_business-71.png",
      "icon_background_color": "#7B9EB0",
      "icon_mask_base_uri": "https://maps.gstatic.com/mapfiles/place_api/icons/v2/generic_pinlet",
      "name": "Riverbank State Park Baseball Field",
      "opening_hours": {
        "open_now": true
      },
      "photos": [
        {
          "height": 3024,
          "html_attributions": [
            "<a href=\"https://maps.google.com/maps/contrib/108967158904725032436\">Mia Stokes</a>"
          ],
          "photo_reference": "AeJbb3ehOn3R5y3GMAvukF2Qwdv1yKVS8dEmjmu4_QMytTTin9KdcDLDA0aFbMseGgT0TlzHvEAgPSfVVCgXmQ3MkCWztGPyPtlHGfr2J6jUdRDwjevO58phcYtUxG1uVTSWDrZ3jt8HEBYwo7JUjzkpOXIq9KX2Q8Uusmnlv7UwioPyIRj6",
          "width": 4032
        }
      ],
      "place_id": "ChIJOewLZmf2wokRUjcPgp6zIFI",
      "plus_code": {
        "compound_code": "R2FR+HG New York, NY, USA",
        "global_code": "87G8R2FR+HG"
      },
      "rating": 4.8,
      "reference": "ChIJOewLZmf2wokRUjcPgp6zIFI",
      "scope": "GOOGLE",
      "types": [
        "point_of_interest",
        "establishment"
      ],
      "user_ratings_total": 11,
      "vicinity": "679 Riverside Drive, New York"
    },
    {
      "business_status": "OPERATIONAL",
      "geometry": {
        "location": {
          "lat": 40.8236239,
          "lng": -73.952831
        },
        "viewport": {
          "northeast": {
            "lat": 40.8250822802915,
            "lng": -73.95137746970849
          },
          "southwest": {
            "lat": 40.8223843197085,
            "lng": -73.95407543029151
          }
        }
      },
      "icon": "https://maps.gstatic.com/mapfiles/place_api/icons/v1/png_71/generic_business-71.png",
      "icon_background_color": "#7B9EB0",
      "icon_mask_base_uri": "https://maps.gstatic.com/mapfiles/place_api/icons/v2/generic_pinlet",
      "name": "Dexter VIP Barbershop",
      "opening_hours": {
        "open_now": true
      },
      "photos": [
        {
          "height": 1367,
          "html_attributions": [
            "<a href=\"https://maps.google.com/maps/contrib/116841990513446726187\">Dexter VIP Barbershop</a>"
          ],
          "photo_reference": "AeJbb3fREQYGr8cZ-oG--U7idgFaqXPbTK8oZzL0QG-TencDnqA-4g7v_89R_mrwSN5IdL77J10rN4n0kAJAoF2iP2rbExKi0XfrOCVViuvcB5hJKPHG4MWqBIbfHGNP6KG3_DQodoyWp-yvTInOmofxCTzeMuM9BKIIcj2ac2BP7KH4Z6PQ",
          "width": 2048
        }
      ],
      "place_id": "ChIJ7RNYPWT2wokRuq6_vLXEzSw",
      "plus_code": {
        "compound_code": "R2FW+CV New York, NY, USA",
        "global_code": "87G8R2FW+CV"
      },
      "rating": 4.7,
      "reference": "ChIJ7RNYPWT2wokRuq6_vLXEzSw",
      "scope": "GOOGLE",
      "types": [
        "hair_care",
        "health",
        "point_of_interest",
        "establishment"
      ],
      "user_ratings_total": 115,
      "vicinity": "3445 Broadway, New York"
    },
    {
      "business_status": "OPERATIONAL",
      "geometry": {
        "location": {
          "lat": 40.8212489,
          "lng": -73.9577537
        },
        "viewport": {
          "northeast": {
            "lat": 40.82262798029151,
            "lng": -73.95645331970849
          },
          "southwest": {
            "lat": 40.81993001970851,
            "lng": -73.95915128029151
          }
        }
      },
      "icon": "https://maps.gstatic.com/mapfiles/place_api/icons/v1/png_71/generic_business-71.png",
      "icon_background_color": "#7B9EB0",
      "icon_mask_base_uri": "https://maps.gstatic.com/mapfiles/place_api/icons/v2/generic_pinlet",
      "name": "NYC Env Protection",
      "place_id": "ChIJRQMww2f2wokRHKtWCqXYHy8",
      "plus_code": {
        "compound_code": "R2CR+FV New York, NY, USA",
        "global_code": "87G8R2CR+FV"
      },
      "rating": 2.3,
      "reference": "ChIJRQMww2f2wokRHKtWCqXYHy8",
      "scope": "GOOGLE",
      "types": [
        "point_of_interest",
        "establishment"
      ],
      "user_ratings_total": 3,
      "vicinity": "725 West 135th Street, New York"
    },
    {
      "business_status": "OPERATIONAL",
      "geometry": {
        "location": {
          "lat": 40.8208193,
          "lng": -73.9550398
        },
        "viewport": {
          "northeast": {
            "lat": 40.8221854302915,
            "lng": -73.9535866697085
          },
          "southwest": {
            "lat": 40.8194874697085,
            "lng": -73.9562846302915
          }
        }
      },
      "icon": "https://maps.gstatic.com/mapfiles/place_api/icons/v1/png_71/generic_business-71.png",
      "icon_background_color": "#7B9EB0",
      "icon_mask_base_uri": "https://maps.gstatic.com/mapfiles/place_api/icons/v2/generic_pinlet",
      "name": "Chase Mortgage",
      "opening_hours": {
        "open_now": false
      },
      "place_id": "ChIJ93O1GWb2wokRFP0yOCEhNww",
      "plus_code": {
        "compound_code": "R2CV+8X New York, NY, USA",
        "global_code": "87G8R2CV+8X"
      },
      "reference": "ChIJ93O1GWb2wokRFP0yOCEhNww",
      "scope": "GOOGLE",
      "types": [
        "finance",
        "point_of_interest",
        "establishment"
      ],
      "vicinity": "3359 Broadway, New York"
    },
    {
      "business_status": "OPERATIONAL",
      "geometry": {
        "location": {
          "lat": 40.8228934,
          "lng": -73.9526654
        },
        "viewport": {
          "northeast": {
            "lat": 40.82430143029149,
            "lng": -73.95139991970849
          },
          "southwest": {
            "lat": 40.8216034697085,
            "lng": -73.9540978802915
          }
        }
      },
      "icon": "https://maps.gstatic.com/mapfiles/place_api/icons/v1/png_71/shopping-71.png",
      "icon_background_color": "#4B96F3",
      "icon_mask_base_uri": "https://maps.gstatic.com/mapfiles/place_api/icons/v2/shopping_pinlet",
      "name": "Feared Voices",
      "opening_hours": {
        "open_now": false
      },
      "photos": [
        {
          "height": 448,
          "html_attributions": [
            "<a href=\"https://maps.google.com/maps/contrib/101373491678809931628\">Feared Voices</a>"
          ],
          "photo_reference": "AeJbb3fxYAALw1_zeo1vdsjrv9_VlPEaGgm7f1x-bTNJ56MVEPkjS-j4xwizoRaTKIYPLRVdks1d6eqyN70bGrPZb0ZTjz3b-nV5qSTiZiW7XBtOV6a28MrArqmHEvVfQAWrH2M3HRMMOWFD_f5mqyH_xlppmxBSx9iWJgSInaKAcSl2idXH",
          "width": 593
        }
      ],
      "place_id": "ChIJIbRLl2b2wokRljtL5BZgBYU",
      "plus_code": {
        "compound_code": "R2FW+5W New York, NY, USA",
        "global_code": "87G8R2FW+5W"
      },
      "rating": 5,
      "reference": "ChIJIbRLl2b2wokRljtL5BZgBYU",
      "scope": "GOOGLE",
      "types": [
        "clothing_store",
        "point_of_interest",
        "store",
        "establishment"
      ],
      "user_ratings_total": 10,
      "vicinity": "3434 Broadway, New York"
    },
    {
      "business_status": "OPERATIONAL",
      "geometry": {
        "location": {
          "lat": 40.820787,
          "lng": -73.955118
        },
        "viewport": {
          "northeast": {
            "lat": 40.8222152302915,
            "lng": -73.9537097197085
          },
          "southwest": {
            "lat": 40.8195172697085,
            "lng": -73.9564076802915
          }
        }
      },
      "icon": "https://maps.gstatic.com/mapfiles/place_api/icons/v1/png_71/generic_business-71.png",
      "icon_background_color": "#7B9EB0",
      "icon_mask_base_uri": "https://maps.gstatic.com/mapfiles/place_api/icons/v2/generic_pinlet",
      "name": "Manhattan construction corp",
      "opening_hours": {
        "open_now": true
      },
      "place_id": "ChIJKfOYImb2wokRgmDj54_20cs",
      "plus_code": {
        "compound_code": "R2CV+8X New York, NY, USA",
        "global_code": "87G8R2CV+8X"
      },
      "reference": "ChIJKfOYImb2wokRgmDj54_20cs",
      "scope": "GOOGLE",
      "types": [
        "general_contractor",
        "roofing_contractor",
        "point_of_interest",
        "establishment"
      ],
      "vicinity": "600 West 136th Street, New York"
    }
  ],
  "status": "OK"
}