{
  "html_attributions": [],
  "results": [
    {
      "geometry": {
        "location": {
          "lat": 40.7127753,
          "lng": -74.0059728
        },
        "viewport": {
          "northeast": {
            "lat": 40.91757705070789,
            "lng": -73.70027206817629
          },
          "southwest": {
            "lat": 40.47739906045452,
            "lng": -74.25908991427882
          }
        }
      },
      "icon": "https://maps.gstatic.com/mapfiles/place_api/icons/v1/png_71/geocode-71.png",
      "icon_background_color": "#7B9EB0",
      "icon_mask_base_uri": "https://maps.gstatic.com/mapfiles/place_api/icons/v2/generic_pinlet",
      "name": "\u7d10\u7d04",
      "photos": [
        {
          "height": 600,
          "html_attributions": [
            "<a href=\"https://maps.google.com/maps/contrib/102389334567210814614\">Bukurie</a>"
          ],
          "photo_reference": "AeJbb3d7HN85d53zGNO-oOZoQWFKzohP8t63_fuGO4Op3K5zw1BzCDYILSlGlGOfHQGClMjEayJLuTDnr9nEMap50o1BzzarO5_TNSWhczWQ1h0HKORd6gCg39frFb2u81nlSeIPfemaq85jSbsNayIwLH7AcaKppGSjgIxjwnvsABwfrlt-",
          "width": 480
        }
      ],
      "place_id": "ChIJOwg_06VPwokRYv534QaPC8g",
      "reference": "ChIJOwg_06VPwokRYv534QaPC8g",
      "scope": "GOOGLE",
      "types": [
        "locality",
        "political"
      ],
      "vicinity": "\u7d10\u7d04"
    },
    {
      "business_status": "OPERATIONAL",
      "geometry": {
        "location": {
          "lat": 40.813544,
          "lng": -73.9094046
        },
        "viewport": {
          "northeast": {
            "lat": 40.81477783029149,
            "lng": -73.90788971970849
          },
          "southwest": {
            "lat": 40.81207986970849,
            "lng": -73.9105876802915
          }
        }
      },
      "icon": "https://maps.gstatic.com/mapfiles/place_api/icons/v1/png_71/gas_station-71.png",
      "icon_background_color": "#909CE1",
      "icon_mask_base_uri": "https://maps.gstatic.com/mapfiles/place_api/icons/v2/gas_pinlet",
      "name": "bp",
      "opening_hours": {
        "open_now": true
      },
      "photos": [
        {
          "height": 1695,
          "html_attributions": [
            "<a href=\"https://maps.google.com/maps/contrib/111444671146808251214\">Eric Finkelstein</a>"
          ],
          "photo_reference": "AeJbb3e9PPPYjudVZWzfiiuLi_mgKrS3WCgAsePYvgVg0YcgfyLPT5TreVmYYEWlOJ1qAHyf2CFzs9aqoWYG47Ybu5RWVpgI74b4hYdRIr9DziKW3uhHftsg32SqMwuAIcvi-k7NPvToyQjlhZVVdz_QNlcGJj7j1OruSTSLQIUirpIz0WU9",
          "width": 4000
        }
      ],
      "place_id": "ChIJPdXa1Ln1wokRqqBDt4_yKNU",
      "plus_code": {
        "compound_code": "R37R+C6 \u7f8e\u570b\u7d10\u7d04",
        "global_code": "87G8R37R+C6"
      },
      "rating": 4,
      "reference": "ChIJPdXa1Ln1wokRqqBDt4_yKNU",
      "scope": "GOOGLE",
      "types": [
        "gas_station",
        "point_of_interest",
        "establishment"
      ],
      "user_ratings_total": 61,
      "vicinity": "691 E 149th St, Bronx, NY 10455"
    },
    {
      "business_status": "OPERATIONAL",
      "geometry": {
        "location": {
          "lat": 40.8162659,
          "lng": -73.91073639999999
        },
        "viewport": {
          "northeast": {
            "lat": 40.81757173029149,
            "lng": -73.90938756970849
          },
          "southwest": {
            "lat": 40.81487376970849,
            "lng": -73.91208553029149
          }
        }
      },
      "icon": "https://maps.gstatic.com/mapfiles/place_api/icons/v1/png_71/generic_business-71.png",
      "icon_background_color": "#7B9EB0",
      "icon_mask_base_uri": "https://maps.gstatic.com/mapfiles/place_api/icons/v2/generic_pinlet",
      "name": "Pizza Hut",
      "opening_hours": {
        "open_now": true
      },
      "photos": [
        {
          "height": 2988,
          "html_attributions": [
            "<a href=\"https://maps.google.com/maps/contrib/112396245836750770729\">Super409 409edge</a>"
          ],
          "photo_reference": "AeJbb3fwCcXe7A4UUdQlgrwHBYuUzYGU0YQYbNqv-zXN_ctgBL1G89oizYfJg3YiMpKYR2T22c4_R7ARqElnWuYJ76eI1uV-Ilel8Eppzcit1iKebvDUjLNVVlJTgDZQ8yoHABYzcaQ3VaT5erklMAX_RV_JBDZ66tEOO0XNzSzez8R0w_dT",
          "width": 5312
        }
      ],
      "place_id": "ChIJDQQutrf1wokRfhevrxEKU_A",
      "plus_code": {
        "compound_code": "R38Q+GP \u7f8e\u570b\u7d10\u7d04",
        "global_code": "87G8R38Q+GP"
      },
      "price_level": 1,
      "rating": 3.2,
      "reference": "ChIJDQQutrf1wokRfhevrxEKU_A",
      "scope": "GOOGLE",
      "types": [
        "meal_takeaway",
        "meal_delivery",
        "restaurant",
        "point_of_interest",
        "food",
        "establishment"
      ],
      "user_ratings_total": 729,
      "vicinity": "601 Westchester Avenue, The Bronx"
    },
    {
      "business_status": "OPERATIONAL",
      "geometry": {
        "location": {
          "lat": 40.8165562,
          "lng": -73.9091177
        },
        "viewport": {
          "northeast": {
            "lat": 40.8179400302915,
            "lng": -73.9079071197085
          },
          "southwest": {
            "lat": 40.8152420697085,
            "lng": -73.9106050802915
          }
        }
      },
      "icon": "https://maps.gstatic.com/mapfiles/place_api/icons/v1/png_71/generic_business-71.png",
      "icon_background_color": "#7B9EB0",
      "icon_mask_base_uri": "https://maps.gstatic.com/mapfiles/place_api/icons/v2/generic_pinlet",
      "name": "NAACP",
      "place_id": "ChIJ3TS4lbb1wokRiL6RE-LsQ9c",
      "plus_code": {
        "compound_code": "R38R+J9 \u7f8e\u570b\u7d10\u7d04",
        "global_code": "87G8R38R+J9"
      },
      "rating": 2.3,
      "reference": "ChIJ3TS4lbb1wokRiL6RE-LsQ9c",
      "scope": "GOOGLE",
      "types": [
        "point_of_interest",
        "establishment"
      ],
      "user_ratings_total": 4,
      "vicinity": "645 Westchester Avenue, The Bronx"
    },
    {
      "business_status": "OPERATIONAL",
      "geometry": {
        "location": {
          "lat": 40.8171055,
          "lng": -73.90822519999999
        },
        "viewport": {
          "northeast": {
            "lat": 40.8182894302915,
            "lng": -73.90669431970849
          },
          "southwest": {
            "lat": 40.8155914697085,
            "lng": -73.9093922802915
          }
        }
      },
      "icon": "https://maps.gstatic.com/mapfiles/place_api/icons/v1/png_71/generic_business-71.png",
      "icon_background_color": "#7B9EB0",
      "icon_mask_base_uri": "https://maps.gstatic.com/mapfiles/place_api/icons/v2/generic_pinlet",
      "name": "Leaf it to us Maids",
      "opening_hours": {
        "open_now": false
      },
      "place_id": "ChIJkzFR3Lb1wokRjEK6N57Kl54",
      "plus_code": {
        "compound_code": "R38R+RP \u7f8e\u570b\u7d10\u7d04\u5e03\u6717\u514b\u65af",
        "global_code": "87G8R38R+RP"
      },
      "reference": "ChIJkzFR3Lb1wokRjEK6N57Kl54",
      "scope": "GOOGLE",
      "types": [
        "point_of_interest",
        "establishment"
      ],
      "vicinity": "671 Westchester Avenue, The Bronx"
    },
    {
      "business_status": "OPERATIONAL",
      "geometry": {
        "location": {
          "lat": 40.81903330000001,
          "lng": -73.9056372
        },
        "viewport": {
          "northeast": {
            "lat": 40.8204075302915,
            "lng": -73.90439516970851
          },
          "southwest": {
            "lat": 40.81770956970851,
            "lng": -73.90709313029151
          }
        }
      },
      "icon": "https://maps.gstatic.com/mapfiles/place_api/icons/v1/png_71/school-71.png",
      "icon_background_color": "#7B9EB0",
      "icon_mask_base_uri": "https://maps.gstatic.com/mapfiles/place_api/icons/v2/school_pinlet",
      "name": "X379 Jill Chaifetz Transfer High School",
      "opening_hours": {
        "open_now": false
      },
      "photos": [
        {
          "height": 3024,
          "html_attributions": [
            "<a href=\"https://maps.google.com/maps/contrib/104094676749070747146\">Iaroslav R</a>"
          ],
          "photo_reference": "AeJbb3e89yKY7krT8loqNnp7H1l3BkI9ayJqnSJhijalzQ0lUc_xC1FoWrT8UjyGYbQ4omX3S0jLt2pe_hHV21LCC56B0-Ii3G71br-bUsx7C0T7Ei02xGTd23jWplJ1CnGajL_2P8_g9jAzHXcLhsVwNOIH9oH3qgq5LrWQPqGkXzUH_WKn",
          "width": 4032
        }
      ],
      "place_id": "ChIJx4s88LP1wokRK-HhJugXA_s",
      "plus_code": {
        "compound_code": "R39V+JP \u7f8e\u570b\u7d10\u7d04",
        "global_code": "87G8R39V+JP"
      },
      "rating": 4.3,
      "reference": "ChIJx4s88LP1wokRK-HhJugXA_s",
      "scope": "GOOGLE",
      "types": [
        "school",
        "point_of_interest",
        "establishment"
      ],
      "user_ratings_total": 12,
      "vicinity": "778 Forest Avenue, The Bronx"
    },
    {
      "business_status": "OPERATIONAL",
      "geometry": {
        "location": {
          "lat": 40.81901279999999,
          "lng": -73.9056458
        },
        "viewport": {
          "northeast": {
            "lat": 40.8203790302915,
            "lng": -73.9044036697085
          },
          "southwest": {
            "lat": 40.8176810697085,
            "lng": -73.9071016302915
          }
        }
      },
      "icon": "https://maps.gstatic.com/mapfiles/place_api/icons/v1/png_71/school-71.png",
      "icon_background_color": "#7B9EB0",
      "icon_mask_base_uri": "https://maps.gstatic.com/mapfiles/place_api/icons/v2/school_pinlet",
      "name": "South Bronx Academy for Applied Media",
      "opening_hours": {
        "open_now": false
      },
      "photos": [
        {
          "height": 3024,
          "html_attributions": [
            "<a href=\"https://maps.google.com/maps/contrib/104094676749070747146\">Iaroslav R</a>"
          ],
          "photo_reference": "AeJbb3e18AANm6s_xe3LUDObxHf_OOELnbDIF-uj5moRLHfsCFsERj7NhJ0ahZHj46UdjWZ3oHev7lTDrLe6kuzlgRTQDdcBavTf8PoXUK0S-XFs1DYQTkmDNxtdySKpqIVkMzYRmn52Ijy6XgWT_zS9JSukj31ErWbDKY14gCjT3lHgWiT3",
          "width": 4032
        }
      ],
      "place_id": "ChIJx4s88LP1wokRriX_DsPYtzI",
      "plus_code": {
        "compound_code": "R39V+JP \u7f8e\u570b\u7d10\u7d04",
        "global_code": "87G8R39V+JP"
      },
      "rating": 3.2,
      "reference": "ChIJx4s88LP1wokRriX_DsPYtzI",
      "scope": "GOOGLE",
      "types": [
        "school",
        "point_of_interest",
        "establishment"
      ],
      "user_ratings_total": 16,
      "vicinity": "778 Forest Avenue, The Bronx"
    },
    {
      "business_status": "OPERATIONAL",
      "geometry": {
        "location": {
          "lat": 40.8156243,
          "lng": -73.90357589999999
        },
        "viewport": {
          "northeast": {
            "lat": 40.81697493029149,
            "lng": -73.90209956970848
          },
          "southwest": {
            "lat": 40.81427696970849,
            "lng": -73.9047975302915
          }
        }
      },
      "icon": "https://maps.gstatic.com/mapfiles/place_api/icons/v1/png_71/worship_general-71.png",
      "icon_background_color": "#7B9EB0",
      "icon_mask_base_uri": "https://maps.gstatic.com/mapfiles/place_api/icons/v2/worship_christian_pinlet",
      "name": "Cornerstone Assembly Church",
      "place_id": "ChIJqVnLq7H1wokRF1RUaDKbpq8",
      "plus_code": {
        "compound_code": "R38W+6H \u7f8e\u570b\u7d10\u7d04",
        "global_code": "87G8R38W+6H"
      },
      "rating": 5,
      "reference": "ChIJqVnLq7H1wokRF1RUaDKbpq8",
      "scope": "GOOGLE",
      "types": [
        "church",
        "place_of_worship",
        "point_of_interest",
        "establishment"
      ],
      "user_ratings_total": 3,
      "vicinity": "671 Prospect Avenue # 1, The Bronx"
    },
    {
      "business_status": "OPERATIONAL",
      "geometry": {
        "location": {
          "lat": 40.81535460000001,
          "lng": -73.90973
        },
        "viewport": {
          "northeast": {
            "lat": 40.8166377802915,
            "lng": -73.90818631970849
          },
          "southwest": {
            "lat": 40.8139398197085,
            "lng": -73.9108842802915
          }
        }
      },
      "icon": "https://maps.gstatic.com/mapfiles/place_api/icons/v1/png_71/generic_business-71.png",
      "icon_background_color": "#7B9EB0",
      "icon_mask_base_uri": "https://maps.gstatic.com/mapfiles/place_api/icons/v2/generic_pinlet",
      "name": "St. Mary's Park",
      "photos": [
        {
          "height": 1440,
          "html_attributions": [
            "<a href=\"https://maps.google.com/maps/contrib/104192460068247875095\">Elizabeth Caceres Cruz</a>"
          ],
          "photo_reference": "AeJbb3f9K1ZHoJ32Hsz3tjO1e_0jS8bsoMzwiwTPzSTy32SD_VUG6ubWhU00yootA2aqSPRkMdmyernRkb0WD7Dv7H61G_EfGf0tasAif5vz9jxV2UGVbv8WbQYLV1iBIcQb2M3VR4yfPQKgrqqEmipJvmhvnijLC1-BnFNWYcY-sT1a8JWB",
          "width": 2560
        }
      ],
      "place_id": "ChIJ8abjgrf1wokR-hpoLrmgUFE",
      "plus_code": {
        "compound_code": "R38R+44 \u7f8e\u570b\u7d10\u7d04",
        "global_code": "87G8R38R+44"
      },
      "rating": 3.9,
      "reference": "ChIJ8abjgrf1wokR-hpoLrmgUFE",
      "scope": "GOOGLE",
      "types": [
        "point_of_interest",
        "establishment"
      ],
      "user_ratings_total": 59,
      "vicinity": "595 Trinity Avenue #20A, The Bronx"
    },
    {
      "business_status": "OPERATIONAL",
      "geometry": {
        "location": {
          "lat": 40.8182061,
          "lng": -73.9113093
        },
        "viewport": {
          "northeast": {
            "lat": 40.8194208802915,
            "lng": -73.90992391970849
          },
          "southwest": {
            "lat": 40.8167229197085,
            "lng": -73.9126218802915
          }
        }
      },
      "icon": "https://maps.gstatic.com/mapfiles/place_api/icons/v1/png_71/school-71.png",
      "icon_background_color": "#7B9EB0",
      "icon_mask_base_uri": "https://maps.gstatic.com/mapfiles/place_api/icons/v2/school_pinlet",
      "name": "University Heights Secondary School",
      "place_id": "ChIJGzk4F7b1wokR_gInV3xGN88",
      "plus_code": {
        "compound_code": "R39Q+7F \u7f8e\u570b\u7d10\u7d04",
        "global_code": "87G8R39Q+7F"
      },
      "rating": 4.5,
      "reference": "ChIJGzk4F7b1wokR_gInV3xGN88",
      "scope": "GOOGLE",
      "types": [
        "secondary_school",
        "school",
        "point_of_interest",
        "establishment"
      ],
      "user_ratings_total": 26,
      "vicinity": "701 Saint Ann's Avenue, The Bronx"
    },
    {
      "business_status": "OPERATIONAL",
      "geometry": {
        "location": {
          "lat": 40.81810709999999,
          "lng": -73.9114331
        },
        "viewport": {
          "northeast": {
            "lat": 40.8194003802915,
            "lng": -73.90992306970848
          },
          "southwest": {
            "lat": 40.81670241970851,
            "lng": -73.91262103029149
          }
        }
      },
      "icon": "https://maps.gstatic.com/mapfiles/place_api/icons/v1/png_71/generic_business-71.png",
      "icon_background_color": "#7B9EB0",
      "icon_mask_base_uri": "https://maps.gstatic.com/mapfiles/place_api/icons/v2/generic_pinlet",
      "name": "Moleti Carole A",
      "photos": [
        {
          "height": 4160,
          "html_attributions": [
            "<a href=\"https://maps.google.com/maps/contrib/110701434155782146359\">Jay Sprill</a>"
          ],
          "photo_reference": "AeJbb3fXhXPReIp9SWLaneaUy6nnV3yB_6fdzXzgtNUr5eemq8e5oVAmXiEfDs0SitAsDqk1lpg2MyfA9xgNlp85cSPfZAzTYe-B9kH7ZQE0OhD15DSdlxew6ZfwgdLwqy-EvTDthFfeRP9VnXLzu5rqIMA2OutUv5c5E0ksKn9RNaGwQ_Vp",
          "width": 3120
        }
      ],
      "place_id": "ChIJCVYBFLb1wokRY3Ko6tKitZ0",
      "plus_code": {
        "compound_code": "R39Q+6C \u7f8e\u570b\u7d10\u7d04",
        "global_code": "87G8R39Q+6C"
      },
      "reference": "ChIJCVYBFLb1wokRY3Ko6tKitZ0",
      "scope": "GOOGLE",
      "types": [
        "doctor",
        "health",
        "point_of_interest",
        "establishment"
      ],
      "vicinity": "701 Saint Ann's Avenue, The Bronx"
    },
    {
      "business_status": "OPERATIONAL",
      "geometry": {
        "location": {
          "lat": 40.8137705,
          "lng": -73.9097484
        },
        "viewport": {
          "northeast": {
            "lat": 40.81511323029149,
            "lng": -73.90842846970848
          },
          "southwest": {
            "lat": 40.8124152697085,
            "lng": -73.9111264302915
          }
        }
      },
      "icon": "https://maps.gstatic.com/mapfiles/place_api/icons/v1/png_71/shopping-71.png",
      "icon_background_color": "#4B96F3",
      "icon_mask_base_uri": "https://maps.gstatic.com/mapfiles/place_api/icons/v2/shopping_pinlet",
      "name": "Friedlander M & R Supply",
      "opening_hours": {
        "open_now": false
      },
      "place_id": "ChIJ5yIZgLf1wokRVrX_jgvGro4",
      "plus_code": {
        "compound_code": "R37R+G4 \u7f8e\u570b\u7d10\u7d04",
        "global_code": "87G8R37R+G4"
      },
      "rating": 3.3,
      "reference": "ChIJ5yIZgLf1wokRVrX_jgvGro4",
      "scope": "GOOGLE",
      "types": [
        "store",
        "point_of_interest",
        "establishment"
      ],
      "user_ratings_total": 3,
      "vicinity": "550 Trinity Avenue, The Bronx"
    },
    {
      "business_status": "OPERATIONAL",
      "geometry": {
        "location": {
          "lat": 40.8176966,
          "lng": -73.9060743
        },
        "viewport": {
          "northeast": {
            "lat": 40.8191002802915,
            "lng": -73.9045347697085
          },
          "southwest": {
            "lat": 40.8164023197085,
            "lng": -73.90723273029151
          }
        }
      },
      "icon": "https://maps.gstatic.com/mapfiles/place_api/icons/v1/png_71/restaurant-71.png",
      "icon_background_color": "#FF9E67",
      "icon_mask_base_uri": "https://maps.gstatic.com/mapfiles/place_api/icons/v2/restaurant_pinlet",
      "name": "Kennedy Fried Chicken",
      "opening_hours": {
        "open_now": true
      },
      "photos": [
        {
          "height": 4032,
          "html_attributions": [
            "<a href=\"https://maps.google.com/maps/contrib/114165873766144882173\">Infinite Spirit 888</a>"
          ],
          "photo_reference": "AeJbb3fNJLxAyo5OBTFu50aji_wrRgzByk-2sW7lSn5HYCPTyNMTV_K78hkt8ele8wmC8ymS0DervPDvUA6FbrBNK49WSKmnJetVSMvMKL41YE1x_fp1FRomHECfaDJ68Tf7a7aY_1orlefOGCicj67msvk7dagD8h8siS9u1Ac7jgE2kmnH",
          "width": 3024
        }
      ],
      "place_id": "ChIJt3szTrH1wokRQCEUyjjoHJo",
      "plus_code": {
        "compound_code": "R39V+3H \u7f8e\u570b\u7d10\u7d04\u5e03\u6717\u514b\u65af",
        "global_code": "87G8R39V+3H"
      },
      "price_level": 1,
      "rating": 3.7,
      "reference": "ChIJt3szTrH1wokRQCEUyjjoHJo",
      "scope": "GOOGLE",
      "types": [
        "meal_takeaway",
        "meal_delivery",
        "restaurant",
        "point_of_interest",
        "food",
        "establishment"
      ],
      "user_ratings_total": 50,
      "vicinity": "733 Westchester Avenue, The Bronx"
    },
    {
      "business_status": "OPERATIONAL",
      "geometry": {
        "location": {
          "lat": 40.8156648,
          "lng": -73.9109608
        },
        "viewport": {
          "northeast": {
            "lat": 40.8170777302915,
            "lng": -73.90972001970849
          },
          "southwest": {
            "lat": 40.8143797697085,
            "lng": -73.91241798029151
          }
        }
      },
      "icon": "https://maps.gstatic.com/mapfiles/place_api/icons/v1/png_71/worship_general-71.png",
      "icon_background_color": "#7B9EB0",
      "icon_mask_base_uri": "https://maps.gstatic.com/mapfiles/place_api/icons/v2/worship_christian_pinlet",
      "name": "Mott Haven Spanish SDA Church",
      "photos": [
        {
          "height": 3264,
          "html_attributions": [
            "<a href=\"https://maps.google.com/maps/contrib/100520633875828171698\">Nathaniel D Aiken</a>"
          ],
          "photo_reference": "AeJbb3cZ0nVzkuKiYE4E2TyFy4a4sAtPIVkBKmWgBU04Hz1BIJIDTuv72W8-wiTE5B-ihgOdzFgxwZQoRjKV3g4RtiJ7ZBe2LXET9OoglHkbQFPf02sSR2y245TR6cDt-ZnmmQwyWJQX5PIGA6ogIB0JKOb2ClZHo9YWc73oGNbUw5_C7msf",
          "width": 1836
        }
      ],
      "place_id": "ChIJ0_eAuLf1wokR3Dg7Ed-59vk",
      "plus_code": {
        "compound_code": "R38Q+7J \u7f8e\u570b\u7d10\u7d04\u5e03\u6717\u514b\u65af",
        "global_code": "87G8R38Q+7J"
      },
      "rating": 4.8,
      "reference": "ChIJ0_eAuLf1wokR3Dg7Ed-59vk",
      "scope": "GOOGLE",
      "types": [
        "church",
        "place_of_worship",
        "point_of_interest",
        "establishment"
      ],
      "user_ratings_total": 19,
      "vicinity": "600 Westchester Avenue, The Bronx"
    },
    {
      "business_status": "OPERATIONAL",
      "geometry": {
        "location": {
          "lat": 40.8156507,
          "lng": -73.91145700000001
        },
        "viewport": {
          "northeast": {
            "lat": 40.81717748029151,
            "lng": -73.91008276970851
          },
          "southwest": {
            "lat": 40.81447951970851,
            "lng": -73.91278073029152
          }
        }
      },
      "icon": "https://maps.gstatic.com/mapfiles/place_api/icons/v1/png_71/park-71.png",
      "icon_background_color": "#4DB546",
      "icon_mask_base_uri": "https://maps.gstatic.com/mapfiles/place_api/icons/v2/tree_pinlet",
      "name": "Eagle Slope Community Garden",
      "photos": [
        {
          "height": 2448,
          "html_attributions": [
            "<a href=\"https://maps.google.com/maps/contrib/108525267679351560527\">StephenSee</a>"
          ],
          "photo_reference": "AeJbb3dcg0wefux2Ud2qAHQG0RU_IoJUjgI5Zrq09tte-yRflGh8wgnz3zwQQGZ48juwKQrmvYxoCv5qI9jTdeBuTumRgdJQmO6ojvQaFSMW83Jk4T8YRPGYvcG1oDe4Sb4B01n0uGqz3ncPSGmkRan0KShIUzp8m1i4u9HhCOtrSHA64TbR",
          "width": 3264
        }
      ],
      "place_id": "ChIJexpQxLf1wokRCR7Sttw5XMU",
      "plus_code": {
        "compound_code": "R38Q+7C \u7f8e\u570b\u7d10\u7d04\u5e03\u6717\u514b\u65af",
        "global_code": "87G8R38Q+7C"
      },
      "rating": 4.5,
      "reference": "ChIJexpQxLf1wokRCR7Sttw5XMU",
      "scope": "GOOGLE",
      "types": [
        "park",
        "point_of_interest",
        "establishment"
      ],
      "user_ratings_total": 15,
      "vicinity": "582 Westchester Avenue, The Bronx"
    },
    {
      "business_status": "OPERATIONAL",
      "geometry": {
        "location": {
          "lat": 40.8181076,
          "lng": -73.9070434
        },
        "viewport": {
          "northeast": {
            "lat": 40.8195321302915,
            "lng": -73.9054619197085
          },
          "southwest": {
            "lat": 40.8168341697085,
            "lng": -73.90815988029152
          }
        }
      },
      "icon": "https://maps.gstatic.com/mapfiles/place_api/icons/v1/png_71/generic_business-71.png",
      "icon_background_color": "#7B9EB0",
      "icon_mask_base_uri": "https://maps.gstatic.com/mapfiles/place_api/icons/v2/generic_pinlet",
      "name": "Captain Rivera Playground",
      "opening_hours": {
        "open_now": true
      },
      "photos": [
        {
          "height": 480,
          "html_attributions": [
            "<a href=\"https://maps.google.com/maps/contrib/105781848059818501215\">Captain Rivera Playground</a>"
          ],
          "photo_reference": "AeJbb3doUW6PswCmqpuF2xk05f9wxjYIYyYxiJiDXtbDWt1RykBqKexLau2k8QHEJMSlbQLAKJiyB_gu8Pi4gMxCxSw1G6ioM06mJjMXgiygWehVrNf-Owp6TnWf5KE1rL6pU8ODGZ4QCzshLY8VnmBLUsYA2KBzHMRqrZBFQMkXpyPPfLAA",
          "width": 640
        }
      ],
      "place_id": "ChIJPd5xrLb1wokR_ya1YK8BEnM",
      "plus_code": {
        "compound_code": "R39V+65 \u7f8e\u570b\u7d10\u7d04",
        "global_code": "87G8R39V+65"
      },
      "rating": 3.7,
      "reference": "ChIJPd5xrLb1wokR_ya1YK8BEnM",
      "scope": "GOOGLE",
      "types": [
        "point_of_interest",
        "establishment"
      ],
      "user_ratings_total": 79,
      "vicinity": "720 East 156th Street, The Bronx"
    },
    {
      "business_status": "OPERATIONAL",
      "geometry": {
        "location": {
          "lat": 40.8147483,
          "lng": -73.9080587
        },
        "viewport": {
          "northeast": {
            "lat": 40.81602233029151,
            "lng": -73.90674161970848
          },
          "southwest": {
            "lat": 40.81332436970851,
            "lng": -73.90943958029149
          }
        }
      },
      "icon": "https://maps.gstatic.com/mapfiles/place_api/icons/v1/png_71/generic_business-71.png",
      "icon_background_color": "#7B9EB0",
      "icon_mask_base_uri": "https://maps.gstatic.com/mapfiles/place_api/icons/v2/generic_pinlet",
      "name": "Scrub Clean Maintenance Corp.",
      "place_id": "ChIJq6qqarf1wokRyhcN3pvkw-E",
      "plus_code": {
        "compound_code": "R37R+VQ \u7f8e\u570b\u7d10\u7d04\u5e03\u6717\u514b\u65af",
        "global_code": "87G8R37R+VQ"
      },
      "rating": 4.5,
      "reference": "ChIJq6qqarf1wokRyhcN3pvkw-E",
      "scope": "GOOGLE",
      "types": [
        "point_of_interest",
        "establishment"
      ],
      "user_ratings_total": 2,
      "vicinity": "\u5e03\u6717\u514b\u65af"
    },
    {
      "business_status": "OPERATIONAL",
      "geometry": {
        "location": {
          "lat": 40.8148956,
          "lng": -73.90571729999999
        },
        "viewport": {
          "northeast": {
            "lat": 40.81623018029149,
            "lng": -73.90428641970848
          },
          "southwest": {
            "lat": 40.8135322197085,
            "lng": -73.90698438029149
          }
        }
      },
      "icon": "https://maps.gstatic.com/mapfiles/place_api/icons/v1/png_71/generic_business-71.png",
      "icon_background_color": "#7B9EB0",
      "icon_mask_base_uri": "https://maps.gstatic.com/mapfiles/place_api/icons/v2/generic_pinlet",
      "name": "Nelfrid Security Service",
      "opening_hours": {
        "open_now": false
      },
      "place_id": "ChIJ9ReAxbD1wokRDejIvCH8sUM",
      "plus_code": {
        "compound_code": "R37V+XP \u7f8e\u570b\u7d10\u7d04\u5e03\u6717\u514b\u65af",
        "global_code": "87G8R37V+XP"
      },
      "reference": "ChIJ9ReAxbD1wokRDejIvCH8sUM",
      "scope": "GOOGLE",
      "types": [
        "electronics_store",
        "store",
        "point_of_interest",
        "establishment"
      ],
      "vicinity": "629 Tinton Avenue #200, The Bronx"
    },
    {
      "business_status": "CLOSED_TEMPORARILY",
      "geometry": {
        "location": {
          "lat": 40.8147724,
          "lng": -73.908142
        },
        "viewport": {
          "northeast": {
            "lat": 40.8160424302915,
            "lng": -73.90682181970848
          },
          "southwest": {
            "lat": 40.8133444697085,
            "lng": -73.9095197802915
          }
        }
      },
      "icon": "https://maps.gstatic.com/mapfiles/place_api/icons/v1/png_71/generic_business-71.png",
      "icon_background_color": "#7B9EB0",
      "icon_mask_base_uri": "https://maps.gstatic.com/mapfiles/place_api/icons/v2/generic_pinlet",
      "name": "CLICK CLICK ANYWHERE FLICKS",
      "permanently_closed": true,
      "place_id": "ChIJq6qqarf1wokRxDh59yieWb8",
      "plus_code": {
        "compound_code": "R37R+WP \u7f8e\u570b\u7d10\u7d04\u5e03\u6717\u514b\u65af",
        "global_code": "87G8R37R+WP"
      },
      "reference": "ChIJq6qqarf1wokRxDh59yieWb8",
      "scope": "GOOGLE",
      "types": [
        "art_gallery",
        "point_of_interest",
        "establishment"
      ],
      "vicinity": "\u5e03\u6717\u514b\u65af"
    },
    {
      "geometry": {
        "location": {
          "lat": 40.8519547,
          "lng": -73.90070899999999
        },
        "viewport": {
          "northeast": {
            "lat": 40.91527805889627,
            "lng": -73.86840408623851
          },
          "southwest": {
            "lat": 40.79678004393696,
            "lng": -73.93340593816593
          }
        }
      },
      "icon": "https://maps.gstatic.com/mapfiles/place_api/icons/v1/png_71/geocode-71.png",
      "icon_background_color": "#7B9EB0",
      "icon_mask_base_uri": "https://maps.gstatic.com/mapfiles/place_api/icons/v2/generic_pinlet",
      "name": "West Bronx",
      "photos": [
        {
          "height": 1024,
          "html_attributions": [
            "<a href=\"https://maps.google.com/maps/contrib/113738462812435835913\">Alex Lin</a>"
          ],
          "photo_reference": "AeJbb3fMLddk0iGS0QvAmB5tQ-OJHDJnBbXC0GR1roWZ8RpsYvfnc_CwReutaVJtcsDlVSqGN69dQPIhYqgOcRRsNpcYbUsevS8XHJPqrRy7c_kp-Mxu7iJnJPQrBv6TMRN3S0dQaTBsr1kKaQjkt4NYqaTl_tqqctTwtBmsI4o_b5ul37FY",
          "width": 768
        }
      ],
      "place_id": "ChIJWdLZpnD0wokRgikpekRYd9o",
      "reference": "ChIJWdLZpnD0wokRgikpekRYd9o",
      "scope": "GOOGLE",
      "types": [
        "neighborhood",
        "political"
      ],
      "vicinity": "The Bronx"
    },
    {
      "business_status": "OPERATIONAL",
      "geometry": {
        "location": {
          "lat": 40.8150922,
          "lng": -73.9091735
        },
        "viewport": {
          "northeast": {
            "lat": 40.8164670802915,
            "lng": -73.90794941970849
          },
          "southwest": {
            "lat": 40.8137691197085,
            "lng": -73.91064738029151
          }
        }
      },
      "icon": "https://maps.gstatic.com/mapfiles/place_api/icons/v1/png_71/generic_business-71.png",
      "icon_background_color": "#7B9EB0",
      "icon_mask_base_uri": "https://maps.gstatic.com/mapfiles/place_api/icons/v2/generic_pinlet",
      "name": "YCCS - YourConvenientCleaningService",
      "place_id": "ChIJvUmvC7f1wokRyZTKPUeIryI",
      "plus_code": {
        "compound_code": "R38R+28 New York, NY, USA",
        "global_code": "87G8R38R+28"
      },
      "reference": "ChIJvUmvC7f1wokRyZTKPUeIryI",
      "scope": "GOOGLE",
      "types": [
        "point_of_interest",
        "establishment"
      ],
      "vicinity": "620 Trinity Avenue, The Bronx"
    },
    {
      "business_status": "OPERATIONAL",
      "geometry": {
        "location": {
          "lat": 40.8154727,
          "lng": -73.90647680000001
        },
        "viewport": {
          "northeast": {
            "lat": 40.8169280302915,
            "lng": -73.9050813197085
          },
          "southwest": {
            "lat": 40.81423006970851,
            "lng": -73.9077792802915
          }
        }
      },
      "icon": "https://maps.gstatic.com/mapfiles/place_api/icons/v1/png_71/atm-71.png",
      "icon_background_color": "#909CE1",
      "icon_mask_base_uri": "https://maps.gstatic.com/mapfiles/place_api/icons/v2/atm_pinlet",
      "name": "Cardtronics ATM",
      "place_id": "ChIJBwj11LD1wokRVcLIbDp322k",
      "plus_code": {
        "compound_code": "R38V+5C The Bronx, NY, USA",
        "global_code": "87G8R38V+5C"
      },
      "rating": 1,
      "reference": "ChIJBwj11LD1wokRVcLIbDp322k",
      "scope": "GOOGLE",
      "types": [
        "atm",
        "finance",
        "point_of_interest",
        "establishment"
      ],
      "user_ratings_total": 1,
      "vicinity": "643 Wales Avenue, The Bronx"
    },
    {
      "business_status": "OPERATIONAL",
      "geometry": {
        "location": {
          "lat": 40.815414,
          "lng": -73.9078772
        },
        "viewport": {
          "northeast": {
            "lat": 40.81676563029149,
            "lng": -73.90673471970851
          },
          "southwest": {
            "lat": 40.8140676697085,
            "lng": -73.90943268029152
          }
        }
      },
      "icon": "https://maps.gstatic.com/mapfiles/place_api/icons/v1/png_71/generic_business-71.png",
      "icon_background_color": "#7B9EB0",
      "icon_mask_base_uri": "https://maps.gstatic.com/mapfiles/place_api/icons/v2/generic_pinlet",
      "name": "Hunts Point Multi-Service Center",
      "place_id": "ChIJNZuWIrf1wokRVyetlYvuD8o",
      "plus_code": {
        "compound_code": "R38R+5R The Bronx, NY, USA",
        "global_code": "87G8R38R+5R"
      },
      "rating": 4.3,
      "reference": "ChIJNZuWIrf1wokRVyetlYvuD8o",
      "scope": "GOOGLE",
      "types": [
        "point_of_interest",
        "establishment"
      ],
      "user_ratings_total": 28,
      "vicinity": "630 Jackson Avenue, The Bronx"
    },
    {
      "business_status": "OPERATIONAL",
      "geometry": {
        "location": {
          "lat": 40.8158333,
          "lng": -73.9086111
        },
        "viewport": {
          "northeast": {
            "lat": 40.8172796802915,
            "lng": -73.90725636970849
          },
          "southwest": {
            "lat": 40.8145817197085,
            "lng": -73.9099543302915
          }
        }
      },
      "icon": "https://maps.gstatic.com/mapfiles/place_api/icons/v1/png_71/restaurant-71.png",
      "icon_background_color": "#FF9E67",
      "icon_mask_base_uri": "https://maps.gstatic.com/mapfiles/place_api/icons/v2/restaurant_pinlet",
      "name": "Cocina Latina",
      "opening_hours": {
        "open_now": true
      },
      "photos": [
        {
          "height": 4032,
          "html_attributions": [
            "<a href=\"https://maps.google.com/maps/contrib/111328329619748832059\">omar contreras</a>"
          ],
          "photo_reference": "AeJbb3diE1OixtZAOU9ZukQfT1Xr7tqoE1Mj7totWbwnNkg8WGtn0h-uKOoU3NAhuEu1uz9fJGcVMVjJxlB84uCAGbdR5p75sBwZpF_thuXruvSg22EggWI7ay3fmmDarEL_Rj_zOFjay8UMVOmd8sSzJFUN-e7XIcNPQTcUj8QUsHHUqrrh",
          "width": 3024
        }
      ],
      "place_id": "ChIJw0M8Hbf1wokRPpu0L-UIwaA",
      "plus_code": {
        "compound_code": "R38R+8H The Bronx, NY, USA",
        "global_code": "87G8R38R+8H"
      },
      "rating": 3.6,
      "reference": "ChIJw0M8Hbf1wokRPpu0L-UIwaA",
      "scope": "GOOGLE",
      "types": [
        "meal_delivery",
        "restaurant",
        "point_of_interest",
        "food",
        "establishment"
      ],
      "user_ratings_total": 84,
      "vicinity": "650 Westchester Avenue, The Bronx"
    },
    {
      "business_status": "OPERATIONAL",
      "geometry": {
        "location": {
          "lat": 40.81561230000001,
          "lng": -73.90850499999999
        },
        "viewport": {
          "northeast": {
            "lat": 40.81698488029151,
            "lng": -73.90701491970849
          },
          "southwest": {
            "lat": 40.81428691970851,
            "lng": -73.9097128802915
          }
        }
      },
      "icon": "https://maps.gstatic.com/mapfiles/place_api/icons/v1/png_71/shopping-71.png",
      "icon_background_color": "#4B96F3",
      "icon_mask_base_uri": "https://maps.gstatic.com/mapfiles/place_api/icons/v2/shoppingcart_pinlet",
      "name": "Met Foodmarkets of Jackson Ave",
      "opening_hours": {
        "open_now": true
      },
      "photos": [
        {
          "height": 5312,
          "html_attributions": [
            "<a href=\"https://maps.google.com/maps/contrib/117121433192287401654\">Leo Martinez</a>"
          ],
          "photo_reference": "AeJbb3cxHChWz-nZfhONMu9gm2cc7lHMRx9xZbfMscoulrU4aRs-FzbToA0hxdd_01A-h0cCENGowykH_GG7W-GIk3sUeGwZHq-Ku4Z_CfWTJcIHTstjmyj4Us4aozTq5BNJoon7wjR1QoGbRaR3Lq2iKDiF_Cj55JmI-2_CaJKYiUibVVR8",
          "width": 2988
        }
      ],
      "place_id": "ChIJ1cWcGbf1wokRREupEuxPRSs",
      "plus_code": {
        "compound_code": "R38R+6H New York, NY, USA",
        "global_code": "87G8R38R+6H"
      },
      "rating": 3.6,
      "reference": "ChIJ1cWcGbf1wokRREupEuxPRSs",
      "scope": "GOOGLE",
      "types": [
        "supermarket",
        "grocery_or_supermarket",
        "point_of_interest",
        "food",
        "store",
        "establishment"
      ],
      "user_ratings_total": 315,
      "vicinity": "649 Jackson Avenue, The Bronx"
    },
    {
      "business_status": "OPERATIONAL",
      "geometry": {
        "location": {
          "lat": 40.8157398,
          "lng": -73.9090184
        },
        "viewport": {
          "northeast": {
            "lat": 40.8171166802915,
            "lng": -73.90775751970848
          },
          "southwest": {
            "lat": 40.81441871970851,
            "lng": -73.91045548029149
          }
        }
      },
      "icon": "https://maps.gstatic.com/mapfiles/place_api/icons/v1/png_71/generic_business-71.png",
      "icon_background_color": "#7B9EB0",
      "icon_mask_base_uri": "https://maps.gstatic.com/mapfiles/place_api/icons/v2/generic_pinlet",
      "name": "Western Union",
      "opening_hours": {
        "open_now": true
      },
      "photos": [
        {
          "height": 1000,
          "html_attributions": [
            "<a href=\"https://maps.google.com/maps/contrib/107098810137051451619\">Western Union</a>"
          ],
          "photo_reference": "AeJbb3cXXk_pGs5lW60qsrluqQPCVed_yi2FLWcD1ER3TE4b3yXdQ4JQhBj2efVfEUsQ1lS9PeDfF77Tb1bpxUYJrGZ26MeGoVlYsAnd6GU0LeIdxMGDQL0vHrSPiFJuToDUE2mAPZqSSQGlu0cAvFJfLj2IBaFGbdrzgtn4iAPqxKZidRTs",
          "width": 1000
        }
      ],
      "place_id": "ChIJDbWkG7f1wokRISCCkuPQvUs",
      "plus_code": {
        "compound_code": "R38R+79 The Bronx, NY, USA",
        "global_code": "87G8R38R+79"
      },
      "rating": 5,
      "reference": "ChIJDbWkG7f1wokRISCCkuPQvUs",
      "scope": "GOOGLE",
      "types": [
        "finance",
        "point_of_interest",
        "establishment"
      ],
      "user_ratings_total": 1,
      "vicinity": "Walgreens, 642 Westchester Avenue, The Bronx"
    },
    {
      "business_status": "OPERATIONAL",
      "geometry": {
        "location": {
          "lat": 40.8152822,
          "lng": -73.9078293
        },
        "viewport": {
          "northeast": {
            "lat": 40.81668383029149,
            "lng": -73.90672236970849
          },
          "southwest": {
            "lat": 40.81398586970849,
            "lng": -73.9094203302915
          }
        }
      },
      "icon": "https://maps.gstatic.com/mapfiles/place_api/icons/v1/png_71/civic_building-71.png",
      "icon_background_color": "#7B9EB0",
      "icon_mask_base_uri": "https://maps.gstatic.com/mapfiles/place_api/icons/v2/civic-bldg_pinlet",
      "name": "BronxWorks",
      "opening_hours": {
        "open_now": false
      },
      "photos": [
        {
          "height": 2592,
          "html_attributions": [
            "<a href=\"https://maps.google.com/maps/contrib/116569626922398752466\">Venice Julien</a>"
          ],
          "photo_reference": "AeJbb3czTBbMh_EJndaSd5KDFTZrM7iKNlQYUW2eYEF8bNWxunTJzja3p2EwOwSeG0IWZeb1Qzj_uJKuWc3daKCvBhlkgm7nDIcCQ-mLjwAi07ko6DvAIrdjDVHFT-yKtcWXMhZ-5UYOwO0sh2IgCy9R1fXqMg7wKi2mMGhO4rpAn1EqkKNS",
          "width": 1944
        }
      ],
      "place_id": "ChIJq6qqqsn1wokR6-Cug82o0tw",
      "plus_code": {
        "compound_code": "R38R+4V The Bronx, NY, USA",
        "global_code": "87G8R38R+4V"
      },
      "rating": 3.9,
      "reference": "ChIJq6qqqsn1wokR6-Cug82o0tw",
      "scope": "GOOGLE",
      "types": [
        "point_of_interest",
        "establishment"
      ],
      "user_ratings_total": 75,
      "vicinity": "630 Jackson Avenue, The Bronx"
    },
    {
      "business_status": "OPERATIONAL",
      "geometry": {
        "location": {
          "lat": 40.8152404,
          "lng": -73.90802339999999
        },
        "viewport": {
          "northeast": {
            "lat": 40.8166920802915,
            "lng": -73.9067969697085
          },
          "southwest": {
            "lat": 40.8139941197085,
            "lng": -73.9094949302915
          }
        }
      },
      "icon": "https://maps.gstatic.com/mapfiles/place_api/icons/v1/png_71/generic_business-71.png",
      "icon_background_color": "#7B9EB0",
      "icon_mask_base_uri": "https://maps.gstatic.com/mapfiles/place_api/icons/v2/generic_pinlet",
      "name": "Seps",
      "opening_hours": {
        "open_now": false
      },
      "place_id": "ChIJsWJ4Pbf1wokRAZVz1Ys1kDg",
      "plus_code": {
        "compound_code": "R38R+3Q The Bronx, NY, USA",
        "global_code": "87G8R38R+3Q"
      },
      "rating": 3.5,
      "reference": "ChIJsWJ4Pbf1wokRAZVz1Ys1kDg",
      "scope": "GOOGLE",
      "types": [
        "point_of_interest",
        "establishment"
      ],
      "user_ratings_total": 70,
      "vicinity": "630 Jackson Avenue, The Bronx"
    },
    {
      "business_status": "OPERATIONAL",
      "geometry": {
        "location": {
          "lat": 40.81606550000001,
          "lng": -73.9069189
        },
        "viewport": {
          "northeast": {
            "lat": 40.8172872802915,
            "lng": -73.90560426970849
          },
          "southwest": {
            "lat": 40.81458931970851,
            "lng": -73.9083022302915
          }
        }
      },
      "icon": "https://maps.gstatic.com/mapfiles/place_api/icons/v1/png_71/generic_business-71.png",
      "icon_background_color": "#7B9EB0",
      "icon_mask_base_uri": "https://maps.gstatic.com/mapfiles/place_api/icons/v2/generic_pinlet",
      "name": "John Adams",
      "place_id": "ChIJnXoj1Lb1wokRYuVoSwBxvu8",
      "plus_code": {
        "compound_code": "R38V+C6 The Bronx, NY, USA",
        "global_code": "87G8R38V+C6"
      },
      "rating": 3,
      "reference": "ChIJnXoj1Lb1wokRYuVoSwBxvu8",
      "scope": "GOOGLE",
      "types": [
        "point_of_interest",
        "establishment"
      ],
      "user_ratings_total": 5,
      "vicinity": "Jackson Avenue, The Bronx"
    },
    {
      "business_status": "CLOSED_TEMPORARILY",
      "geometry": {
        "location": {
          "lat": 40.8147953,
          "lng": -73.9081327
        },
        "viewport": {
          "northeast": {
            "lat": 40.8160537802915,
            "lng": -73.9068167197085
          },
          "southwest": {
            "lat": 40.8133558197085,
            "lng": -73.90951468029151
          }
        }
      },
      "icon": "https://maps.gstatic.com/mapfiles/place_api/icons/v1/png_71/generic_business-71.png",
      "icon_background_color": "#7B9EB0",
      "icon_mask_base_uri": "https://maps.gstatic.com/mapfiles/place_api/icons/v2/generic_pinlet",
      "name": "C.SLADE CORPORATION",
      "permanently_closed": true,
      "place_id": "ChIJq6qqarf1wokRlh39kmlmhBc",
      "plus_code": {
        "compound_code": "R37R+WP The Bronx, NY, USA",
        "global_code": "87G8R37R+WP"
      },
      "reference": "ChIJq6qqarf1wokRlh39kmlmhBc",
      "scope": "GOOGLE",
      "types": [
        "point_of_interest",
        "establishment"
      ],
      "vicinity": "The Bronx"
    },
    {
      "business_status": "OPERATIONAL",
      "geometry": {
        "location": {
          "lat": 40.814685,
          "lng": -73.9073204
        },
        "viewport": {
          "northeast": {
            "lat": 40.81610363029149,
            "lng": -73.9060677697085
          },
          "southwest": {
            "lat": 40.81340566970849,
            "lng": -73.9087657302915
          }
        }
      },
      "icon": "https://maps.gstatic.com/mapfiles/place_api/icons/v1/png_71/generic_business-71.png",
      "icon_background_color": "#7B9EB0",
      "icon_mask_base_uri": "https://maps.gstatic.com/mapfiles/place_api/icons/v2/generic_pinlet",
      "name": "Ramon Velez Health Center",
      "opening_hours": {
        "open_now": false
      },
      "photos": [
        {
          "height": 2988,
          "html_attributions": [
            "<a href=\"https://maps.google.com/maps/contrib/110549797594597041616\">Ramon Velez Health Center</a>"
          ],
          "photo_reference": "AeJbb3cBQvbxwbZcuKLtFZev5pyDipTk9NFceUsOV7QuJlv8pu8WQUiv6kL38790nLi_VPWelTlE11b_Y8g1JHUAVA4QA-Qk18YeSFgWtvGj_Nu2TgDIxZZxQ9jCsfNOEPUEoKOA9ChoEsMUGNLsrDg7Jiux173PX8fNa1AR9OIE0BatX_2t",
          "width": 5312
        }
      ],
      "place_id": "ChIJBy4zSLf1wokRhzhTb4vAuWQ",
      "plus_code": {
        "compound_code": "R37V+V3 The Bronx, NY, USA",
        "global_code": "87G8R37V+V3"
      },
      "rating": 3.8,
      "reference": "ChIJBy4zSLf1wokRhzhTb4vAuWQ",
      "scope": "GOOGLE",
      "types": [
        "health",
        "finance",
        "point_of_interest",
        "establishment"
      ],
      "user_ratings_total": 41,
      "vicinity": "754 East 151st Street, The Bronx"
    },
    {
      "business_status": "OPERATIONAL",
      "geometry": {
        "location": {
          "lat": 40.8162645,
          "lng": -73.9103422
        },
        "viewport": {
          "northeast": {
            "lat": 40.8175497302915,
            "lng": -73.90901911970849
          },
          "southwest": {
            "lat": 40.8148517697085,
            "lng": -73.91171708029151
          }
        }
      },
      "icon": "https://maps.gstatic.com/mapfiles/place_api/icons/v1/png_71/pharmacy-71.png",
      "icon_background_color": "#F88181",
      "icon_mask_base_uri": "https://maps.gstatic.com/mapfiles/place_api/icons/v2/pharmacy_pinlet",
      "name": "Cauldwell Pharmacy",
      "opening_hours": {
        "open_now": false
      },
      "photos": [
        {
          "height": 2109,
          "html_attributions": [
            "<a href=\"https://maps.google.com/maps/contrib/117121433192287401654\">Leo Martinez</a>"
          ],
          "photo_reference": "AeJbb3cj7MNKamT0ETeabjD4qMKz6QZ5kvl_KTJKrwvXMsoIIx_jkSP5Sv7Ep88Z3lZPn23cGpNuvOW185KgltzbKBBU9O-NqTyamsu3It_L8CsdFX7JhDkF60ChKFeLsRLT-pPYbd3vzv3f9BSlMZduCJpulNi8QslsZKj4nFPLSc5oLiyV",
          "width": 2660
        }
      ],
      "place_id": "ChIJTY76trf1wokR9MyndCbqPss",
      "plus_code": {
        "compound_code": "R38Q+GV New York, NY, USA",
        "global_code": "87G8R38Q+GV"
      },
      "rating": 4.3,
      "reference": "ChIJTY76trf1wokR9MyndCbqPss",
      "scope": "GOOGLE",
      "types": [
        "pharmacy",
        "health",
        "point_of_interest",
        "store",
        "establishment"
      ],
      "user_ratings_total": 18,
      "vicinity": "609 Westchester Avenue, The Bronx"
    },
    {
      "business_status": "CLOSED_TEMPORARILY",
      "geometry": {
        "location": {
          "lat": 40.8177125,
          "lng": -73.90937980000001
        },
        "viewport": {
          "northeast": {
            "lat": 40.8190399802915,
            "lng": -73.9079398197085
          },
          "southwest": {
            "lat": 40.81634201970851,
            "lng": -73.91063778029152
          }
        }
      },
      "icon": "https://maps.gstatic.com/mapfiles/place_api/icons/v1/png_71/generic_business-71.png",
      "icon_background_color": "#7B9EB0",
      "icon_mask_base_uri": "https://maps.gstatic.com/mapfiles/place_api/icons/v2/generic_pinlet",
      "name": "Jonas Safety Consultants and Construction Management, LLC",
      "permanently_closed": true,
      "place_id": "ChIJkdDjYbb1wokRaWIpU2UDXH4",
      "plus_code": {
        "compound_code": "R39R+36 The Bronx, NY, USA",
        "global_code": "87G8R39R+36"
      },
      "reference": "ChIJkdDjYbb1wokRaWIpU2UDXH4",
      "scope": "GOOGLE",
      "types": [
        "general_contractor",
        "point_of_interest",
        "establishment"
      ],
      "vicinity": "687 Cauldwell Avenue, The Bronx"
    },
    {
      "business_status": "OPERATIONAL",
      "geometry": {
        "location": {
          "lat": 40.8156739,
          "lng": -73.9105384
        },
        "viewport": {
          "northeast": {
            "lat": 40.8171578302915,
            "lng": -73.90915651970849
          },
          "southwest": {
            "lat": 40.8144598697085,
            "lng": -73.9118544802915
          }
        }
      },
      "icon": "https://maps.gstatic.com/mapfiles/place_api/icons/v1/png_71/shopping-71.png",
      "icon_background_color": "#4B96F3",
      "icon_mask_base_uri": "https://maps.gstatic.com/mapfiles/place_api/icons/v2/shopping_pinlet",
      "name": "Dollar Tree",
      "opening_hours": {
        "open_now": true
      },
      "photos": [
        {
          "height": 608,
          "html_attributions": [
            "<a href=\"https://maps.google.com/maps/contrib/101760065060958193603\">Dollar Tree</a>"
          ],
          "photo_reference": "AeJbb3dXTRStQZvqq9971MVUc2f2xC6-jU_ZJdlxz0cXCaaPskyfKQfvMCLnO3Awpwyq6IWKvQy6i7vQhQk3VYNF5K37KoH_Q-WASvgxkbNCwMgcstVxm2l7hA6m9JshkT25WdXyAw_bSXg5dtoieKOg4ITIArGSl6iX1ZxfYntDSWQFzQY",
          "width": 1080
        }
      ],
      "place_id": "ChIJgzJBurf1wokRyf12_udCwto",
      "plus_code": {
        "compound_code": "R38Q+7Q New York, NY, USA",
        "global_code": "87G8R38Q+7Q"
      },
      "price_level": 1,
      "rating": 4.1,
      "reference": "ChIJgzJBurf1wokRyf12_udCwto",
      "scope": "GOOGLE",
      "types": [
        "furniture_store",
        "grocery_or_supermarket",
        "home_goods_store",
        "point_of_interest",
        "food",
        "store",
        "establishment"
      ],
      "user_ratings_total": 509,
      "vicinity": "612 Westchester Avenue, The Bronx"
    },
    {
      "business_status": "OPERATIONAL",
      "geometry": {
        "location": {
          "lat": 40.8126389,
          "lng": -73.9084585
        },
        "viewport": {
          "northeast": {
            "lat": 40.8139746302915,
            "lng": -73.90704516970848
          },
          "southwest": {
            "lat": 40.8112766697085,
            "lng": -73.9097431302915
          }
        }
      },
      "icon": "https://maps.gstatic.com/mapfiles/place_api/icons/v1/png_71/shopping-71.png",
      "icon_background_color": "#4B96F3",
      "icon_mask_base_uri": "https://maps.gstatic.com/mapfiles/place_api/icons/v2/shopping_pinlet",
      "name": "Automatic Heating Supply Corporation",
      "place_id": "ChIJ99X_w7n1wokR80WZYxzTLoU",
      "plus_code": {
        "compound_code": "R37R+3J New York, NY, USA",
        "global_code": "87G8R37R+3J"
      },
      "rating": 5,
      "reference": "ChIJ99X_w7n1wokR80WZYxzTLoU",
      "scope": "GOOGLE",
      "types": [
        "point_of_interest",
        "store",
        "establishment"
      ],
      "user_ratings_total": 5,
      "vicinity": "533 Concord Avenue, The Bronx"
    },
    {
      "business_status": "CLOSED_TEMPORARILY",
      "geometry": {
        "location": {
          "lat": 40.8160263,
          "lng": -73.905447
        },
        "viewport": {
          "northeast": {
            "lat": 40.8174201302915,
            "lng": -73.9039563697085
          },
          "southwest": {
            "lat": 40.8147221697085,
            "lng": -73.9066543302915
          }
        }
      },
      "icon": "https://maps.gstatic.com/mapfiles/place_api/icons/v1/png_71/museum-71.png",
      "icon_background_color": "#13B5C7",
      "icon_mask_base_uri": "https://maps.gstatic.com/mapfiles/place_api/icons/v2/museum_pinlet",
      "name": "NewYorkTlan2017",
      "permanently_closed": true,
      "place_id": "ChIJRcvyI7H1wokRXp8yq-qKCfY",
      "plus_code": {
        "compound_code": "R38V+CR The Bronx, NY, USA",
        "global_code": "87G8R38V+CR"
      },
      "reference": "ChIJRcvyI7H1wokRXp8yq-qKCfY",
      "scope": "GOOGLE",
      "types": [
        "museum",
        "point_of_interest",
        "establishment"
      ],
      "vicinity": "673 Tinton Avenue, The Bronx"
    },
    {
      "business_status": "CLOSED_TEMPORARILY",
      "geometry": {
        "location": {
          "lat": 40.8175883,
          "lng": -73.9062472
        },
        "viewport": {
          "northeast": {
            "lat": 40.8188811302915,
            "lng": -73.90484026970849
          },
          "southwest": {
            "lat": 40.8161831697085,
            "lng": -73.90753823029151
          }
        }
      },
      "icon": "https://maps.gstatic.com/mapfiles/place_api/icons/v1/png_71/generic_business-71.png",
      "icon_background_color": "#7B9EB0",
      "icon_mask_base_uri": "https://maps.gstatic.com/mapfiles/place_api/icons/v2/generic_pinlet",
      "name": "Drayton Associates Inc.",
      "permanently_closed": true,
      "place_id": "ChIJXyJETrH1wokRUIXF5oFCzuI",
      "plus_code": {
        "compound_code": "R39V+2G The Bronx, NY, USA",
        "global_code": "87G8R39V+2G"
      },
      "reference": "ChIJXyJETrH1wokRUIXF5oFCzuI",
      "scope": "GOOGLE",
      "types": [
        "accounting",
        "finance",
        "point_of_interest",
        "establishment"
      ],
      "vicinity": "723 Westchester Avenue, The Bronx"
    },
    {
      "business_status": "CLOSED_TEMPORARILY",
      "geometry": {
        "location": {
          "lat": 40.8189873,
          "lng": -73.9079261
        },
        "viewport": {
          "northeast": {
            "lat": 40.8203045802915,
            "lng": -73.9064449697085
          },
          "southwest": {
            "lat": 40.8176066197085,
            "lng": -73.90914293029151
          }
        }
      },
      "icon": "https://maps.gstatic.com/mapfiles/place_api/icons/v1/png_71/generic_business-71.png",
      "icon_background_color": "#7B9EB0",
      "icon_mask_base_uri": "https://maps.gstatic.com/mapfiles/place_api/icons/v2/generic_pinlet",
      "name": "THE GYPSY BARTENDER",
      "permanently_closed": true,
      "place_id": "ChIJBzNoGLT1wokRVQH8XCulN2U",
      "plus_code": {
        "compound_code": "R39R+HR New York, NY, USA",
        "global_code": "87G8R39R+HR"
      },
      "reference": "ChIJBzNoGLT1wokRVQH8XCulN2U",
      "scope": "GOOGLE",
      "types": [
        "point_of_interest",
        "establishment"
      ],
      "vicinity": "751 Trinity Avenue, The Bronx"
    },
    {
      "business_status": "OPERATIONAL",
      "geometry": {
        "location": {
          "lat": 40.8146476,
          "lng": -73.9057617
        },
        "viewport": {
          "northeast": {
            "lat": 40.8160155302915,
            "lng": -73.90434421970849
          },
          "southwest": {
            "lat": 40.8133175697085,
            "lng": -73.9070421802915
          }
        }
      },
      "icon": "https://maps.gstatic.com/mapfiles/place_api/icons/v1/png_71/generic_business-71.png",
      "icon_background_color": "#7B9EB0",
      "icon_mask_base_uri": "https://maps.gstatic.com/mapfiles/place_api/icons/v2/generic_pinlet",
      "name": "Around the corner laundromat",
      "opening_hours": {
        "open_now": true
      },
      "photos": [
        {
          "height": 2448,
          "html_attributions": [
            "<a href=\"https://maps.google.com/maps/contrib/109133741462505346179\">Around the corner laundromat</a>"
          ],
          "photo_reference": "AeJbb3fsz2i8JhXH32JUbZtPqT6kEpGZiMzkIX2zIxAO_HYtRKSvnHghbSHkNCli1ONm7_ADeV4834Ud4pKdpSrT-W48nEd6Xh3tnG_GZheD1FQxRCIsY2t6XejkCSNCv-0sUbsYFTiM9FKgd2mBMMHttjQmSUAxc9Nwicz6ucd6XfpXynDV",
          "width": 2448
        }
      ],
      "place_id": "ChIJ3ZukyLD1wokR9IlObhJhjY4",
      "plus_code": {
        "compound_code": "R37V+VM New York, NY, USA",
        "global_code": "87G8R37V+VM"
      },
      "rating": 4.3,
      "reference": "ChIJ3ZukyLD1wokR9IlObhJhjY4",
      "scope": "GOOGLE",
      "types": [
        "laundry",
        "point_of_interest",
        "establishment"
      ],
      "user_ratings_total": 32,
      "vicinity": "795 East 151st Street, The Bronx"
    },
    {
      "business_status": "OPERATIONAL",
      "geometry": {
        "location": {
          "lat": 40.8178457,
          "lng": -73.9059611
        },
        "viewport": {
          "northeast": {
            "lat": 40.8191083802915,
            "lng": -73.9045281697085
          },
          "southwest": {
            "lat": 40.8164104197085,
            "lng": -73.9072261302915
          }
        }
      },
      "icon": "https://maps.gstatic.com/mapfiles/place_api/icons/v1/png_71/shopping-71.png",
      "icon_background_color": "#4B96F3",
      "icon_mask_base_uri": "https://maps.gstatic.com/mapfiles/place_api/icons/v2/shoppingcart_pinlet",
      "name": "Golden Apple Tree Supermarket",
      "opening_hours": {
        "open_now": true
      },
      "photos": [
        {
          "height": 2988,
          "html_attributions": [
            "<a href=\"https://maps.google.com/maps/contrib/117121433192287401654\">Leo Martinez</a>"
          ],
          "photo_reference": "AeJbb3cKt61dsKQKTHelDqtBb-nSVejuvRZigPxTz3VXTxvuHNVoF2VZ0ZH48swrN5JG3YLaZeikYtKkaxAXW-mQxiclBNSDTwMtVxOsyyb7b-DH2j-ou0y8VPQKArJ7aCJrwSaybZ5wuRjHLR3BwH7hHtIDQP1oiERliho-K8kb9by6Hc_P",
          "width": 5312
        }
      ],
      "place_id": "ChIJfxnJULH1wokRowFsRUee3V0",
      "plus_code": {
        "compound_code": "R39V+4J The Bronx, NY, USA",
        "global_code": "87G8R39V+4J"
      },
      "rating": 3.7,
      "reference": "ChIJfxnJULH1wokRowFsRUee3V0",
      "scope": "GOOGLE",
      "types": [
        "supermarket",
        "grocery_or_supermarket",
        "point_of_interest",
        "food",
        "store",
        "establishment"
      ],
      "user_ratings_total": 122,
      "vicinity": "745 Westchester Avenue, The Bronx"
    },
    {
      "business_status": "OPERATIONAL",
      "geometry": {
        "location": {
          "lat": 40.8173278,
          "lng": -73.90484289999999
        },
        "viewport": {
          "northeast": {
            "lat": 40.8186820302915,
            "lng": -73.90359686970848
          },
          "southwest": {
            "lat": 40.8159840697085,
            "lng": -73.9062948302915
          }
        }
      },
      "icon": "https://maps.gstatic.com/mapfiles/place_api/icons/v1/png_71/generic_business-71.png",
      "icon_background_color": "#7B9EB0",
      "icon_mask_base_uri": "https://maps.gstatic.com/mapfiles/place_api/icons/v2/generic_pinlet",
      "name": "Abigail Playground",
      "opening_hours": {
        "open_now": true
      },
      "photos": [
        {
          "height": 1200,
          "html_attributions": [
            "<a href=\"https://maps.google.com/maps/contrib/114456078900233893149\">Abigail Playground</a>"
          ],
          "photo_reference": "AeJbb3dVDwyzXnaIhzr32Rk6WGOGilAMogWivb4pyx9Fshshowi_GHpMw11ar7HwYb2QfbV-pbK-Vn17rk-Sohez3tsqWAaCurYc4ARYS1dr7C3C1pninUUpq2CoZ2ux1G1I69y-bAQZqbDpFmO0E4c4WpOiRAHVP-GpvjLKd3fdElXOHWQ4",
          "width": 1798
        }
      ],
      "place_id": "ChIJWSqXZbH1wokRaw3IAQd1Jj8",
      "plus_code": {
        "compound_code": "R38W+W3 The Bronx, NY, USA",
        "global_code": "87G8R38W+W3"
      },
      "rating": 4,
      "reference": "ChIJWSqXZbH1wokRaw3IAQd1Jj8",
      "scope": "GOOGLE",
      "types": [
        "park",
        "point_of_interest",
        "establishment"
      ],
      "user_ratings_total": 63,
      "vicinity": "E 156 St bet. Tinton Av and Union Av Bronx, The Bronx"
    },
    {
      "business_status": "OPERATIONAL",
      "geometry": {
        "location": {
          "lat": 40.8132736,
          "lng": -73.9103856
        },
        "viewport": {
          "northeast": {
            "lat": 40.8147290802915,
            "lng": -73.90899841970851
          },
          "southwest": {
            "lat": 40.8120311197085,
            "lng": -73.91169638029152
          }
        }
      },
      "icon": "https://maps.gstatic.com/mapfiles/place_api/icons/v1/png_71/generic_business-71.png",
      "icon_background_color": "#7B9EB0",
      "icon_mask_base_uri": "https://maps.gstatic.com/mapfiles/place_api/icons/v2/generic_pinlet",
      "name": "Moore Houses",
      "place_id": "ChIJ8WDNJLj1wokRZQmCr8_cHPI",
      "plus_code": {
        "compound_code": "R37Q+8R New York, NY, USA",
        "global_code": "87G8R37Q+8R"
      },
      "rating": 4.5,
      "reference": "ChIJ8WDNJLj1wokRZQmCr8_cHPI",
      "scope": "GOOGLE",
      "types": [
        "point_of_interest",
        "establishment"
      ],
      "user_ratings_total": 4,
      "vicinity": "664 East 149th Street, The Bronx"
    },
    {
      "business_status": "OPERATIONAL",
      "geometry": {
        "location": {
          "lat": 40.81868399999999,
          "lng": -73.909526
        },
        "viewport": {
          "northeast": {
            "lat": 40.82015243029149,
            "lng": -73.90812746970849
          },
          "southwest": {
            "lat": 40.81745446970849,
            "lng": -73.91082543029151
          }
        }
      },
      "icon": "https://maps.gstatic.com/mapfiles/place_api/icons/v1/png_71/shopping-71.png",
      "icon_background_color": "#4B96F3",
      "icon_mask_base_uri": "https://maps.gstatic.com/mapfiles/place_api/icons/v2/shopping_pinlet",
      "name": "Gem Sound",
      "opening_hours": {
        "open_now": false
      },
      "place_id": "ChIJ3XMAgLb1wokRppuzVYe_F-g",
      "plus_code": {
        "compound_code": "R39R+F5 New York, NY, USA",
        "global_code": "87G8R39R+F5"
      },
      "reference": "ChIJ3XMAgLb1wokRppuzVYe_F-g",
      "scope": "GOOGLE",
      "types": [
        "electronics_store",
        "home_goods_store",
        "store",
        "point_of_interest",
        "establishment"
      ],
      "vicinity": "600 East 156th Street, The Bronx"
    },
    {
      "business_status": "CLOSED_TEMPORARILY",
      "geometry": {
        "location": {
          "lat": 40.81868399999999,
          "lng": -73.909526
        },
        "viewport": {
          "northeast": {
            "lat": 40.82015243029149,
            "lng": -73.90812746970849
          },
          "southwest": {
            "lat": 40.81745446970849,
            "lng": -73.91082543029151
          }
        }
      },
      "icon": "https://maps.gstatic.com/mapfiles/place_api/icons/v1/png_71/shopping-71.png",
      "icon_background_color": "#4B96F3",
      "icon_mask_base_uri": "https://maps.gstatic.com/mapfiles/place_api/icons/v2/shopping_pinlet",
      "name": "Duval, LLC",
      "permanently_closed": true,
      "place_id": "ChIJ3XMAgLb1wokR086RPkw5uDM",
      "plus_code": {
        "compound_code": "R39R+F5 The Bronx, NY, USA",
        "global_code": "87G8R39R+F5"
      },
      "reference": "ChIJ3XMAgLb1wokR086RPkw5uDM",
      "scope": "GOOGLE",
      "types": [
        "electronics_store",
        "home_goods_store",
        "store",
        "point_of_interest",
        "establishment"
      ],
      "vicinity": "600 East 156th Street, The Bronx"
    },
    {
      "business_status": "OPERATIONAL",
      "geometry": {
        "location": {
          "lat": 40.8131561,
          "lng": -73.90792630000001
        },
        "viewport": {
          "northeast": {
            "lat": 40.8144329302915,
            "lng": -73.90658616970849
          },
          "southwest": {
            "lat": 40.81173496970851,
            "lng": -73.9092841302915
          }
        }
      },
      "icon": "https://maps.gstatic.com/mapfiles/place_api/icons/v1/png_71/pharmacy-71.png",
      "icon_background_color": "#F88181",
      "icon_mask_base_uri": "https://maps.gstatic.com/mapfiles/place_api/icons/v2/pharmacy_pinlet",
      "name": "Saint Helena Pharmacy",
      "opening_hours": {
        "open_now": false
      },
      "photos": [
        {
          "height": 960,
          "html_attributions": [
            "<a href=\"https://maps.google.com/maps/contrib/108677216064736752738\">Saint Helena Pharmacy</a>"
          ],
          "photo_reference": "AeJbb3dwRJiUMCZB-vHUEZjFV9KuEwcdVGj1cWZD3M06xKmMcb1rfz6OzowTudoDBecPWj1dBWYZdhw1AuqjJlI1iqIj4mEPxwrjDPVlfpTaMHGuSHcrRiXae3mtSFmz_HDG6vYpHumAlNawXymSyisAthdbc9IR9CAyhxTnczrlhDdXaZZZ",
          "width": 1280
        }
      ],
      "place_id": "ChIJE-o857n1wokR6V32Qbk46mk",
      "plus_code": {
        "compound_code": "R37R+7R The Bronx, NY, USA",
        "global_code": "87G8R37R+7R"
      },
      "rating": 4.8,
      "reference": "ChIJE-o857n1wokR6V32Qbk46mk",
      "scope": "GOOGLE",
      "types": [
        "pharmacy",
        "store",
        "point_of_interest",
        "health",
        "establishment"
      ],
      "user_ratings_total": 17,
      "vicinity": "755B East 149th Street, The Bronx"
    },
    {
      "business_status": "OPERATIONAL",
      "geometry": {
        "location": {
          "lat": 40.8135597,
          "lng": -73.9061262
        },
        "viewport": {
          "northeast": {
            "lat": 40.8149197302915,
            "lng": -73.90472631970849
          },
          "southwest": {
            "lat": 40.8122217697085,
            "lng": -73.9074242802915
          }
        }
      },
      "icon": "https://maps.gstatic.com/mapfiles/place_api/icons/v1/png_71/shopping-71.png",
      "icon_background_color": "#4B96F3",
      "icon_mask_base_uri": "https://maps.gstatic.com/mapfiles/place_api/icons/v2/shopping_pinlet",
      "name": "POUKOU HALAL FOOD",
      "opening_hours": {
        "open_now": true
      },
      "photos": [
        {
          "height": 900,
          "html_attributions": [
            "<a href=\"https://maps.google.com/maps/contrib/110992125727381642634\">POUKOU HALAL FOOD</a>"
          ],
          "photo_reference": "AeJbb3cJJ4AigyGG7eFkq2t2ZW08fm2oabhByMVjqaboPRxfZEh5NKX_Rv96AjSODoiYIEVJxKLjxhp9TghpPx1lfmo3qe9HsAKPu3B3fU1iuQpHWiH9--zdDnDFmhIFR6YH5tMCmncqnYnNIYn1BSa_o7zJcLGay6DgkAr1qyX_jWJErMT2",
          "width": 900
        }
      ],
      "place_id": "ChIJG342qbD1wokR4CVGkItX9s4",
      "plus_code": {
        "compound_code": "R37V+CG New York, NY, USA",
        "global_code": "87G8R37V+CG"
      },
      "rating": 3.8,
      "reference": "ChIJG342qbD1wokR4CVGkItX9s4",
      "scope": "GOOGLE",
      "types": [
        "grocery_or_supermarket",
        "store",
        "food",
        "point_of_interest",
        "establishment"
      ],
      "user_ratings_total": 32,
      "vicinity": "585 Tinton Avenue, The Bronx"
    },
    {
      "business_status": "OPERATIONAL",
      "geometry": {
        "location": {
          "lat": 40.81631639999999,
          "lng": -73.91215729999999
        },
        "viewport": {
          "northeast": {
            "lat": 40.81760963029149,
            "lng": -73.91066836970849
          },
          "southwest": {
            "lat": 40.81491166970849,
            "lng": -73.91336633029151
          }
        }
      },
      "icon": "https://maps.gstatic.com/mapfiles/place_api/icons/v1/png_71/civic_building-71.png",
      "icon_background_color": "#7B9EB0",
      "icon_mask_base_uri": "https://maps.gstatic.com/mapfiles/place_api/icons/v2/civic-bldg_pinlet",
      "name": "United States Postal Service",
      "opening_hours": {
        "open_now": false
      },
      "photos": [
        {
          "height": 3024,
          "html_attributions": [
            "<a href=\"https://maps.google.com/maps/contrib/102370878302558942363\">Clarissa Williams</a>"
          ],
          "photo_reference": "AeJbb3dM4_WmmEKy7q7aldLQXlLKOqRNsX_iT9PkDujgtxFz8rt2y1YBkP8vh_zIcSFQDktF3saTY46yn1riEtQbYerwhpTNiT2Zs7YMCLTpyo_0lbsRhb8dNfM_8Ol_xYpxCh_5fZfyiFzgbvVJtRTmQqoMAEkYjPwi-zz2hwvLB3zHsIqc",
          "width": 4032
        }
      ],
      "place_id": "ChIJ5XMw0rf1wokRxz9vZyVMO0g",
      "plus_code": {
        "compound_code": "R38Q+G4 New York, NY, USA",
        "global_code": "87G8R38Q+G4"
      },
      "rating": 1.6,
      "reference": "ChIJ5XMw0rf1wokRxz9vZyVMO0g",
      "scope": "GOOGLE",
      "types": [
        "post_office",
        "finance",
        "point_of_interest",
        "establishment"
      ],
      "user_ratings_total": 219,
      "vicinity": "633 Saint Ann's Avenue, The Bronx"
    },
    {
      "business_status": "OPERATIONAL",
      "geometry": {
        "location": {
          "lat": 40.81480429999999,
          "lng": -73.9120081
        },
        "viewport": {
          "northeast": {
            "lat": 40.81603568029149,
            "lng": -73.91103346970849
          },
          "southwest": {
            "lat": 40.8133377197085,
            "lng": -73.91373143029149
          }
        }
      },
      "icon": "https://maps.gstatic.com/mapfiles/place_api/icons/v1/png_71/generic_business-71.png",
      "icon_background_color": "#7B9EB0",
      "icon_mask_base_uri": "https://maps.gstatic.com/mapfiles/place_api/icons/v2/generic_pinlet",
      "name": "Young Athletes Inc",
      "place_id": "ChIJDStguMX1wokRrobfBJ0ZXnk",
      "plus_code": {
        "compound_code": "R37Q+W5 The Bronx, NY, USA",
        "global_code": "87G8R37Q+W5"
      },
      "rating": 4,
      "reference": "ChIJDStguMX1wokRrobfBJ0ZXnk",
      "scope": "GOOGLE",
      "types": [
        "point_of_interest",
        "establishment"
      ],
      "user_ratings_total": 1,
      "vicinity": "600 Saint Ann's Avenue, The Bronx"
    },
    {
      "business_status": "OPERATIONAL",
      "geometry": {
        "location": {
          "lat": 40.815314,
          "lng": -73.9040823
        },
        "viewport": {
          "northeast": {
            "lat": 40.8166057802915,
            "lng": -73.90276301970849
          },
          "southwest": {
            "lat": 40.8139078197085,
            "lng": -73.90546098029151
          }
        }
      },
      "icon": "https://maps.gstatic.com/mapfiles/place_api/icons/v1/png_71/shopping-71.png",
      "icon_background_color": "#4B96F3",
      "icon_mask_base_uri": "https://maps.gstatic.com/mapfiles/place_api/icons/v2/shoppingcart_pinlet",
      "name": "Romero Fruit Market",
      "opening_hours": {
        "open_now": true
      },
      "photos": [
        {
          "height": 3024,
          "html_attributions": [
            "<a href=\"https://maps.google.com/maps/contrib/110517198841133686074\">Romero Fruit Market</a>"
          ],
          "photo_reference": "AeJbb3fUpgcqchs-ae1AKDDVvQkYb2r0zNC3uzXxtfjsnH0ypJAyZ-3Absve4dlQHE-MG6Et9kk4Jgje_Glh29vRLM8_CAS0CVD7T8ZzziC_xwvVxpy6dVyTF3PksTWdjAVW5pWDNJksKoJNkPZ6HFxYbnsRgxm2w5VxyC12FNenPCN7goTX",
          "width": 4032
        }
      ],
      "place_id": "ChIJFWfK_bD1wokRX1ydZKcsPjg",
      "plus_code": {
        "compound_code": "R38W+49 New York, NY, USA",
        "global_code": "87G8R38W+49"
      },
      "rating": 4.3,
      "reference": "ChIJFWfK_bD1wokRX1ydZKcsPjg",
      "scope": "GOOGLE",
      "types": [
        "supermarket",
        "grocery_or_supermarket",
        "store",
        "food",
        "point_of_interest",
        "establishment"
      ],
      "user_ratings_total": 23,
      "vicinity": "835 East 152nd Street # 4, The Bronx"
    },
    {
      "business_status": "OPERATIONAL",
      "geometry": {
        "location": {
          "lat": 40.81279019999999,
          "lng": -73.90780269999999
        },
        "viewport": {
          "northeast": {
            "lat": 40.8142272302915,
            "lng": -73.90643461970849
          },
          "southwest": {
            "lat": 40.8115292697085,
            "lng": -73.9091325802915
          }
        }
      },
      "icon": "https://maps.gstatic.com/mapfiles/place_api/icons/v1/png_71/shopping-71.png",
      "icon_background_color": "#4B96F3",
      "icon_mask_base_uri": "https://maps.gstatic.com/mapfiles/place_api/icons/v2/shopping_pinlet",
      "name": "Sneaker Bar",
      "opening_hours": {
        "open_now": true
      },
      "photos": [
        {
          "height": 1000,
          "html_attributions": [
            "<a href=\"https://maps.google.com/maps/contrib/108775293659915013636\">Sneaker Bar</a>"
          ],
          "photo_reference": "AeJbb3dT29PfjSfrds4ecqN5UkR-O-PumO3cDo7_xPoohfrcDppmL4FudKQS_-UlHAZna_MalWezpKFbPROZaq7ZsOSjmCZ80_ZKwEZVGZsL_oGoWwTGGngg2LJVnvbKSPt4Hxhlcj0V31qVBsJasakvJsVhKK4y2WjJnSfJfazmiZla7WZC",
          "width": 1500
        }
      ],
      "place_id": "ChIJg3F0x8j1wokRczDDq0VsINc",
      "plus_code": {
        "compound_code": "R37R+4V The Bronx, NY, USA",
        "global_code": "87G8R37R+4V"
      },
      "rating": 3.9,
      "reference": "ChIJg3F0x8j1wokRczDDq0VsINc",
      "scope": "GOOGLE",
      "types": [
        "shoe_store",
        "clothing_store",
        "store",
        "point_of_interest",
        "establishment"
      ],
      "user_ratings_total": 113,
      "vicinity": "762 East 149th Street, The Bronx"
    },
    {
      "business_status": "OPERATIONAL",
      "geometry": {
        "location": {
          "lat": 40.8129088,
          "lng": -73.9085345
        },
        "viewport": {
          "northeast": {
            "lat": 40.8143573302915,
            "lng": -73.9071506697085
          },
          "southwest": {
            "lat": 40.8116593697085,
            "lng": -73.9098486302915
          }
        }
      },
      "icon": "https://maps.gstatic.com/mapfiles/place_api/icons/v1/png_71/generic_business-71.png",
      "icon_background_color": "#7B9EB0",
      "icon_mask_base_uri": "https://maps.gstatic.com/mapfiles/place_api/icons/v2/generic_pinlet",
      "name": "Iglesia Cordero de Sion",
      "opening_hours": {
        "open_now": false
      },
      "photos": [
        {
          "height": 960,
          "html_attributions": [
            "<a href=\"https://maps.google.com/maps/contrib/114473908744656761109\">Edwin Velazquez</a>"
          ],
          "photo_reference": "AeJbb3cQ1i2ekETAzum-Gxazqc3NtVU5Ke84qX6zqP9NYQfcc0GKikoE4po8FuYsGrxH4rRjQbsalu7BsX3z7aVV_no56LD-tYQg_dlnzpYO4oEiWzjvikmS58VZpYjEP48cH5_N10JJrigcE_7YGp7Otx0Z27BIOhDhmblNhdX5Xq0JBQBV",
          "width": 528
        }
      ],
      "place_id": "ChIJD7jrxLn1wokRixqVxewkVGU",
      "plus_code": {
        "compound_code": "R37R+5H The Bronx, NY, USA",
        "global_code": "87G8R37R+5H"
      },
      "rating": 5,
      "reference": "ChIJD7jrxLn1wokRixqVxewkVGU",
      "scope": "GOOGLE",
      "types": [
        "place_of_worship",
        "point_of_interest",
        "establishment"
      ],
      "user_ratings_total": 3,
      "vicinity": "734 East 149th Street, The Bronx"
    },
    {
      "business_status": "OPERATIONAL",
      "geometry": {
        "location": {
          "lat": 40.8166755,
          "lng": -73.90366139999999
        },
        "viewport": {
          "northeast": {
            "lat": 40.8180414802915,
            "lng": -73.9024289197085
          },
          "southwest": {
            "lat": 40.8153435197085,
            "lng": -73.9051268802915
          }
        }
      },
      "icon": "https://maps.gstatic.com/mapfiles/place_api/icons/v1/png_71/generic_business-71.png",
      "icon_background_color": "#7B9EB0",
      "icon_mask_base_uri": "https://maps.gstatic.com/mapfiles/place_api/icons/v2/generic_pinlet",
      "name": "Geel Community Services Inc",
      "photos": [
        {
          "height": 3264,
          "html_attributions": [
            "<a href=\"https://maps.google.com/maps/contrib/114666309291349661431\">naty</a>"
          ],
          "photo_reference": "AeJbb3dQe2ZwM_bWjQZ6Hx4PbHnWePsA-G8ke01tTrkqJPjNE9nFkx4aJGRol3alFuh6hR3nGqK2In-wZHD55E76jkaA9jZnbrMoLF-bfsAVcIkt5qbBvnS63qEDl5C5tHAyzy47d0XvAkFdIje7JIPXlSlTubVDqHMdjmryLn0Q4qPTrL1B",
          "width": 2448
        }
      ],
      "place_id": "ChIJx8MwdbH1wokRA4R7tJ5P3xk",
      "plus_code": {
        "compound_code": "R38W+MG New York, NY, USA",
        "global_code": "87G8R38W+MG"
      },
      "reference": "ChIJx8MwdbH1wokRA4R7tJ5P3xk",
      "scope": "GOOGLE",
      "types": [
        "point_of_interest",
        "health",
        "establishment"
      ],
      "vicinity": "706 Union Avenue, The Bronx"
    },
    {
      "business_status": "OPERATIONAL",
      "geometry": {
        "location": {
          "lat": 40.819006,
          "lng": -73.90563639999999
        },
        "viewport": {
          "northeast": {
            "lat": 40.8203684302915,
            "lng": -73.90440336970849
          },
          "southwest": {
            "lat": 40.8176704697085,
            "lng": -73.9071013302915
          }
        }
      },
      "icon": "https://maps.gstatic.com/mapfiles/place_api/icons/v1/png_71/school-71.png",
      "icon_background_color": "#7B9EB0",
      "icon_mask_base_uri": "https://maps.gstatic.com/mapfiles/place_api/icons/v2/school_pinlet",
      "name": "Forest Avenue Campus",
      "place_id": "ChIJ7blv7rP1wokRWHfeRMXPrNI",
      "plus_code": {
        "compound_code": "R39V+JP New York, NY, USA",
        "global_code": "87G8R39V+JP"
      },
      "reference": "ChIJ7blv7rP1wokRWHfeRMXPrNI",
      "scope": "GOOGLE",
      "types": [
        "school",
        "point_of_interest",
        "establishment"
      ],
      "vicinity": "778 Forest Avenue, The Bronx"
    },
    {
      "business_status": "OPERATIONAL",
      "geometry": {
        "location": {
          "lat": 40.81452650000001,
          "lng": -73.9123068
        },
        "viewport": {
          "northeast": {
            "lat": 40.8159491802915,
            "lng": -73.9110917197085
          },
          "southwest": {
            "lat": 40.8132512197085,
            "lng": -73.9137896802915
          }
        }
      },
      "icon": "https://maps.gstatic.com/mapfiles/place_api/icons/v1/png_71/school-71.png",
      "icon_background_color": "#7B9EB0",
      "icon_mask_base_uri": "https://maps.gstatic.com/mapfiles/place_api/icons/v2/school_pinlet",
      "name": "I.S. 584",
      "photos": [
        {
          "height": 3024,
          "html_attributions": [
            "<a href=\"https://maps.google.com/maps/contrib/104094676749070747146\">Iaroslav R</a>"
          ],
          "photo_reference": "AeJbb3fltlJNPv2st09CGKnBLLGKjXMV-2CGlswTOxX_7xPrwfh9Anu8u-rTgWNXnw_ovv-c5foeHSbsCUqdMilY3HkNh4MjO6BxVe1KmeGvUal6K3CZUifNnoIvZp4ujVueGX9oGK9ddjGVCxXabOJ_KUhhtpdeZQUlMrNrza75kq9TQtnQ",
          "width": 4032
        }
      ],
      "place_id": "ChIJrWLJ_bf1wokRx9cHGn2_VQw",
      "plus_code": {
        "compound_code": "R37Q+R3 New York, NY, USA",
        "global_code": "87G8R37Q+R3"
      },
      "rating": 4.5,
      "reference": "ChIJrWLJ_bf1wokRx9cHGn2_VQw",
      "scope": "GOOGLE",
      "types": [
        "school",
        "point_of_interest",
        "establishment"
      ],
      "user_ratings_total": 17,
      "vicinity": "600 Saint Ann's Avenue, The Bronx"
    },
    {
      "business_status": "OPERATIONAL",
      "geometry": {
        "location": {
          "lat": 40.81262199999999,
          "lng": -73.9091033
        },
        "viewport": {
          "northeast": {
            "lat": 40.8139745302915,
            "lng": -73.9078544697085
          },
          "southwest": {
            "lat": 40.8112765697085,
            "lng": -73.9105524302915
          }
        }
      },
      "icon": "https://maps.gstatic.com/mapfiles/place_api/icons/v1/png_71/shopping-71.png",
      "icon_background_color": "#4B96F3",
      "icon_mask_base_uri": "https://maps.gstatic.com/mapfiles/place_api/icons/v2/shopping_pinlet",
      "name": "Dollar General",
      "opening_hours": {
        "open_now": true
      },
      "photos": [
        {
          "height": 1080,
          "html_attributions": [
            "<a href=\"https://maps.google.com/maps/contrib/114817409941962652458\">Xzavier Woodson</a>"
          ],
          "photo_reference": "AeJbb3e4EoPI_k065nVwtHzwKXyj9i1IPnSW7W-shk4VRBI5AgEPCy4mQygBDwEeni2soUzFMYY6KXV_I7aQ9xtvj1aFqZQVCLy7DQ0SinIiGfokrlSHpzD4YduCCStnO_ciEusajKdjpoIZ4FG6EqpX4GwAqV0zRth4hSxHLv5ABe8NIXbK",
          "width": 1920
        }
      ],
      "place_id": "ChIJCwmyybn1wokR3awp-uE99qw",
      "plus_code": {
        "compound_code": "R37R+29 New York, NY, USA",
        "global_code": "87G8R37R+29"
      },
      "price_level": 1,
      "rating": 3.9,
      "reference": "ChIJCwmyybn1wokR3awp-uE99qw",
      "scope": "GOOGLE",
      "types": [
        "convenience_store",
        "drugstore",
        "home_goods_store",
        "store",
        "food",
        "point_of_interest",
        "health",
        "establishment"
      ],
      "user_ratings_total": 503,
      "vicinity": "528 Jackson Avenue, The Bronx"
    },
    {
      "business_status": "OPERATIONAL",
      "geometry": {
        "location": {
          "lat": 40.8146303,
          "lng": -73.90727729999999
        },
        "viewport": {
          "northeast": {
            "lat": 40.8159453302915,
            "lng": -73.90577011970849
          },
          "southwest": {
            "lat": 40.8132473697085,
            "lng": -73.90846808029151
          }
        }
      },
      "icon": "https://maps.gstatic.com/mapfiles/place_api/icons/v1/png_71/generic_business-71.png",
      "icon_background_color": "#7B9EB0",
      "icon_mask_base_uri": "https://maps.gstatic.com/mapfiles/place_api/icons/v2/generic_pinlet",
      "name": "Sangary Marketing service",
      "place_id": "ChIJBy4zSLf1wokR9Skg4Y_2kWY",
      "plus_code": {
        "compound_code": "R37V+V3 New York, NY, USA",
        "global_code": "87G8R37V+V3"
      },
      "reference": "ChIJBy4zSLf1wokR9Skg4Y_2kWY",
      "scope": "GOOGLE",
      "types": [
        "point_of_interest",
        "doctor",
        "health",
        "establishment"
      ],
      "vicinity": "754 East 151st Street, The Bronx"
    },
    {
      "business_status": "OPERATIONAL",
      "geometry": {
        "location": {
          "lat": 40.81558,
          "lng": -73.9030665
        },
        "viewport": {
          "northeast": {
            "lat": 40.8167699802915,
            "lng": -73.90179216970849
          },
          "southwest": {
            "lat": 40.8140720197085,
            "lng": -73.9044901302915
          }
        }
      },
      "icon": "https://maps.gstatic.com/mapfiles/place_api/icons/v1/png_71/generic_business-71.png",
      "icon_background_color": "#7B9EB0",
      "icon_mask_base_uri": "https://maps.gstatic.com/mapfiles/place_api/icons/v2/generic_pinlet",
      "name": "4DaOthers",
      "opening_hours": {
        "open_now": true
      },
      "photos": [
        {
          "height": 560,
          "html_attributions": [
            "<a href=\"https://maps.google.com/maps/contrib/115963737749118932092\">4DaOthers</a>"
          ],
          "photo_reference": "AeJbb3f4ScwFGUL5zXXrgJd1SM6oUPP8PacbphEdRObaKKAbFngrd2ruOjRNO_PIkS6vg27UbD45ARsX6zAK-4tKWHOocG4tEnMGDCa6clEaT50MWKIUJl5ucTIW_aXk7hXJ3u22rI5dfBWJIubSz-4JjTWXagRI2u2CjcUu2obY9L8yF93X",
          "width": 592
        }
      ],
      "place_id": "ChIJM5O9u7H1wokRw9ebTxbf3Wc",
      "plus_code": {
        "compound_code": "R38W+6Q New York, NY, USA",
        "global_code": "87G8R38W+6Q"
      },
      "reference": "ChIJM5O9u7H1wokRw9ebTxbf3Wc",
      "scope": "GOOGLE",
      "types": [
        "moving_company",
        "point_of_interest",
        "establishment"
      ],
      "vicinity": "905 Avenue Saint John, The Bronx"
    },
    {
      "business_status": "OPERATIONAL",
      "geometry": {
        "location": {
          "lat": 40.81574380000001,
          "lng": -73.90300959999999
        },
        "viewport": {
          "northeast": {
            "lat": 40.81685183029149,
            "lng": -73.9017613197085
          },
          "southwest": {
            "lat": 40.8141538697085,
            "lng": -73.9044592802915
          }
        }
      },
      "icon": "https://maps.gstatic.com/mapfiles/place_api/icons/v1/png_71/shopping-71.png",
      "icon_background_color": "#4B96F3",
      "icon_mask_base_uri": "https://maps.gstatic.com/mapfiles/place_api/icons/v2/shopping_pinlet",
      "name": "Botanica y Flores Las Aromas",
      "opening_hours": {
        "open_now": true
      },
      "place_id": "ChIJ7WVKrrH1wokR_QLK6dQrlSQ",
      "plus_code": {
        "compound_code": "R38W+7Q New York, NY, USA",
        "global_code": "87G8R38W+7Q"
      },
      "rating": 4.7,
      "reference": "ChIJ7WVKrrH1wokR_QLK6dQrlSQ",
      "scope": "GOOGLE",
      "types": [
        "store",
        "point_of_interest",
        "establishment"
      ],
      "user_ratings_total": 27,
      "vicinity": "660 Prospect Avenue, The Bronx"
    },
    {
      "business_status": "OPERATIONAL",
      "geometry": {
        "location": {
          "lat": 40.8199991,
          "lng": -73.9089767
        },
        "viewport": {
          "northeast": {
            "lat": 40.82148413029149,
            "lng": -73.90757041970849
          },
          "southwest": {
            "lat": 40.8187861697085,
            "lng": -73.91026838029151
          }
        }
      },
      "icon": "https://maps.gstatic.com/mapfiles/place_api/icons/v1/png_71/generic_business-71.png",
      "icon_background_color": "#7B9EB0",
      "icon_mask_base_uri": "https://maps.gstatic.com/mapfiles/place_api/icons/v2/generic_pinlet",
      "name": "Grove Hill Playground",
      "opening_hours": {
        "open_now": true
      },
      "photos": [
        {
          "height": 3024,
          "html_attributions": [
            "<a href=\"https://maps.google.com/maps/contrib/103249646112598020474\">Liduo Luo</a>"
          ],
          "photo_reference": "AeJbb3dkNBbm5cxNdbpUcxVIvYg6nL4Cwa0dGqARpLe7CCMcDWyeQvCjjSUPiQZmzUTBK6jmmFOp0KkgNzSna6ujVbd1DlHNRUrOkMIKFiDl7QyxYLb05QX5ayAuKBd0UNS2MjuosohbvANfBhWwLyuI7ruyZroDppwe0mlpKKddJvjeAfxs",
          "width": 4032
        }
      ],
      "place_id": "ChIJPTNzSLT1wokRrVhaZC3VD74",
      "plus_code": {
        "compound_code": "R39R+XC The Bronx, NY, USA",
        "global_code": "87G8R39R+XC"
      },
      "rating": 4,
      "reference": "ChIJPTNzSLT1wokRrVhaZC3VD74",
      "scope": "GOOGLE",
      "types": [
        "point_of_interest",
        "establishment"
      ],
      "user_ratings_total": 61,
      "vicinity": "615 East 158th Street, The Bronx"
    },
    {
      "business_status": "OPERATIONAL",
      "geometry": {
        "location": {
          "lat": 40.814599,
          "lng": -73.907141
        },
        "viewport": {
          "northeast": {
            "lat": 40.8159296802915,
            "lng": -73.9057019697085
          },
          "southwest": {
            "lat": 40.8132317197085,
            "lng": -73.90839993029151
          }
        }
      },
      "icon": "https://maps.gstatic.com/mapfiles/place_api/icons/v1/png_71/generic_business-71.png",
      "icon_background_color": "#7B9EB0",
      "icon_mask_base_uri": "https://maps.gstatic.com/mapfiles/place_api/icons/v2/generic_pinlet",
      "name": "Pauline N. Nwoke, LPN",
      "place_id": "ChIJBy4zSLf1wokRlBYnBsq0cNw",
      "plus_code": {
        "compound_code": "R37V+R4 New York, NY, USA",
        "global_code": "87G8R37V+R4"
      },
      "reference": "ChIJBy4zSLf1wokRlBYnBsq0cNw",
      "scope": "GOOGLE",
      "types": [
        "point_of_interest",
        "health",
        "establishment"
      ],
      "vicinity": "754 East 151st Street, The Bronx"
    }
  ],
  "status": "OK"
}