{
  "html_attributions": [],
  "results": [
    {
      "geometry": {
        "location": {
          "lat": 40.7127753,
          "lng": -74.0059728
        },
        "viewport": {
          "northeast": {
            "lat": 40.91757705070789,
            "lng": -73.70027206817629
          },
          "southwest": {
            "lat": 40.47739906045452,
            "lng": -74.25908991427882
          }
        }
      },
      "icon": "https://maps.gstatic.com/mapfiles/place_api/icons/v1/png_71/geocode-71.png",
      "icon_background_color": "#7B9EB0",
      "icon_mask_base_uri": "https://maps.gstatic.com/mapfiles/place_api/icons/v2/generic_pinlet",
      "name": "\u7d10\u7d04",
      "photos": [
        {
          "height": 600,
          "html_attributions": [
            "<a href=\"https://maps.google.com/maps/contrib/102389334567210814614\">Bukurie</a>"
          ],
          "photo_reference": "AeJbb3fFSYSAMIASyuRA1QNLP1TRweUKg4BL1a9XMi5s0FAZeyBP9jP5OsaY5xBYX2iC7z-2kMxLbSfrtxk5PW2KqFSRs2EC-uDlZyc7QlRHfRkpayc9Ypb8UoIWLuIIgiGb2is7dXf64ncyK8yGrQstWecuQ6Z74F3zaBJ_QHs9JankElSY",
          "width": 480
        }
      ],
      "place_id": "ChIJOwg_06VPwokRYv534QaPC8g",
      "reference": "ChIJOwg_06VPwokRYv534QaPC8g",
      "scope": "GOOGLE",
      "types": [
        "locality",
        "political"
      ],
      "vicinity": "\u7d10\u7d04"
    },
    {
      "business_status": "OPERATIONAL",
      "geometry": {
        "location": {
          "lat": 40.75673159999999,
          "lng": -73.9542239
        },
        "viewport": {
          "northeast": {
            "lat": 40.7655457,
            "lng": -73.92904775
          },
          "southwest": {
            "lat": 40.74613409999998,
            "lng": -73.97526115000001
          }
        }
      },
      "icon": "https://maps.gstatic.com/mapfiles/place_api/icons/v1/png_71/generic_business-71.png",
      "icon_background_color": "#7B9EB0",
      "icon_mask_base_uri": "https://maps.gstatic.com/mapfiles/place_api/icons/v2/generic_pinlet",
      "name": "Ed Koch Queensboro Bridge",
      "photos": [
        {
          "height": 3024,
          "html_attributions": [
            "<a href=\"https://maps.google.com/maps/contrib/107731709853468051586\">George Silva</a>"
          ],
          "photo_reference": "AeJbb3c9Wmfb8XBUev-THSjSdgvEnJFsybBXyyhT0XK9VkomKMg6Zw7hs5MV4gfPBo8csg2kDJ4uYB56ji3U_fMhGw1xk4nat_fFiVZjaXZfPiBjJd9bX994MlUhxIlmJHfHn0RrEQfnC2CGVuAAcyWBZvLncVfExigqPCtMknIwgRjvJK75",
          "width": 4032
        }
      ],
      "place_id": "ChIJRfm6EdxYwokRYAfRiLa0LJo",
      "plus_code": {
        "compound_code": "Q24W+M8 \u7f8e\u570b\u7d10\u7d04",
        "global_code": "87G8Q24W+M8"
      },
      "rating": 4.5,
      "reference": "ChIJRfm6EdxYwokRYAfRiLa0LJo",
      "scope": "GOOGLE",
      "types": [
        "tourist_attraction",
        "point_of_interest",
        "establishment"
      ],
      "user_ratings_total": 4119,
      "vicinity": "Ed Koch Queensboro Bridge, New York"
    },
    {
      "business_status": "OPERATIONAL",
      "geometry": {
        "location": {
          "lat": 40.7601539,
          "lng": -73.95798460000002
        },
        "viewport": {
          "northeast": {
            "lat": 40.76159578029149,
            "lng": -73.95655986970851
          },
          "southwest": {
            "lat": 40.7588978197085,
            "lng": -73.95925783029153
          }
        }
      },
      "icon": "https://maps.gstatic.com/mapfiles/place_api/icons/v1/png_71/generic_business-71.png",
      "icon_background_color": "#7B9EB0",
      "icon_mask_base_uri": "https://maps.gstatic.com/mapfiles/place_api/icons/v2/generic_pinlet",
      "name": "The Schwarzman Animal Medical Center",
      "opening_hours": {
        "open_now": true
      },
      "photos": [
        {
          "height": 804,
          "html_attributions": [
            "<a href=\"https://maps.google.com/maps/contrib/100183464056903516362\">The Schwarzman Animal Medical Center</a>"
          ],
          "photo_reference": "AeJbb3fRxVhcFHpHQLy2z66h6KkDuPm7q4J7OFGuOmPgvX646a2Q9S_ZoMGYPbwe0bpd72CBv_iz2adrbEFwu5XUn8r6CZAhVdk7Yg1rZoJ8ixX_iI5Gfqu9B3yJ_i9_ey1wJcUehjW7u4-M1UjmmAy72TMIirI9nBDefRH4bIt50T8LaHk",
          "width": 1431
        }
      ],
      "place_id": "ChIJ5fEka91YwokRpgnqfcTsB48",
      "plus_code": {
        "compound_code": "Q26R+3R \u7f8e\u570b\u7d10\u7d04",
        "global_code": "87G8Q26R+3R"
      },
      "rating": 3.1,
      "reference": "ChIJ5fEka91YwokRpgnqfcTsB48",
      "scope": "GOOGLE",
      "types": [
        "veterinary_care",
        "health",
        "point_of_interest",
        "establishment"
      ],
      "user_ratings_total": 552,
      "vicinity": "510 East 62nd Street, New York"
    },
    {
      "business_status": "OPERATIONAL",
      "geometry": {
        "location": {
          "lat": 40.7591359,
          "lng": -73.9524416
        },
        "viewport": {
          "northeast": {
            "lat": 40.7605315302915,
            "lng": -73.9508335697085
          },
          "southwest": {
            "lat": 40.7578335697085,
            "lng": -73.9535315302915
          }
        }
      },
      "icon": "https://maps.gstatic.com/mapfiles/place_api/icons/v1/png_71/generic_business-71.png",
      "icon_background_color": "#7B9EB0",
      "icon_mask_base_uri": "https://maps.gstatic.com/mapfiles/place_api/icons/v2/generic_pinlet",
      "name": "Prestige Garment Care and House Cleaning",
      "opening_hours": {
        "open_now": false
      },
      "photos": [
        {
          "height": 2988,
          "html_attributions": [
            "<a href=\"https://maps.google.com/maps/contrib/103919171254325030888\">Prestige Garment Care and House Cleaning</a>"
          ],
          "photo_reference": "AeJbb3csQHGaWx1aDqQS2iaWWUSF9pIJtuc0vRRkNTKwbh9mu3N7D9gV-Urk4RunZY5iuQGtnY0bP227Nu25PhqDtzRT8-tnzkM2dYbWYxU5tsMR85kpoJz5NP9rm1Kl4ezylONgzEYYEk78prx2aCYVdmbg3BA6q8xtpzalAeyPIlFAjxWE",
          "width": 5312
        }
      ],
      "place_id": "ChIJH9FjFdtYwokR-7PZhQaDSbs",
      "plus_code": {
        "compound_code": "Q25X+M2 \u7f8e\u570b\u7d10\u7d04",
        "global_code": "87G8Q25X+M2"
      },
      "rating": 2.3,
      "reference": "ChIJH9FjFdtYwokR-7PZhQaDSbs",
      "scope": "GOOGLE",
      "types": [
        "laundry",
        "point_of_interest",
        "establishment"
      ],
      "user_ratings_total": 10,
      "vicinity": "455 Main Street, New York"
    },
    {
      "business_status": "OPERATIONAL",
      "geometry": {
        "location": {
          "lat": 40.7576425,
          "lng": -73.9528997
        },
        "viewport": {
          "northeast": {
            "lat": 40.7591510802915,
            "lng": -73.95172431970849
          },
          "southwest": {
            "lat": 40.7564531197085,
            "lng": -73.95442228029151
          }
        }
      },
      "icon": "https://maps.gstatic.com/mapfiles/place_api/icons/v1/png_71/generic_business-71.png",
      "icon_background_color": "#7B9EB0",
      "icon_mask_base_uri": "https://maps.gstatic.com/mapfiles/place_api/icons/v2/generic_pinlet",
      "name": "Firefighters Field",
      "opening_hours": {
        "open_now": true
      },
      "photos": [
        {
          "height": 3024,
          "html_attributions": [
            "<a href=\"https://maps.google.com/maps/contrib/110158959089242171559\">Dave Fields</a>"
          ],
          "photo_reference": "AeJbb3fU4hP06_DqSjIlNrHnIHHGsj-cBylxuO15VGje-C8kCoqy-IfPgTTRCXQkvSplmX0sgOzB8DDfVMdPPI2s0UuEHukyg4-J4aBt_L5Ryd2slsHUWdzdt1RyOqcRJG2s4VUD3rVl7V9vi2wsQrPbZe5G6i7AnbPY3znt8dQf_UkHeTk4",
          "width": 4032
        }
      ],
      "place_id": "ChIJX5BdhdtYwokRmOBPLspuOa0",
      "plus_code": {
        "compound_code": "Q25W+3R \u7f8e\u570b\u7d10\u7d04",
        "global_code": "87G8Q25W+3R"
      },
      "rating": 4.4,
      "reference": "ChIJX5BdhdtYwokRmOBPLspuOa0",
      "scope": "GOOGLE",
      "types": [
        "stadium",
        "point_of_interest",
        "establishment"
      ],
      "user_ratings_total": 137,
      "vicinity": "405-425 Main Street, New York"
    },
    {
      "business_status": "OPERATIONAL",
      "geometry": {
        "location": {
          "lat": 40.7566667,
          "lng": -73.9486111
        },
        "viewport": {
          "northeast": {
            "lat": 40.75827019999998,
            "lng": -73.9454184
          },
          "southwest": {
            "lat": 40.75376540000001,
            "lng": -73.94996920000001
          }
        }
      },
      "icon": "https://maps.gstatic.com/mapfiles/place_api/icons/v1/png_71/park-71.png",
      "icon_background_color": "#4DB546",
      "icon_mask_base_uri": "https://maps.gstatic.com/mapfiles/place_api/icons/v2/tree_pinlet",
      "name": "\u7687\u540e\u6a4b\u516c\u5712",
      "opening_hours": {
        "open_now": true
      },
      "photos": [
        {
          "height": 1600,
          "html_attributions": [
            "<a href=\"https://maps.google.com/maps/contrib/112694143132405012651\">Queensbridge Park</a>"
          ],
          "photo_reference": "AeJbb3fF2JjkNgsXJts26Y7q2k4MguliA_ukP08C4U3JCp3IkqYfgvIiEQmZsTCfV9DY6A_wJIQZeunQi9QPr-93hVaVNQVyj4t54PeaIzRlHYg0efSgZuwJpv-GgsUlEiaskJ-_1WAwnssQZKhRoADvipWF3uT8TrI3KWryyg3c0TLcYP6z",
          "width": 2400
        }
      ],
      "place_id": "ChIJOzs_bdpYwokRptRUx_jDQMs",
      "plus_code": {
        "compound_code": "Q342+MH \u7f8e\u570b\u7d10\u7d04\u9577\u5cf6\u5e02",
        "global_code": "87G8Q342+MH"
      },
      "rating": 4.5,
      "reference": "ChIJOzs_bdpYwokRptRUx_jDQMs",
      "scope": "GOOGLE",
      "types": [
        "park",
        "point_of_interest",
        "establishment"
      ],
      "user_ratings_total": 1531,
      "vicinity": "Vernon Boulevard, Long Island City"
    },
    {
      "business_status": "OPERATIONAL",
      "geometry": {
        "location": {
          "lat": 40.7569529,
          "lng": -73.9551843
        },
        "viewport": {
          "northeast": {
            "lat": 40.7583537302915,
            "lng": -73.95394576970848
          },
          "southwest": {
            "lat": 40.7556557697085,
            "lng": -73.9566437302915
          }
        }
      },
      "icon": "https://maps.gstatic.com/mapfiles/place_api/icons/v1/png_71/generic_business-71.png",
      "icon_background_color": "#7B9EB0",
      "icon_mask_base_uri": "https://maps.gstatic.com/mapfiles/place_api/icons/v2/generic_pinlet",
      "name": "Roosevelt Island Racquet Club",
      "opening_hours": {
        "open_now": true
      },
      "photos": [
        {
          "height": 4032,
          "html_attributions": [
            "<a href=\"https://maps.google.com/maps/contrib/111088100979267089950\">Michael Sautner</a>"
          ],
          "photo_reference": "AeJbb3ejNQt35U6TFLDSeGM6UA2oCK-fMAJ-m04YfAV_SWEXI0mohlTQ98rQ8OfzEpQ7CzQlvp9xVNkbOstHH5cCpM0kp8RfbDGfDMUXC-u3du2PdvYq1g3DS89SiLDP8JzpqGPEq5ZX6KsSVZj570odexAz6CBQ4va938ZJKNPdGWGSVJIb",
          "width": 3024
        }
      ],
      "place_id": "ChIJT4XSpd5YwokR29r5feIuc8E",
      "plus_code": {
        "compound_code": "Q24V+QW \u7f8e\u570b\u7d10\u7d04",
        "global_code": "87G8Q24V+QW"
      },
      "rating": 4.1,
      "reference": "ChIJT4XSpd5YwokR29r5feIuc8E",
      "scope": "GOOGLE",
      "types": [
        "school",
        "health",
        "point_of_interest",
        "establishment"
      ],
      "user_ratings_total": 40,
      "vicinity": "281 West Main Street, New York"
    },
    {
      "business_status": "OPERATIONAL",
      "geometry": {
        "location": {
          "lat": 40.75787,
          "lng": -73.95378400000001
        },
        "viewport": {
          "northeast": {
            "lat": 40.75914603029149,
            "lng": -73.95233736970852
          },
          "southwest": {
            "lat": 40.7564480697085,
            "lng": -73.95503533029152
          }
        }
      },
      "icon": "https://maps.gstatic.com/mapfiles/place_api/icons/v1/png_71/generic_business-71.png",
      "icon_background_color": "#7B9EB0",
      "icon_mask_base_uri": "https://maps.gstatic.com/mapfiles/place_api/icons/v2/generic_pinlet",
      "name": "Riverwalk Crossing Luxury Apartments",
      "opening_hours": {
        "open_now": true
      },
      "photos": [
        {
          "height": 458,
          "html_attributions": [
            "<a href=\"https://maps.google.com/maps/contrib/100626820996663981899\">Riverwalk Crossing Luxury Apartments</a>"
          ],
          "photo_reference": "AeJbb3d_oqSHg0Td78qQME4NTi-GZmJSMtKuf7ZUwoCbLpaO7HQ8QsnQ-g00LhBH7j5AYgEsIHQcqaILO_9OK63VBE25_qYwQMUKNKE94eW538UikHre2H8GBDWOZF34eNdpbamDXjd0Ph5S3xXsB5FifyT2ptEwxyXfKa8fyahwBxZW3i6W",
          "width": 565
        }
      ],
      "place_id": "ChIJfWNBgdtYwokR_17Bll6_o6w",
      "plus_code": {
        "compound_code": "Q25W+4F \u7f8e\u570b\u7d10\u7d04",
        "global_code": "87G8Q25W+4F"
      },
      "rating": 3.9,
      "reference": "ChIJfWNBgdtYwokR_17Bll6_o6w",
      "scope": "GOOGLE",
      "types": [
        "real_estate_agency",
        "point_of_interest",
        "establishment"
      ],
      "user_ratings_total": 20,
      "vicinity": "405 Main Street, New York"
    },
    {
      "business_status": "OPERATIONAL",
      "geometry": {
        "location": {
          "lat": 40.7592235,
          "lng": -73.9526052
        },
        "viewport": {
          "northeast": {
            "lat": 40.7604655802915,
            "lng": -73.95099591970849
          },
          "southwest": {
            "lat": 40.7577676197085,
            "lng": -73.9536938802915
          }
        }
      },
      "icon": "https://maps.gstatic.com/mapfiles/place_api/icons/v1/png_71/generic_business-71.png",
      "icon_background_color": "#7B9EB0",
      "icon_mask_base_uri": "https://maps.gstatic.com/mapfiles/place_api/icons/v2/generic_pinlet",
      "name": "Galal Amany L MD",
      "place_id": "ChIJ0etOQNtYwokRXz3cQ1leZOU",
      "plus_code": {
        "compound_code": "Q25W+MX \u7f8e\u570b\u7d10\u7d04",
        "global_code": "87G8Q25W+MX"
      },
      "reference": "ChIJ0etOQNtYwokRXz3cQ1leZOU",
      "scope": "GOOGLE",
      "types": [
        "doctor",
        "health",
        "point_of_interest",
        "establishment"
      ],
      "vicinity": "455 East Main Street # 1A, New York"
    },
    {
      "business_status": "OPERATIONAL",
      "geometry": {
        "location": {
          "lat": 40.7592235,
          "lng": -73.9526052
        },
        "viewport": {
          "northeast": {
            "lat": 40.7604655802915,
            "lng": -73.95099591970849
          },
          "southwest": {
            "lat": 40.7577676197085,
            "lng": -73.9536938802915
          }
        }
      },
      "icon": "https://maps.gstatic.com/mapfiles/place_api/icons/v1/png_71/generic_business-71.png",
      "icon_background_color": "#7B9EB0",
      "icon_mask_base_uri": "https://maps.gstatic.com/mapfiles/place_api/icons/v2/generic_pinlet",
      "name": "Baez Andres a MD",
      "place_id": "ChIJ0etOQNtYwokRm0i6nbOjVYU",
      "plus_code": {
        "compound_code": "Q25W+MX \u7f8e\u570b\u7d10\u7d04",
        "global_code": "87G8Q25W+MX"
      },
      "reference": "ChIJ0etOQNtYwokRm0i6nbOjVYU",
      "scope": "GOOGLE",
      "types": [
        "doctor",
        "health",
        "point_of_interest",
        "establishment"
      ],
      "vicinity": "455 East Main Street # 1A, New York"
    },
    {
      "business_status": "OPERATIONAL",
      "geometry": {
        "location": {
          "lat": 40.7592235,
          "lng": -73.9526052
        },
        "viewport": {
          "northeast": {
            "lat": 40.76056268029149,
            "lng": -73.9509198697085
          },
          "southwest": {
            "lat": 40.75786471970849,
            "lng": -73.9536178302915
          }
        }
      },
      "icon": "https://maps.gstatic.com/mapfiles/place_api/icons/v1/png_71/generic_business-71.png",
      "icon_background_color": "#7B9EB0",
      "icon_mask_base_uri": "https://maps.gstatic.com/mapfiles/place_api/icons/v2/generic_pinlet",
      "name": "Nobis Dariusz-Tyt MD",
      "place_id": "ChIJ0etOQNtYwokRVC2kdjxXf80",
      "plus_code": {
        "compound_code": "Q25W+MX \u7f8e\u570b\u7d10\u7d04",
        "global_code": "87G8Q25W+MX"
      },
      "reference": "ChIJ0etOQNtYwokRVC2kdjxXf80",
      "scope": "GOOGLE",
      "types": [
        "doctor",
        "health",
        "point_of_interest",
        "establishment"
      ],
      "vicinity": "455 Main Street #10, New York"
    },
    {
      "business_status": "OPERATIONAL",
      "geometry": {
        "location": {
          "lat": 40.7599683,
          "lng": -73.9517872
        },
        "viewport": {
          "northeast": {
            "lat": 40.7611116302915,
            "lng": -73.95034176970849
          },
          "southwest": {
            "lat": 40.7584136697085,
            "lng": -73.9530397302915
          }
        }
      },
      "icon": "https://maps.gstatic.com/mapfiles/place_api/icons/v1/png_71/school-71.png",
      "icon_background_color": "#7B9EB0",
      "icon_mask_base_uri": "https://maps.gstatic.com/mapfiles/place_api/icons/v2/school_pinlet",
      "name": "Bright Horizons",
      "opening_hours": {
        "open_now": false
      },
      "place_id": "ChIJGey_PttYwokRDpSpRbcjHz4",
      "plus_code": {
        "compound_code": "Q25X+X7 \u7f8e\u570b\u7d10\u7d04",
        "global_code": "87G8Q25X+X7"
      },
      "rating": 5,
      "reference": "ChIJGey_PttYwokRDpSpRbcjHz4",
      "scope": "GOOGLE",
      "types": [
        "point_of_interest",
        "establishment"
      ],
      "user_ratings_total": 3,
      "vicinity": "475, 475 Main Street, New York"
    },
    {
      "business_status": "OPERATIONAL",
      "geometry": {
        "location": {
          "lat": 40.7579278,
          "lng": -73.9539489
        },
        "viewport": {
          "northeast": {
            "lat": 40.75917083029151,
            "lng": -73.95242716970849
          },
          "southwest": {
            "lat": 40.75647286970851,
            "lng": -73.9551251302915
          }
        }
      },
      "icon": "https://maps.gstatic.com/mapfiles/place_api/icons/v1/png_71/generic_business-71.png",
      "icon_background_color": "#7B9EB0",
      "icon_mask_base_uri": "https://maps.gstatic.com/mapfiles/place_api/icons/v2/generic_pinlet",
      "name": "Imminent Discovery Enterprise, Inc. (IDE)",
      "place_id": "ChIJPRNOQNxYwokRlfPyvGj_8WM",
      "plus_code": {
        "compound_code": "Q25W+5C \u7f8e\u570b\u7d10\u7d04",
        "global_code": "87G8Q25W+5C"
      },
      "reference": "ChIJPRNOQNxYwokRlfPyvGj_8WM",
      "scope": "GOOGLE",
      "types": [
        "point_of_interest",
        "establishment"
      ],
      "vicinity": "405 Main Street, New York"
    },
    {
      "business_status": "OPERATIONAL",
      "geometry": {
        "location": {
          "lat": 40.7612373,
          "lng": -73.95593989999999
        },
        "viewport": {
          "northeast": {
            "lat": 40.7626314302915,
            "lng": -73.9548075197085
          },
          "southwest": {
            "lat": 40.7599334697085,
            "lng": -73.9575054802915
          }
        }
      },
      "icon": "https://maps.gstatic.com/mapfiles/place_api/icons/v1/png_71/hospital-71.png",
      "icon_background_color": "#F88181",
      "icon_mask_base_uri": "https://maps.gstatic.com/mapfiles/place_api/icons/v2/hospital-H_pinlet",
      "name": "Rockefeller University Hospital",
      "opening_hours": {
        "open_now": true
      },
      "photos": [
        {
          "height": 3024,
          "html_attributions": [
            "<a href=\"https://maps.google.com/maps/contrib/114043461360594875238\">Jus Toya</a>"
          ],
          "photo_reference": "AeJbb3fQi1uyXoOx8S15yktbeLMsmeLGSUqEDEeGqUoBKEFcrKxa2J9HzSFkfccFpiavZ0DkEFTsorCpIlTD5xDYYNsD7e_u32FydnxVCRULijOba_2-7vWwOUAcYR5-7-ZYLO0CeYhDQ1fKdyhzwF8tVJI5Z58BWRXhjeIcfh3sOpK7pG3V",
          "width": 4032
        }
      ],
      "place_id": "ChIJjSuAGsNYwokRTlcM_Bhd-00",
      "plus_code": {
        "compound_code": "Q26V+FJ \u7f8e\u570b\u7d10\u7d04",
        "global_code": "87G8Q26V+FJ"
      },
      "rating": 3,
      "reference": "ChIJjSuAGsNYwokRTlcM_Bhd-00",
      "scope": "GOOGLE",
      "types": [
        "hospital",
        "health",
        "point_of_interest",
        "establishment"
      ],
      "user_ratings_total": 6,
      "vicinity": "1230 York Avenue, New York"
    },
    {
      "business_status": "OPERATIONAL",
      "geometry": {
        "location": {
          "lat": 40.7577831,
          "lng": -73.9540056
        },
        "viewport": {
          "northeast": {
            "lat": 40.75909933029151,
            "lng": -73.95245396970849
          },
          "southwest": {
            "lat": 40.75640136970851,
            "lng": -73.95515193029149
          }
        }
      },
      "icon": "https://maps.gstatic.com/mapfiles/place_api/icons/v1/png_71/generic_business-71.png",
      "icon_background_color": "#7B9EB0",
      "icon_mask_base_uri": "https://maps.gstatic.com/mapfiles/place_api/icons/v2/generic_pinlet",
      "name": "Your NYC Marriage Officiant",
      "opening_hours": {
        "open_now": true
      },
      "photos": [
        {
          "height": 661,
          "html_attributions": [
            "<a href=\"https://maps.google.com/maps/contrib/111920748296251000752\">Your NYC Marriage Officiant</a>"
          ],
          "photo_reference": "AeJbb3dzW0qM7wDyLniT798P-19lqBcel2cApYoSCosLlIORtK2DN14KksDcgVOAFs_Xc4PwV8GavaAOGjeuZoR_7OSF-YiolJ6HvgLwb2H2dz8j4--hwFVebdTAvuF8LsfrQN7CA8N1fo3D9XrEbPE7DyUwQElGII9tvqPvV7thuKd6i0AI",
          "width": 1000
        }
      ],
      "place_id": "ChIJsTUBetxYwokR84zO6wbscT4",
      "plus_code": {
        "compound_code": "Q25W+49 \u7f8e\u570b\u7d10\u7d04",
        "global_code": "87G8Q25W+49"
      },
      "reference": "ChIJsTUBetxYwokR84zO6wbscT4",
      "scope": "GOOGLE",
      "types": [
        "point_of_interest",
        "establishment"
      ],
      "vicinity": "405 Main Street, New York"
    },
    {
      "business_status": "OPERATIONAL",
      "geometry": {
        "location": {
          "lat": 40.757894,
          "lng": -73.95382
        },
        "viewport": {
          "northeast": {
            "lat": 40.75919513029149,
            "lng": -73.95231706970849
          },
          "southwest": {
            "lat": 40.7564971697085,
            "lng": -73.9550150302915
          }
        }
      },
      "icon": "https://maps.gstatic.com/mapfiles/place_api/icons/v1/png_71/generic_business-71.png",
      "icon_background_color": "#13B5C7",
      "icon_mask_base_uri": "https://maps.gstatic.com/mapfiles/place_api/icons/v2/generic_pinlet",
      "name": "Dimo Kim Musical Theatre Factory",
      "opening_hours": {
        "open_now": true
      },
      "photos": [
        {
          "height": 1368,
          "html_attributions": [
            "<a href=\"https://maps.google.com/maps/contrib/116148250886681825549\">Dimo Kim Musical Theatre Factory</a>"
          ],
          "photo_reference": "AeJbb3fb2tPy3efB7uM4DugTCYu7ogkExYh9r__Rq0QUY3I3C_H5Lgq7lgfhDee-oiVFywJEjpKWJBl3AqSCJyiFMiE7CYb35l_dR0XwSlWppypXdwS0Qni7z380jsiUF5LttEerGWhHlRP0MaxfqGgXPFQ3EaK_nNfYkuSnbnMK5BnpCM3M",
          "width": 2048
        }
      ],
      "place_id": "ChIJuVKiA2T2wokRi5_MblyxuF4",
      "plus_code": {
        "compound_code": "Q25W+5F \u7f8e\u570b\u7d10\u7d04",
        "global_code": "87G8Q25W+5F"
      },
      "rating": 5,
      "reference": "ChIJuVKiA2T2wokRi5_MblyxuF4",
      "scope": "GOOGLE",
      "types": [
        "point_of_interest",
        "establishment"
      ],
      "user_ratings_total": 1,
      "vicinity": "405 Main Street, New York"
    },
    {
      "business_status": "OPERATIONAL",
      "geometry": {
        "location": {
          "lat": 40.7579278,
          "lng": -73.9539489
        },
        "viewport": {
          "northeast": {
            "lat": 40.7591735802915,
            "lng": -73.9528015697085
          },
          "southwest": {
            "lat": 40.7564756197085,
            "lng": -73.9554995302915
          }
        }
      },
      "icon": "https://maps.gstatic.com/mapfiles/place_api/icons/v1/png_71/school-71.png",
      "icon_background_color": "#7B9EB0",
      "icon_mask_base_uri": "https://maps.gstatic.com/mapfiles/place_api/icons/v2/school_pinlet",
      "name": "Roosevelt Island Day Nursery (Riverwalk)",
      "opening_hours": {
        "open_now": false
      },
      "photos": [
        {
          "height": 4000,
          "html_attributions": [
            "<a href=\"https://maps.google.com/maps/contrib/110794544223973421505\">Greg Dumas</a>"
          ],
          "photo_reference": "AeJbb3dKCsirbQSudBoosWXqmrPHpeHDp3dAVPsg5Of9pWxVUDnWLfd9fqDshOP3laRX-vNbMz_rYuPkRkXvT-ACDIkqDUfhgly36xDR8Y5E6NS2yUUsGK0kLgme6q5yzglPrMxRf7x9iZc1s2pMuXUaU7vLn3X9cz2ZlfnTgsMipKBCu-Nd",
          "width": 6000
        }
      ],
      "place_id": "ChIJ53F3uEBYwokRpNiwbkO5tDY",
      "plus_code": {
        "compound_code": "Q25W+5C \u7f8e\u570b\u7d10\u7d04",
        "global_code": "87G8Q25W+5C"
      },
      "reference": "ChIJ53F3uEBYwokRpNiwbkO5tDY",
      "scope": "GOOGLE",
      "types": [
        "school",
        "point_of_interest",
        "establishment"
      ],
      "vicinity": "405 Main Street, New York"
    },
    {
      "business_status": "OPERATIONAL",
      "geometry": {
        "location": {
          "lat": 40.7579278,
          "lng": -73.9539489
        },
        "viewport": {
          "northeast": {
            "lat": 40.75929063029149,
            "lng": -73.9523658697085
          },
          "southwest": {
            "lat": 40.75659266970849,
            "lng": -73.95506383029151
          }
        }
      },
      "icon": "https://maps.gstatic.com/mapfiles/place_api/icons/v1/png_71/generic_business-71.png",
      "icon_background_color": "#7B9EB0",
      "icon_mask_base_uri": "https://maps.gstatic.com/mapfiles/place_api/icons/v2/generic_pinlet",
      "name": "Waleup LLC",
      "place_id": "ChIJN4JYPdtYwokR4fHg3rJp1FI",
      "plus_code": {
        "compound_code": "Q25W+5C \u7f8e\u570b\u7d10\u7d04",
        "global_code": "87G8Q25W+5C"
      },
      "reference": "ChIJN4JYPdtYwokR4fHg3rJp1FI",
      "scope": "GOOGLE",
      "types": [
        "point_of_interest",
        "establishment"
      ],
      "vicinity": "405 Main Street, New York"
    },
    {
      "business_status": "OPERATIONAL",
      "geometry": {
        "location": {
          "lat": 40.7580875,
          "lng": -73.9534797
        },
        "viewport": {
          "northeast": {
            "lat": 40.7594921302915,
            "lng": -73.9520492697085
          },
          "southwest": {
            "lat": 40.7567941697085,
            "lng": -73.9547472302915
          }
        }
      },
      "icon": "https://maps.gstatic.com/mapfiles/place_api/icons/v1/png_71/generic_business-71.png",
      "icon_background_color": "#7B9EB0",
      "icon_mask_base_uri": "https://maps.gstatic.com/mapfiles/place_api/icons/v2/generic_pinlet",
      "name": "Louey Rubino Design Group Inc",
      "place_id": "ChIJ61n96DlawokRyaREhct83Es",
      "plus_code": {
        "compound_code": "Q25W+6J \u7f8e\u570b\u7d10\u7d04",
        "global_code": "87G8Q25W+6J"
      },
      "reference": "ChIJ61n96DlawokRyaREhct83Es",
      "scope": "GOOGLE",
      "types": [
        "point_of_interest",
        "establishment"
      ],
      "vicinity": "2525 Main Street, New York"
    },
    {
      "geometry": {
        "location": {
          "lat": 40.7830603,
          "lng": -73.9712488
        },
        "viewport": {
          "northeast": {
            "lat": 40.820045,
            "lng": -73.90331300000001
          },
          "southwest": {
            "lat": 40.698078,
            "lng": -74.03514899999999
          }
        }
      },
      "icon": "https://maps.gstatic.com/mapfiles/place_api/icons/v1/png_71/geocode-71.png",
      "icon_background_color": "#7B9EB0",
      "icon_mask_base_uri": "https://maps.gstatic.com/mapfiles/place_api/icons/v2/generic_pinlet",
      "name": "\u66fc\u54c8\u9813",
      "photos": [
        {
          "height": 1199,
          "html_attributions": [
            "<a href=\"https://maps.google.com/maps/contrib/108803842220307386999\">Debeli Atleti\u010dar</a>"
          ],
          "photo_reference": "AeJbb3dRBFNqek3NmQmyI90_OU9DUJyhGz3eNfvjyFi30nGWVgF-GwhJMOkVlCaqqZYCobyTBE6Ezjue-zbZQ9i4jsORbCOLc13ggTr2URNZkzqel1G3TfrWyBUUlCPMsk_g_1cNet2V9KOXt3BmlevyAvaU-HwQV6fFl8su_-XrU0EImACa",
          "width": 1800
        }
      ],
      "place_id": "ChIJYeZuBI9YwokRjMDs_IEyCwo",
      "reference": "ChIJYeZuBI9YwokRjMDs_IEyCwo",
      "scope": "GOOGLE",
      "types": [
        "sublocality_level_1",
        "sublocality",
        "political"
      ],
      "vicinity": "\u66fc\u54c8\u9813"
    },
    {
      "business_status": "OPERATIONAL",
      "geometry": {
        "location": {
          "lat": 40.75762769999999,
          "lng": -73.95470689999999
        },
        "viewport": {
          "northeast": {
            "lat": 40.75900863029149,
            "lng": -73.95323341970851
          },
          "southwest": {
            "lat": 40.7563106697085,
            "lng": -73.95593138029152
          }
        }
      },
      "icon": "https://maps.gstatic.com/mapfiles/place_api/icons/v1/png_71/generic_business-71.png",
      "icon_background_color": "#7B9EB0",
      "icon_mask_base_uri": "https://maps.gstatic.com/mapfiles/place_api/icons/v2/generic_pinlet",
      "name": "Roosevelt Island Visitor Center Kiosk",
      "opening_hours": {
        "open_now": true
      },
      "photos": [
        {
          "height": 3024,
          "html_attributions": [
            "<a href=\"https://maps.google.com/maps/contrib/103435149635943814129\">Ben Straw</a>"
          ],
          "photo_reference": "AeJbb3eD_qb05-K6Gx8ixUn3Q8BKU1_LMi_thO3-tvM_bD7E00QuEqshnhmm2hbQo6PsAgDFjoRRmZ46BfhXBD3w64gJ2P8CwF-A56tCcuoFEG08YNOJvvPrk78UVFJbzUt2oxS0ViBjTOxTPKbhK7mo-Vfm7XdRsyyKwL7DEnbdDsfgzmAM",
          "width": 4032
        }
      ],
      "place_id": "ChIJ7w6xbtxYwokRAetOS4eeh8Y",
      "plus_code": {
        "compound_code": "Q25W+34 New York, NY, USA",
        "global_code": "87G8Q25W+34"
      },
      "rating": 4.6,
      "reference": "ChIJ7w6xbtxYwokRAetOS4eeh8Y",
      "scope": "GOOGLE",
      "types": [
        "travel_agency",
        "point_of_interest",
        "establishment"
      ],
      "user_ratings_total": 41,
      "vicinity": "New York"
    },
    {
      "business_status": "OPERATIONAL",
      "geometry": {
        "location": {
          "lat": 40.7582005,
          "lng": -73.9535705
        },
        "viewport": {
          "northeast": {
            "lat": 40.7595136802915,
            "lng": -73.9520946697085
          },
          "southwest": {
            "lat": 40.7568157197085,
            "lng": -73.95479263029151
          }
        }
      },
      "icon": "https://maps.gstatic.com/mapfiles/place_api/icons/v1/png_71/generic_business-71.png",
      "icon_background_color": "#7B9EB0",
      "icon_mask_base_uri": "https://maps.gstatic.com/mapfiles/place_api/icons/v2/generic_pinlet",
      "name": "Related Management",
      "photos": [
        {
          "height": 3669,
          "html_attributions": [
            "<a href=\"https://maps.google.com/maps/contrib/116522566196014882453\">Rade Spasovski</a>"
          ],
          "photo_reference": "AeJbb3fE0t_akoILCnVwumITFo8bTnH7XAPeJIbh1U-WJIzdtW-Kh-heNrT3KwU_73rRmku7lmIlb5HkZY8qW4fFKcXA79MqM1CviJmAuXXR2WsIquK0dxinoSe5PSESI9TcnuhTLojlWWIGmxMwuH6HgLX_7sbuL_nA8HrOw-S0K95Qy4f0",
          "width": 2751
        }
      ],
      "place_id": "ChIJl8dDgdtYwokRW1UmgbHvXJQ",
      "plus_code": {
        "compound_code": "Q25W+7H New York, NY, USA",
        "global_code": "87G8Q25W+7H"
      },
      "rating": 3,
      "reference": "ChIJl8dDgdtYwokRW1UmgbHvXJQ",
      "scope": "GOOGLE",
      "types": [
        "point_of_interest",
        "establishment"
      ],
      "user_ratings_total": 2,
      "vicinity": "415 Main Street, New York"
    },
    {
      "business_status": "CLOSED_TEMPORARILY",
      "geometry": {
        "location": {
          "lat": 40.7582539,
          "lng": -73.95360409999999
        },
        "viewport": {
          "northeast": {
            "lat": 40.7595403802915,
            "lng": -73.9521114697085
          },
          "southwest": {
            "lat": 40.75684241970851,
            "lng": -73.9548094302915
          }
        }
      },
      "icon": "https://maps.gstatic.com/mapfiles/place_api/icons/v1/png_71/generic_business-71.png",
      "icon_background_color": "#7B9EB0",
      "icon_mask_base_uri": "https://maps.gstatic.com/mapfiles/place_api/icons/v2/generic_pinlet",
      "name": "Welkin Group, Inc.",
      "permanently_closed": true,
      "place_id": "ChIJqSkLgNtYwokRFYWLxT9ldaA",
      "plus_code": {
        "compound_code": "Q25W+8H New York, NY, USA",
        "global_code": "87G8Q25W+8H"
      },
      "reference": "ChIJqSkLgNtYwokRFYWLxT9ldaA",
      "scope": "GOOGLE",
      "types": [
        "point_of_interest",
        "establishment"
      ],
      "vicinity": "415 East Main Street # Ph1-B, New York"
    },
    {
      "business_status": "OPERATIONAL",
      "geometry": {
        "location": {
          "lat": 40.7572856,
          "lng": -73.9550411
        },
        "viewport": {
          "northeast": {
            "lat": 40.7585804302915,
            "lng": -73.95373276970848
          },
          "southwest": {
            "lat": 40.7558824697085,
            "lng": -73.9564307302915
          }
        }
      },
      "icon": "https://maps.gstatic.com/mapfiles/place_api/icons/v1/png_71/generic_business-71.png",
      "icon_background_color": "#7B9EB0",
      "icon_mask_base_uri": "https://maps.gstatic.com/mapfiles/place_api/icons/v2/generic_pinlet",
      "name": "Weight Down",
      "place_id": "ChIJVVVVFdxYwokRQFCTUboGkRs",
      "plus_code": {
        "compound_code": "Q24V+WX New York, NY, USA",
        "global_code": "87G8Q24V+WX"
      },
      "reference": "ChIJVVVVFdxYwokRQFCTUboGkRs",
      "scope": "GOOGLE",
      "types": [
        "health",
        "point_of_interest",
        "establishment"
      ],
      "vicinity": "New York"
    },
    {
      "business_status": "OPERATIONAL",
      "geometry": {
        "location": {
          "lat": 40.75851900000001,
          "lng": -73.952974
        },
        "viewport": {
          "northeast": {
            "lat": 40.7597246802915,
            "lng": -73.9515759197085
          },
          "southwest": {
            "lat": 40.7570267197085,
            "lng": -73.95427388029151
          }
        }
      },
      "icon": "https://maps.gstatic.com/mapfiles/place_api/icons/v1/png_71/generic_business-71.png",
      "icon_background_color": "#7B9EB0",
      "icon_mask_base_uri": "https://maps.gstatic.com/mapfiles/place_api/icons/v2/generic_pinlet",
      "name": "Shakespeare Pronunciation",
      "opening_hours": {
        "open_now": false
      },
      "photos": [
        {
          "height": 1024,
          "html_attributions": [
            "<a href=\"https://maps.google.com/maps/contrib/115750198105734355389\">Shakespeare Pronunciation</a>"
          ],
          "photo_reference": "AeJbb3fbjLunujttqTGexBlxZkG9QuQ649TlHAfeEW_SRmEjiIgHjsbQY9FfRW_AQ6O-yNP94PCLMWvaC3GX6jXyt1TxAA9syNdidUtVmnb1wt9qFPRYtQtpRJmqziYWRYT5caf_RsWJO4vMGItrabbwhhQv9yrsBQ5X8ELwqJHD8VBycvb8",
          "width": 577
        }
      ],
      "place_id": "ChIJ_SqNedtYwokRIfIosTWtzKY",
      "plus_code": {
        "compound_code": "Q25W+CR New York, NY, USA",
        "global_code": "87G8Q25W+CR"
      },
      "rating": 1,
      "reference": "ChIJ_SqNedtYwokRIfIosTWtzKY",
      "scope": "GOOGLE",
      "types": [
        "point_of_interest",
        "establishment"
      ],
      "user_ratings_total": 1,
      "vicinity": "425 Main Street, New York"
    },
    {
      "business_status": "OPERATIONAL",
      "geometry": {
        "location": {
          "lat": 40.7563375,
          "lng": -73.9549076
        },
        "viewport": {
          "northeast": {
            "lat": 40.7579062302915,
            "lng": -73.95398231970849
          },
          "southwest": {
            "lat": 40.7552082697085,
            "lng": -73.95668028029151
          }
        }
      },
      "icon": "https://maps.gstatic.com/mapfiles/place_api/icons/v1/png_71/civic_building-71.png",
      "icon_background_color": "#7B9EB0",
      "icon_mask_base_uri": "https://maps.gstatic.com/mapfiles/place_api/icons/v2/civic-bldg_pinlet",
      "name": "Roosevelt Island Operating Corporation",
      "photos": [
        {
          "height": 3456,
          "html_attributions": [
            "<a href=\"https://maps.google.com/maps/contrib/108231744331102421813\">Ariel gonzalez rosario</a>"
          ],
          "photo_reference": "AeJbb3fZrUZ7hV_ytGes6e0Khj-QH-1-dVPfaaU3RpMtbIp4f43DcLPSaXh0aYGB7GUIK5sIii4U3p9dvcjipVagneFLaLWkYFviLWr4bqlXyxxTFFgVv4R4FzrKGLPRp_co2bjWhs3XF8dkLsZxcuj0Dti81PeHotolC6l3RBOQu3Vp4n_d",
          "width": 4608
        }
      ],
      "place_id": "ChIJ0xcqH9xYwokRsd4czDdj5JM",
      "plus_code": {
        "compound_code": "Q24W+G2 New York, NY, USA",
        "global_code": "87G8Q24W+G2"
      },
      "rating": 5,
      "reference": "ChIJ0xcqH9xYwokRsd4czDdj5JM",
      "scope": "GOOGLE",
      "types": [
        "local_government_office",
        "point_of_interest",
        "establishment"
      ],
      "user_ratings_total": 1,
      "vicinity": "250 Main Street, New York"
    },
    {
      "business_status": "OPERATIONAL",
      "geometry": {
        "location": {
          "lat": 40.75866119999999,
          "lng": -73.9530882
        },
        "viewport": {
          "northeast": {
            "lat": 40.7598598302915,
            "lng": -73.95153181970848
          },
          "southwest": {
            "lat": 40.7571618697085,
            "lng": -73.9542297802915
          }
        }
      },
      "icon": "https://maps.gstatic.com/mapfiles/place_api/icons/v1/png_71/generic_business-71.png",
      "icon_background_color": "#7B9EB0",
      "icon_mask_base_uri": "https://maps.gstatic.com/mapfiles/place_api/icons/v2/generic_pinlet",
      "name": "Law Offices of Paul A Lange",
      "place_id": "ChIJzUb63RdawokRUUvhgJzigx8",
      "plus_code": {
        "compound_code": "Q25W+FQ New York, NY, USA",
        "global_code": "87G8Q25W+FQ"
      },
      "reference": "ChIJzUb63RdawokRUUvhgJzigx8",
      "scope": "GOOGLE",
      "types": [
        "lawyer",
        "point_of_interest",
        "establishment"
      ],
      "vicinity": "2296 Main, New York"
    },
    {
      "business_status": "OPERATIONAL",
      "geometry": {
        "location": {
          "lat": 40.7586628,
          "lng": -73.9530929
        },
        "viewport": {
          "northeast": {
            "lat": 40.7597975302915,
            "lng": -73.95163426970849
          },
          "southwest": {
            "lat": 40.7570995697085,
            "lng": -73.95433223029151
          }
        }
      },
      "icon": "https://maps.gstatic.com/mapfiles/place_api/icons/v1/png_71/pharmacy-71.png",
      "icon_background_color": "#F88181",
      "icon_mask_base_uri": "https://maps.gstatic.com/mapfiles/place_api/icons/v2/pharmacy_pinlet",
      "name": "Duane Reade Pharmacy",
      "opening_hours": {
        "open_now": true
      },
      "photos": [
        {
          "height": 4032,
          "html_attributions": [
            "<a href=\"https://maps.google.com/maps/contrib/100261532920038207691\">Ken Chester Jr</a>"
          ],
          "photo_reference": "AeJbb3eG8o8HIgiwsXoKr7J1nWY86SW9HWr4TFSy0Y4MaVCxDLaiApuv8i2isMe30dg5pD-vWaqHz5JYifu3NxiDVrrYLLc_ar_AnmtPUMRgah1zpl-tfa2h7z8ZG2dmz6x7gpPooAOo-tXTkGhilkST9fRCbGMSIlFQsYpT-kDDcHJ-OS8a",
          "width": 3024
        }
      ],
      "place_id": "ChIJnyuNedtYwokRsHPEhlOZxz0",
      "plus_code": {
        "compound_code": "Q25W+FQ New York, NY, USA",
        "global_code": "87G8Q25W+FQ"
      },
      "price_level": 2,
      "rating": 3.5,
      "reference": "ChIJnyuNedtYwokRsHPEhlOZxz0",
      "scope": "GOOGLE",
      "types": [
        "pharmacy",
        "store",
        "health",
        "point_of_interest",
        "establishment"
      ],
      "user_ratings_total": 11,
      "vicinity": "425 Main Street, New York"
    },
    {
      "business_status": "OPERATIONAL",
      "geometry": {
        "location": {
          "lat": 40.75879949999999,
          "lng": -73.9533051
        },
        "viewport": {
          "northeast": {
            "lat": 40.7599289802915,
            "lng": -73.9516341197085
          },
          "southwest": {
            "lat": 40.7572310197085,
            "lng": -73.95433208029151
          }
        }
      },
      "icon": "https://maps.gstatic.com/mapfiles/place_api/icons/v1/png_71/generic_business-71.png",
      "icon_background_color": "#7B9EB0",
      "icon_mask_base_uri": "https://maps.gstatic.com/mapfiles/place_api/icons/v2/generic_pinlet",
      "name": "Western Union",
      "opening_hours": {
        "open_now": true
      },
      "photos": [
        {
          "height": 1000,
          "html_attributions": [
            "<a href=\"https://maps.google.com/maps/contrib/112621607600899928167\">Western Union</a>"
          ],
          "photo_reference": "AeJbb3fl5_oeUXmJNR6w5MqURD-MY-9x8uKkxtn88VgJcIW3FYZHveW50ohCX0T1kln_ltun70-eGj07cQ1DS2eLR-zBMvqXmISBLATEjZunYSNlZcpPkNzIZUC8zVfmReh_xyAdLzhfX0ecUyLEW1Ffutfle0EA6ggx319TyeMua-RywX7q",
          "width": 1000
        }
      ],
      "place_id": "ChIJnyuNedtYwokR37HgzkNdec0",
      "plus_code": {
        "compound_code": "Q25W+GM New York, NY, USA",
        "global_code": "87G8Q25W+GM"
      },
      "rating": 1,
      "reference": "ChIJnyuNedtYwokR37HgzkNdec0",
      "scope": "GOOGLE",
      "types": [
        "finance",
        "point_of_interest",
        "establishment"
      ],
      "user_ratings_total": 1,
      "vicinity": "Duane Reade, 425 Main Street FRNT 1, New York"
    },
    {
      "business_status": "OPERATIONAL",
      "geometry": {
        "location": {
          "lat": 40.7557315,
          "lng": -73.9550565
        },
        "viewport": {
          "northeast": {
            "lat": 40.7569906302915,
            "lng": -73.95349441970849
          },
          "southwest": {
            "lat": 40.75429266970851,
            "lng": -73.95619238029151
          }
        }
      },
      "icon": "https://maps.gstatic.com/mapfiles/place_api/icons/v1/png_71/generic_business-71.png",
      "icon_background_color": "#7B9EB0",
      "icon_mask_base_uri": "https://maps.gstatic.com/mapfiles/place_api/icons/v2/generic_pinlet",
      "name": "The House at Cornell Tech",
      "photos": [
        {
          "height": 4032,
          "html_attributions": [
            "<a href=\"https://maps.google.com/maps/contrib/117207903148318875148\">\u66f9\u5bb6\u5e86</a>"
          ],
          "photo_reference": "AeJbb3fU-E5Irj_uyxt-MdFH17xvk_LeeUi0G8OL_5v1j23wNdpKVIpOoV0K4jz80aoQaV_aKYWTGg8PuL1v-YReR49gcABYjvwoeZVZhcApMf4ErtatyV_qKjhWWw9iv2JYbh0OdCdRoXSqETh3WP5go7P-Dr_iDbQ4FU68Ybjsoarg1U43",
          "width": 3024
        }
      ],
      "place_id": "ChIJ4Wiood5YwokR6dbPXLSJhEg",
      "plus_code": {
        "compound_code": "Q24V+7X New York, NY, USA",
        "global_code": "87G8Q24V+7X"
      },
      "rating": 3.6,
      "reference": "ChIJ4Wiood5YwokR6dbPXLSJhEg",
      "scope": "GOOGLE",
      "types": [
        "point_of_interest",
        "establishment"
      ],
      "user_ratings_total": 41,
      "vicinity": "1 East Loop Road, New York"
    },
    {
      "business_status": "OPERATIONAL",
      "geometry": {
        "location": {
          "lat": 40.7563094,
          "lng": -73.955955
        },
        "viewport": {
          "northeast": {
            "lat": 40.7576959302915,
            "lng": -73.9546651697085
          },
          "southwest": {
            "lat": 40.7549979697085,
            "lng": -73.95736313029151
          }
        }
      },
      "icon": "https://maps.gstatic.com/mapfiles/place_api/icons/v1/png_71/school-71.png",
      "icon_background_color": "#7B9EB0",
      "icon_mask_base_uri": "https://maps.gstatic.com/mapfiles/place_api/icons/v2/school_pinlet",
      "name": "Cornell Financial Engineering Manhattan",
      "photos": [
        {
          "height": 4672,
          "html_attributions": [
            "<a href=\"https://maps.google.com/maps/contrib/106511527369592942182\">Mathieu Bourguignon</a>"
          ],
          "photo_reference": "AeJbb3fw2Y6Ooum4juUtJ8KBpZ9v64IQsJ4r2Fw_vHILd1BI5IWYUu4KqEC5F5LzVBKhcUvRtPnL_UXxvOuJy6ZSc-tDo7XU6YnDlptle-y1Jvl3FA91_OxFXdsFKDdH2M2Y01XVZb_wJv8rYqvEDdma4yDgvQ1lgNdelVGdR0RfqDJaDBQG",
          "width": 7008
        }
      ],
      "place_id": "ChIJjYGtKNxYwokR12EhSJW4sM4",
      "plus_code": {
        "compound_code": "Q24V+GJ New York, NY, USA",
        "global_code": "87G8Q24V+GJ"
      },
      "reference": "ChIJjYGtKNxYwokR12EhSJW4sM4",
      "scope": "GOOGLE",
      "types": [
        "university",
        "point_of_interest",
        "establishment"
      ],
      "vicinity": "2 West Loop Road, New York"
    },
    {
      "business_status": "OPERATIONAL",
      "geometry": {
        "location": {
          "lat": 40.7592135,
          "lng": -73.9523795
        },
        "viewport": {
          "northeast": {
            "lat": 40.7605028302915,
            "lng": -73.9508805197085
          },
          "southwest": {
            "lat": 40.7578048697085,
            "lng": -73.95357848029151
          }
        }
      },
      "icon": "https://maps.gstatic.com/mapfiles/place_api/icons/v1/png_71/civic_building-71.png",
      "icon_background_color": "#7B9EB0",
      "icon_mask_base_uri": "https://maps.gstatic.com/mapfiles/place_api/icons/v2/civic-bldg_pinlet",
      "name": "USPS COLLECTION BOX - BLUE BOX",
      "opening_hours": {
        "open_now": false
      },
      "photos": [
        {
          "height": 1920,
          "html_attributions": [
            "<a href=\"https://maps.google.com/maps/contrib/115677305071427923232\">martijn b</a>"
          ],
          "photo_reference": "AeJbb3ejZfIVzJEBagXMNfqe-UapyvyklGOmU58wHaiENNnThRzKeAkMmc7PbU8B6GTKDx4n1JLy9jG24cS_se9puLXoCgx_thc1Vi2ADRqB8BGGLAGm0nPL_YzmD6rCm_jw4N6iEbZnDJssl__fTotcj3LOQIapgxtlrwpyue9lFpxuF8hF",
          "width": 1080
        }
      ],
      "place_id": "ChIJrzwLFdtYwokR7lzXE6hOdc0",
      "plus_code": {
        "compound_code": "Q25X+M2 New York, NY, USA",
        "global_code": "87G8Q25X+M2"
      },
      "rating": 4.5,
      "reference": "ChIJrzwLFdtYwokR7lzXE6hOdc0",
      "scope": "GOOGLE",
      "types": [
        "post_office",
        "finance",
        "point_of_interest",
        "establishment"
      ],
      "user_ratings_total": 2,
      "vicinity": "455 Main Street, New York"
    },
    {
      "business_status": "OPERATIONAL",
      "geometry": {
        "location": {
          "lat": 40.75540179999999,
          "lng": -73.95503719999999
        },
        "viewport": {
          "northeast": {
            "lat": 40.7567082302915,
            "lng": -73.9536078197085
          },
          "southwest": {
            "lat": 40.7540102697085,
            "lng": -73.95630578029152
          }
        }
      },
      "icon": "https://maps.gstatic.com/mapfiles/place_api/icons/v1/png_71/generic_business-71.png",
      "icon_background_color": "#7B9EB0",
      "icon_mask_base_uri": "https://maps.gstatic.com/mapfiles/place_api/icons/v2/generic_pinlet",
      "name": "Tata Innovation Center",
      "opening_hours": {
        "open_now": false
      },
      "photos": [
        {
          "height": 3024,
          "html_attributions": [
            "<a href=\"https://maps.google.com/maps/contrib/115536830579456360218\">Anthony Macapugay</a>"
          ],
          "photo_reference": "AeJbb3fgnUOYeND0XwQaM_hT6q6JA6ZJnyIPjsb5Bn0lrnk3QYK9x63mYgWGsyhSuGAKiT7Ukw1bjRoRclwmAeOvpPSOmOYqG097EyhjFK82wo72ICQGDZTHz9okWzbTc4J6LHjgrP9yklT2xGB_jnrSzzAwJ-gHjnkJp62wbiQWovQ7cXVG",
          "width": 4032
        }
      ],
      "place_id": "ChIJKztPkd5YwokRi-ZfPpXNL90",
      "plus_code": {
        "compound_code": "Q24V+5X New York, NY, USA",
        "global_code": "87G8Q24V+5X"
      },
      "rating": 4.6,
      "reference": "ChIJKztPkd5YwokRi-ZfPpXNL90",
      "scope": "GOOGLE",
      "types": [
        "point_of_interest",
        "establishment"
      ],
      "user_ratings_total": 46,
      "vicinity": "11 East Loop Road, New York"
    },
    {
      "business_status": "OPERATIONAL",
      "geometry": {
        "location": {
          "lat": 40.7595115,
          "lng": -73.95146
        },
        "viewport": {
          "northeast": {
            "lat": 40.76083293029151,
            "lng": -73.95015466970848
          },
          "southwest": {
            "lat": 40.75813496970851,
            "lng": -73.9528526302915
          }
        }
      },
      "icon": "https://maps.gstatic.com/mapfiles/place_api/icons/v1/png_71/generic_business-71.png",
      "icon_background_color": "#7B9EB0",
      "icon_mask_base_uri": "https://maps.gstatic.com/mapfiles/place_api/icons/v2/generic_pinlet",
      "name": "Maingourd Consultants, Inc.",
      "opening_hours": {
        "open_now": false
      },
      "place_id": "ChIJieToIttYwokRo0I9UktGykY",
      "plus_code": {
        "compound_code": "Q25X+RC New York, NY, USA",
        "global_code": "87G8Q25X+RC"
      },
      "reference": "ChIJieToIttYwokRo0I9UktGykY",
      "scope": "GOOGLE",
      "types": [
        "point_of_interest",
        "establishment"
      ],
      "vicinity": "480 Main Street, New York"
    },
    {
      "business_status": "OPERATIONAL",
      "geometry": {
        "location": {
          "lat": 40.7594318,
          "lng": -73.951174
        },
        "viewport": {
          "northeast": {
            "lat": 40.7608235302915,
            "lng": -73.95001636970848
          },
          "southwest": {
            "lat": 40.7581255697085,
            "lng": -73.9527143302915
          }
        }
      },
      "icon": "https://maps.gstatic.com/mapfiles/place_api/icons/v1/png_71/generic_business-71.png",
      "icon_background_color": "#7B9EB0",
      "icon_mask_base_uri": "https://maps.gstatic.com/mapfiles/place_api/icons/v2/generic_pinlet",
      "name": "Riverwalk Point Luxury Apartments",
      "opening_hours": {
        "open_now": true
      },
      "photos": [
        {
          "height": 898,
          "html_attributions": [
            "<a href=\"https://maps.google.com/maps/contrib/103312024663001997214\">Riverwalk Point Luxury Apartments</a>"
          ],
          "photo_reference": "AeJbb3eqY5AF11HgRgYhvjYwZwL4pSFyneWHb0L9afC0CjLbYc9fYoIJ0ohsQT5v0QDsF0XmA7htzonvr2mQE_9hC0IUWt2SCqMfmOsl6GYdSWR8GtillNxpxB27ZzqzltncmTnb1ms4pl_3JHHREejPATYvcXWqXLjfoSTSaDxYPkNBEDuK",
          "width": 1347
        }
      ],
      "place_id": "ChIJefbnIttYwokR4KNHekGGpuQ",
      "plus_code": {
        "compound_code": "Q25X+QG New York, NY, USA",
        "global_code": "87G8Q25X+QG"
      },
      "rating": 4.1,
      "reference": "ChIJefbnIttYwokR4KNHekGGpuQ",
      "scope": "GOOGLE",
      "types": [
        "real_estate_agency",
        "point_of_interest",
        "establishment"
      ],
      "user_ratings_total": 16,
      "vicinity": "480 Main Street, New York"
    },
    {
      "business_status": "OPERATIONAL",
      "geometry": {
        "location": {
          "lat": 40.7605356,
          "lng": -73.9573092
        },
        "viewport": {
          "northeast": {
            "lat": 40.76186628029151,
            "lng": -73.9559382697085
          },
          "southwest": {
            "lat": 40.75916831970851,
            "lng": -73.9586362302915
          }
        }
      },
      "icon": "https://maps.gstatic.com/mapfiles/place_api/icons/v1/png_71/generic_business-71.png",
      "icon_background_color": "#7B9EB0",
      "icon_mask_base_uri": "https://maps.gstatic.com/mapfiles/place_api/icons/v2/generic_pinlet",
      "name": "Rosenblat Todd MD",
      "place_id": "ChIJa0MjO91YwokRMDhUeRYCCd4",
      "plus_code": {
        "compound_code": "Q26V+63 New York, NY, USA",
        "global_code": "87G8Q26V+63"
      },
      "reference": "ChIJa0MjO91YwokRMDhUeRYCCd4",
      "scope": "GOOGLE",
      "types": [
        "doctor",
        "health",
        "point_of_interest",
        "establishment"
      ],
      "vicinity": "504 East 63rd Street # 7m, New York"
    },
    {
      "business_status": "OPERATIONAL",
      "geometry": {
        "location": {
          "lat": 40.75923369999999,
          "lng": -73.9579047
        },
        "viewport": {
          "northeast": {
            "lat": 40.76028153029149,
            "lng": -73.9568019697085
          },
          "southwest": {
            "lat": 40.75758356970849,
            "lng": -73.9594999302915
          }
        }
      },
      "icon": "https://maps.gstatic.com/mapfiles/place_api/icons/v1/png_71/generic_business-71.png",
      "icon_background_color": "#7B9EB0",
      "icon_mask_base_uri": "https://maps.gstatic.com/mapfiles/place_api/icons/v2/generic_pinlet",
      "name": "Red Sculpture",
      "opening_hours": {
        "open_now": true
      },
      "photos": [
        {
          "height": 2231,
          "html_attributions": [
            "<a href=\"https://maps.google.com/maps/contrib/106971509863998824569\">Yihao Yang</a>"
          ],
          "photo_reference": "AeJbb3cFXmUabAYH1IfVvUxv33488U1-1RjAOMjhEV1aAQ5cJjPn0IRpoeB20HUCsIv83JluU9uxYcCA7UlkkHXOg7Ra8ZgUrX-07runwqAxdHKiK7Ny9SwYyI534p0BPuY-UIaesLRaYSPGD6ZIw89ZA0q4dp36LhtpKpox1rZIvk_PJ585",
          "width": 3086
        }
      ],
      "place_id": "ChIJ9exjC91YwokRCyYmt1Ewm1U",
      "plus_code": {
        "compound_code": "Q25R+MR New York, NY, USA",
        "global_code": "87G8Q25R+MR"
      },
      "rating": 4.8,
      "reference": "ChIJ9exjC91YwokRCyYmt1Ewm1U",
      "scope": "GOOGLE",
      "types": [
        "point_of_interest",
        "establishment"
      ],
      "user_ratings_total": 12,
      "vicinity": "New York"
    },
    {
      "business_status": "OPERATIONAL",
      "geometry": {
        "location": {
          "lat": 40.7602244,
          "lng": -73.9568622
        },
        "viewport": {
          "northeast": {
            "lat": 40.76102090000001,
            "lng": -73.95609470000002
          },
          "southwest": {
            "lat": 40.7578349,
            "lng": -73.95916469999999
          }
        }
      },
      "icon": "https://maps.gstatic.com/mapfiles/place_api/icons/v1/png_71/park-71.png",
      "icon_background_color": "#4DB546",
      "icon_mask_base_uri": "https://maps.gstatic.com/mapfiles/place_api/icons/v2/tree_pinlet",
      "name": "Andrew Haswell Green Dog Park",
      "opening_hours": {
        "open_now": true
      },
      "photos": [
        {
          "height": 3024,
          "html_attributions": [
            "<a href=\"https://maps.google.com/maps/contrib/110498573760705665914\">MS</a>"
          ],
          "photo_reference": "AeJbb3crztZI4FhZadSTGKj98-1Oh259VgcQ7hmbDfz6QBzsKOZyI6Bxqo7pm-Jhg87DG01p1XaKQ6aCiZEwkEVvrnwYmo4E5DFGqhUR8IZEfzmg2vAJOhGbzSUwrn29IqCqi4sqM3PpyUmFiSlxFsu2eVbPHpXzjH4GqTkqscShM91nQynk",
          "width": 4032
        }
      ],
      "place_id": "ChIJpyBwId1YwokRyZhy96bLFDY",
      "plus_code": {
        "compound_code": "Q26V+37 New York, NY, USA",
        "global_code": "87G8Q26V+37"
      },
      "rating": 4.2,
      "reference": "ChIJpyBwId1YwokRyZhy96bLFDY",
      "scope": "GOOGLE",
      "types": [
        "park",
        "point_of_interest",
        "establishment"
      ],
      "user_ratings_total": 64,
      "vicinity": "Bobby Wagner Walk & E 63rd Street Pedestrian Bridge, New York"
    },
    {
      "business_status": "OPERATIONAL",
      "geometry": {
        "location": {
          "lat": 40.7568874,
          "lng": -73.9551316
        },
        "viewport": {
          "northeast": {
            "lat": 40.7582899302915,
            "lng": -73.9539520197085
          },
          "southwest": {
            "lat": 40.7555919697085,
            "lng": -73.9566499802915
          }
        }
      },
      "icon": "https://maps.gstatic.com/mapfiles/place_api/icons/v1/png_71/generic_business-71.png",
      "icon_background_color": "#7B9EB0",
      "icon_mask_base_uri": "https://maps.gstatic.com/mapfiles/place_api/icons/v2/generic_pinlet",
      "name": "Dr. Marek Balutowski, MD",
      "place_id": "ChIJeyq35cVYwokR_ouHj3Nj7GI",
      "plus_code": {
        "compound_code": "Q24V+QW New York, NY, USA",
        "global_code": "87G8Q24V+QW"
      },
      "reference": "ChIJeyq35cVYwokR_ouHj3Nj7GI",
      "scope": "GOOGLE",
      "types": [
        "doctor",
        "health",
        "point_of_interest",
        "establishment"
      ],
      "vicinity": "279 Main Street, New York"
    },
    {
      "business_status": "OPERATIONAL",
      "geometry": {
        "location": {
          "lat": 40.7578677,
          "lng": -73.953626
        },
        "viewport": {
          "northeast": {
            "lat": 40.7592527802915,
            "lng": -73.95220161970849
          },
          "southwest": {
            "lat": 40.75655481970851,
            "lng": -73.9548995802915
          }
        }
      },
      "icon": "https://maps.gstatic.com/mapfiles/place_api/icons/v1/png_71/generic_business-71.png",
      "icon_background_color": "#7B9EB0",
      "icon_mask_base_uri": "https://maps.gstatic.com/mapfiles/place_api/icons/v2/generic_pinlet",
      "name": "A A American Moving & Storage",
      "place_id": "ChIJ_zTV0f3iwokRxoMtGx9MKn0",
      "plus_code": {
        "compound_code": "Q25W+4G New York, NY, USA",
        "global_code": "87G8Q25W+4G"
      },
      "reference": "ChIJ_zTV0f3iwokRxoMtGx9MKn0",
      "scope": "GOOGLE",
      "types": [
        "moving_company",
        "point_of_interest",
        "establishment"
      ],
      "vicinity": "414 W Main, New York"
    },
    {
      "business_status": "OPERATIONAL",
      "geometry": {
        "location": {
          "lat": 40.7610271,
          "lng": -73.9513588
        },
        "viewport": {
          "northeast": {
            "lat": 40.7622342302915,
            "lng": -73.9498666197085
          },
          "southwest": {
            "lat": 40.7595362697085,
            "lng": -73.95256458029151
          }
        }
      },
      "icon": "https://maps.gstatic.com/mapfiles/place_api/icons/v1/png_71/generic_business-71.png",
      "icon_background_color": "#7B9EB0",
      "icon_mask_base_uri": "https://maps.gstatic.com/mapfiles/place_api/icons/v2/generic_pinlet",
      "name": "Dental Love LLC",
      "opening_hours": {
        "open_now": false
      },
      "photos": [
        {
          "height": 520,
          "html_attributions": [
            "<a href=\"https://maps.google.com/maps/contrib/103550779875368364035\">DENTAL LOVE LLC</a>"
          ],
          "photo_reference": "AeJbb3ejCyg4neKHhdV3ACL7k_aOoG0Wbrabbc3DXaw5XZEsGlSAYDpD1_8e2G_46rAq7wGFEsTGO4FV3TjU__rW_MgHkwFDMGV-IYapgLdYUk3gz5Gxn2QzZ1W-kIjRetalHYckkkyEn4It4kaKBhpAJWlFCYupDOwfNHa-KXHIghA9oY2b",
          "width": 920
        }
      ],
      "place_id": "ChIJD8hk0cRYwokRt-V7MWQ2Zqs",
      "plus_code": {
        "compound_code": "Q26X+CF New York, NY, USA",
        "global_code": "87G8Q26X+CF"
      },
      "rating": 4.5,
      "reference": "ChIJD8hk0cRYwokRt-V7MWQ2Zqs",
      "scope": "GOOGLE",
      "types": [
        "dentist",
        "health",
        "point_of_interest",
        "establishment"
      ],
      "user_ratings_total": 53,
      "vicinity": "501a Main Street, New York"
    },
    {
      "business_status": "OPERATIONAL",
      "geometry": {
        "location": {
          "lat": 40.7608875,
          "lng": -73.9511819
        },
        "viewport": {
          "northeast": {
            "lat": 40.7621639802915,
            "lng": -73.9497788197085
          },
          "southwest": {
            "lat": 40.7594660197085,
            "lng": -73.9524767802915
          }
        }
      },
      "icon": "https://maps.gstatic.com/mapfiles/place_api/icons/v1/png_71/generic_business-71.png",
      "icon_background_color": "#7B9EB0",
      "icon_mask_base_uri": "https://maps.gstatic.com/mapfiles/place_api/icons/v2/generic_pinlet",
      "name": "Accountable Financial Management Corp",
      "opening_hours": {
        "open_now": false
      },
      "place_id": "ChIJj9Qa0cRYwokRfLr_p7xlG-s",
      "plus_code": {
        "compound_code": "Q26X+9G New York, NY, USA",
        "global_code": "87G8Q26X+9G"
      },
      "reference": "ChIJj9Qa0cRYwokRfLr_p7xlG-s",
      "scope": "GOOGLE",
      "types": [
        "finance",
        "point_of_interest",
        "establishment"
      ],
      "vicinity": "501 Main Street Suite C, New York"
    },
    {
      "business_status": "OPERATIONAL",
      "geometry": {
        "location": {
          "lat": 40.7547869,
          "lng": -73.9562773
        },
        "viewport": {
          "northeast": {
            "lat": 40.7559698302915,
            "lng": -73.95463456970849
          },
          "southwest": {
            "lat": 40.7532718697085,
            "lng": -73.95733253029151
          }
        }
      },
      "icon": "https://maps.gstatic.com/mapfiles/place_api/icons/v1/png_71/generic_business-71.png",
      "icon_background_color": "#7B9EB0",
      "icon_mask_base_uri": "https://maps.gstatic.com/mapfiles/place_api/icons/v2/generic_pinlet",
      "name": "Dr. Rafiqur R. Chowdhury, MD",
      "place_id": "ChIJsWjmpd9YwokRNTPE6oioWsk",
      "plus_code": {
        "compound_code": "Q23V+WF New York, NY, USA",
        "global_code": "87G8Q23V+WF"
      },
      "reference": "ChIJsWjmpd9YwokRNTPE6oioWsk",
      "scope": "GOOGLE",
      "types": [
        "doctor",
        "health",
        "point_of_interest",
        "establishment"
      ],
      "vicinity": "1 Main Street, New York"
    },
    {
      "business_status": "OPERATIONAL",
      "geometry": {
        "location": {
          "lat": 40.759305,
          "lng": -73.952917
        },
        "viewport": {
          "northeast": {
            "lat": 40.7606032302915,
            "lng": -73.9510759697085
          },
          "southwest": {
            "lat": 40.7579052697085,
            "lng": -73.9537739302915
          }
        }
      },
      "icon": "https://maps.gstatic.com/mapfiles/place_api/icons/v1/png_71/cafe-71.png",
      "icon_background_color": "#FF9E67",
      "icon_mask_base_uri": "https://maps.gstatic.com/mapfiles/place_api/icons/v2/cafe_pinlet",
      "name": "Starbucks",
      "opening_hours": {
        "open_now": true
      },
      "photos": [
        {
          "height": 4032,
          "html_attributions": [
            "<a href=\"https://maps.google.com/maps/contrib/105533902875063730658\">Nawaf Shalan</a>"
          ],
          "photo_reference": "AeJbb3fY5INzdoO6T2IdzVj4oGBpIetU39MBep86lBmxYWNzWCKXg0C5CYBxocZRwkBk3wZvUyMhAhtN37D0CXQE_X16J6wZlZP9wvUyWQMB7MS52sP3NtX7p_AJ66XzhANCfgS4m70MoPZ2jftU1kRrtGoVmKBaafl42uAyEoD0UajWNZfk",
          "width": 3024
        }
      ],
      "place_id": "ChIJ6dvVZ9tYwokRfw7k-xvk53U",
      "plus_code": {
        "compound_code": "Q25W+PR New York, NY, USA",
        "global_code": "87G8Q25W+PR"
      },
      "price_level": 2,
      "rating": 4.1,
      "reference": "ChIJ6dvVZ9tYwokRfw7k-xvk53U",
      "scope": "GOOGLE",
      "types": [
        "cafe",
        "store",
        "restaurant",
        "food",
        "point_of_interest",
        "establishment"
      ],
      "user_ratings_total": 720,
      "vicinity": "455 Main Street, New York"
    },
    {
      "business_status": "OPERATIONAL",
      "geometry": {
        "location": {
          "lat": 40.7573366,
          "lng": -73.9536504
        },
        "viewport": {
          "northeast": {
            "lat": 40.7586608802915,
            "lng": -73.95232721970851
          },
          "southwest": {
            "lat": 40.7559629197085,
            "lng": -73.95502518029151
          }
        }
      },
      "icon": "https://maps.gstatic.com/mapfiles/place_api/icons/v1/png_71/generic_business-71.png",
      "icon_background_color": "#7B9EB0",
      "icon_mask_base_uri": "https://maps.gstatic.com/mapfiles/place_api/icons/v2/generic_pinlet",
      "name": "Renaissance Warrantied Services",
      "place_id": "ChIJIw1Ikb9gwokRQ6oSJ9uQc3g",
      "reference": "ChIJIw1Ikb9gwokRQ6oSJ9uQc3g",
      "scope": "GOOGLE",
      "types": [
        "point_of_interest",
        "establishment"
      ],
      "vicinity": "147 East Main Street, New York"
    },
    {
      "business_status": "OPERATIONAL",
      "geometry": {
        "location": {
          "lat": 40.7564433,
          "lng": -73.95499389999999
        },
        "viewport": {
          "northeast": {
            "lat": 40.7579591302915,
            "lng": -73.9540254697085
          },
          "southwest": {
            "lat": 40.7552611697085,
            "lng": -73.9567234302915
          }
        }
      },
      "icon": "https://maps.gstatic.com/mapfiles/place_api/icons/v1/png_71/generic_business-71.png",
      "icon_background_color": "#7B9EB0",
      "icon_mask_base_uri": "https://maps.gstatic.com/mapfiles/place_api/icons/v2/generic_pinlet",
      "name": "SOCIAL 360 Cabinet d'ing\u00e9nierie Sociale",
      "place_id": "ChIJ__-_GNxYwokROX4exhSVl8U",
      "reference": "ChIJ__-_GNxYwokROX4exhSVl8U",
      "scope": "GOOGLE",
      "types": [
        "health",
        "point_of_interest",
        "establishment"
      ],
      "vicinity": "250 Main Street, New York"
    },
    {
      "business_status": "OPERATIONAL",
      "geometry": {
        "location": {
          "lat": 40.7564921,
          "lng": -73.9551012
        },
        "viewport": {
          "northeast": {
            "lat": 40.7579835302915,
            "lng": -73.9540791197085
          },
          "southwest": {
            "lat": 40.75528556970851,
            "lng": -73.9567770802915
          }
        }
      },
      "icon": "https://maps.gstatic.com/mapfiles/place_api/icons/v1/png_71/school-71.png",
      "icon_background_color": "#7B9EB0",
      "icon_mask_base_uri": "https://maps.gstatic.com/mapfiles/place_api/icons/v2/school_pinlet",
      "name": "Manhattan Rhythmics",
      "place_id": "ChIJ__-_GNxYwokRft0PGQdeUME",
      "plus_code": {
        "compound_code": "Q24V+HX New York, NY, USA",
        "global_code": "87G8Q24V+HX"
      },
      "rating": 5,
      "reference": "ChIJ__-_GNxYwokRft0PGQdeUME",
      "scope": "GOOGLE",
      "types": [
        "point_of_interest",
        "establishment"
      ],
      "user_ratings_total": 1,
      "vicinity": "250 Main Street, New York"
    },
    {
      "business_status": "CLOSED_TEMPORARILY",
      "geometry": {
        "location": {
          "lat": 40.7592235,
          "lng": -73.9526052
        },
        "viewport": {
          "northeast": {
            "lat": 40.7604655802915,
            "lng": -73.95099591970849
          },
          "southwest": {
            "lat": 40.7577676197085,
            "lng": -73.9536938802915
          }
        }
      },
      "icon": "https://maps.gstatic.com/mapfiles/place_api/icons/v1/png_71/generic_business-71.png",
      "icon_background_color": "#7B9EB0",
      "icon_mask_base_uri": "https://maps.gstatic.com/mapfiles/place_api/icons/v2/generic_pinlet",
      "name": "Kelly's Loving Hands",
      "permanently_closed": true,
      "place_id": "ChIJXTRtadtYwokRHFu_wbQebPs",
      "plus_code": {
        "compound_code": "Q25W+MX New York, NY, USA",
        "global_code": "87G8Q25W+MX"
      },
      "reference": "ChIJXTRtadtYwokRHFu_wbQebPs",
      "scope": "GOOGLE",
      "types": [
        "point_of_interest",
        "establishment"
      ],
      "vicinity": "455 Main Street, New York"
    },
    {
      "business_status": "OPERATIONAL",
      "geometry": {
        "location": {
          "lat": 40.7594127,
          "lng": -73.9511825
        },
        "viewport": {
          "northeast": {
            "lat": 40.76081398029149,
            "lng": -73.9500206197085
          },
          "southwest": {
            "lat": 40.7581160197085,
            "lng": -73.9527185802915
          }
        }
      },
      "icon": "https://maps.gstatic.com/mapfiles/place_api/icons/v1/png_71/generic_business-71.png",
      "icon_background_color": "#7B9EB0",
      "icon_mask_base_uri": "https://maps.gstatic.com/mapfiles/place_api/icons/v2/generic_pinlet",
      "name": "D-Squared Media",
      "place_id": "ChIJVVWlI9tYwokRWvHQ0_Ua_Rc",
      "plus_code": {
        "compound_code": "Q25X+QG New York, NY, USA",
        "global_code": "87G8Q25X+QG"
      },
      "rating": 5,
      "reference": "ChIJVVWlI9tYwokRWvHQ0_Ua_Rc",
      "scope": "GOOGLE",
      "types": [
        "point_of_interest",
        "establishment"
      ],
      "user_ratings_total": 1,
      "vicinity": "480 Main Street, New York"
    },
    {
      "business_status": "OPERATIONAL",
      "geometry": {
        "location": {
          "lat": 40.761039,
          "lng": -73.9510057
        },
        "viewport": {
          "northeast": {
            "lat": 40.76231738029149,
            "lng": -73.9495813197085
          },
          "southwest": {
            "lat": 40.75961941970849,
            "lng": -73.9522792802915
          }
        }
      },
      "icon": "https://maps.gstatic.com/mapfiles/place_api/icons/v1/png_71/school-71.png",
      "icon_background_color": "#7B9EB0",
      "icon_mask_base_uri": "https://maps.gstatic.com/mapfiles/place_api/icons/v2/school_pinlet",
      "name": "The Music & PlayStation - Main Street Theatre & Dance Alliance",
      "opening_hours": {
        "open_now": false
      },
      "photos": [
        {
          "height": 749,
          "html_attributions": [
            "<a href=\"https://maps.google.com/maps/contrib/100815033871958361987\">The Music &amp; PlayStation - Main Street Theatre &amp; Dance Alliance</a>"
          ],
          "photo_reference": "AeJbb3df5d7oz9BRmIvUHpfby5uiYv6ZFdYLZ0m8l8f5-Eqr_yLuzqFgD1OCGGd10y-88zivR8pSbghjWY-NYQQhz-9bXTq3fC8LUHjw8b8hnM8uCzrC71Em3QvACSAQZJBR-i3O0BcFo0ffBAOFPMs-T2hy28Nuz1HTrz6GrUUrdWcBDXn8",
          "width": 1333
        }
      ],
      "place_id": "ChIJc6NX18RYwokRmV9G0ntvwLA",
      "plus_code": {
        "compound_code": "Q26X+CH New York, NY, USA",
        "global_code": "87G8Q26X+CH"
      },
      "rating": 5,
      "reference": "ChIJc6NX18RYwokRmV9G0ntvwLA",
      "scope": "GOOGLE",
      "types": [
        "university",
        "point_of_interest",
        "establishment"
      ],
      "user_ratings_total": 1,
      "vicinity": "507 Main Street, New York"
    },
    {
      "business_status": "OPERATIONAL",
      "geometry": {
        "location": {
          "lat": 40.7590777,
          "lng": -73.9523339
        },
        "viewport": {
          "northeast": {
            "lat": 40.7605168802915,
            "lng": -73.9507932697085
          },
          "southwest": {
            "lat": 40.7578189197085,
            "lng": -73.95349123029152
          }
        }
      },
      "icon": "https://maps.gstatic.com/mapfiles/place_api/icons/v1/png_71/restaurant-71.png",
      "icon_background_color": "#FF9E67",
      "icon_mask_base_uri": "https://maps.gstatic.com/mapfiles/place_api/icons/v2/restaurant_pinlet",
      "name": "Fuji East Japanese Bistro",
      "opening_hours": {
        "open_now": true
      },
      "photos": [
        {
          "height": 4008,
          "html_attributions": [
            "<a href=\"https://maps.google.com/maps/contrib/108027231076285564382\">Dikoma Shungu</a>"
          ],
          "photo_reference": "AeJbb3eUsmf2glYC71XIE64E6UhXft6kVvw4bbAJ3ve0ZeRpya6MlkPeYm-2Z346guMO1jaznbekWGIE5K9bo_NpE6nJsJLKmeJH26rhJItGt2P8nQmZOmVxbQrbARDuQ1GpSjTWvN_YWIyIoBZGGgIPF1nh-tF1RIJhHyPtesE6ynK9AocI",
          "width": 5344
        }
      ],
      "place_id": "ChIJH9FjFdtYwokRFEGuaetY-9U",
      "plus_code": {
        "compound_code": "Q25X+J3 New York, NY, USA",
        "global_code": "87G8Q25X+J3"
      },
      "price_level": 2,
      "rating": 4,
      "reference": "ChIJH9FjFdtYwokRFEGuaetY-9U",
      "scope": "GOOGLE",
      "types": [
        "meal_delivery",
        "restaurant",
        "food",
        "point_of_interest",
        "establishment"
      ],
      "user_ratings_total": 356,
      "vicinity": "455 Main Street, New York"
    },
    {
      "business_status": "OPERATIONAL",
      "geometry": {
        "location": {
          "lat": 40.7611297,
          "lng": -73.950909
        },
        "viewport": {
          "northeast": {
            "lat": 40.7624065802915,
            "lng": -73.9494700197085
          },
          "southwest": {
            "lat": 40.7597086197085,
            "lng": -73.9521679802915
          }
        }
      },
      "icon": "https://maps.gstatic.com/mapfiles/place_api/icons/v1/png_71/restaurant-71.png",
      "icon_background_color": "#FF9E67",
      "icon_mask_base_uri": "https://maps.gstatic.com/mapfiles/place_api/icons/v2/restaurant_pinlet",
      "name": "Subway",
      "opening_hours": {
        "open_now": true
      },
      "photos": [
        {
          "height": 3024,
          "html_attributions": [
            "<a href=\"https://maps.google.com/maps/contrib/101314215265395606654\">Peter Klages</a>"
          ],
          "photo_reference": "AeJbb3dakX2tnhRjEcqlJbXvGA-BYA4QRStzItHPqXspbYAs13W4oEsYfQa9zqYpS1dTdTwin5PNEU7jbB8Msh9pYy9D9vCplVHbeDpBCwKveeKgGio1vx-78BaloqncKb5R0q8SXHNi2peciSGelsgHMRX7BX3cBeO7qo3_am0tLFoAEWXn",
          "width": 4032
        }
      ],
      "place_id": "ChIJvRJK2MRYwokRXYfveB_kTkw",
      "plus_code": {
        "compound_code": "Q26X+FJ Roosevelt Island, New York, NY, USA",
        "global_code": "87G8Q26X+FJ"
      },
      "price_level": 1,
      "rating": 3.5,
      "reference": "ChIJvRJK2MRYwokRXYfveB_kTkw",
      "scope": "GOOGLE",
      "types": [
        "meal_takeaway",
        "restaurant",
        "food",
        "point_of_interest",
        "establishment"
      ],
      "user_ratings_total": 96,
      "vicinity": "513 Main Street, Roosevelt Island"
    },
    {
      "business_status": "OPERATIONAL",
      "geometry": {
        "location": {
          "lat": 40.7587734,
          "lng": -73.9533349
        },
        "viewport": {
          "northeast": {
            "lat": 40.7598537802915,
            "lng": -73.9517541197085
          },
          "southwest": {
            "lat": 40.7571558197085,
            "lng": -73.9544520802915
          }
        }
      },
      "icon": "https://maps.gstatic.com/mapfiles/place_api/icons/v1/png_71/shopping-71.png",
      "icon_background_color": "#4B96F3",
      "icon_mask_base_uri": "https://maps.gstatic.com/mapfiles/place_api/icons/v2/convenience_pinlet",
      "name": "Duane Reade",
      "opening_hours": {
        "open_now": true
      },
      "photos": [
        {
          "height": 2560,
          "html_attributions": [
            "<a href=\"https://maps.google.com/maps/contrib/102238406716223879140\">Taro Arimoto</a>"
          ],
          "photo_reference": "AeJbb3fTcupaz1_CYe87-IuWk-bom6Dn1DmLUGCZ2D6jiUbGJgmSyYp1_yqvH9XvFovDhP0ZOLN_-AqRI8GWu3eTDF1zBl4nRb3vDktGvP3MeIDFzKEPGAxaugaevR8ejqe7xhymYMVz-wEET6EEs5jlwyidsEsRuGPTGPPMVFhNdL4gsRVj",
          "width": 1440
        }
      ],
      "place_id": "ChIJEz62edtYwokRk_tVmGnc054",
      "plus_code": {
        "compound_code": "Q25W+GM New York, NY, USA",
        "global_code": "87G8Q25W+GM"
      },
      "price_level": 2,
      "rating": 3.6,
      "reference": "ChIJEz62edtYwokRk_tVmGnc054",
      "scope": "GOOGLE",
      "types": [
        "convenience_store",
        "clothing_store",
        "store",
        "food",
        "point_of_interest",
        "establishment"
      ],
      "user_ratings_total": 63,
      "vicinity": "425 Main Street, New York"
    },
    {
      "business_status": "OPERATIONAL",
      "geometry": {
        "location": {
          "lat": 40.75563040000001,
          "lng": -73.95623010000001
        },
        "viewport": {
          "northeast": {
            "lat": 40.75746425,
            "lng": -73.95262525
          },
          "southwest": {
            "lat": 40.75382245,
            "lng": -73.95899904999999
          }
        }
      },
      "icon": "https://maps.gstatic.com/mapfiles/place_api/icons/v1/png_71/school-71.png",
      "icon_background_color": "#7B9EB0",
      "icon_mask_base_uri": "https://maps.gstatic.com/mapfiles/place_api/icons/v2/school_pinlet",
      "name": "Cornell Tech",
      "opening_hours": {
        "open_now": true
      },
      "photos": [
        {
          "height": 500,
          "html_attributions": [
            "<a href=\"https://maps.google.com/maps/contrib/100334594487852644224\">Cornell Tech</a>"
          ],
          "photo_reference": "AeJbb3fy2PEAZ5iD7ugS_JJ-UkLiAfo6Wf4QRkpaF7hK9CTeOwvogB7Iq7zycRla_o1Ttj7iyFoPYUTl4yS6y7jgUuCksxEJS2c4r0yLh68Kzx7DDV3dQEUfROK2Yp7Q6bZfEzduCKZwmUrE2wLvrLLHOOQFaH1cPQcQbNEeqPo_uA9zu3oj",
          "width": 1500
        }
      ],
      "place_id": "ChIJp9d9hbpZwokRCM5ylxp7N6k",
      "plus_code": {
        "compound_code": "Q24V+7G New York, NY, USA",
        "global_code": "87G8Q24V+7G"
      },
      "rating": 4.7,
      "reference": "ChIJp9d9hbpZwokRCM5ylxp7N6k",
      "scope": "GOOGLE",
      "types": [
        "university",
        "point_of_interest",
        "establishment"
      ],
      "user_ratings_total": 90,
      "vicinity": "2 West Loop Road, New York"
    },
    {
      "business_status": "OPERATIONAL",
      "geometry": {
        "location": {
          "lat": 40.75673659999999,
          "lng": -73.9553552
        },
        "viewport": {
          "northeast": {
            "lat": 40.7582157302915,
            "lng": -73.9540172197085
          },
          "southwest": {
            "lat": 40.7555177697085,
            "lng": -73.95671518029151
          }
        }
      },
      "icon": "https://maps.gstatic.com/mapfiles/place_api/icons/v1/png_71/generic_business-71.png",
      "icon_background_color": "#7B9EB0",
      "icon_mask_base_uri": "https://maps.gstatic.com/mapfiles/place_api/icons/v2/generic_pinlet",
      "name": "Sportspark Gym",
      "opening_hours": {
        "open_now": true
      },
      "photos": [
        {
          "height": 4000,
          "html_attributions": [
            "<a href=\"https://maps.google.com/maps/contrib/110794544223973421505\">Greg Dumas</a>"
          ],
          "photo_reference": "AeJbb3d3OWntLqTK6WbbEvcXrV5vQcVHf1vGApnmI161Xr91zfOwCY9tn_uCvwNy27yaXiEqdVnNqRevbnc2ncb6ygYEHKm0rCZteOkaclYmCqC5rwtyo8elEQgbcLffdZzaFoFfY628t8UbM8yIhGmKCxDmfqQyaNiu-yi922LJ8-c2AOnv",
          "width": 6000
        }
      ],
      "place_id": "ChIJd9AmI9xYwokRKN9QGb7-7co",
      "plus_code": {
        "compound_code": "Q24V+MV New York, NY, USA",
        "global_code": "87G8Q24V+MV"
      },
      "rating": 4.5,
      "reference": "ChIJd9AmI9xYwokRKN9QGb7-7co",
      "scope": "GOOGLE",
      "types": [
        "gym",
        "health",
        "point_of_interest",
        "establishment"
      ],
      "user_ratings_total": 10,
      "vicinity": "250 Main Street, New York"
    },
    {
      "business_status": "OPERATIONAL",
      "geometry": {
        "location": {
          "lat": 40.7568874,
          "lng": -73.9551316
        },
        "viewport": {
          "northeast": {
            "lat": 40.7583399302915,
            "lng": -73.9539048197085
          },
          "southwest": {
            "lat": 40.7556419697085,
            "lng": -73.95660278029152
          }
        }
      },
      "icon": "https://maps.gstatic.com/mapfiles/place_api/icons/v1/png_71/generic_business-71.png",
      "icon_background_color": "#7B9EB0",
      "icon_mask_base_uri": "https://maps.gstatic.com/mapfiles/place_api/icons/v2/generic_pinlet",
      "name": "Veliz Claudio",
      "place_id": "ChIJTZeeqN5YwokRQhPvyBibxTE",
      "plus_code": {
        "compound_code": "Q24V+QW New York, NY, USA",
        "global_code": "87G8Q24V+QW"
      },
      "reference": "ChIJTZeeqN5YwokRQhPvyBibxTE",
      "scope": "GOOGLE",
      "types": [
        "point_of_interest",
        "establishment"
      ],
      "vicinity": "295 Main Street, New York"
    },
    {
      "business_status": "OPERATIONAL",
      "geometry": {
        "location": {
          "lat": 40.757284,
          "lng": -73.9536
        },
        "viewport": {
          "northeast": {
            "lat": 40.7586329802915,
            "lng": -73.95225101970848
          },
          "southwest": {
            "lat": 40.7559350197085,
            "lng": -73.95494898029149
          }
        }
      },
      "icon": "https://maps.gstatic.com/mapfiles/place_api/icons/v1/png_71/generic_business-71.png",
      "icon_background_color": "#7B9EB0",
      "icon_mask_base_uri": "https://maps.gstatic.com/mapfiles/place_api/icons/v2/generic_pinlet",
      "name": "Citi Bike: Roosevelt Island Tramway",
      "photos": [
        {
          "height": 3024,
          "html_attributions": [
            "<a href=\"https://maps.google.com/maps/contrib/107186167682632737422\">David Ontopi</a>"
          ],
          "photo_reference": "AeJbb3df6qKVBVDhxkYRD68AN4rCQ4LRNFS7q6GREBtEhrn5ia6q3GOw3uZ5kxblHxwzrcDIO066CFPHhEe6M9gIqdQZXF-YlM_0juVSWLdH2_7hjYeAKpRtIEjkpDzZz3FlwSDWevRKk-T43zicKZK7kj9NqDZL_qkKYnEhDC8fRyzefKqz",
          "width": 4032
        }
      ],
      "place_id": "ChIJCcN5ittYwokRqQV4Je4Y_AA",
      "plus_code": {
        "compound_code": "Q24W+WH New York, NY, USA",
        "global_code": "87G8Q24W+WH"
      },
      "rating": 5,
      "reference": "ChIJCcN5ittYwokRqQV4Je4Y_AA",
      "scope": "GOOGLE",
      "types": [
        "point_of_interest",
        "establishment"
      ],
      "user_ratings_total": 1,
      "vicinity": "New York"
    },
    {
      "business_status": "OPERATIONAL",
      "geometry": {
        "location": {
          "lat": 40.75706,
          "lng": -73.95317899999999
        },
        "viewport": {
          "northeast": {
            "lat": 40.7584282802915,
            "lng": -73.95181476970849
          },
          "southwest": {
            "lat": 40.7557303197085,
            "lng": -73.9545127302915
          }
        }
      },
      "icon": "https://maps.gstatic.com/mapfiles/place_api/icons/v1/png_71/generic_business-71.png",
      "icon_background_color": "#7B9EB0",
      "icon_mask_base_uri": "https://maps.gstatic.com/mapfiles/place_api/icons/v2/generic_pinlet",
      "name": "Ferry Landing",
      "place_id": "ChIJS8y2jNtYwokRMSNs2KJl7Qc",
      "plus_code": {
        "compound_code": "Q24W+RP New York, NY, USA",
        "global_code": "87G8Q24W+RP"
      },
      "reference": "ChIJS8y2jNtYwokRMSNs2KJl7Qc",
      "scope": "GOOGLE",
      "types": [
        "transit_station",
        "point_of_interest",
        "establishment"
      ],
      "vicinity": "United States"
    },
    {
      "business_status": "OPERATIONAL",
      "geometry": {
        "location": {
          "lat": 40.75733099999999,
          "lng": -73.95409699999999
        },
        "viewport": {
          "northeast": {
            "lat": 40.7587856302915,
            "lng": -73.95272316970849
          },
          "southwest": {
            "lat": 40.7560876697085,
            "lng": -73.9554211302915
          }
        }
      },
      "icon": "https://maps.gstatic.com/mapfiles/place_api/icons/v1/png_71/generic_business-71.png",
      "icon_background_color": "#7B9EB0",
      "icon_mask_base_uri": "https://maps.gstatic.com/mapfiles/place_api/icons/v2/generic_pinlet",
      "name": "Roosevelt Island",
      "photos": [
        {
          "height": 1920,
          "html_attributions": [
            "<a href=\"https://maps.google.com/maps/contrib/107601753382211004124\">I Plascencia</a>"
          ],
          "photo_reference": "AeJbb3cq5tjdyjAaTQGFh-SKrJI_SBzhZ1RZz1oEYQeRP_KuI49MpK9mxOxm5ITbCmX9nF6Z-tp0W_MIlBrL8oaKKyWFS0sWJp7cjflE1CrEKPqltHe66dCbokOmpTdvS2JMj1thQXPs1fDGYo3-uVdsrCLWNzPceg7j7FSt8BgOfuYGn18K",
          "width": 1080
        }
      ],
      "place_id": "ChIJ_S2hc9xYwokRYyPATOsRIuM",
      "plus_code": {
        "compound_code": "Q24W+W9 New York, NY, USA",
        "global_code": "87G8Q24W+W9"
      },
      "rating": 4.8,
      "reference": "ChIJ_S2hc9xYwokRYyPATOsRIuM",
      "scope": "GOOGLE",
      "types": [
        "transit_station",
        "point_of_interest",
        "establishment"
      ],
      "user_ratings_total": 18,
      "vicinity": "United States"
    },
    {
      "business_status": "OPERATIONAL",
      "geometry": {
        "location": {
          "lat": 40.75730909999999,
          "lng": -73.9541086
        },
        "viewport": {
          "northeast": {
            "lat": 40.75872693029149,
            "lng": -73.95258226970849
          },
          "southwest": {
            "lat": 40.7560289697085,
            "lng": -73.9552802302915
          }
        }
      },
      "icon": "https://maps.gstatic.com/mapfiles/place_api/icons/v1/png_71/generic_business-71.png",
      "icon_background_color": "#7B9EB0",
      "icon_mask_base_uri": "https://maps.gstatic.com/mapfiles/place_api/icons/v2/generic_pinlet",
      "name": "Roosevelt Island Tramway",
      "opening_hours": {
        "open_now": true
      },
      "photos": [
        {
          "height": 3264,
          "html_attributions": [
            "<a href=\"https://maps.google.com/maps/contrib/108870798447434427008\">Mila Torres</a>"
          ],
          "photo_reference": "AeJbb3eG7TBep4Ie8XQ2KOqYzJkmDEUxJZ3goBAHu5qLOLrJ6v_fx486crOAWP9rEMINGR85yfL10kigkITjJSIWZOZc4zV_t_qQYnPU0NzrDcP0TQ9he63eTIYOI1EwQDJwWPvHGCUhXBaOQ9lVDysLwAqmlHPIvv7rhuucWCfLjvOHGDqP",
          "width": 2448
        }
      ],
      "place_id": "ChIJ_xo-CrJZwokReatf0cb-UtI",
      "plus_code": {
        "compound_code": "Q24W+W9 New York, NY, USA",
        "global_code": "87G8Q24W+W9"
      },
      "rating": 4.8,
      "reference": "ChIJ_xo-CrJZwokReatf0cb-UtI",
      "scope": "GOOGLE",
      "types": [
        "point_of_interest",
        "establishment"
      ],
      "user_ratings_total": 31,
      "vicinity": "300 East Main Street, New York"
    }
  ],
  "status": "OK"
}