{
  "html_attributions": [],
  "results": [
    {
      "geometry": {
        "location": {
          "lat": 40.7127753,
          "lng": -74.0059728
        },
        "viewport": {
          "northeast": {
            "lat": 40.91757705070789,
            "lng": -73.70027206817629
          },
          "southwest": {
            "lat": 40.47739906045452,
            "lng": -74.25908991427882
          }
        }
      },
      "icon": "https://maps.gstatic.com/mapfiles/place_api/icons/v1/png_71/geocode-71.png",
      "icon_background_color": "#7B9EB0",
      "icon_mask_base_uri": "https://maps.gstatic.com/mapfiles/place_api/icons/v2/generic_pinlet",
      "name": "\u7d10\u7d04",
      "photos": [
        {
          "height": 600,
          "html_attributions": [
            "<a href=\"https://maps.google.com/maps/contrib/102389334567210814614\">Bukurie</a>"
          ],
          "photo_reference": "AeJbb3cnjjeRzEFxGnSegNWOepc_jirPIlyzB_KgXRwAg1XL5Xj6Wi6avzq8b2PtA23MyEIJCMGYdP8RfmjplI-nickamHVDN7faVRjdVRibiGqxvAR6DTdHjz8HcnrD-kZQ5sJYLohNXz3geT6iGlIPq7XBH7CAn-Yc-x-HOyYmEpg5FYwX",
          "width": 480
        }
      ],
      "place_id": "ChIJOwg_06VPwokRYv534QaPC8g",
      "reference": "ChIJOwg_06VPwokRYv534QaPC8g",
      "scope": "GOOGLE",
      "types": [
        "locality",
        "political"
      ],
      "vicinity": "\u7d10\u7d04"
    },
    {
      "business_status": "OPERATIONAL",
      "geometry": {
        "location": {
          "lat": 40.8332085,
          "lng": -73.9464337
        },
        "viewport": {
          "northeast": {
            "lat": 40.8344935802915,
            "lng": -73.94513666970849
          },
          "southwest": {
            "lat": 40.8317956197085,
            "lng": -73.94783463029151
          }
        }
      },
      "icon": "https://maps.gstatic.com/mapfiles/place_api/icons/v1/png_71/museum-71.png",
      "icon_background_color": "#13B5C7",
      "icon_mask_base_uri": "https://maps.gstatic.com/mapfiles/place_api/icons/v2/museum_pinlet",
      "name": "Hispanic Society Museum & Library",
      "opening_hours": {
        "open_now": true
      },
      "photos": [
        {
          "height": 853,
          "html_attributions": [
            "<a href=\"https://maps.google.com/maps/contrib/104596856248078658268\">Rouslan Valonen</a>"
          ],
          "photo_reference": "AeJbb3cyn1OhvTNM6GDooTD5wm9BaQ-EBI-Wc1vbyYH4rQmSx7vJGczyT2soIo-QkB3QabQJOhTFg0gAL2lvSBh99iGHKdOgGCzTHkHYu0O8OVZslcYu4KZ74tBWO36_9Jwf5qe8RBF0rQJJOs7h7Y4znbUhHLyxRSDOfs5rny6jBlA8_0ma",
          "width": 1280
        }
      ],
      "place_id": "ChIJv9uJC4b2wokRI7r1wOp3AHw",
      "plus_code": {
        "compound_code": "R3M3+7C \u7f8e\u570b\u7d10\u7d04",
        "global_code": "87G8R3M3+7C"
      },
      "rating": 4.5,
      "reference": "ChIJv9uJC4b2wokRI7r1wOp3AHw",
      "scope": "GOOGLE",
      "types": [
        "museum",
        "tourist_attraction",
        "library",
        "point_of_interest",
        "establishment"
      ],
      "user_ratings_total": 94,
      "vicinity": "613 West 155th Street, New York"
    },
    {
      "business_status": "OPERATIONAL",
      "geometry": {
        "location": {
          "lat": 40.83397009999999,
          "lng": -73.9477843
        },
        "viewport": {
          "northeast": {
            "lat": 40.8354365302915,
            "lng": -73.94652281970849
          },
          "southwest": {
            "lat": 40.8327385697085,
            "lng": -73.9492207802915
          }
        }
      },
      "icon": "https://maps.gstatic.com/mapfiles/place_api/icons/v1/png_71/school-71.png",
      "icon_background_color": "#7B9EB0",
      "icon_mask_base_uri": "https://maps.gstatic.com/mapfiles/place_api/icons/v2/school_pinlet",
      "name": "Soyulla Artists",
      "opening_hours": {
        "open_now": false
      },
      "photos": [
        {
          "height": 680,
          "html_attributions": [
            "<a href=\"https://maps.google.com/maps/contrib/114089566116581447334\">Soyulla Artists</a>"
          ],
          "photo_reference": "AeJbb3dib-cuyKegTYAeWE0f-ygGAFp8y69PQCX0l6BELZqoC1jkfhG-wPELcUWY5TDK8zMtRllsEy_sxRoI8i5eFjY4IgzQ_8il-24akUtFjnmdMhYMuJeGnVni9COvugJ2JHzXgzNeMqN6m6NlmxXlbxAmLaYKLiO7qR49sy1QDj29DKzc",
          "width": 1024
        }
      ],
      "place_id": "ChIJnQ9Lma1QwokR1iIccpMuKUE",
      "plus_code": {
        "compound_code": "R3M2+HV \u7f8e\u570b\u7d10\u7d04",
        "global_code": "87G8R3M2+HV"
      },
      "rating": 5,
      "reference": "ChIJnQ9Lma1QwokR1iIccpMuKUE",
      "scope": "GOOGLE",
      "types": [
        "point_of_interest",
        "establishment"
      ],
      "user_ratings_total": 10,
      "vicinity": "780 Riverside Drive #3F, New York"
    },
    {
      "business_status": "OPERATIONAL",
      "geometry": {
        "location": {
          "lat": 40.8346594,
          "lng": -73.94489109999999
        },
        "viewport": {
          "northeast": {
            "lat": 40.8360640802915,
            "lng": -73.94343786970849
          },
          "southwest": {
            "lat": 40.8333661197085,
            "lng": -73.9461358302915
          }
        }
      },
      "icon": "https://maps.gstatic.com/mapfiles/place_api/icons/v1/png_71/generic_business-71.png",
      "icon_background_color": "#7B9EB0",
      "icon_mask_base_uri": "https://maps.gstatic.com/mapfiles/place_api/icons/v2/generic_pinlet",
      "name": "Planet Fitness",
      "opening_hours": {
        "open_now": true
      },
      "photos": [
        {
          "height": 3840,
          "html_attributions": [
            "<a href=\"https://maps.google.com/maps/contrib/104678870493103258474\">Planet Fitness</a>"
          ],
          "photo_reference": "AeJbb3ejd6MyPt7QcIXSj35e95V71QXL5JitRJK4q4tYRZ6hpnIFcI_AwkntQ7N-a-NI5M_eci4pKW6XCYdmBLLqxsLkMkhSygjpOA7-8TQFz-p6xE1wKf8wQ5gnJBVJ0BuWHilTDm3HuKjdnfvl_plDyBfz34_cQVJSchlGySDPwzbusyZi",
          "width": 5760
        }
      ],
      "place_id": "ChIJBbShzIX2wokRlWY1NelGWGU",
      "plus_code": {
        "compound_code": "R3M4+V2 \u7f8e\u570b\u7d10\u7d04",
        "global_code": "87G8R3M4+V2"
      },
      "rating": 4,
      "reference": "ChIJBbShzIX2wokRlWY1NelGWGU",
      "scope": "GOOGLE",
      "types": [
        "gym",
        "health",
        "point_of_interest",
        "establishment"
      ],
      "user_ratings_total": 602,
      "vicinity": "3799 Broadway, New York"
    },
    {
      "business_status": "OPERATIONAL",
      "geometry": {
        "location": {
          "lat": 40.8284871,
          "lng": -73.9486398
        },
        "viewport": {
          "northeast": {
            "lat": 40.82986073029151,
            "lng": -73.94736171970848
          },
          "southwest": {
            "lat": 40.82716276970851,
            "lng": -73.9500596802915
          }
        }
      },
      "icon": "https://maps.gstatic.com/mapfiles/place_api/icons/v1/png_71/generic_business-71.png",
      "icon_background_color": "#7B9EB0",
      "icon_mask_base_uri": "https://maps.gstatic.com/mapfiles/place_api/icons/v2/generic_pinlet",
      "name": "Harlem Apartments Program",
      "photos": [
        {
          "height": 480,
          "html_attributions": [
            "<a href=\"https://maps.google.com/maps/contrib/114255752026773733276\">Ares Diangelo</a>"
          ],
          "photo_reference": "AeJbb3c-fpAnx_oqrLHJflm47leHpGGeaAQ0Uk7RDUJ4LoxFj0ZVIfAUcdSx8jmH5WLxbfywDPHi7Hpl5dWs1iKCRgPkdqZB0nVfQ9IeCrChWMsL5aT6aWxWffIQn298il4Fl6892qooqIMcPAcS7tnloX3ThAWZiuZ07o_GVQks8i2UPn0R",
          "width": 640
        }
      ],
      "place_id": "ChIJp1dprGL2wokRUbeY6BLo3Fs",
      "plus_code": {
        "compound_code": "R3H2+9G \u7f8e\u570b\u7d10\u7d04",
        "global_code": "87G8R3H2+9G"
      },
      "rating": 3.4,
      "reference": "ChIJp1dprGL2wokRUbeY6BLo3Fs",
      "scope": "GOOGLE",
      "types": [
        "health",
        "point_of_interest",
        "establishment"
      ],
      "user_ratings_total": 5,
      "vicinity": "567 West 149th Street #1, New York"
    },
    {
      "business_status": "OPERATIONAL",
      "geometry": {
        "location": {
          "lat": 40.8288033,
          "lng": -73.94521999999999
        },
        "viewport": {
          "northeast": {
            "lat": 40.82997758029151,
            "lng": -73.9439598197085
          },
          "southwest": {
            "lat": 40.82727961970851,
            "lng": -73.9466577802915
          }
        }
      },
      "icon": "https://maps.gstatic.com/mapfiles/place_api/icons/v1/png_71/school-71.png",
      "icon_background_color": "#7B9EB0",
      "icon_mask_base_uri": "https://maps.gstatic.com/mapfiles/place_api/icons/v2/school_pinlet",
      "name": "New Heights Academy Charter School.",
      "opening_hours": {
        "open_now": false
      },
      "place_id": "ChIJ305wfH32wokRWtxnCud2NN0",
      "plus_code": {
        "compound_code": "R3H3+GW \u7f8e\u570b\u7d10\u7d04",
        "global_code": "87G8R3H3+GW"
      },
      "rating": 3,
      "reference": "ChIJ305wfH32wokRWtxnCud2NN0",
      "scope": "GOOGLE",
      "types": [
        "school",
        "point_of_interest",
        "establishment"
      ],
      "user_ratings_total": 54,
      "vicinity": "1818 Amsterdam Avenue, New York"
    },
    {
      "business_status": "OPERATIONAL",
      "geometry": {
        "location": {
          "lat": 40.8315644,
          "lng": -73.94247589999999
        },
        "viewport": {
          "northeast": {
            "lat": 40.8327556802915,
            "lng": -73.94054771970849
          },
          "southwest": {
            "lat": 40.8300577197085,
            "lng": -73.9432456802915
          }
        }
      },
      "icon": "https://maps.gstatic.com/mapfiles/place_api/icons/v1/png_71/school-71.png",
      "icon_background_color": "#7B9EB0",
      "icon_mask_base_uri": "https://maps.gstatic.com/mapfiles/place_api/icons/v2/school_pinlet",
      "name": "Public School 28",
      "place_id": "ChIJ9aslM4H2wokRKqFNbgBnGwg",
      "plus_code": {
        "compound_code": "R3J5+J2 \u7f8e\u570b\u7d10\u7d04",
        "global_code": "87G8R3J5+J2"
      },
      "rating": 5,
      "reference": "ChIJ9aslM4H2wokRKqFNbgBnGwg",
      "scope": "GOOGLE",
      "types": [
        "school",
        "point_of_interest",
        "establishment"
      ],
      "user_ratings_total": 1,
      "vicinity": "\u7d10\u7d04"
    },
    {
      "business_status": "OPERATIONAL",
      "geometry": {
        "location": {
          "lat": 40.8306732,
          "lng": -73.9453636
        },
        "viewport": {
          "northeast": {
            "lat": 40.8320966802915,
            "lng": -73.9439529197085
          },
          "southwest": {
            "lat": 40.8293987197085,
            "lng": -73.9466508802915
          }
        }
      },
      "icon": "https://maps.gstatic.com/mapfiles/place_api/icons/v1/png_71/worship_general-71.png",
      "icon_background_color": "#7B9EB0",
      "icon_mask_base_uri": "https://maps.gstatic.com/mapfiles/place_api/icons/v2/worship_christian_pinlet",
      "name": "Holy Fathers Russian Orthodox Church",
      "place_id": "ChIJH_6cr4f2wokRs6gXI529LqE",
      "plus_code": {
        "compound_code": "R3J3+7V \u7f8e\u570b\u7d10\u7d04",
        "global_code": "87G8R3J3+7V"
      },
      "rating": 4.3,
      "reference": "ChIJH_6cr4f2wokRs6gXI529LqE",
      "scope": "GOOGLE",
      "types": [
        "church",
        "place_of_worship",
        "point_of_interest",
        "establishment"
      ],
      "user_ratings_total": 6,
      "vicinity": "524 West 153 Street, New York"
    },
    {
      "business_status": "OPERATIONAL",
      "geometry": {
        "location": {
          "lat": 40.828717,
          "lng": -73.9484209
        },
        "viewport": {
          "northeast": {
            "lat": 40.83010488029149,
            "lng": -73.9471632697085
          },
          "southwest": {
            "lat": 40.82740691970849,
            "lng": -73.94986123029152
          }
        }
      },
      "icon": "https://maps.gstatic.com/mapfiles/place_api/icons/v1/png_71/restaurant-71.png",
      "icon_background_color": "#FF9E67",
      "icon_mask_base_uri": "https://maps.gstatic.com/mapfiles/place_api/icons/v2/restaurant_pinlet",
      "name": "Harlem Public",
      "opening_hours": {
        "open_now": true
      },
      "photos": [
        {
          "height": 384,
          "html_attributions": [
            "<a href=\"https://maps.google.com/maps/contrib/108412632605537427586\">Harlem Public</a>"
          ],
          "photo_reference": "AeJbb3cLu75HaFNy-rljzJ9Ni0kflLhU29gWcTZ4m8zsGz8NrzmjblNF4RQEuyNHxxjDRAH_Z19T2iYa6PgPk2P2VkBi8m5zOZZ69bOIq9dDKwEAU7CCWYxe2ZrkOj-BBHFaZpybkCvzSqMYioOl9csSnFc29031uE3SXgP8_y89xEU8tj1p",
          "width": 512
        }
      ],
      "place_id": "ChIJ1bpep2L2wokRjaoBxorAv1Q",
      "plus_code": {
        "compound_code": "R3H2+FJ \u7f8e\u570b\u7d10\u7d04",
        "global_code": "87G8R3H2+FJ"
      },
      "price_level": 2,
      "rating": 4.5,
      "reference": "ChIJ1bpep2L2wokRjaoBxorAv1Q",
      "scope": "GOOGLE",
      "types": [
        "meal_delivery",
        "bar",
        "restaurant",
        "food",
        "point_of_interest",
        "establishment"
      ],
      "user_ratings_total": 1788,
      "vicinity": "3612 Broadway, New York"
    },
    {
      "business_status": "OPERATIONAL",
      "geometry": {
        "location": {
          "lat": 40.8285814,
          "lng": -73.9485287
        },
        "viewport": {
          "northeast": {
            "lat": 40.8299554302915,
            "lng": -73.94727531970848
          },
          "southwest": {
            "lat": 40.8272574697085,
            "lng": -73.9499732802915
          }
        }
      },
      "icon": "https://maps.gstatic.com/mapfiles/place_api/icons/v1/png_71/cafe-71.png",
      "icon_background_color": "#FF9E67",
      "icon_mask_base_uri": "https://maps.gstatic.com/mapfiles/place_api/icons/v2/cafe_pinlet",
      "name": "The Chipped Cup",
      "opening_hours": {
        "open_now": true
      },
      "photos": [
        {
          "height": 358,
          "html_attributions": [
            "<a href=\"https://maps.google.com/maps/contrib/114192839613724944476\">The Chipped Cup</a>"
          ],
          "photo_reference": "AeJbb3d3F2Q3WbF4Hieuhc1kfnSXzAZP4uBaldJjs_JGjIQZ2N4JT0FYpPd17alaSu-YT5aAK1-xWlCjuyh6u2_cXAS6GhBb_rGCx-qB3RgvmuZKaAQGPlV3BLBJm3lrf-lBkNPJQdR_PCNlKBoJ9Iq0QycMKh9GSOX5KZsYlUB_NTlfivaN",
          "width": 512
        }
      ],
      "place_id": "ChIJBWDRs4pYwokRTZSRfygDjhc",
      "plus_code": {
        "compound_code": "R3H2+CH \u7f8e\u570b\u7d10\u7d04",
        "global_code": "87G8R3H2+CH"
      },
      "price_level": 2,
      "rating": 4.5,
      "reference": "ChIJBWDRs4pYwokRTZSRfygDjhc",
      "scope": "GOOGLE",
      "types": [
        "cafe",
        "store",
        "food",
        "point_of_interest",
        "establishment"
      ],
      "user_ratings_total": 535,
      "vicinity": "3610 Broadway, New York"
    },
    {
      "business_status": "OPERATIONAL",
      "geometry": {
        "location": {
          "lat": 40.8299318,
          "lng": -73.9445704
        },
        "viewport": {
          "northeast": {
            "lat": 40.83118913029151,
            "lng": -73.94319851970849
          },
          "southwest": {
            "lat": 40.82849116970851,
            "lng": -73.94589648029151
          }
        }
      },
      "icon": "https://maps.gstatic.com/mapfiles/place_api/icons/v1/png_71/school-71.png",
      "icon_background_color": "#7B9EB0",
      "icon_mask_base_uri": "https://maps.gstatic.com/mapfiles/place_api/icons/v2/school_pinlet",
      "name": "P.S./I.S. 210 - Twenty-first Century Academy for Community Leadership",
      "photos": [
        {
          "height": 3024,
          "html_attributions": [
            "<a href=\"https://maps.google.com/maps/contrib/116215468501631584836\">Muhammad Qasim</a>"
          ],
          "photo_reference": "AeJbb3fmHT6O2s6OL-1wTYXXlI65-Qgsz9Eqs0L3GnDIzaE1EmMheb9qn183m2NIO_jaJZY7XpKNcs08woQC2uRnNBsmBWE0fIXR4pg4Ev6EzWslnSHWOUvhto-8C3iV-dXiMdUumtH5cTX0NbKtPVxxQZHhZL7JnL_a_ReUAf0PkzAnqAD6",
          "width": 4032
        }
      ],
      "place_id": "ChIJQ4h4c4f2wokRVbh6TOLmBQE",
      "plus_code": {
        "compound_code": "R3H4+X5 \u7f8e\u570b\u7d10\u7d04",
        "global_code": "87G8R3H4+X5"
      },
      "rating": 4.2,
      "reference": "ChIJQ4h4c4f2wokRVbh6TOLmBQE",
      "scope": "GOOGLE",
      "types": [
        "school",
        "point_of_interest",
        "establishment"
      ],
      "user_ratings_total": 26,
      "vicinity": "501-503 West 152nd Street, New York"
    },
    {
      "business_status": "OPERATIONAL",
      "geometry": {
        "location": {
          "lat": 40.8321867,
          "lng": -73.9449908
        },
        "viewport": {
          "northeast": {
            "lat": 40.8336251802915,
            "lng": -73.9435756697085
          },
          "southwest": {
            "lat": 40.8309272197085,
            "lng": -73.9462736302915
          }
        }
      },
      "icon": "https://maps.gstatic.com/mapfiles/place_api/icons/v1/png_71/worship_general-71.png",
      "icon_background_color": "#7B9EB0",
      "icon_mask_base_uri": "https://maps.gstatic.com/mapfiles/place_api/icons/v2/worship_christian_pinlet",
      "name": "\u4ee3\u79b1\u6559\u5802",
      "opening_hours": {
        "open_now": true
      },
      "photos": [
        {
          "height": 4032,
          "html_attributions": [
            "<a href=\"https://maps.google.com/maps/contrib/114015510953830713297\">Iv\u00e1n Zaruma Remache</a>"
          ],
          "photo_reference": "AeJbb3cSkXrd8QRLQrzJCZ0N-bUXDrCiAf4AQmPMMQTk4FuNH2s3-wZQaEc8bH-urg21leGTcuq5Yi25JlJOdFwelJw2hSfUKrp-GtRU5Gi3TcZp72e-AJA0NuHz9lm9cDB8OiNkQq-mbYAzru6yeOvYU4zngt7gAo-IcZzlkqm9yD49TWdm",
          "width": 2268
        }
      ],
      "place_id": "ChIJJ4-KXIb2wokR0L9jbeWru6Q",
      "plus_code": {
        "compound_code": "R3J4+V2 \u7f8e\u570b\u7d10\u7d04",
        "global_code": "87G8R3J4+V2"
      },
      "rating": 4.6,
      "reference": "ChIJJ4-KXIb2wokR0L9jbeWru6Q",
      "scope": "GOOGLE",
      "types": [
        "tourist_attraction",
        "church",
        "place_of_worship",
        "point_of_interest",
        "establishment"
      ],
      "user_ratings_total": 69,
      "vicinity": "550 West 155th Street, New York"
    },
    {
      "business_status": "OPERATIONAL",
      "geometry": {
        "location": {
          "lat": 40.8344549,
          "lng": -73.949041
        },
        "viewport": {
          "northeast": {
            "lat": 40.8358066802915,
            "lng": -73.9476903197085
          },
          "southwest": {
            "lat": 40.8331087197085,
            "lng": -73.9503882802915
          }
        }
      },
      "icon": "https://maps.gstatic.com/mapfiles/place_api/icons/v1/png_71/generic_business-71.png",
      "icon_background_color": "#7B9EB0",
      "icon_mask_base_uri": "https://maps.gstatic.com/mapfiles/place_api/icons/v2/generic_pinlet",
      "name": "CityWalk",
      "place_id": "ChIJk6noaY_2wokRjEmSyJnbhpo",
      "plus_code": {
        "compound_code": "R3M2+Q9 \u7f8e\u570b\u7d10\u7d04",
        "global_code": "87G8R3M2+Q9"
      },
      "rating": 4,
      "reference": "ChIJk6noaY_2wokRjEmSyJnbhpo",
      "scope": "GOOGLE",
      "types": [
        "health",
        "point_of_interest",
        "establishment"
      ],
      "user_ratings_total": 1,
      "vicinity": "157-10 Riverside Drive, New York"
    },
    {
      "business_status": "OPERATIONAL",
      "geometry": {
        "location": {
          "lat": 40.83239809999999,
          "lng": -73.94202109999999
        },
        "viewport": {
          "northeast": {
            "lat": 40.83380538029149,
            "lng": -73.94081031970849
          },
          "southwest": {
            "lat": 40.83110741970849,
            "lng": -73.94350828029151
          }
        }
      },
      "icon": "https://maps.gstatic.com/mapfiles/place_api/icons/v1/png_71/generic_business-71.png",
      "icon_background_color": "#7B9EB0",
      "icon_mask_base_uri": "https://maps.gstatic.com/mapfiles/place_api/icons/v2/generic_pinlet",
      "name": "Visiting Nurse Services of NY",
      "place_id": "ChIJwQJ3sob2wokRP0Ij8TWr2Ek",
      "plus_code": {
        "compound_code": "R3J5+X5 \u7f8e\u570b\u7d10\u7d04",
        "global_code": "87G8R3J5+X5"
      },
      "reference": "ChIJwQJ3sob2wokRP0Ij8TWr2Ek",
      "scope": "GOOGLE",
      "types": [
        "health",
        "point_of_interest",
        "establishment"
      ],
      "vicinity": "1945 Amsterdam Avenue, New York"
    },
    {
      "business_status": "OPERATIONAL",
      "geometry": {
        "location": {
          "lat": 40.83414250000001,
          "lng": -73.9455172
        },
        "viewport": {
          "northeast": {
            "lat": 40.8354913302915,
            "lng": -73.9440875697085
          },
          "southwest": {
            "lat": 40.8327933697085,
            "lng": -73.9467855302915
          }
        }
      },
      "icon": "https://maps.gstatic.com/mapfiles/place_api/icons/v1/png_71/generic_business-71.png",
      "icon_background_color": "#7B9EB0",
      "icon_mask_base_uri": "https://maps.gstatic.com/mapfiles/place_api/icons/v2/generic_pinlet",
      "name": "Buena Vista Vision Center",
      "place_id": "ChIJ99Sw04X2wokRn9ULoNc-YHg",
      "plus_code": {
        "compound_code": "R3M3+MQ \u7f8e\u570b\u7d10\u7d04",
        "global_code": "87G8R3M3+MQ"
      },
      "rating": 2.2,
      "reference": "ChIJ99Sw04X2wokRn9ULoNc-YHg",
      "scope": "GOOGLE",
      "types": [
        "health",
        "point_of_interest",
        "establishment"
      ],
      "user_ratings_total": 30,
      "vicinity": "3777 Broadway, New York"
    },
    {
      "business_status": "OPERATIONAL",
      "geometry": {
        "location": {
          "lat": 40.83439829999999,
          "lng": -73.9442056
        },
        "viewport": {
          "northeast": {
            "lat": 40.83581958029148,
            "lng": -73.9429708197085
          },
          "southwest": {
            "lat": 40.83312161970849,
            "lng": -73.94566878029151
          }
        }
      },
      "icon": "https://maps.gstatic.com/mapfiles/place_api/icons/v1/png_71/bank-71.png",
      "icon_background_color": "#909CE1",
      "icon_mask_base_uri": "https://maps.gstatic.com/mapfiles/place_api/icons/v2/bank-intl_pinlet",
      "name": "TD \u9280\u884c",
      "opening_hours": {
        "open_now": false
      },
      "photos": [
        {
          "height": 1801,
          "html_attributions": [
            "<a href=\"https://maps.google.com/maps/contrib/112776849891208886356\">Jay Santiago</a>"
          ],
          "photo_reference": "AeJbb3eTAq4DO0xK82cr-0ZunUd9nWJbOnfACL6m8eZWyNYgL6p6SiCm8TcEjj0VYqA_t8G-b2TaDETl-STalKj9qjg3sjCc_tU-MquF7dGy29ItiZ5cLtHTa8NHAYLCpNRbGAAvE4NonMdiY3Om4N1sEAUz3aykU4RgOKbRFwUGbTtMigSx",
          "width": 912
        }
      ],
      "place_id": "ChIJSakGrIT2wokRWERctRiGrKI",
      "plus_code": {
        "compound_code": "R3M4+Q8 \u7f8e\u570b\u7d10\u7d04",
        "global_code": "87G8R3M4+Q8"
      },
      "rating": 3.2,
      "reference": "ChIJSakGrIT2wokRWERctRiGrKI",
      "scope": "GOOGLE",
      "types": [
        "bank",
        "atm",
        "finance",
        "point_of_interest",
        "establishment"
      ],
      "user_ratings_total": 73,
      "vicinity": "3798 Broadway, New York"
    },
    {
      "business_status": "OPERATIONAL",
      "geometry": {
        "location": {
          "lat": 40.83492239999999,
          "lng": -73.9445894
        },
        "viewport": {
          "northeast": {
            "lat": 40.8362348302915,
            "lng": -73.9431681197085
          },
          "southwest": {
            "lat": 40.8335368697085,
            "lng": -73.94586608029151
          }
        }
      },
      "icon": "https://maps.gstatic.com/mapfiles/place_api/icons/v1/png_71/shopping-71.png",
      "icon_background_color": "#4B96F3",
      "icon_mask_base_uri": "https://maps.gstatic.com/mapfiles/place_api/icons/v2/shopping_pinlet",
      "name": "24-7 Discount Center",
      "opening_hours": {
        "open_now": true
      },
      "place_id": "ChIJzwP1SoT2wokR5b5x_VuVXG8",
      "plus_code": {
        "compound_code": "R3M4+X5 \u7f8e\u570b\u7d10\u7d04",
        "global_code": "87G8R3M4+X5"
      },
      "rating": 3,
      "reference": "ChIJzwP1SoT2wokR5b5x_VuVXG8",
      "scope": "GOOGLE",
      "types": [
        "store",
        "point_of_interest",
        "establishment"
      ],
      "user_ratings_total": 1,
      "vicinity": "3801 Broadway, New York"
    },
    {
      "business_status": "OPERATIONAL",
      "geometry": {
        "location": {
          "lat": 40.83410019999999,
          "lng": -73.9443939
        },
        "viewport": {
          "northeast": {
            "lat": 40.8353862302915,
            "lng": -73.9431735197085
          },
          "southwest": {
            "lat": 40.83268826970851,
            "lng": -73.9458714802915
          }
        }
      },
      "icon": "https://maps.gstatic.com/mapfiles/place_api/icons/v1/png_71/shopping-71.png",
      "icon_background_color": "#4B96F3",
      "icon_mask_base_uri": "https://maps.gstatic.com/mapfiles/place_api/icons/v2/shopping_pinlet",
      "name": "T-Mobile",
      "opening_hours": {
        "open_now": true
      },
      "photos": [
        {
          "height": 566,
          "html_attributions": [
            "<a href=\"https://maps.google.com/maps/contrib/115749244048903741973\">T-Mobile</a>"
          ],
          "photo_reference": "AeJbb3dN-a01UR8cqNhYWX5xdearwiin5V62TUAvrNMJN7kB2GL7eRLxKtwd3Tc_VcKI10B8sAFvhGD7ftIJbJXlylh0ZEahETXGB9Ewt4_yi4-jp9VLsY4vGIvfvwI40fN6KniNarQV2aAnPcbeB9QgdBiyO2c05AUy1DrZwDjC3Afa6MwJ",
          "width": 835
        }
      ],
      "place_id": "ChIJl4JRMoT2wokRkHnPgl3GIsI",
      "plus_code": {
        "compound_code": "R3M4+J6 \u7f8e\u570b\u7d10\u7d04",
        "global_code": "87G8R3M4+J6"
      },
      "price_level": 2,
      "rating": 4.1,
      "reference": "ChIJl4JRMoT2wokRkHnPgl3GIsI",
      "scope": "GOOGLE",
      "types": [
        "store",
        "point_of_interest",
        "establishment"
      ],
      "user_ratings_total": 69,
      "vicinity": "3780 Broadway, New York"
    },
    {
      "business_status": "OPERATIONAL",
      "geometry": {
        "location": {
          "lat": 40.8288143,
          "lng": -73.943716
        },
        "viewport": {
          "northeast": {
            "lat": 40.8300913802915,
            "lng": -73.94256031970849
          },
          "southwest": {
            "lat": 40.82739341970851,
            "lng": -73.9452582802915
          }
        }
      },
      "icon": "https://maps.gstatic.com/mapfiles/place_api/icons/v1/png_71/civic_building-71.png",
      "icon_background_color": "#7B9EB0",
      "icon_mask_base_uri": "https://maps.gstatic.com/mapfiles/place_api/icons/v2/civic-bldg_pinlet",
      "name": "New York City Police Department - 30th Precinct",
      "place_id": "ChIJW8ouY4f2wokRh_792TmEzlA",
      "plus_code": {
        "compound_code": "R3H4+GG \u7f8e\u570b\u7d10\u7d04",
        "global_code": "87G8R3H4+GG"
      },
      "rating": 2.9,
      "reference": "ChIJW8ouY4f2wokRh_792TmEzlA",
      "scope": "GOOGLE",
      "types": [
        "police",
        "point_of_interest",
        "establishment"
      ],
      "user_ratings_total": 23,
      "vicinity": "451 West 151st Street, New York"
    },
    {
      "geometry": {
        "location": {
          "lat": 40.8240478,
          "lng": -73.9447643
        },
        "viewport": {
          "northeast": {
            "lat": 40.87822003591612,
            "lng": -73.91064591328563
          },
          "southwest": {
            "lat": 40.78278392408598,
            "lng": -73.97119006413347
          }
        }
      },
      "icon": "https://maps.gstatic.com/mapfiles/place_api/icons/v1/png_71/geocode-71.png",
      "icon_background_color": "#7B9EB0",
      "icon_mask_base_uri": "https://maps.gstatic.com/mapfiles/place_api/icons/v2/generic_pinlet",
      "name": "\u66fc\u54c8\u9813\u4e0a\u57ce",
      "photos": [
        {
          "height": 4000,
          "html_attributions": [
            "<a href=\"https://maps.google.com/maps/contrib/108665206705263687409\">Chris Lidstone</a>"
          ],
          "photo_reference": "AeJbb3f74E7yD3aPLgw-MhZQjuR6A5fXWWWiK3f79KoYPQL-itcxSG3auFWo5tD9lXvDIEl2K_9ENnMjToyHMzw9itV2gjswALyX6jIpjkTdGlIAWdtUlt7fQfrgrHg1e5SsG4I6_fcSVcI58kDyJHcrteOgO48114bseNlA82qUm74LAJ61",
          "width": 3000
        }
      ],
      "place_id": "ChIJY50xHxP2wokR7WhhDNRmgRU",
      "reference": "ChIJY50xHxP2wokR7WhhDNRmgRU",
      "scope": "GOOGLE",
      "types": [
        "neighborhood",
        "political"
      ],
      "vicinity": "\u66fc\u54c8\u9813"
    },
    {
      "business_status": "OPERATIONAL",
      "geometry": {
        "location": {
          "lat": 40.832786,
          "lng": -73.945385
        },
        "viewport": {
          "northeast": {
            "lat": 40.8341843802915,
            "lng": -73.9440983697085
          },
          "southwest": {
            "lat": 40.8314864197085,
            "lng": -73.9467963302915
          }
        }
      },
      "icon": "https://maps.gstatic.com/mapfiles/place_api/icons/v1/png_71/gas_station-71.png",
      "icon_background_color": "#909CE1",
      "icon_mask_base_uri": "https://maps.gstatic.com/mapfiles/place_api/icons/v2/gas_pinlet",
      "name": "Mobil",
      "opening_hours": {
        "open_now": true
      },
      "photos": [
        {
          "height": 12000,
          "html_attributions": [
            "<a href=\"https://maps.google.com/maps/contrib/100857778970154176075\">Jesus Palalia</a>"
          ],
          "photo_reference": "AeJbb3ew4EzZYurSunEfsxV1EtfYIk-Gf5Yhq_67m1dIVTcFaWyP6ASMAPLxPY_8Ut0-3ApTETuaN7Kaf9QizIUnmZHU8R_L-ddETQ6ssiSIH_xWgJXjsfpwgUlbzZBhgwMl7cxXb_OU9gIZkiLvTpzsUkKU04Yee_2JdVDHP7kU-rwQuicY",
          "width": 9000
        }
      ],
      "place_id": "ChIJDb9nZIb2wokR3Up5iNU1ARY",
      "plus_code": {
        "compound_code": "R3M3+4R New York, NY, USA",
        "global_code": "87G8R3M3+4R"
      },
      "rating": 3.8,
      "reference": "ChIJDb9nZIb2wokR3Up5iNU1ARY",
      "scope": "GOOGLE",
      "types": [
        "gas_station",
        "point_of_interest",
        "establishment"
      ],
      "user_ratings_total": 156,
      "vicinity": "3740 Broadway, New York"
    },
    {
      "business_status": "OPERATIONAL",
      "geometry": {
        "location": {
          "lat": 40.8338195,
          "lng": -73.9428018
        },
        "viewport": {
          "northeast": {
            "lat": 40.83523788029149,
            "lng": -73.9414016697085
          },
          "southwest": {
            "lat": 40.83253991970849,
            "lng": -73.9440996302915
          }
        }
      },
      "icon": "https://maps.gstatic.com/mapfiles/place_api/icons/v1/png_71/generic_business-71.png",
      "icon_background_color": "#7B9EB0",
      "icon_mask_base_uri": "https://maps.gstatic.com/mapfiles/place_api/icons/v2/generic_pinlet",
      "name": "Time Zone International",
      "place_id": "ChIJIzutyVL3wokRclfr0YZ_Ykg",
      "plus_code": {
        "compound_code": "R3M4+GV New York, NY, USA",
        "global_code": "87G8R3M4+GV"
      },
      "rating": 4.7,
      "reference": "ChIJIzutyVL3wokRclfr0YZ_Ykg",
      "scope": "GOOGLE",
      "types": [
        "point_of_interest",
        "establishment"
      ],
      "user_ratings_total": 3,
      "vicinity": "544 West 157th Street #71, New York"
    },
    {
      "business_status": "OPERATIONAL",
      "geometry": {
        "location": {
          "lat": 40.8320566,
          "lng": -73.9430007
        },
        "viewport": {
          "northeast": {
            "lat": 40.83334608029151,
            "lng": -73.9415101197085
          },
          "southwest": {
            "lat": 40.83064811970851,
            "lng": -73.9442080802915
          }
        }
      },
      "icon": "https://maps.gstatic.com/mapfiles/place_api/icons/v1/png_71/generic_business-71.png",
      "icon_background_color": "#7B9EB0",
      "icon_mask_base_uri": "https://maps.gstatic.com/mapfiles/place_api/icons/v2/generic_pinlet",
      "name": "CenterLight Healthcare Dunwell Alternative Care Setting",
      "place_id": "ChIJo_hIx4b2wokRLVB-49tyUC0",
      "plus_code": {
        "compound_code": "R3J4+RQ New York, NY, USA",
        "global_code": "87G8R3J4+RQ"
      },
      "rating": 5,
      "reference": "ChIJo_hIx4b2wokRLVB-49tyUC0",
      "scope": "GOOGLE",
      "types": [
        "health",
        "point_of_interest",
        "establishment"
      ],
      "user_ratings_total": 2,
      "vicinity": "1920 Amsterdam Avenue, New York"
    },
    {
      "business_status": "OPERATIONAL",
      "geometry": {
        "location": {
          "lat": 40.8334361,
          "lng": -73.9457864
        },
        "viewport": {
          "northeast": {
            "lat": 40.8347342302915,
            "lng": -73.94431271970849
          },
          "southwest": {
            "lat": 40.8320362697085,
            "lng": -73.9470106802915
          }
        }
      },
      "icon": "https://maps.gstatic.com/mapfiles/place_api/icons/v1/png_71/school-71.png",
      "icon_background_color": "#7B9EB0",
      "icon_mask_base_uri": "https://maps.gstatic.com/mapfiles/place_api/icons/v2/school_pinlet",
      "name": "Boricua College",
      "photos": [
        {
          "height": 2268,
          "html_attributions": [
            "<a href=\"https://maps.google.com/maps/contrib/114015510953830713297\">Iv\u00e1n Zaruma Remache</a>"
          ],
          "photo_reference": "AeJbb3dnPOC-13gCRpaf79pKAiK8QMzrUPfD9iw_JUxlKUn6LyI9NtoOPBHeAx7TTgDGS6k94-VpVgaTX5q7w2b8IkI9eyocDVguZjVyBJQMDrt4Gc8ALaFyONG4v03wRG2u-gZRdpnbaji9CVLfMnJjKD6E0TxQNibEigviETRGFeWGOhiU",
          "width": 4032
        }
      ],
      "place_id": "ChIJqanlC4b2wokRDc3-L9BLWFc",
      "plus_code": {
        "compound_code": "R3M3+9M New York, NY, USA",
        "global_code": "87G8R3M3+9M"
      },
      "rating": 4,
      "reference": "ChIJqanlC4b2wokRDc3-L9BLWFc",
      "scope": "GOOGLE",
      "types": [
        "university",
        "point_of_interest",
        "establishment"
      ],
      "user_ratings_total": 41,
      "vicinity": "3755 Broadway, New York"
    },
    {
      "business_status": "OPERATIONAL",
      "geometry": {
        "location": {
          "lat": 40.8335503,
          "lng": -73.94429420000002
        },
        "viewport": {
          "northeast": {
            "lat": 40.8349995802915,
            "lng": -73.9428595197085
          },
          "southwest": {
            "lat": 40.8323016197085,
            "lng": -73.94555748029151
          }
        }
      },
      "icon": "https://maps.gstatic.com/mapfiles/place_api/icons/v1/png_71/generic_business-71.png",
      "icon_background_color": "#7B9EB0",
      "icon_mask_base_uri": "https://maps.gstatic.com/mapfiles/place_api/icons/v2/generic_pinlet",
      "name": "Amatrula Pet Portraits",
      "photos": [
        {
          "height": 347,
          "html_attributions": [
            "<a href=\"https://maps.google.com/maps/contrib/102087766768901905754\">Amatrula Pet Portraits</a>"
          ],
          "photo_reference": "AeJbb3egOCN_L24fR0HliABw7RI6179m46ZVMlvXE00nT8XjyoiFQkt9l5l8nM2Xt4bq7tm83LwJbjScOBl2y1p76qwAeWmA1CP9j4WGDx4-cKNk7mbXIO_VGwxd_2HgkEY07HtIWK_sn_4_vCH80w5Z4BOlGOtOO_sNziakUSCJFrJBPrao",
          "width": 440
        }
      ],
      "place_id": "ChIJYTtIKYT2wokR5kgyili0-pg",
      "plus_code": {
        "compound_code": "R3M4+C7 New York, NY, USA",
        "global_code": "87G8R3M4+C7"
      },
      "reference": "ChIJYTtIKYT2wokR5kgyili0-pg",
      "scope": "GOOGLE",
      "types": [
        "point_of_interest",
        "establishment"
      ],
      "vicinity": "544 West 157th Street, New York"
    },
    {
      "business_status": "OPERATIONAL",
      "geometry": {
        "location": {
          "lat": 40.8287913,
          "lng": -73.9484121
        },
        "viewport": {
          "northeast": {
            "lat": 40.83017093029149,
            "lng": -73.94713826970849
          },
          "southwest": {
            "lat": 40.8274729697085,
            "lng": -73.94983623029151
          }
        }
      },
      "icon": "https://maps.gstatic.com/mapfiles/place_api/icons/v1/png_71/hospital-71.png",
      "icon_background_color": "#F88181",
      "icon_mask_base_uri": "https://maps.gstatic.com/mapfiles/place_api/icons/v2/hospital-H_pinlet",
      "name": "Washington Heights Pediatrics",
      "opening_hours": {
        "open_now": false
      },
      "photos": [
        {
          "height": 4032,
          "html_attributions": [
            "<a href=\"https://maps.google.com/maps/contrib/100643054801855594415\">Jane L</a>"
          ],
          "photo_reference": "AeJbb3crFpZae8TbMRsW_t7ZKRQAl5f2zQGRwp7VF2ibMWWigtnPFPbVWThj-EQ2VXmcvPP6rFbI5KUZ-kKbmFdrfvDjHbf8l1rSlcpbj0qXtxhEib-2q1A0xQwj6Ff3lWzJNgx5D2Z4VSME58JQYIi3OdXemsylHZOA6Tf1_Bvjfvky_6ix",
          "width": 3024
        }
      ],
      "place_id": "ChIJC4OooWL2wokRk6r1GVR3ER0",
      "plus_code": {
        "compound_code": "R3H2+GJ New York, NY, USA",
        "global_code": "87G8R3H2+GJ"
      },
      "rating": 4.4,
      "reference": "ChIJC4OooWL2wokRk6r1GVR3ER0",
      "scope": "GOOGLE",
      "types": [
        "hospital",
        "health",
        "point_of_interest",
        "establishment"
      ],
      "user_ratings_total": 14,
      "vicinity": "3612-18, 3618 Broadway, New York"
    },
    {
      "business_status": "OPERATIONAL",
      "geometry": {
        "location": {
          "lat": 40.8306137,
          "lng": -73.9471071
        },
        "viewport": {
          "northeast": {
            "lat": 40.8320013302915,
            "lng": -73.9458205697085
          },
          "southwest": {
            "lat": 40.8293033697085,
            "lng": -73.94851853029151
          }
        }
      },
      "icon": "https://maps.gstatic.com/mapfiles/place_api/icons/v1/png_71/generic_business-71.png",
      "icon_background_color": "#7B9EB0",
      "icon_mask_base_uri": "https://maps.gstatic.com/mapfiles/place_api/icons/v2/generic_pinlet",
      "name": "Madison Avenue Radiology Center",
      "opening_hours": {
        "open_now": false
      },
      "photos": [
        {
          "height": 4032,
          "html_attributions": [
            "<a href=\"https://maps.google.com/maps/contrib/112687896851136376092\">Anna Hamilton</a>"
          ],
          "photo_reference": "AeJbb3chQ-zeeLG2_1huSTPFgNzz4vk4acdmMdM4rUMko2dKfjSeMh5cgQ01QWwAxWAZHb-qTzIvU5MdltkuCf-ZkNW_VRsaLsfmbVajzQjcuCcM7gHH5MxPZz4ptApfgmYCcomT4KkiyxcNqYRsuZwv-EBJwYWJoQ5VN0J6rTvFq4reFXF2",
          "width": 3024
        }
      ],
      "place_id": "ChIJORGeCoj2wokRxkcEkY0MKUk",
      "plus_code": {
        "compound_code": "R3J3+65 New York, NY, USA",
        "global_code": "87G8R3J3+65"
      },
      "rating": 2.8,
      "reference": "ChIJORGeCoj2wokRxkcEkY0MKUk",
      "scope": "GOOGLE",
      "types": [
        "health",
        "point_of_interest",
        "establishment"
      ],
      "user_ratings_total": 10,
      "vicinity": "3672 Broadway, New York"
    },
    {
      "business_status": "OPERATIONAL",
      "geometry": {
        "location": {
          "lat": 40.830039,
          "lng": -73.943675
        },
        "viewport": {
          "northeast": {
            "lat": 40.8314871802915,
            "lng": -73.94241891970849
          },
          "southwest": {
            "lat": 40.8287892197085,
            "lng": -73.94511688029151
          }
        }
      },
      "icon": "https://maps.gstatic.com/mapfiles/place_api/icons/v1/png_71/generic_business-71.png",
      "icon_background_color": "#7B9EB0",
      "icon_mask_base_uri": "https://maps.gstatic.com/mapfiles/place_api/icons/v2/generic_pinlet",
      "name": "Mickeys Sunset Funeral Service's, Inc.",
      "opening_hours": {
        "open_now": false
      },
      "photos": [
        {
          "height": 2547,
          "html_attributions": [
            "<a href=\"https://maps.google.com/maps/contrib/106623882990849129290\">Amelia L</a>"
          ],
          "photo_reference": "AeJbb3dNOrqNqcuG867pC7JqIgHTgTa8n3mZsba6QTa3HBJaxHh1YOL1kgB2C4K1DkkdwY_Bnmf4osb4dEmqR0qdudItCL4-IHkd_YWHiFDvvk30o7649FOWonYsdk1skL4dKbKjP73bIkN4F5F8-uFuq79fGsTf4Oi9B1va1VoJKYFUBpaa",
          "width": 2466
        }
      ],
      "place_id": "ChIJC_n17A32wokRKTs7l9ru6eQ",
      "plus_code": {
        "compound_code": "R3J4+2G New York, NY, USA",
        "global_code": "87G8R3J4+2G"
      },
      "rating": 4.3,
      "reference": "ChIJC_n17A32wokRKTs7l9ru6eQ",
      "scope": "GOOGLE",
      "types": [
        "funeral_home",
        "point_of_interest",
        "establishment"
      ],
      "user_ratings_total": 11,
      "vicinity": "1879 Amsterdam Avenue, New York"
    },
    {
      "business_status": "OPERATIONAL",
      "geometry": {
        "location": {
          "lat": 40.82973670000001,
          "lng": -73.9448711
        },
        "viewport": {
          "northeast": {
            "lat": 40.8311380302915,
            "lng": -73.9434834697085
          },
          "southwest": {
            "lat": 40.82844006970851,
            "lng": -73.94618143029152
          }
        }
      },
      "icon": "https://maps.gstatic.com/mapfiles/place_api/icons/v1/png_71/generic_business-71.png",
      "icon_background_color": "#7B9EB0",
      "icon_mask_base_uri": "https://maps.gstatic.com/mapfiles/place_api/icons/v2/generic_pinlet",
      "name": "Zambon Primary Healthcare Med",
      "place_id": "ChIJ16L1dYf2wokRQ0fGdicFFOI",
      "plus_code": {
        "compound_code": "R3H4+V3 New York, NY, USA",
        "global_code": "87G8R3H4+V3"
      },
      "reference": "ChIJ16L1dYf2wokRQ0fGdicFFOI",
      "scope": "GOOGLE",
      "types": [
        "point_of_interest",
        "establishment"
      ],
      "vicinity": "1854 Amsterdam Avenue, New York"
    },
    {
      "business_status": "OPERATIONAL",
      "geometry": {
        "location": {
          "lat": 40.82971620000001,
          "lng": -73.944071
        },
        "viewport": {
          "northeast": {
            "lat": 40.83110773029151,
            "lng": -73.9428250197085
          },
          "southwest": {
            "lat": 40.82840976970851,
            "lng": -73.9455229802915
          }
        }
      },
      "icon": "https://maps.gstatic.com/mapfiles/place_api/icons/v1/png_71/generic_business-71.png",
      "icon_background_color": "#7B9EB0",
      "icon_mask_base_uri": "https://maps.gstatic.com/mapfiles/place_api/icons/v2/generic_pinlet",
      "name": "Dr. Sudha Varma, MD",
      "place_id": "ChIJaV_zcof2wokRKEYxOWp1ubA",
      "plus_code": {
        "compound_code": "R3H4+V9 New York, NY, USA",
        "global_code": "87G8R3H4+V9"
      },
      "rating": 5,
      "reference": "ChIJaV_zcof2wokRKEYxOWp1ubA",
      "scope": "GOOGLE",
      "types": [
        "doctor",
        "health",
        "point_of_interest",
        "establishment"
      ],
      "user_ratings_total": 2,
      "vicinity": "1865 Amsterdam Avenue, New York"
    },
    {
      "business_status": "OPERATIONAL",
      "geometry": {
        "location": {
          "lat": 40.8305413,
          "lng": -73.9471645
        },
        "viewport": {
          "northeast": {
            "lat": 40.8319651302915,
            "lng": -73.9458205697085
          },
          "southwest": {
            "lat": 40.8292671697085,
            "lng": -73.94851853029151
          }
        }
      },
      "icon": "https://maps.gstatic.com/mapfiles/place_api/icons/v1/png_71/generic_business-71.png",
      "icon_background_color": "#7B9EB0",
      "icon_mask_base_uri": "https://maps.gstatic.com/mapfiles/place_api/icons/v2/generic_pinlet",
      "name": "Cibao Travel",
      "opening_hours": {
        "open_now": false
      },
      "place_id": "ChIJoebR3If2wokRm7mWGua0b10",
      "plus_code": {
        "compound_code": "R3J3+64 New York, NY, USA",
        "global_code": "87G8R3J3+64"
      },
      "rating": 4.4,
      "reference": "ChIJoebR3If2wokRm7mWGua0b10",
      "scope": "GOOGLE",
      "types": [
        "travel_agency",
        "point_of_interest",
        "establishment"
      ],
      "user_ratings_total": 7,
      "vicinity": "3668 Broadway, New York"
    },
    {
      "business_status": "OPERATIONAL",
      "geometry": {
        "location": {
          "lat": 40.8349904,
          "lng": -73.9438974
        },
        "viewport": {
          "northeast": {
            "lat": 40.8363989302915,
            "lng": -73.94258046970849
          },
          "southwest": {
            "lat": 40.8337009697085,
            "lng": -73.94527843029151
          }
        }
      },
      "icon": "https://maps.gstatic.com/mapfiles/place_api/icons/v1/png_71/generic_business-71.png",
      "icon_background_color": "#7B9EB0",
      "icon_mask_base_uri": "https://maps.gstatic.com/mapfiles/place_api/icons/v2/generic_pinlet",
      "name": "Montilla Real Estate",
      "opening_hours": {
        "open_now": false
      },
      "place_id": "ChIJXcBRQYT2wokRrBYv57CAfnk",
      "plus_code": {
        "compound_code": "R3M4+XC New York, NY, USA",
        "global_code": "87G8R3M4+XC"
      },
      "rating": 3.7,
      "reference": "ChIJXcBRQYT2wokRrBYv57CAfnk",
      "scope": "GOOGLE",
      "types": [
        "real_estate_agency",
        "finance",
        "point_of_interest",
        "establishment"
      ],
      "user_ratings_total": 6,
      "vicinity": "3810 Broadway, New York"
    },
    {
      "business_status": "OPERATIONAL",
      "geometry": {
        "location": {
          "lat": 40.830883,
          "lng": -73.9467739
        },
        "viewport": {
          "northeast": {
            "lat": 40.8322847802915,
            "lng": -73.94554766970849
          },
          "southwest": {
            "lat": 40.8295868197085,
            "lng": -73.9482456302915
          }
        }
      },
      "icon": "https://maps.gstatic.com/mapfiles/place_api/icons/v1/png_71/generic_business-71.png",
      "icon_background_color": "#7B9EB0",
      "icon_mask_base_uri": "https://maps.gstatic.com/mapfiles/place_api/icons/v2/generic_pinlet",
      "name": "Comprehensive Geriatric Care",
      "place_id": "ChIJT5fWknTzwokR37rfIXehKwo",
      "plus_code": {
        "compound_code": "R3J3+97 New York, NY, USA",
        "global_code": "87G8R3J3+97"
      },
      "rating": 1,
      "reference": "ChIJT5fWknTzwokR37rfIXehKwo",
      "scope": "GOOGLE",
      "types": [
        "doctor",
        "health",
        "point_of_interest",
        "establishment"
      ],
      "user_ratings_total": 2,
      "vicinity": "3684 Broadway, New York"
    },
    {
      "business_status": "OPERATIONAL",
      "geometry": {
        "location": {
          "lat": 40.831239,
          "lng": -73.9475334
        },
        "viewport": {
          "northeast": {
            "lat": 40.8324481802915,
            "lng": -73.94611926970849
          },
          "southwest": {
            "lat": 40.8297502197085,
            "lng": -73.94881723029151
          }
        }
      },
      "icon": "https://maps.gstatic.com/mapfiles/place_api/icons/v1/png_71/atm-71.png",
      "icon_background_color": "#909CE1",
      "icon_mask_base_uri": "https://maps.gstatic.com/mapfiles/place_api/icons/v2/atm_pinlet",
      "name": "Cardtronics ATM",
      "place_id": "ChIJL8_S1Yf2wokRLvU3Ajk_n5I",
      "plus_code": {
        "compound_code": "R3J2+FX New York, NY, USA",
        "global_code": "87G8R3J2+FX"
      },
      "reference": "ChIJL8_S1Yf2wokRLvU3Ajk_n5I",
      "scope": "GOOGLE",
      "types": [
        "atm",
        "finance",
        "point_of_interest",
        "establishment"
      ],
      "vicinity": "3675 Broadway, New York"
    },
    {
      "business_status": "OPERATIONAL",
      "geometry": {
        "location": {
          "lat": 40.833751,
          "lng": -73.9448045
        },
        "viewport": {
          "northeast": {
            "lat": 40.8351664802915,
            "lng": -73.94348751970848
          },
          "southwest": {
            "lat": 40.8324685197085,
            "lng": -73.9461854802915
          }
        }
      },
      "icon": "https://maps.gstatic.com/mapfiles/place_api/icons/v1/png_71/restaurant-71.png",
      "icon_background_color": "#FF9E67",
      "icon_mask_base_uri": "https://maps.gstatic.com/mapfiles/place_api/icons/v2/restaurant_pinlet",
      "name": "Oriental",
      "opening_hours": {
        "open_now": true
      },
      "photos": [
        {
          "height": 750,
          "html_attributions": [
            "<a href=\"https://maps.google.com/maps/contrib/101523293730959956425\">Dave Cook</a>"
          ],
          "photo_reference": "AeJbb3eF71kObT2HGZVAAwQx-JRZfvTOrOLqH_QaDmSyZQ62SagX1bdHjFRsp4kk0BgR0FMx2Oy3FdNTy3WxFx5ieKHMTX4EdYWE1SDfVeBBQLIvy1N8bH26d-_aNsS-g0vIEFN69xuiAGUpd9h29WmXdoMUvUAIvENogu-i66jGm3uVH7uA",
          "width": 500
        }
      ],
      "place_id": "ChIJ0_zc1IX2wokRj6DwG06udHc",
      "plus_code": {
        "compound_code": "R3M4+G3 New York, NY, USA",
        "global_code": "87G8R3M4+G3"
      },
      "rating": 3.5,
      "reference": "ChIJ0_zc1IX2wokRj6DwG06udHc",
      "scope": "GOOGLE",
      "types": [
        "restaurant",
        "food",
        "point_of_interest",
        "establishment"
      ],
      "user_ratings_total": 60,
      "vicinity": "3774 Broadway, New York"
    },
    {
      "business_status": "OPERATIONAL",
      "geometry": {
        "location": {
          "lat": 40.833806,
          "lng": -73.9447177
        },
        "viewport": {
          "northeast": {
            "lat": 40.8351953802915,
            "lng": -73.9434621697085
          },
          "southwest": {
            "lat": 40.8324974197085,
            "lng": -73.94616013029152
          }
        }
      },
      "icon": "https://maps.gstatic.com/mapfiles/place_api/icons/v1/png_71/generic_business-71.png",
      "icon_background_color": "#7B9EB0",
      "icon_mask_base_uri": "https://maps.gstatic.com/mapfiles/place_api/icons/v2/generic_pinlet",
      "name": "Castle Check Cashing Corporation",
      "opening_hours": {
        "open_now": true
      },
      "photos": [
        {
          "height": 4160,
          "html_attributions": [
            "<a href=\"https://maps.google.com/maps/contrib/112776849891208886356\">Jay Santiago</a>"
          ],
          "photo_reference": "AeJbb3djWVDaHUNPZQUsE6n7vhLUoiHi2DAEMZV-VDkSsMyFlX3O-DGfAm-4AYvQ_8Hl7iuZRhcLOCc5vDqIuzlCtUcKg70-Dfo5WfBp_azhtZh0cLDey8JbOzf8hUUOdlHBAJ4LKVWqtGVd5UmaSCFwEpgyJrF45RtDhWdgtWOsBThW6neK",
          "width": 3120
        }
      ],
      "place_id": "ChIJEQh3fIb2wokRsiYGbxHRoxo",
      "plus_code": {
        "compound_code": "R3M4+G4 New York, NY, USA",
        "global_code": "87G8R3M4+G4"
      },
      "rating": 3,
      "reference": "ChIJEQh3fIb2wokRsiYGbxHRoxo",
      "scope": "GOOGLE",
      "types": [
        "finance",
        "point_of_interest",
        "establishment"
      ],
      "user_ratings_total": 7,
      "vicinity": "1548, 3776 Broadway, New York"
    },
    {
      "business_status": "OPERATIONAL",
      "geometry": {
        "location": {
          "lat": 40.82999640000001,
          "lng": -73.9482075
        },
        "viewport": {
          "northeast": {
            "lat": 40.8313145802915,
            "lng": -73.9467845197085
          },
          "southwest": {
            "lat": 40.8286166197085,
            "lng": -73.94948248029151
          }
        }
      },
      "icon": "https://maps.gstatic.com/mapfiles/place_api/icons/v1/png_71/generic_business-71.png",
      "icon_background_color": "#7B9EB0",
      "icon_mask_base_uri": "https://maps.gstatic.com/mapfiles/place_api/icons/v2/generic_pinlet",
      "name": "Artists in NYC",
      "opening_hours": {
        "open_now": true
      },
      "place_id": "ChIJufwrCYj2wokR8d6BDeh9oCs",
      "plus_code": {
        "compound_code": "R3H2+XP New York, NY, USA",
        "global_code": "87G8R3H2+XP"
      },
      "reference": "ChIJufwrCYj2wokR8d6BDeh9oCs",
      "scope": "GOOGLE",
      "types": [
        "point_of_interest",
        "establishment"
      ],
      "vicinity": "3649 Broadway, New York"
    },
    {
      "business_status": "OPERATIONAL",
      "geometry": {
        "location": {
          "lat": 40.8297033,
          "lng": -73.9439557
        },
        "viewport": {
          "northeast": {
            "lat": 40.8311145802915,
            "lng": -73.94275776970849
          },
          "southwest": {
            "lat": 40.8284166197085,
            "lng": -73.94545573029151
          }
        }
      },
      "icon": "https://maps.gstatic.com/mapfiles/place_api/icons/v1/png_71/generic_business-71.png",
      "icon_background_color": "#7B9EB0",
      "icon_mask_base_uri": "https://maps.gstatic.com/mapfiles/place_api/icons/v2/generic_pinlet",
      "name": "Smith Sharon E MD",
      "place_id": "ChIJaV_zcof2wokRhVIkNH8-0FM",
      "plus_code": {
        "compound_code": "R3H4+VC New York, NY, USA",
        "global_code": "87G8R3H4+VC"
      },
      "reference": "ChIJaV_zcof2wokRhVIkNH8-0FM",
      "scope": "GOOGLE",
      "types": [
        "doctor",
        "health",
        "point_of_interest",
        "establishment"
      ],
      "vicinity": "1865 Amsterdam Avenue, New York"
    },
    {
      "business_status": "OPERATIONAL",
      "geometry": {
        "location": {
          "lat": 40.8326091,
          "lng": -73.94377779999999
        },
        "viewport": {
          "northeast": {
            "lat": 40.8340263802915,
            "lng": -73.94237856970848
          },
          "southwest": {
            "lat": 40.83132841970851,
            "lng": -73.94507653029149
          }
        }
      },
      "icon": "https://maps.gstatic.com/mapfiles/place_api/icons/v1/png_71/generic_business-71.png",
      "icon_background_color": "#7B9EB0",
      "icon_mask_base_uri": "https://maps.gstatic.com/mapfiles/place_api/icons/v2/generic_pinlet",
      "name": "Lifespire Inc",
      "place_id": "ChIJQfVmkYb2wokR9y07UZdxUmU",
      "plus_code": {
        "compound_code": "R3M4+2F New York, NY, USA",
        "global_code": "87G8R3M4+2F"
      },
      "rating": 5,
      "reference": "ChIJQfVmkYb2wokR9y07UZdxUmU",
      "scope": "GOOGLE",
      "types": [
        "point_of_interest",
        "establishment"
      ],
      "user_ratings_total": 2,
      "vicinity": "538 West 156th Street, New York"
    },
    {
      "business_status": "OPERATIONAL",
      "geometry": {
        "location": {
          "lat": 40.82967249999999,
          "lng": -73.94861519999999
        },
        "viewport": {
          "northeast": {
            "lat": 40.8310379302915,
            "lng": -73.94717591970849
          },
          "southwest": {
            "lat": 40.8283399697085,
            "lng": -73.94987388029149
          }
        }
      },
      "icon": "https://maps.gstatic.com/mapfiles/place_api/icons/v1/png_71/generic_business-71.png",
      "icon_background_color": "#7B9EB0",
      "icon_mask_base_uri": "https://maps.gstatic.com/mapfiles/place_api/icons/v2/generic_pinlet",
      "name": "Dr. Yvonne A. Essandoh, DO",
      "place_id": "ChIJBcpaGoj2wokRx27qDDT2y_c",
      "plus_code": {
        "compound_code": "R3H2+VH New York, NY, USA",
        "global_code": "87G8R3H2+VH"
      },
      "reference": "ChIJBcpaGoj2wokRx27qDDT2y_c",
      "scope": "GOOGLE",
      "types": [
        "doctor",
        "health",
        "point_of_interest",
        "establishment"
      ],
      "vicinity": "600 West 150th Street #1, New York"
    },
    {
      "business_status": "OPERATIONAL",
      "geometry": {
        "location": {
          "lat": 40.8290007,
          "lng": -73.9481885
        },
        "viewport": {
          "northeast": {
            "lat": 40.83028418029151,
            "lng": -73.94690621970851
          },
          "southwest": {
            "lat": 40.82758621970851,
            "lng": -73.94960418029152
          }
        }
      },
      "icon": "https://maps.gstatic.com/mapfiles/place_api/icons/v1/png_71/shopping-71.png",
      "icon_background_color": "#4B96F3",
      "icon_mask_base_uri": "https://maps.gstatic.com/mapfiles/place_api/icons/v2/shopping_pinlet",
      "name": "Broadway Finest Deli",
      "opening_hours": {
        "open_now": true
      },
      "photos": [
        {
          "height": 3024,
          "html_attributions": [
            "<a href=\"https://maps.google.com/maps/contrib/109031756636409810887\">Chris Clementi</a>"
          ],
          "photo_reference": "AeJbb3ccD4pawJJPG1mh5XdWOQkpRz1fn3_Bw_g913q4hjkXkDx1D7Hp-0tJYfm1OkRJawoJysgy_Kry7N11rs5FL4KSNVhBxljfuGH4GECUO6n6QbdBv2hcyk3ko8v1fIlaO0KWlPLSlHJMvoeDLoyaQgA9iZsUlvVpXZWkCezRBGk9_qsJ",
          "width": 4032
        }
      ],
      "place_id": "ChIJk8mcqGL2wokRE5zE2_4Hims",
      "plus_code": {
        "compound_code": "R3H2+JP New York, NY, USA",
        "global_code": "87G8R3H2+JP"
      },
      "rating": 3.7,
      "reference": "ChIJk8mcqGL2wokRE5zE2_4Hims",
      "scope": "GOOGLE",
      "types": [
        "food",
        "store",
        "point_of_interest",
        "establishment"
      ],
      "user_ratings_total": 50,
      "vicinity": "3620 Broadway, New York"
    },
    {
      "business_status": "OPERATIONAL",
      "geometry": {
        "location": {
          "lat": 40.8339781,
          "lng": -73.9460895
        },
        "viewport": {
          "northeast": {
            "lat": 40.83524318029151,
            "lng": -73.9448022697085
          },
          "southwest": {
            "lat": 40.83254521970851,
            "lng": -73.94750023029151
          }
        }
      },
      "icon": "https://maps.gstatic.com/mapfiles/place_api/icons/v1/png_71/school-71.png",
      "icon_background_color": "#7B9EB0",
      "icon_mask_base_uri": "https://maps.gstatic.com/mapfiles/place_api/icons/v2/school_pinlet",
      "name": "Bella Sonata Voice Lessons",
      "place_id": "ChIJUaZo3oX2wokRGHpeNoo_S0A",
      "plus_code": {
        "compound_code": "R3M3+HH New York, NY, USA",
        "global_code": "87G8R3M3+HH"
      },
      "reference": "ChIJUaZo3oX2wokRGHpeNoo_S0A",
      "scope": "GOOGLE",
      "types": [
        "school",
        "point_of_interest",
        "establishment"
      ],
      "vicinity": "605 West 156th Street, New York"
    },
    {
      "business_status": "OPERATIONAL",
      "geometry": {
        "location": {
          "lat": 40.82851,
          "lng": -73.9484719
        },
        "viewport": {
          "northeast": {
            "lat": 40.8299118802915,
            "lng": -73.9472525697085
          },
          "southwest": {
            "lat": 40.8272139197085,
            "lng": -73.9499505302915
          }
        }
      },
      "icon": "https://maps.gstatic.com/mapfiles/place_api/icons/v1/png_71/generic_business-71.png",
      "icon_background_color": "#7B9EB0",
      "icon_mask_base_uri": "https://maps.gstatic.com/mapfiles/place_api/icons/v2/generic_pinlet",
      "name": "Martinez Franklin L DDS",
      "opening_hours": {
        "open_now": false
      },
      "place_id": "ChIJ1ZYCpWL2wokRs1XLvMK2V_o",
      "plus_code": {
        "compound_code": "R3H2+CJ New York, NY, USA",
        "global_code": "87G8R3H2+CJ"
      },
      "rating": 3.7,
      "reference": "ChIJ1ZYCpWL2wokRs1XLvMK2V_o",
      "scope": "GOOGLE",
      "types": [
        "dentist",
        "health",
        "point_of_interest",
        "establishment"
      ],
      "user_ratings_total": 3,
      "vicinity": "3610 Broadway #1n, New York"
    },
    {
      "business_status": "OPERATIONAL",
      "geometry": {
        "location": {
          "lat": 40.8285916,
          "lng": -73.9484414
        },
        "viewport": {
          "northeast": {
            "lat": 40.8299890802915,
            "lng": -73.94721131970849
          },
          "southwest": {
            "lat": 40.8272911197085,
            "lng": -73.9499092802915
          }
        }
      },
      "icon": "https://maps.gstatic.com/mapfiles/place_api/icons/v1/png_71/generic_business-71.png",
      "icon_background_color": "#7B9EB0",
      "icon_mask_base_uri": "https://maps.gstatic.com/mapfiles/place_api/icons/v2/generic_pinlet",
      "name": "Healthy Smile Dental Arts",
      "opening_hours": {
        "open_now": false
      },
      "photos": [
        {
          "height": 1651,
          "html_attributions": [
            "<a href=\"https://maps.google.com/maps/contrib/116185838313187314953\">Grecy Martinez</a>"
          ],
          "photo_reference": "AeJbb3ec3s0jxf4svl40K5Fx13oNm1ltdeuJulc4q__oKgsTTStoSeMfxTmMIPvqlpho4KorZCdWkoz3VWTLPcJ80wNmCntoNtE7cCh3GnOW8Gm30Uk3lK92z7Tibi1P45Sn-ZrJpSCP5jGGrN_gNbqT8Du3wvIKqwxtSisK10hpZVsujiSu",
          "width": 1275
        }
      ],
      "place_id": "ChIJ1ZYCpWL2wokRKqQD2gZZ6vg",
      "plus_code": {
        "compound_code": "R3H2+CJ New York, NY, USA",
        "global_code": "87G8R3H2+CJ"
      },
      "rating": 3.9,
      "reference": "ChIJ1ZYCpWL2wokRKqQD2gZZ6vg",
      "scope": "GOOGLE",
      "types": [
        "dentist",
        "health",
        "point_of_interest",
        "establishment"
      ],
      "user_ratings_total": 97,
      "vicinity": "3610 Broadway #1n, New York"
    },
    {
      "business_status": "OPERATIONAL",
      "geometry": {
        "location": {
          "lat": 40.82971620000001,
          "lng": -73.944071
        },
        "viewport": {
          "northeast": {
            "lat": 40.83110773029151,
            "lng": -73.9428250197085
          },
          "southwest": {
            "lat": 40.82840976970851,
            "lng": -73.9455229802915
          }
        }
      },
      "icon": "https://maps.gstatic.com/mapfiles/place_api/icons/v1/png_71/generic_business-71.png",
      "icon_background_color": "#7B9EB0",
      "icon_mask_base_uri": "https://maps.gstatic.com/mapfiles/place_api/icons/v2/generic_pinlet",
      "name": "Dr. Jotir A. Ramnarine, MD",
      "place_id": "ChIJaV_zcof2wokROl8deGcAio4",
      "plus_code": {
        "compound_code": "R3H4+V9 New York, NY, USA",
        "global_code": "87G8R3H4+V9"
      },
      "reference": "ChIJaV_zcof2wokROl8deGcAio4",
      "scope": "GOOGLE",
      "types": [
        "doctor",
        "health",
        "point_of_interest",
        "establishment"
      ],
      "vicinity": "1865 Amsterdam Avenue, New York"
    },
    {
      "business_status": "OPERATIONAL",
      "geometry": {
        "location": {
          "lat": 40.8349524,
          "lng": -73.9447565
        },
        "viewport": {
          "northeast": {
            "lat": 40.8362442302915,
            "lng": -73.94345051970849
          },
          "southwest": {
            "lat": 40.8335462697085,
            "lng": -73.94614848029151
          }
        }
      },
      "icon": "https://maps.gstatic.com/mapfiles/place_api/icons/v1/png_71/generic_business-71.png",
      "icon_background_color": "#7B9EB0",
      "icon_mask_base_uri": "https://maps.gstatic.com/mapfiles/place_api/icons/v2/generic_pinlet",
      "name": "Express Cleaners",
      "opening_hours": {
        "open_now": true
      },
      "photos": [
        {
          "height": 4032,
          "html_attributions": [
            "<a href=\"https://maps.google.com/maps/contrib/111211674258296408825\">Express Cleaners</a>"
          ],
          "photo_reference": "AeJbb3dlblOV1lWrTqo1B2AoRQbU3i03jhR1ET910GNODnJKuZ0fm5OznR_Cq-VVhHT9WSNGoYK8mH3rCDIhhe-SSkp0KKIi5_vB4mxBtArp338cjNEQaVPRSZ6QzPGd-eAn6RUdNSACTSqw-L31NVgYzhSS7LD77-hbdjH_HJum8cxZvwpn",
          "width": 3024
        }
      ],
      "place_id": "ChIJ7QovtYX2wokRm3mxLxFcHpI",
      "plus_code": {
        "compound_code": "R3M4+X3 New York, NY, USA",
        "global_code": "87G8R3M4+X3"
      },
      "rating": 2.8,
      "reference": "ChIJ7QovtYX2wokRm3mxLxFcHpI",
      "scope": "GOOGLE",
      "types": [
        "laundry",
        "point_of_interest",
        "establishment"
      ],
      "user_ratings_total": 11,
      "vicinity": "605 West 158th Street, New York"
    },
    {
      "business_status": "OPERATIONAL",
      "geometry": {
        "location": {
          "lat": 40.8284767,
          "lng": -73.9478845
        },
        "viewport": {
          "northeast": {
            "lat": 40.8299046302915,
            "lng": -73.9464770197085
          },
          "southwest": {
            "lat": 40.8272066697085,
            "lng": -73.9491749802915
          }
        }
      },
      "icon": "https://maps.gstatic.com/mapfiles/place_api/icons/v1/png_71/generic_business-71.png",
      "icon_background_color": "#7B9EB0",
      "icon_mask_base_uri": "https://maps.gstatic.com/mapfiles/place_api/icons/v2/generic_pinlet",
      "name": "C & C Accounting Tax Services",
      "place_id": "ChIJWe-HsmL2wokRiwsnaf-FlS0",
      "plus_code": {
        "compound_code": "R3H2+9R New York, NY, USA",
        "global_code": "87G8R3H2+9R"
      },
      "reference": "ChIJWe-HsmL2wokRiwsnaf-FlS0",
      "scope": "GOOGLE",
      "types": [
        "accounting",
        "finance",
        "point_of_interest",
        "establishment"
      ],
      "vicinity": "560 West 149th Street # 5E, New York"
    },
    {
      "business_status": "OPERATIONAL",
      "geometry": {
        "location": {
          "lat": 40.8330922,
          "lng": -73.94526119999999
        },
        "viewport": {
          "northeast": {
            "lat": 40.8344625302915,
            "lng": -73.94399826970849
          },
          "southwest": {
            "lat": 40.8317645697085,
            "lng": -73.9466962302915
          }
        }
      },
      "icon": "https://maps.gstatic.com/mapfiles/place_api/icons/v1/png_71/generic_business-71.png",
      "icon_background_color": "#7B9EB0",
      "icon_mask_base_uri": "https://maps.gstatic.com/mapfiles/place_api/icons/v2/generic_pinlet",
      "name": "Rosa Rooms For Rent",
      "photos": [
        {
          "height": 3264,
          "html_attributions": [
            "<a href=\"https://maps.google.com/maps/contrib/100509336536044639294\">Yarisleidy Tejeda</a>"
          ],
          "photo_reference": "AeJbb3dv988xZOKUxLGvQLFh6qHYYsLkllIUwciF_NTO_cXWgFqy0ZKIBJhXEICas5CAYhreIaoqS7l5-FJ2iMj70VwHKYFZHNvn6CAGt5qQq9O45YBCsKZktt1tB2iyhzbf8WOfHXnRVk3zy2E7zCMcoKjvcKWvhCVN9Jz2N2C-9KyPq5hU",
          "width": 2448
        }
      ],
      "place_id": "ChIJEQh3fIb2wokR_z79LN5Z8Hs",
      "plus_code": {
        "compound_code": "R3M3+6V New York, NY, USA",
        "global_code": "87G8R3M3+6V"
      },
      "rating": 2.3,
      "reference": "ChIJEQh3fIb2wokR_z79LN5Z8Hs",
      "scope": "GOOGLE",
      "types": [
        "real_estate_agency",
        "point_of_interest",
        "establishment"
      ],
      "user_ratings_total": 10,
      "vicinity": "3750 Broadway, New York"
    },
    {
      "business_status": "OPERATIONAL",
      "geometry": {
        "location": {
          "lat": 40.83124129999999,
          "lng": -73.94660979999999
        },
        "viewport": {
          "northeast": {
            "lat": 40.8326254802915,
            "lng": -73.94534966970849
          },
          "southwest": {
            "lat": 40.8299275197085,
            "lng": -73.94804763029151
          }
        }
      },
      "icon": "https://maps.gstatic.com/mapfiles/place_api/icons/v1/png_71/generic_business-71.png",
      "icon_background_color": "#7B9EB0",
      "icon_mask_base_uri": "https://maps.gstatic.com/mapfiles/place_api/icons/v2/generic_pinlet",
      "name": "Segura Executive Transportation",
      "opening_hours": {
        "open_now": true
      },
      "photos": [
        {
          "height": 1000,
          "html_attributions": [
            "<a href=\"https://maps.google.com/maps/contrib/101517808507120873707\">Segura Executive Transportation</a>"
          ],
          "photo_reference": "AeJbb3cCjAYmkxwg9sylS0evwE53HCHvLbspcvakDnQ7GkZcFeAt5HSyeo2Ih7m1pLp46h3GARc5Mzh4IiRgfnvQ3vISPti2G83Y1diIqfPT0cS6bWnWGJnHA94g9ACD1EZs86JA6EB7oqhbiGuk54DJHemS5oyi9X5uM5hHPuCAnnC2nX-k",
          "width": 1000
        }
      ],
      "place_id": "ChIJf-N7y4f2wokRoW2BO34LEY4",
      "plus_code": {
        "compound_code": "R3J3+F9 New York, NY, USA",
        "global_code": "87G8R3J3+F9"
      },
      "rating": 4.5,
      "reference": "ChIJf-N7y4f2wokRoW2BO34LEY4",
      "scope": "GOOGLE",
      "types": [
        "taxi_stand",
        "point_of_interest",
        "establishment"
      ],
      "user_ratings_total": 4,
      "vicinity": "3696 Broadway, New York"
    },
    {
      "business_status": "OPERATIONAL",
      "geometry": {
        "location": {
          "lat": 40.8297966,
          "lng": -73.94405119999999
        },
        "viewport": {
          "northeast": {
            "lat": 40.8311697802915,
            "lng": -73.94279051970848
          },
          "southwest": {
            "lat": 40.8284718197085,
            "lng": -73.94548848029149
          }
        }
      },
      "icon": "https://maps.gstatic.com/mapfiles/place_api/icons/v1/png_71/generic_business-71.png",
      "icon_background_color": "#7B9EB0",
      "icon_mask_base_uri": "https://maps.gstatic.com/mapfiles/place_api/icons/v2/generic_pinlet",
      "name": "Sebastiano Cassaro, MD, FACS, General Surgery",
      "opening_hours": {
        "open_now": false
      },
      "photos": [
        {
          "height": 346,
          "html_attributions": [
            "<a href=\"https://maps.google.com/maps/contrib/111162329361251217808\">Sebastiano Cassaro, MD, FACS, General Surgery</a>"
          ],
          "photo_reference": "AeJbb3evmeFuA9HKwvpKgNFZsXvZ3m2GduIFjaVC6iuGhwi_8L69hGEWqkAOgixjKJ9Q4NPelHg06uiKCnKRFkzGss0jIL--eEk4DJr6LfDfl1aP-6z9vCUYlhZguf3RlbNpcvuQyHij-VX1JZaOJrlIHq8ndAMZ9w3Jsp8PWBbfffVlhMeo",
          "width": 346
        }
      ],
      "place_id": "ChIJaV_zcof2wokRrhyfdJTkMRg",
      "plus_code": {
        "compound_code": "R3H4+W9 New York, NY, USA",
        "global_code": "87G8R3H4+W9"
      },
      "reference": "ChIJaV_zcof2wokRrhyfdJTkMRg",
      "scope": "GOOGLE",
      "types": [
        "doctor",
        "health",
        "point_of_interest",
        "establishment"
      ],
      "vicinity": "1865 Amsterdam Avenue, New York"
    },
    {
      "business_status": "OPERATIONAL",
      "geometry": {
        "location": {
          "lat": 40.8310493,
          "lng": -73.9461742
        },
        "viewport": {
          "northeast": {
            "lat": 40.83246208029149,
            "lng": -73.9447539697085
          },
          "southwest": {
            "lat": 40.82976411970849,
            "lng": -73.9474519302915
          }
        }
      },
      "icon": "https://maps.gstatic.com/mapfiles/place_api/icons/v1/png_71/generic_business-71.png",
      "icon_background_color": "#7B9EB0",
      "icon_mask_base_uri": "https://maps.gstatic.com/mapfiles/place_api/icons/v2/generic_pinlet",
      "name": "Perch Harlem",
      "photos": [
        {
          "height": 3024,
          "html_attributions": [
            "<a href=\"https://maps.google.com/maps/contrib/102944683129598267224\">Juan Calderon</a>"
          ],
          "photo_reference": "AeJbb3dE7dytkxsbOcuj3KwbTis7XOBqQznIBAPu2htjBnrvb0WAbalyR-c3ipFvvY5fjhgRqgqT0mKDHOZVHMzrmIAckIdvMM2z0iWOR9P2LTcGZGhrnCJTpftdRAuMUYl801pWlcCJhbXl04wed8Q1TeG5dBbHL-fYJw_mxgcEpN8KqGPA",
          "width": 4032
        }
      ],
      "place_id": "ChIJAZrCtYf2wokRjIEBkrhYims",
      "plus_code": {
        "compound_code": "R3J3+CG New York, NY, USA",
        "global_code": "87G8R3J3+CG"
      },
      "rating": 3.5,
      "reference": "ChIJAZrCtYf2wokRjIEBkrhYims",
      "scope": "GOOGLE",
      "types": [
        "point_of_interest",
        "establishment"
      ],
      "user_ratings_total": 2,
      "vicinity": "542 West 153 Street, New York"
    },
    {
      "business_status": "OPERATIONAL",
      "geometry": {
        "location": {
          "lat": 40.83078649999999,
          "lng": -73.9476914
        },
        "viewport": {
          "northeast": {
            "lat": 40.8320898302915,
            "lng": -73.94623456970848
          },
          "southwest": {
            "lat": 40.8293918697085,
            "lng": -73.9489325302915
          }
        }
      },
      "icon": "https://maps.gstatic.com/mapfiles/place_api/icons/v1/png_71/generic_business-71.png",
      "icon_background_color": "#7B9EB0",
      "icon_mask_base_uri": "https://maps.gstatic.com/mapfiles/place_api/icons/v2/generic_pinlet",
      "name": "Healthy Skin Medical Spa",
      "opening_hours": {
        "open_now": true
      },
      "photos": [
        {
          "height": 324,
          "html_attributions": [
            "<a href=\"https://maps.google.com/maps/contrib/100084045443653045436\">Healthy Skin Medical Spa</a>"
          ],
          "photo_reference": "AeJbb3cCY7HSF0glu8pmuWUiabRLXQ1Y9Afbs6_aQOSlJ_W30zYmf5vDiFZ7AhyiLG8rnXp6Jx_szpYg5Fc1n5WwJD2UPyYtmsN8UVCkUVmb5bNKVkpimgNXx7DJKDR3ZA4J9ZIru6ot7PI4gLglPg_3y9tfxPlghQTZqNysBdyV2Z7Wmea_",
          "width": 324
        }
      ],
      "place_id": "ChIJS9Rk2If2wokRNg_U9DY5dQY",
      "plus_code": {
        "compound_code": "R3J2+8W New York, NY, USA",
        "global_code": "87G8R3J2+8W"
      },
      "reference": "ChIJS9Rk2If2wokRNg_U9DY5dQY",
      "scope": "GOOGLE",
      "types": [
        "health",
        "point_of_interest",
        "establishment"
      ],
      "vicinity": "3671 Broadway #3, New York"
    },
    {
      "business_status": "OPERATIONAL",
      "geometry": {
        "location": {
          "lat": 40.83078649999999,
          "lng": -73.9476914
        },
        "viewport": {
          "northeast": {
            "lat": 40.8320898302915,
            "lng": -73.94623456970848
          },
          "southwest": {
            "lat": 40.8293918697085,
            "lng": -73.9489325302915
          }
        }
      },
      "icon": "https://maps.gstatic.com/mapfiles/place_api/icons/v1/png_71/generic_business-71.png",
      "icon_background_color": "#7B9EB0",
      "icon_mask_base_uri": "https://maps.gstatic.com/mapfiles/place_api/icons/v2/generic_pinlet",
      "name": "City Prime Health",
      "opening_hours": {
        "open_now": false
      },
      "photos": [
        {
          "height": 4032,
          "html_attributions": [
            "<a href=\"https://maps.google.com/maps/contrib/101550351123650955976\">Kelvin Marte</a>"
          ],
          "photo_reference": "AeJbb3cGWANiA7QNMbtDHpHTeL4T6hn7rdhBsD-WQ3vzXyE8dAWIeDkKpnq0cTGI0VQsw3DbnMxe2_JWPLokok23LJaUDaBScCJGdDkEzcIEEApDQ50ISzA3ZbCa9ZNKewtVZXLwKnXDATP0kgCTzGAHpHUUxDnW_BWFUoDUKuhhDiAo5XiY",
          "width": 3024
        }
      ],
      "place_id": "ChIJJ1yVd4j2wokRbGOKowOieg8",
      "plus_code": {
        "compound_code": "R3J2+8W New York, NY, USA",
        "global_code": "87G8R3J2+8W"
      },
      "rating": 4,
      "reference": "ChIJJ1yVd4j2wokRbGOKowOieg8",
      "scope": "GOOGLE",
      "types": [
        "health",
        "point_of_interest",
        "establishment"
      ],
      "user_ratings_total": 67,
      "vicinity": "3671 Broadway, New York"
    },
    {
      "business_status": "OPERATIONAL",
      "geometry": {
        "location": {
          "lat": 40.83033080000001,
          "lng": -73.946519
        },
        "viewport": {
          "northeast": {
            "lat": 40.83177053029149,
            "lng": -73.9451022197085
          },
          "southwest": {
            "lat": 40.8290725697085,
            "lng": -73.94780018029151
          }
        }
      },
      "icon": "https://maps.gstatic.com/mapfiles/place_api/icons/v1/png_71/generic_business-71.png",
      "icon_background_color": "#7B9EB0",
      "icon_mask_base_uri": "https://maps.gstatic.com/mapfiles/place_api/icons/v2/generic_pinlet",
      "name": "Big Apple Real Estate",
      "opening_hours": {
        "open_now": true
      },
      "photos": [
        {
          "height": 3024,
          "html_attributions": [
            "<a href=\"https://maps.google.com/maps/contrib/105921327406330787486\">Big Apple Real Estate</a>"
          ],
          "photo_reference": "AeJbb3czVvma8WlFEPDsUAAbyo60_hZ7N0iT4ZdYo6Goz53y5hCyOuOvPQJV94WB419wkcOaMYwOKuFiVNvwsBJffFf4ecN0jrtcXOAnUC4B7wFUPXN_Yw9NefRpXBjy5fCWNnfTKEFLC-irLNzs-zg6X76q1Oof8T4NVtG6qtdYZyntkpOW",
          "width": 4032
        }
      ],
      "place_id": "ChIJV6gTwYf2wokRO1KCqhWG_MY",
      "plus_code": {
        "compound_code": "R3J3+49 New York, NY, USA",
        "global_code": "87G8R3J3+49"
      },
      "rating": 5,
      "reference": "ChIJV6gTwYf2wokRO1KCqhWG_MY",
      "scope": "GOOGLE",
      "types": [
        "real_estate_agency",
        "point_of_interest",
        "establishment"
      ],
      "user_ratings_total": 3,
      "vicinity": "534 West 152nd Street, New York"
    },
    {
      "business_status": "OPERATIONAL",
      "geometry": {
        "location": {
          "lat": 40.830224,
          "lng": -73.94732900000001
        },
        "viewport": {
          "northeast": {
            "lat": 40.8316128302915,
            "lng": -73.9460759197085
          },
          "southwest": {
            "lat": 40.82891486970851,
            "lng": -73.94877388029151
          }
        }
      },
      "icon": "https://maps.gstatic.com/mapfiles/place_api/icons/v1/png_71/restaurant-71.png",
      "icon_background_color": "#FF9E67",
      "icon_mask_base_uri": "https://maps.gstatic.com/mapfiles/place_api/icons/v2/restaurant_pinlet",
      "name": "Bono Trattoria",
      "opening_hours": {
        "open_now": false
      },
      "photos": [
        {
          "height": 720,
          "html_attributions": [
            "<a href=\"https://maps.google.com/maps/contrib/107876575901287976797\">Bono Trattoria</a>"
          ],
          "photo_reference": "AeJbb3d5Zuvj5a7178Nn4ODw5RrjdA8L_pwZoGQ7JQ-jPTm8BaCYg2Wca94IMmISusyrRFmPmxshZ5JEhHB14ZporIVbaemlhfammATwxsEMbFI6rge1I3F_WujjHWN7twdz8obgDBsQwAGfVyOFk5S3VdCAwW2o6lHnqUD2c6-LFYZHZ5Xo",
          "width": 960
        }
      ],
      "place_id": "ChIJNbJQ54f2wokRPxHl6aTGio0",
      "plus_code": {
        "compound_code": "R3J3+33 New York, NY, USA",
        "global_code": "87G8R3J3+33"
      },
      "price_level": 2,
      "rating": 4.6,
      "reference": "ChIJNbJQ54f2wokRPxHl6aTGio0",
      "scope": "GOOGLE",
      "types": [
        "restaurant",
        "food",
        "point_of_interest",
        "establishment"
      ],
      "user_ratings_total": 702,
      "vicinity": "3658 Broadway, New York"
    },
    {
      "business_status": "OPERATIONAL",
      "geometry": {
        "location": {
          "lat": 40.8306213,
          "lng": -73.9479988
        },
        "viewport": {
          "northeast": {
            "lat": 40.8318964802915,
            "lng": -73.94647001970849
          },
          "southwest": {
            "lat": 40.82919851970851,
            "lng": -73.9491679802915
          }
        }
      },
      "icon": "https://maps.gstatic.com/mapfiles/place_api/icons/v1/png_71/shopping-71.png",
      "icon_background_color": "#4B96F3",
      "icon_mask_base_uri": "https://maps.gstatic.com/mapfiles/place_api/icons/v2/shopping_pinlet",
      "name": "RJ Variety Shop",
      "opening_hours": {
        "open_now": false
      },
      "photos": [
        {
          "height": 4032,
          "html_attributions": [
            "<a href=\"https://maps.google.com/maps/contrib/117577722854293734133\">rosalind batist</a>"
          ],
          "photo_reference": "AeJbb3dwU2Jj216P8qY30Xz9gAEPPH5VmvIHEfyQXT-GFEl_5QtwHWV-GXM21T1-ehVqRtb-GV7Y2NF3gt2_hQBIYtAfog2O3XXXBWKVeTLk8B9s3-Lz99epLDtRAuuhcOZRFtLOOpVgm7RWlPla0Jn-EeA1r0sAlsBtkDhCEPHsp8Wup7cB",
          "width": 1960
        }
      ],
      "place_id": "ChIJ9UP4dYj2wokR7wl_5t80zOc",
      "plus_code": {
        "compound_code": "R3J2+6R New York, NY, USA",
        "global_code": "87G8R3J2+6R"
      },
      "rating": 4.2,
      "reference": "ChIJ9UP4dYj2wokR7wl_5t80zOc",
      "scope": "GOOGLE",
      "types": [
        "store",
        "point_of_interest",
        "establishment"
      ],
      "user_ratings_total": 10,
      "vicinity": "3667 Broadway, New York"
    },
    {
      "business_status": "CLOSED_TEMPORARILY",
      "geometry": {
        "location": {
          "lat": 40.8303333,
          "lng": -73.94558099999999
        },
        "viewport": {
          "northeast": {
            "lat": 40.8316198802915,
            "lng": -73.94427771970848
          },
          "southwest": {
            "lat": 40.8289219197085,
            "lng": -73.94697568029149
          }
        }
      },
      "icon": "https://maps.gstatic.com/mapfiles/place_api/icons/v1/png_71/shopping-71.png",
      "icon_background_color": "#4B96F3",
      "icon_mask_base_uri": "https://maps.gstatic.com/mapfiles/place_api/icons/v2/shopping_pinlet",
      "name": "Raoul Bj\u00f6rkenheim Ecstasy",
      "permanently_closed": true,
      "place_id": "ChIJG4Fau4f2wokR74o1j_q3Bxs",
      "plus_code": {
        "compound_code": "R3J3+4Q New York, NY, USA",
        "global_code": "87G8R3J3+4Q"
      },
      "reference": "ChIJG4Fau4f2wokR74o1j_q3Bxs",
      "scope": "GOOGLE",
      "types": [
        "electronics_store",
        "home_goods_store",
        "store",
        "point_of_interest",
        "establishment"
      ],
      "vicinity": "525 West 152nd Street, New York"
    },
    {
      "business_status": "CLOSED_TEMPORARILY",
      "geometry": {
        "location": {
          "lat": 40.8306317,
          "lng": -73.94522429999999
        },
        "viewport": {
          "northeast": {
            "lat": 40.83205078029149,
            "lng": -73.9438236197085
          },
          "southwest": {
            "lat": 40.82935281970849,
            "lng": -73.9465215802915
          }
        }
      },
      "icon": "https://maps.gstatic.com/mapfiles/place_api/icons/v1/png_71/generic_business-71.png",
      "icon_background_color": "#7B9EB0",
      "icon_mask_base_uri": "https://maps.gstatic.com/mapfiles/place_api/icons/v2/generic_pinlet",
      "name": "Robert \"Bob\" M \"Mickey\" Pollock - Uptown Homes Real Estate Company",
      "permanently_closed": true,
      "place_id": "ChIJ0wlHr4f2wokRJDRCeFTBZfs",
      "plus_code": {
        "compound_code": "R3J3+7W New York, NY, USA",
        "global_code": "87G8R3J3+7W"
      },
      "reference": "ChIJ0wlHr4f2wokRJDRCeFTBZfs",
      "scope": "GOOGLE",
      "types": [
        "point_of_interest",
        "establishment"
      ],
      "vicinity": "520 West 153 Street, New York"
    },
    {
      "business_status": "OPERATIONAL",
      "geometry": {
        "location": {
          "lat": 40.83023499999999,
          "lng": -73.948082
        },
        "viewport": {
          "northeast": {
            "lat": 40.83151358029149,
            "lng": -73.94666381970849
          },
          "southwest": {
            "lat": 40.82881561970849,
            "lng": -73.94936178029151
          }
        }
      },
      "icon": "https://maps.gstatic.com/mapfiles/place_api/icons/v1/png_71/generic_business-71.png",
      "icon_background_color": "#7B9EB0",
      "icon_mask_base_uri": "https://maps.gstatic.com/mapfiles/place_api/icons/v2/generic_pinlet",
      "name": "Jewelz Santiago - State Farm Insurance Agent",
      "opening_hours": {
        "open_now": false
      },
      "photos": [
        {
          "height": 1538,
          "html_attributions": [
            "<a href=\"https://maps.google.com/maps/contrib/117141838935056275695\">Jewelz Santiago - State Farm Insurance Agent</a>"
          ],
          "photo_reference": "AeJbb3ft9_t5Yq0tkxNJtPycuW6qK1r3eFVM76AWrh154fL3JHBvJI3gyZzlbArYzEFef4FEjf3SABoWJ5-XMHL8XmmZFTC66d6zzlPTbygGLWuRWDPcMYGC6HGixJiFf-C8_QL1G9MN_3YN6dXbQho67jU4OIGh9HeaWIsZzHnXcPw1PkNK",
          "width": 2734
        }
      ],
      "place_id": "ChIJpUYSC4j2wokRVLE3xadEMEg",
      "plus_code": {
        "compound_code": "R3J2+3Q New York, NY, USA",
        "global_code": "87G8R3J2+3Q"
      },
      "rating": 4.9,
      "reference": "ChIJpUYSC4j2wokRVLE3xadEMEg",
      "scope": "GOOGLE",
      "types": [
        "insurance_agency",
        "point_of_interest",
        "establishment"
      ],
      "user_ratings_total": 662,
      "vicinity": "3657 Broadway Frnt 2, New York"
    },
    {
      "business_status": "OPERATIONAL",
      "geometry": {
        "location": {
          "lat": 40.83089599999999,
          "lng": -73.9486593
        },
        "viewport": {
          "northeast": {
            "lat": 40.83215428029149,
            "lng": -73.9473777697085
          },
          "southwest": {
            "lat": 40.8294563197085,
            "lng": -73.9500757302915
          }
        }
      },
      "icon": "https://maps.gstatic.com/mapfiles/place_api/icons/v1/png_71/generic_business-71.png",
      "icon_background_color": "#7B9EB0",
      "icon_mask_base_uri": "https://maps.gstatic.com/mapfiles/place_api/icons/v2/generic_pinlet",
      "name": "Riverside Merchant Processing",
      "opening_hours": {
        "open_now": true
      },
      "photos": [
        {
          "height": 688,
          "html_attributions": [
            "<a href=\"https://maps.google.com/maps/contrib/116767902666835750191\">Riverside Merchant Processing</a>"
          ],
          "photo_reference": "AeJbb3dzpyy9v8Hp4L86PTAxuduraSPq8A47mu-xz6m23FB4YrCigZLl8P1IUkJRx50VXeUovnPmXGz0e1PADhTghW5F5nJeath6PNdlQKurj3W06Y-q2QaUidV-uPDGzC_gzhlSXuZwE-wskxS9tXHZCmXCa1q8a81FPG49rmK9NbNVJFEN",
          "width": 1194
        }
      ],
      "place_id": "ChIJYf3_boj2wokRbTRUtrRrkeI",
      "plus_code": {
        "compound_code": "R3J2+9G New York, NY, USA",
        "global_code": "87G8R3J2+9G"
      },
      "rating": 1.7,
      "reference": "ChIJYf3_boj2wokRbTRUtrRrkeI",
      "scope": "GOOGLE",
      "types": [
        "point_of_interest",
        "establishment"
      ],
      "user_ratings_total": 3,
      "vicinity": "609 West 151st Street #38, New York"
    }
  ],
  "status": "OK"
}