{
  "html_attributions": [],
  "results": [
    {
      "geometry": {
        "location": {
          "lat": 40.7127753,
          "lng": -74.0059728
        },
        "viewport": {
          "northeast": {
            "lat": 40.91757705070789,
            "lng": -73.70027206817629
          },
          "southwest": {
            "lat": 40.47739906045452,
            "lng": -74.25908991427882
          }
        }
      },
      "icon": "https://maps.gstatic.com/mapfiles/place_api/icons/v1/png_71/geocode-71.png",
      "icon_background_color": "#7B9EB0",
      "icon_mask_base_uri": "https://maps.gstatic.com/mapfiles/place_api/icons/v2/generic_pinlet",
      "name": "\u7d10\u7d04",
      "photos": [
        {
          "height": 600,
          "html_attributions": [
            "<a href=\"https://maps.google.com/maps/contrib/102389334567210814614\">Bukurie</a>"
          ],
          "photo_reference": "AeJbb3fNp1QvIaJ6TIC-VzILef14g1hXTPvY4LUIPRQ71rovv3sg7TCTDm6T7kFfVsFfnUjCoq395ZH-_l7Fv_Oddd0pMSITIIL5e592SauIJzjoK8n6bgD_Te863nw_eBTf9VSMtsTJCETS8q_LGKS66CXJ9DZ5CmL82ZZ2MB8HTgtgw-O9",
          "width": 480
        }
      ],
      "place_id": "ChIJOwg_06VPwokRYv534QaPC8g",
      "reference": "ChIJOwg_06VPwokRYv534QaPC8g",
      "scope": "GOOGLE",
      "types": [
        "locality",
        "political"
      ],
      "vicinity": "\u7d10\u7d04"
    },
    {
      "business_status": "OPERATIONAL",
      "geometry": {
        "location": {
          "lat": 40.8344548,
          "lng": -73.9385727
        },
        "viewport": {
          "northeast": {
            "lat": 40.8357959302915,
            "lng": -73.9374075697085
          },
          "southwest": {
            "lat": 40.8330979697085,
            "lng": -73.9401055302915
          }
        }
      },
      "icon": "https://maps.gstatic.com/mapfiles/place_api/icons/v1/png_71/generic_business-71.png",
      "icon_background_color": "#13B5C7",
      "icon_mask_base_uri": "https://maps.gstatic.com/mapfiles/place_api/icons/v2/generic_pinlet",
      "name": "Morris-Jumel Mansion",
      "opening_hours": {
        "open_now": true
      },
      "photos": [
        {
          "height": 1509,
          "html_attributions": [
            "<a href=\"https://maps.google.com/maps/contrib/113328106824155509327\">Morris-Jumel Mansion</a>"
          ],
          "photo_reference": "AeJbb3f7-DvuxPcZgITmp05T9WB63w515M5LiZ-gkH50n9Y8ZvMUDW3yD7qqDi6BTzkSXVsacuJ-Nd50-AsQKC6rEmZ1oI-GDsRjgmtbqTPy5Nx2qI1BEutnc_BUs798h1RL6Bm3yew8mp106u-QtY2DQc3dDmNzBnYTLpWlaRYYYSQ6MO2p",
          "width": 2048
        }
      ],
      "place_id": "ChIJqTIQToL2wokRKbmUA423_YY",
      "plus_code": {
        "compound_code": "R3M6+QH \u7f8e\u570b\u7d10\u7d04",
        "global_code": "87G8R3M6+QH"
      },
      "rating": 4.5,
      "reference": "ChIJqTIQToL2wokRKbmUA423_YY",
      "scope": "GOOGLE",
      "types": [
        "tourist_attraction",
        "museum",
        "point_of_interest",
        "establishment"
      ],
      "user_ratings_total": 410,
      "vicinity": "65 Jumel Terrace, New York"
    },
    {
      "business_status": "OPERATIONAL",
      "geometry": {
        "location": {
          "lat": 40.8393896,
          "lng": -73.9387421
        },
        "viewport": {
          "northeast": {
            "lat": 40.8408085302915,
            "lng": -73.9375606697085
          },
          "southwest": {
            "lat": 40.8381105697085,
            "lng": -73.94025863029151
          }
        }
      },
      "icon": "https://maps.gstatic.com/mapfiles/place_api/icons/v1/png_71/hospital-71.png",
      "icon_background_color": "#F88181",
      "icon_mask_base_uri": "https://maps.gstatic.com/mapfiles/place_api/icons/v2/hospital-H_pinlet",
      "name": "New York Presbyterian Hospital",
      "photos": [
        {
          "height": 3024,
          "html_attributions": [
            "<a href=\"https://maps.google.com/maps/contrib/108434605385638852727\">Leonardo Guevara raicestv</a>"
          ],
          "photo_reference": "AeJbb3eLkWxVpkSyIyfKMlG8mg-BqdFpja80VSXk_9NNBhn4v9N_4s-qBcPb-jxF7K-AqIzaIUwUwrF_4bxQRTQDCg2blYzkkJlJkzhHuCWFz7MXU56EBqxkGv9iJEl_8xIGphyMsvrPVko0PVjbAwtNdVQ8qRaMM7CBZ5epJPA50cwF_nEK",
          "width": 4032
        }
      ],
      "place_id": "ChIJ1bi4eZz2wokRQN0l_v9vN14",
      "plus_code": {
        "compound_code": "R3Q6+QG \u7f8e\u570b\u7d10\u7d04",
        "global_code": "87G8R3Q6+QG"
      },
      "rating": 3.8,
      "reference": "ChIJ1bi4eZz2wokRQN0l_v9vN14",
      "scope": "GOOGLE",
      "types": [
        "hospital",
        "health",
        "point_of_interest",
        "establishment"
      ],
      "user_ratings_total": 45,
      "vicinity": "21 Audubon Avenue, New York"
    },
    {
      "business_status": "OPERATIONAL",
      "geometry": {
        "location": {
          "lat": 40.83935510000001,
          "lng": -73.9387407
        },
        "viewport": {
          "northeast": {
            "lat": 40.84077828029151,
            "lng": -73.9375694197085
          },
          "southwest": {
            "lat": 40.83808031970851,
            "lng": -73.94026738029152
          }
        }
      },
      "icon": "https://maps.gstatic.com/mapfiles/place_api/icons/v1/png_71/generic_business-71.png",
      "icon_background_color": "#7B9EB0",
      "icon_mask_base_uri": "https://maps.gstatic.com/mapfiles/place_api/icons/v2/generic_pinlet",
      "name": "Esperanza Center",
      "place_id": "ChIJJ7Yq0Zz2wokR3mnTPVd4SD8",
      "plus_code": {
        "compound_code": "R3Q6+PG \u7f8e\u570b\u7d10\u7d04",
        "global_code": "87G8R3Q6+PG"
      },
      "rating": 5,
      "reference": "ChIJJ7Yq0Zz2wokR3mnTPVd4SD8",
      "scope": "GOOGLE",
      "types": [
        "point_of_interest",
        "establishment"
      ],
      "user_ratings_total": 1,
      "vicinity": "21 Audubon Avenue, New York"
    },
    {
      "business_status": "OPERATIONAL",
      "geometry": {
        "location": {
          "lat": 40.8362963,
          "lng": -73.9381405
        },
        "viewport": {
          "northeast": {
            "lat": 40.8375442302915,
            "lng": -73.93686526970849
          },
          "southwest": {
            "lat": 40.8348462697085,
            "lng": -73.93956323029151
          }
        }
      },
      "icon": "https://maps.gstatic.com/mapfiles/place_api/icons/v1/png_71/civic_building-71.png",
      "icon_background_color": "#7B9EB0",
      "icon_mask_base_uri": "https://maps.gstatic.com/mapfiles/place_api/icons/v2/civic-bldg_pinlet",
      "name": "Edgecombe Residential Treatment Facility",
      "opening_hours": {
        "open_now": true
      },
      "place_id": "ChIJMbaI6YL2wokR5ceZJkZTuUY",
      "plus_code": {
        "compound_code": "R3P6+GP \u7f8e\u570b\u7d10\u7d04",
        "global_code": "87G8R3P6+GP"
      },
      "reference": "ChIJMbaI6YL2wokR5ceZJkZTuUY",
      "scope": "GOOGLE",
      "types": [
        "point_of_interest",
        "establishment"
      ],
      "vicinity": "611 Edgecombe Avenue, New York"
    },
    {
      "business_status": "OPERATIONAL",
      "geometry": {
        "location": {
          "lat": 40.8396572,
          "lng": -73.940451
        },
        "viewport": {
          "northeast": {
            "lat": 40.84107743029151,
            "lng": -73.9392152197085
          },
          "southwest": {
            "lat": 40.83837946970851,
            "lng": -73.94191318029151
          }
        }
      },
      "icon": "https://maps.gstatic.com/mapfiles/place_api/icons/v1/png_71/restaurant-71.png",
      "icon_background_color": "#FF9E67",
      "icon_mask_base_uri": "https://maps.gstatic.com/mapfiles/place_api/icons/v2/restaurant_pinlet",
      "name": "Dallas BBQ Washington Heights",
      "opening_hours": {
        "open_now": true
      },
      "photos": [
        {
          "height": 2147,
          "html_attributions": [
            "<a href=\"https://maps.google.com/maps/contrib/111719219215411994893\">Hecatonic</a>"
          ],
          "photo_reference": "AeJbb3cSVdyUefieJcyseTRrE43qKflNPd_Fn91hkYwxcy8SHCqCkJPNjaMa0B0I5uuWmabbQXOvmA-42PQkajh-BDHat_pnn9hV-WMArSZFI7owI3r6Zj1uQhW3_DTi9Aj4W4skDQj-3BODojYVS7RlF5CCKZOuDJrx5oxo0O-Ah338eezA",
          "width": 4088
        }
      ],
      "place_id": "ChIJ1Tldkpz2wokR1BvQMWlaoOs",
      "plus_code": {
        "compound_code": "R3Q5+VR \u7f8e\u570b\u7d10\u7d04",
        "global_code": "87G8R3Q5+VR"
      },
      "price_level": 2,
      "rating": 4.1,
      "reference": "ChIJ1Tldkpz2wokR1BvQMWlaoOs",
      "scope": "GOOGLE",
      "types": [
        "bar",
        "restaurant",
        "food",
        "point_of_interest",
        "establishment"
      ],
      "user_ratings_total": 3474,
      "vicinity": "3956 Broadway, New York"
    },
    {
      "business_status": "OPERATIONAL",
      "geometry": {
        "location": {
          "lat": 40.8332436,
          "lng": -73.936106
        },
        "viewport": {
          "northeast": {
            "lat": 40.8346034302915,
            "lng": -73.93450506970848
          },
          "southwest": {
            "lat": 40.8319054697085,
            "lng": -73.93720303029149
          }
        }
      },
      "icon": "https://maps.gstatic.com/mapfiles/place_api/icons/v1/png_71/generic_business-71.png",
      "icon_background_color": "#7B9EB0",
      "icon_mask_base_uri": "https://maps.gstatic.com/mapfiles/place_api/icons/v2/generic_pinlet",
      "name": "Rangel Community Center",
      "place_id": "ChIJJwwjFij0wokR_--5TzgoeME",
      "plus_code": {
        "compound_code": "R3M7+7H \u7f8e\u570b\u7d10\u7d04",
        "global_code": "87G8R3M7+7H"
      },
      "rating": 3.5,
      "reference": "ChIJJwwjFij0wokR_--5TzgoeME",
      "scope": "GOOGLE",
      "types": [
        "point_of_interest",
        "establishment"
      ],
      "user_ratings_total": 4,
      "vicinity": "159-36 Harlem River Drive, New York"
    },
    {
      "business_status": "OPERATIONAL",
      "geometry": {
        "location": {
          "lat": 40.8391976,
          "lng": -73.9406544
        },
        "viewport": {
          "northeast": {
            "lat": 40.84059183029149,
            "lng": -73.93945261970849
          },
          "southwest": {
            "lat": 40.8378938697085,
            "lng": -73.9421505802915
          }
        }
      },
      "icon": "https://maps.gstatic.com/mapfiles/place_api/icons/v1/png_71/bank-71.png",
      "icon_background_color": "#909CE1",
      "icon_mask_base_uri": "https://maps.gstatic.com/mapfiles/place_api/icons/v2/bank-intl_pinlet",
      "name": "Chase Bank",
      "opening_hours": {
        "open_now": false
      },
      "photos": [
        {
          "height": 2510,
          "html_attributions": [
            "<a href=\"https://maps.google.com/maps/contrib/104645347495569347147\">Hyunseok Chang</a>"
          ],
          "photo_reference": "AeJbb3f5y5Y4TSVpYwBQR0jSbCnK3NDohcyU7lZMh_P86UEPjDP4vYNHWL3CNn274Jpp2BO_DEXIozgFLzfvk3BLk7E2ptAVnjxYjRQVIu6901vaFL5JkXxqfZ__Zws7rAxRrj0nFW5GioNxEltbTzJpCkfOi67Z2wnMIYT9IzrOHr0NPimP",
          "width": 3353
        }
      ],
      "place_id": "ChIJ41aeopz2wokRYB7uVK69p0s",
      "plus_code": {
        "compound_code": "R3Q5+MP \u7f8e\u570b\u7d10\u7d04",
        "global_code": "87G8R3Q5+MP"
      },
      "rating": 2.5,
      "reference": "ChIJ41aeopz2wokRYB7uVK69p0s",
      "scope": "GOOGLE",
      "types": [
        "bank",
        "atm",
        "finance",
        "point_of_interest",
        "establishment"
      ],
      "user_ratings_total": 72,
      "vicinity": "3940 Broadway, New York"
    },
    {
      "business_status": "OPERATIONAL",
      "geometry": {
        "location": {
          "lat": 40.83555430000001,
          "lng": -73.9396543
        },
        "viewport": {
          "northeast": {
            "lat": 40.8368535802915,
            "lng": -73.93836391970851
          },
          "southwest": {
            "lat": 40.8341556197085,
            "lng": -73.94106188029151
          }
        }
      },
      "icon": "https://maps.gstatic.com/mapfiles/place_api/icons/v1/png_71/shopping-71.png",
      "icon_background_color": "#4B96F3",
      "icon_mask_base_uri": "https://maps.gstatic.com/mapfiles/place_api/icons/v2/shopping_pinlet",
      "name": "AWS - Advantage Wholesale Supply",
      "opening_hours": {
        "open_now": false
      },
      "photos": [
        {
          "height": 2048,
          "html_attributions": [
            "<a href=\"https://maps.google.com/maps/contrib/101514596329955227581\">Ed Vantage</a>"
          ],
          "photo_reference": "AeJbb3c5pFAf5QlGC5xK-WCNcuqwUbaSjuD-rBlEiuDEUVbofZwwswAY-ZT3Ji7DxAT-LAerrVTezu2j6KCPQfOVptwOvapxcsDFusGDVbxw9vgH3CSeN_ldMByNlI_11PFOeh1eiTNMoVB5Yh342NvLEDE8KrvvDNMm_khgN4yPuM97wJhS",
          "width": 1536
        }
      ],
      "place_id": "ChIJz6NKpoP2wokRDc7uDxMFGhY",
      "plus_code": {
        "compound_code": "R3P6+64 \u7f8e\u570b\u7d10\u7d04",
        "global_code": "87G8R3P6+64"
      },
      "rating": 4.4,
      "reference": "ChIJz6NKpoP2wokRDc7uDxMFGhY",
      "scope": "GOOGLE",
      "types": [
        "hardware_store",
        "store",
        "point_of_interest",
        "establishment"
      ],
      "user_ratings_total": 18,
      "vicinity": "1028 Saint Nicholas Avenue, New York"
    },
    {
      "business_status": "OPERATIONAL",
      "geometry": {
        "location": {
          "lat": 40.8350471,
          "lng": -73.9393805
        },
        "viewport": {
          "northeast": {
            "lat": 40.8364284802915,
            "lng": -73.93823516970849
          },
          "southwest": {
            "lat": 40.8337305197085,
            "lng": -73.9409331302915
          }
        }
      },
      "icon": "https://maps.gstatic.com/mapfiles/place_api/icons/v1/png_71/shopping-71.png",
      "icon_background_color": "#4B96F3",
      "icon_mask_base_uri": "https://maps.gstatic.com/mapfiles/place_api/icons/v2/shoppingcart_pinlet",
      "name": "CTown Supermarkets",
      "opening_hours": {
        "open_now": true
      },
      "photos": [
        {
          "height": 453,
          "html_attributions": [
            "<a href=\"https://maps.google.com/maps/contrib/107065411015330169841\">CTown Supermarkets</a>"
          ],
          "photo_reference": "AeJbb3crzurL-d7UqLZOYeMHHe_OO1ThKHHwgsfLH0VMIwWN4Kd_jAWrLiEoDCcv-t45MnIPzlymwEb7wtOendYEEXceWnZlHvdYpBJzls2f0zmhOyQrcucl2gdmTQNkbtEOiEtYd5GVhWwpFopu4JNWd_o_reYgBvQW9mevkMNdv4hRwLk",
          "width": 806
        }
      ],
      "place_id": "ChIJk4Y0poP2wokRztPMZV1YW3U",
      "plus_code": {
        "compound_code": "R3P6+26 \u7f8e\u570b\u7d10\u7d04",
        "global_code": "87G8R3P6+26"
      },
      "price_level": 2,
      "rating": 4.1,
      "reference": "ChIJk4Y0poP2wokRztPMZV1YW3U",
      "scope": "GOOGLE",
      "types": [
        "supermarket",
        "grocery_or_supermarket",
        "store",
        "food",
        "point_of_interest",
        "establishment"
      ],
      "user_ratings_total": 755,
      "vicinity": "1016 Saint Nicholas Avenue, New York"
    },
    {
      "business_status": "OPERATIONAL",
      "geometry": {
        "location": {
          "lat": 40.8386238,
          "lng": -73.93898229999999
        },
        "viewport": {
          "northeast": {
            "lat": 40.8398899802915,
            "lng": -73.9377082697085
          },
          "southwest": {
            "lat": 40.8371920197085,
            "lng": -73.9404062302915
          }
        }
      },
      "icon": "https://maps.gstatic.com/mapfiles/place_api/icons/v1/png_71/civic_building-71.png",
      "icon_background_color": "#7B9EB0",
      "icon_mask_base_uri": "https://maps.gstatic.com/mapfiles/place_api/icons/v2/civic-bldg_pinlet",
      "name": "United States Postal Service",
      "opening_hours": {
        "open_now": true
      },
      "photos": [
        {
          "height": 4032,
          "html_attributions": [
            "<a href=\"https://maps.google.com/maps/contrib/104256859392118232216\">james ryan caldwell</a>"
          ],
          "photo_reference": "AeJbb3fFF3xAfBGsdhaa7F94aKlL_51I1jilqeR_U9QSPS-WdpKfhaYIJeXQFnr39fzXPZPv-SkChGq0SJ61_0Iy-FqnWyFA0t6rwXngpC1N8WDYDFV45eQG3v6KHW1SELDfUsvTQDPEqJvy3ocx-6hBGSGS97D9A0TZQXZzlGwiNUnLkXFz",
          "width": 3024
        }
      ],
      "place_id": "ChIJj65Q2Jz2wokR_LoJ8_MV6lI",
      "plus_code": {
        "compound_code": "R3Q6+CC \u7f8e\u570b\u7d10\u7d04",
        "global_code": "87G8R3Q6+CC"
      },
      "rating": 1.3,
      "reference": "ChIJj65Q2Jz2wokR_LoJ8_MV6lI",
      "scope": "GOOGLE",
      "types": [
        "post_office",
        "local_government_office",
        "finance",
        "point_of_interest",
        "establishment"
      ],
      "user_ratings_total": 483,
      "vicinity": "511 West 165th Street, New York"
    },
    {
      "business_status": "OPERATIONAL",
      "geometry": {
        "location": {
          "lat": 40.8368164,
          "lng": -73.9393657
        },
        "viewport": {
          "northeast": {
            "lat": 40.83817018029151,
            "lng": -73.9379554197085
          },
          "southwest": {
            "lat": 40.83547221970851,
            "lng": -73.94065338029151
          }
        }
      },
      "icon": "https://maps.gstatic.com/mapfiles/place_api/icons/v1/png_71/generic_business-71.png",
      "icon_background_color": "#7B9EB0",
      "icon_mask_base_uri": "https://maps.gstatic.com/mapfiles/place_api/icons/v2/generic_pinlet",
      "name": "Club Deportivo Inc",
      "opening_hours": {
        "open_now": true
      },
      "photos": [
        {
          "height": 3384,
          "html_attributions": [
            "<a href=\"https://maps.google.com/maps/contrib/118203565858735469154\">Samara Riviera</a>"
          ],
          "photo_reference": "AeJbb3e49R4Q39HneVqoh0lCVKMIQWqUSM_LCcuTPZxuS_vk85pkKEag7AHo_a2f28R5MtvcECBWkPx1jHh5REzZ6fyEgUzMpSyCd50jVy0bHwIslDFOOawIY5kTKaz4cH9RGEJpzWE0SjJSQOH6QH7IStJFljFLeGPALaobdSeqZkXDQyAf",
          "width": 2538
        }
      ],
      "place_id": "ChIJxzEaJIP2wokRXErHXmVNywE",
      "plus_code": {
        "compound_code": "R3P6+P7 \u7f8e\u570b\u7d10\u7d04",
        "global_code": "87G8R3P6+P7"
      },
      "rating": 4.4,
      "reference": "ChIJxzEaJIP2wokRXErHXmVNywE",
      "scope": "GOOGLE",
      "types": [
        "point_of_interest",
        "establishment"
      ],
      "user_ratings_total": 121,
      "vicinity": "2088 Amsterdam Avenue, New York"
    },
    {
      "business_status": "OPERATIONAL",
      "geometry": {
        "location": {
          "lat": 40.8392694,
          "lng": -73.940759
        },
        "viewport": {
          "northeast": {
            "lat": 40.8406834802915,
            "lng": -73.93945356970849
          },
          "southwest": {
            "lat": 40.8379855197085,
            "lng": -73.9421515302915
          }
        }
      },
      "icon": "https://maps.gstatic.com/mapfiles/place_api/icons/v1/png_71/generic_business-71.png",
      "icon_background_color": "#7B9EB0",
      "icon_mask_base_uri": "https://maps.gstatic.com/mapfiles/place_api/icons/v2/generic_pinlet",
      "name": "Ruzal-Shapiro Carrie B MD",
      "place_id": "ChIJC9X3mpz2wokRRbg1d_NJTiU",
      "plus_code": {
        "compound_code": "R3Q5+PM \u7f8e\u570b\u7d10\u7d04",
        "global_code": "87G8R3Q5+PM"
      },
      "reference": "ChIJC9X3mpz2wokRRbg1d_NJTiU",
      "scope": "GOOGLE",
      "types": [
        "doctor",
        "health",
        "point_of_interest",
        "establishment"
      ],
      "vicinity": "3959 Broadway # 330N, New York"
    },
    {
      "business_status": "OPERATIONAL",
      "geometry": {
        "location": {
          "lat": 40.83936300000001,
          "lng": -73.938723
        },
        "viewport": {
          "northeast": {
            "lat": 40.8407863802915,
            "lng": -73.9375575697085
          },
          "southwest": {
            "lat": 40.83808841970851,
            "lng": -73.94025553029151
          }
        }
      },
      "icon": "https://maps.gstatic.com/mapfiles/place_api/icons/v1/png_71/generic_business-71.png",
      "icon_background_color": "#7B9EB0",
      "icon_mask_base_uri": "https://maps.gstatic.com/mapfiles/place_api/icons/v2/generic_pinlet",
      "name": "New York Presbyterian Med Center: Cunto-Amesty Silvia MD",
      "place_id": "ChIJD5D-HJ32wokR4WvH4rqTLKY",
      "plus_code": {
        "compound_code": "R3Q6+PG \u7f8e\u570b\u7d10\u7d04",
        "global_code": "87G8R3Q6+PG"
      },
      "reference": "ChIJD5D-HJ32wokR4WvH4rqTLKY",
      "scope": "GOOGLE",
      "types": [
        "doctor",
        "health",
        "point_of_interest",
        "establishment"
      ],
      "vicinity": "21 Audubon Avenue, New York"
    },
    {
      "business_status": "OPERATIONAL",
      "geometry": {
        "location": {
          "lat": 40.8341378,
          "lng": -73.94144849999999
        },
        "viewport": {
          "northeast": {
            "lat": 40.8355274802915,
            "lng": -73.9400770197085
          },
          "southwest": {
            "lat": 40.8328295197085,
            "lng": -73.94277498029152
          }
        }
      },
      "icon": "https://maps.gstatic.com/mapfiles/place_api/icons/v1/png_71/generic_business-71.png",
      "icon_background_color": "#7B9EB0",
      "icon_mask_base_uri": "https://maps.gstatic.com/mapfiles/place_api/icons/v2/generic_pinlet",
      "name": "Community League Health Center: Scotland-Carab Terry MD",
      "place_id": "ChIJ1a4T8oP2wokRGzc2JGV8Hhw",
      "plus_code": {
        "compound_code": "R3M5+MC \u7f8e\u570b\u7d10\u7d04",
        "global_code": "87G8R3M5+MC"
      },
      "reference": "ChIJ1a4T8oP2wokRGzc2JGV8Hhw",
      "scope": "GOOGLE",
      "types": [
        "doctor",
        "health",
        "point_of_interest",
        "establishment"
      ],
      "vicinity": "1996 Amsterdam Avenue, New York"
    },
    {
      "business_status": "CLOSED_TEMPORARILY",
      "geometry": {
        "location": {
          "lat": 40.8383948,
          "lng": -73.93855719999999
        },
        "viewport": {
          "northeast": {
            "lat": 40.8396159302915,
            "lng": -73.93721451970849
          },
          "southwest": {
            "lat": 40.8369179697085,
            "lng": -73.93991248029151
          }
        }
      },
      "icon": "https://maps.gstatic.com/mapfiles/place_api/icons/v1/png_71/school-71.png",
      "icon_background_color": "#7B9EB0",
      "icon_mask_base_uri": "https://maps.gstatic.com/mapfiles/place_api/icons/v2/school_pinlet",
      "name": "Public School 552",
      "permanently_closed": true,
      "place_id": "ChIJ6VRgLp32wokRbUbsCUof9RE",
      "plus_code": {
        "compound_code": "R3Q6+9H \u7f8e\u570b\u7d10\u7d04",
        "global_code": "87G8R3Q6+9H"
      },
      "reference": "ChIJ6VRgLp32wokRbUbsCUof9RE",
      "scope": "GOOGLE",
      "types": [
        "school",
        "point_of_interest",
        "establishment"
      ],
      "vicinity": "501 West 165th Street, New York"
    },
    {
      "business_status": "OPERATIONAL",
      "geometry": {
        "location": {
          "lat": 40.8324691,
          "lng": -73.9396143
        },
        "viewport": {
          "northeast": {
            "lat": 40.8338444802915,
            "lng": -73.93834046970849
          },
          "southwest": {
            "lat": 40.8311465197085,
            "lng": -73.94103843029151
          }
        }
      },
      "icon": "https://maps.gstatic.com/mapfiles/place_api/icons/v1/png_71/generic_business-71.png",
      "icon_background_color": "#13B5C7",
      "icon_mask_base_uri": "https://maps.gstatic.com/mapfiles/place_api/icons/v2/generic_pinlet",
      "name": "John T. Brush Stairway",
      "opening_hours": {
        "open_now": true
      },
      "photos": [
        {
          "height": 3024,
          "html_attributions": [
            "<a href=\"https://maps.google.com/maps/contrib/110860228873770406633\">John Cerilli</a>"
          ],
          "photo_reference": "AeJbb3fnDjW0ZUocgme66x8pGqAJXArhnOnyJhu2i0zA20RTNNjyJg3X9UJHGY_Mic1MQxqmSPLEW5tvg_hZuFZOUctcge5jNtIRPbuw2vcFIDaBN2zdV1YhQ3CFeA6LPnoVlN5I8I_MR2Wus_gz1glFvTkp6U2wSI2NZTxHzfnvremTkZbr",
          "width": 4032
        }
      ],
      "place_id": "ChIJnU1RbIH2wokRsD1wL2om930",
      "plus_code": {
        "compound_code": "R3J6+X5 \u7f8e\u570b\u7d10\u7d04",
        "global_code": "87G8R3J6+X5"
      },
      "rating": 4.2,
      "reference": "ChIJnU1RbIH2wokRsD1wL2om930",
      "scope": "GOOGLE",
      "types": [
        "tourist_attraction",
        "point_of_interest",
        "establishment"
      ],
      "user_ratings_total": 51,
      "vicinity": "Highbridge Park, New York"
    },
    {
      "business_status": "OPERATIONAL",
      "geometry": {
        "location": {
          "lat": 40.836726,
          "lng": -73.94257189999999
        },
        "viewport": {
          "northeast": {
            "lat": 40.83794098029149,
            "lng": -73.9413976197085
          },
          "southwest": {
            "lat": 40.83524301970849,
            "lng": -73.9440955802915
          }
        }
      },
      "icon": "https://maps.gstatic.com/mapfiles/place_api/icons/v1/png_71/school-71.png",
      "icon_background_color": "#7B9EB0",
      "icon_mask_base_uri": "https://maps.gstatic.com/mapfiles/place_api/icons/v2/school_pinlet",
      "name": "Jose Driving School",
      "opening_hours": {
        "open_now": true
      },
      "photos": [
        {
          "height": 783,
          "html_attributions": [
            "<a href=\"https://maps.google.com/maps/contrib/105245704907961747183\">G C</a>"
          ],
          "photo_reference": "AeJbb3e9ySpYcweH9mbbLNGll9OEWZl9iJptQi2jExwtENKg8_LHsBJRp-FG69VMWRUgMZ7UbmTIimRgQvI958pD7Jj70vLhh3O5r0F6LXHc5e-BeB6fDCRr2Gu90ELSH7B2KTGwuOprZdkxxaogCDbcq5tXNLR2ujgKQC9hdx3EMKOiMDRU",
          "width": 905
        }
      ],
      "place_id": "ChIJL6q3jWn2wokR_n-jsa-2RNQ",
      "plus_code": {
        "compound_code": "R3P4+MX \u7f8e\u570b\u7d10\u7d04",
        "global_code": "87G8R3P4+MX"
      },
      "rating": 3.6,
      "reference": "ChIJL6q3jWn2wokR_n-jsa-2RNQ",
      "scope": "GOOGLE",
      "types": [
        "point_of_interest",
        "establishment"
      ],
      "user_ratings_total": 63,
      "vicinity": "3866 Broadway, New York"
    },
    {
      "business_status": "OPERATIONAL",
      "geometry": {
        "location": {
          "lat": 40.8394635,
          "lng": -73.9389554
        },
        "viewport": {
          "northeast": {
            "lat": 40.8408373802915,
            "lng": -73.9376715697085
          },
          "southwest": {
            "lat": 40.8381394197085,
            "lng": -73.9403695302915
          }
        }
      },
      "icon": "https://maps.gstatic.com/mapfiles/place_api/icons/v1/png_71/generic_business-71.png",
      "icon_background_color": "#7B9EB0",
      "icon_mask_base_uri": "https://maps.gstatic.com/mapfiles/place_api/icons/v2/generic_pinlet",
      "name": "Audubon Clinic",
      "opening_hours": {
        "open_now": false
      },
      "photos": [
        {
          "height": 4032,
          "html_attributions": [
            "<a href=\"https://maps.google.com/maps/contrib/118173511419331872620\">Alix Abelard</a>"
          ],
          "photo_reference": "AeJbb3cyKYbXjNgUlOGz4bAbynIY2td5rUbaA4NdrAWaU1znSVvmFeMPCSH8t-fI2NoSkWYBMUwncqFqWocXVPv4ng3Klf3tyLvGpM_Iv8UwvXOcAkSSWkwf_NV0ANtKZe7QbHEEq6msFN_hv2mUQfsAjD_WJeqmibQFvvgem93yBwq7G-wW",
          "width": 3024
        }
      ],
      "place_id": "ChIJD5D-HJ32wokRh91Rv-BHTVk",
      "plus_code": {
        "compound_code": "R3Q6+QC \u7f8e\u570b\u7d10\u7d04",
        "global_code": "87G8R3Q6+QC"
      },
      "rating": 3.2,
      "reference": "ChIJD5D-HJ32wokRh91Rv-BHTVk",
      "scope": "GOOGLE",
      "types": [
        "doctor",
        "health",
        "point_of_interest",
        "establishment"
      ],
      "user_ratings_total": 55,
      "vicinity": "21 Audubon Avenue, New York"
    },
    {
      "geometry": {
        "location": {
          "lat": 40.8240478,
          "lng": -73.9447643
        },
        "viewport": {
          "northeast": {
            "lat": 40.87822003591612,
            "lng": -73.91064591328563
          },
          "southwest": {
            "lat": 40.78278392408598,
            "lng": -73.97119006413347
          }
        }
      },
      "icon": "https://maps.gstatic.com/mapfiles/place_api/icons/v1/png_71/geocode-71.png",
      "icon_background_color": "#7B9EB0",
      "icon_mask_base_uri": "https://maps.gstatic.com/mapfiles/place_api/icons/v2/generic_pinlet",
      "name": "\u66fc\u54c8\u9813\u4e0a\u57ce",
      "photos": [
        {
          "height": 4000,
          "html_attributions": [
            "<a href=\"https://maps.google.com/maps/contrib/108665206705263687409\">Chris Lidstone</a>"
          ],
          "photo_reference": "AeJbb3e_5V6I1ANybEP_-apPM37eh_ovlWAV_FOc9iSltFgTkS3fJwHezgfc5Ymb4hZtqmP4Ynot9an8eicKzkor19gmOjA_YlgbBJSX3fQi8j_S1zgHO7_fgi8vYjFXPzMtQprb5j90bMgLQAtqADRv9TjL96ODxEZ9El6WQGmq60Cnbn_4",
          "width": 3000
        }
      ],
      "place_id": "ChIJY50xHxP2wokR7WhhDNRmgRU",
      "reference": "ChIJY50xHxP2wokR7WhhDNRmgRU",
      "scope": "GOOGLE",
      "types": [
        "neighborhood",
        "political"
      ],
      "vicinity": "\u66fc\u54c8\u9813"
    },
    {
      "business_status": "OPERATIONAL",
      "geometry": {
        "location": {
          "lat": 40.83448000000001,
          "lng": -73.941211
        },
        "viewport": {
          "northeast": {
            "lat": 40.83577268029151,
            "lng": -73.93972546970849
          },
          "southwest": {
            "lat": 40.83307471970851,
            "lng": -73.9424234302915
          }
        }
      },
      "icon": "https://maps.gstatic.com/mapfiles/place_api/icons/v1/png_71/generic_business-71.png",
      "icon_background_color": "#7B9EB0",
      "icon_mask_base_uri": "https://maps.gstatic.com/mapfiles/place_api/icons/v2/generic_pinlet",
      "name": "The Law Office Of Bradley D. Shaw",
      "place_id": "ChIJPSiKNeVYwokR72kBPefZxM4",
      "plus_code": {
        "compound_code": "R3M5+QG New York, NY, USA",
        "global_code": "87G8R3M5+QG"
      },
      "rating": 1,
      "reference": "ChIJPSiKNeVYwokR72kBPefZxM4",
      "scope": "GOOGLE",
      "types": [
        "lawyer",
        "point_of_interest",
        "establishment"
      ],
      "user_ratings_total": 1,
      "vicinity": "2006 Amsterdam Avenue, New York"
    },
    {
      "business_status": "OPERATIONAL",
      "geometry": {
        "location": {
          "lat": 40.8382264,
          "lng": -73.93853560000001
        },
        "viewport": {
          "northeast": {
            "lat": 40.8395317302915,
            "lng": -73.93721451970849
          },
          "southwest": {
            "lat": 40.8368337697085,
            "lng": -73.93991248029151
          }
        }
      },
      "icon": "https://maps.gstatic.com/mapfiles/place_api/icons/v1/png_71/school-71.png",
      "icon_background_color": "#7B9EB0",
      "icon_mask_base_uri": "https://maps.gstatic.com/mapfiles/place_api/icons/v2/school_pinlet",
      "name": "Gregorio Luperon High School for Science and Mathematics",
      "opening_hours": {
        "open_now": false
      },
      "photos": [
        {
          "height": 3036,
          "html_attributions": [
            "<a href=\"https://maps.google.com/maps/contrib/108226858511222389710\">Jhon Estrella Vizcaino</a>"
          ],
          "photo_reference": "AeJbb3dAcQTbvOHtvHH33pvozflf-3h_LGmyDOGKcWq7qBnuCGkjOoNV0sgKzR5yeN_LaSgMZDVr89pPMGA6QqqCZa5R28_S08IcV8hIfsmAUPPw-HqXGViLBYTRDjS_CwiYYpdspB7umOi31_V82nrXIzsnULXghAYcJ4jchiDjTQ8_78iO",
          "width": 4048
        }
      ],
      "place_id": "ChIJ6VRgLp32wokR2nzCXXf98x4",
      "plus_code": {
        "compound_code": "R3Q6+7H New York, NY, USA",
        "global_code": "87G8R3Q6+7H"
      },
      "rating": 4.8,
      "reference": "ChIJ6VRgLp32wokR2nzCXXf98x4",
      "scope": "GOOGLE",
      "types": [
        "secondary_school",
        "school",
        "point_of_interest",
        "establishment"
      ],
      "user_ratings_total": 19,
      "vicinity": "501 West 165th Street, New York"
    },
    {
      "business_status": "OPERATIONAL",
      "geometry": {
        "location": {
          "lat": 40.8383094,
          "lng": -73.9396403
        },
        "viewport": {
          "northeast": {
            "lat": 40.8396712302915,
            "lng": -73.9384078197085
          },
          "southwest": {
            "lat": 40.8369732697085,
            "lng": -73.94110578029151
          }
        }
      },
      "icon": "https://maps.gstatic.com/mapfiles/place_api/icons/v1/png_71/generic_business-71.png",
      "icon_background_color": "#7B9EB0",
      "icon_mask_base_uri": "https://maps.gstatic.com/mapfiles/place_api/icons/v2/generic_pinlet",
      "name": "Metropolitan Center For Mental",
      "opening_hours": {
        "open_now": true
      },
      "place_id": "ChIJsVUO05z2wokRFdbj2aoNu3k",
      "plus_code": {
        "compound_code": "R3Q6+84 New York, NY, USA",
        "global_code": "87G8R3Q6+84"
      },
      "rating": 1.8,
      "reference": "ChIJsVUO05z2wokRFdbj2aoNu3k",
      "scope": "GOOGLE",
      "types": [
        "health",
        "point_of_interest",
        "establishment"
      ],
      "user_ratings_total": 17,
      "vicinity": "1090 Saint Nicholas Avenue # A, New York"
    },
    {
      "business_status": "OPERATIONAL",
      "geometry": {
        "location": {
          "lat": 40.83941649999999,
          "lng": -73.9389648
        },
        "viewport": {
          "northeast": {
            "lat": 40.8407966802915,
            "lng": -73.9376898197085
          },
          "southwest": {
            "lat": 40.8380987197085,
            "lng": -73.9403877802915
          }
        }
      },
      "icon": "https://maps.gstatic.com/mapfiles/place_api/icons/v1/png_71/generic_business-71.png",
      "icon_background_color": "#7B9EB0",
      "icon_mask_base_uri": "https://maps.gstatic.com/mapfiles/place_api/icons/v2/generic_pinlet",
      "name": "21 Audubon Pediatric Clinic",
      "opening_hours": {
        "open_now": false
      },
      "place_id": "ChIJR1Co4pz2wokRGk0YbiRPouU",
      "plus_code": {
        "compound_code": "R3Q6+QC New York, NY, USA",
        "global_code": "87G8R3Q6+QC"
      },
      "rating": 3,
      "reference": "ChIJR1Co4pz2wokRGk0YbiRPouU",
      "scope": "GOOGLE",
      "types": [
        "doctor",
        "health",
        "point_of_interest",
        "establishment"
      ],
      "user_ratings_total": 66,
      "vicinity": "21 Audubon Avenue, New York"
    },
    {
      "business_status": "OPERATIONAL",
      "geometry": {
        "location": {
          "lat": 40.8390779,
          "lng": -73.93724499999999
        },
        "viewport": {
          "northeast": {
            "lat": 40.8405252302915,
            "lng": -73.9358359197085
          },
          "southwest": {
            "lat": 40.8378272697085,
            "lng": -73.9385338802915
          }
        }
      },
      "icon": "https://maps.gstatic.com/mapfiles/place_api/icons/v1/png_71/gas_station-71.png",
      "icon_background_color": "#909CE1",
      "icon_mask_base_uri": "https://maps.gstatic.com/mapfiles/place_api/icons/v2/gas_pinlet",
      "name": "Pak-Am-Gas",
      "place_id": "ChIJyXVvbZ32wokREvxTkelJcTU",
      "plus_code": {
        "compound_code": "R3Q7+J4 New York, NY, USA",
        "global_code": "87G8R3Q7+J4"
      },
      "rating": 4,
      "reference": "ChIJyXVvbZ32wokREvxTkelJcTU",
      "scope": "GOOGLE",
      "types": [
        "gas_station",
        "point_of_interest",
        "establishment"
      ],
      "user_ratings_total": 9,
      "vicinity": "2165 Amsterdam Avenue, New York"
    },
    {
      "business_status": "OPERATIONAL",
      "geometry": {
        "location": {
          "lat": 40.839408,
          "lng": -73.938839
        },
        "viewport": {
          "northeast": {
            "lat": 40.8408092802915,
            "lng": -73.9376152697085
          },
          "southwest": {
            "lat": 40.8381113197085,
            "lng": -73.94031323029151
          }
        }
      },
      "icon": "https://maps.gstatic.com/mapfiles/place_api/icons/v1/png_71/generic_business-71.png",
      "icon_background_color": "#7B9EB0",
      "icon_mask_base_uri": "https://maps.gstatic.com/mapfiles/place_api/icons/v2/generic_pinlet",
      "name": "Melissa S. Stockwell, MD, MPH",
      "place_id": "ChIJD5D-HJ32wokRsO8I2HVqBDQ",
      "plus_code": {
        "compound_code": "R3Q6+QF New York, NY, USA",
        "global_code": "87G8R3Q6+QF"
      },
      "reference": "ChIJD5D-HJ32wokRsO8I2HVqBDQ",
      "scope": "GOOGLE",
      "types": [
        "doctor",
        "health",
        "point_of_interest",
        "establishment"
      ],
      "vicinity": "21 Audubon Avenue, New York"
    },
    {
      "business_status": "OPERATIONAL",
      "geometry": {
        "location": {
          "lat": 40.8393558,
          "lng": -73.9387409
        },
        "viewport": {
          "northeast": {
            "lat": 40.8407788802915,
            "lng": -73.93756936970848
          },
          "southwest": {
            "lat": 40.8380809197085,
            "lng": -73.9402673302915
          }
        }
      },
      "icon": "https://maps.gstatic.com/mapfiles/place_api/icons/v1/png_71/generic_business-71.png",
      "icon_background_color": "#7B9EB0",
      "icon_mask_base_uri": "https://maps.gstatic.com/mapfiles/place_api/icons/v2/generic_pinlet",
      "name": "Kostacos Connie H MD",
      "place_id": "ChIJD5D-HJ32wokRgIR6VtITVUs",
      "plus_code": {
        "compound_code": "R3Q6+PG New York, NY, USA",
        "global_code": "87G8R3Q6+PG"
      },
      "reference": "ChIJD5D-HJ32wokRgIR6VtITVUs",
      "scope": "GOOGLE",
      "types": [
        "doctor",
        "health",
        "point_of_interest",
        "establishment"
      ],
      "vicinity": "21 Audubon Avenue, New York"
    },
    {
      "business_status": "OPERATIONAL",
      "geometry": {
        "location": {
          "lat": 40.8392663,
          "lng": -73.9406723
        },
        "viewport": {
          "northeast": {
            "lat": 40.8406819302915,
            "lng": -73.9394355197085
          },
          "southwest": {
            "lat": 40.8379839697085,
            "lng": -73.9421334802915
          }
        }
      },
      "icon": "https://maps.gstatic.com/mapfiles/place_api/icons/v1/png_71/generic_business-71.png",
      "icon_background_color": "#7B9EB0",
      "icon_mask_base_uri": "https://maps.gstatic.com/mapfiles/place_api/icons/v2/generic_pinlet",
      "name": "The Malcolm X & Dr. Betty Shabazz Memorial and Educational Center",
      "opening_hours": {
        "open_now": true
      },
      "photos": [
        {
          "height": 4032,
          "html_attributions": [
            "<a href=\"https://maps.google.com/maps/contrib/114015510953830713297\">Iv\u00e1n Zaruma Remache</a>"
          ],
          "photo_reference": "AeJbb3cK5ymDEpcYdTU1R2ShOf0rnjq0o2Q2p3RSw-aGI86BGwGA6b84bJ4N5OdCfBEH7RUr_WuZpnW6B08y9VwNyRO5UBtKwypNss7vmjxC0pUvLLvo6YBuOY031y6GvnxE9myjB6rU8c0d0HGJZ5RH1AB7uFLA1kzIiIay0adYIkfvt_th",
          "width": 2268
        }
      ],
      "place_id": "ChIJ41aeopz2wokROk-IEAdexpA",
      "plus_code": {
        "compound_code": "R3Q5+PP New York, NY, USA",
        "global_code": "87G8R3Q5+PP"
      },
      "rating": 4,
      "reference": "ChIJ41aeopz2wokROk-IEAdexpA",
      "scope": "GOOGLE",
      "types": [
        "tourist_attraction",
        "museum",
        "point_of_interest",
        "establishment"
      ],
      "user_ratings_total": 57,
      "vicinity": "3940 Broadway, New York"
    },
    {
      "business_status": "OPERATIONAL",
      "geometry": {
        "location": {
          "lat": 40.8389512,
          "lng": -73.9416466
        },
        "viewport": {
          "northeast": {
            "lat": 40.8402702802915,
            "lng": -73.9402259197085
          },
          "southwest": {
            "lat": 40.8375723197085,
            "lng": -73.9429238802915
          }
        }
      },
      "icon": "https://maps.gstatic.com/mapfiles/place_api/icons/v1/png_71/restaurant-71.png",
      "icon_background_color": "#FF9E67",
      "icon_mask_base_uri": "https://maps.gstatic.com/mapfiles/place_api/icons/v2/restaurant_pinlet",
      "name": "Carrot Top Pastries",
      "opening_hours": {
        "open_now": true
      },
      "photos": [
        {
          "height": 523,
          "html_attributions": [
            "<a href=\"https://maps.google.com/maps/contrib/107249119243114533047\">Carrot Top Pastries</a>"
          ],
          "photo_reference": "AeJbb3dZl7EQC9BfkeDWrEDiAEfZxs-Ll-SResfhyRmrMnM7Ka4At9x2U2dDlsW8PTS4y9Lf-4KtJMB_4qA_D9nqgubTnHjwrQYT0QjEEJnhYiZtW7MyNM9a4vkyznZ49Vv-9XXgR2NM-4W8O61LOKQxlSx03W0FHsPHWJv8-u8WeTbEUggH",
          "width": 929
        }
      ],
      "place_id": "ChIJ5-f7oJz2wokRXPJkGTrQB6k",
      "plus_code": {
        "compound_code": "R3Q5+H8 New York, NY, USA",
        "global_code": "87G8R3Q5+H8"
      },
      "price_level": 2,
      "rating": 4.2,
      "reference": "ChIJ5-f7oJz2wokRXPJkGTrQB6k",
      "scope": "GOOGLE",
      "types": [
        "bakery",
        "restaurant",
        "store",
        "point_of_interest",
        "food",
        "establishment"
      ],
      "user_ratings_total": 494,
      "vicinity": "3931 Broadway, New York"
    },
    {
      "business_status": "OPERATIONAL",
      "geometry": {
        "location": {
          "lat": 40.83936300000001,
          "lng": -73.938723
        },
        "viewport": {
          "northeast": {
            "lat": 40.8407863802915,
            "lng": -73.9375575697085
          },
          "southwest": {
            "lat": 40.83808841970851,
            "lng": -73.94025553029151
          }
        }
      },
      "icon": "https://maps.gstatic.com/mapfiles/place_api/icons/v1/png_71/generic_business-71.png",
      "icon_background_color": "#7B9EB0",
      "icon_mask_base_uri": "https://maps.gstatic.com/mapfiles/place_api/icons/v2/generic_pinlet",
      "name": "Dr. Enid Coleman, MD",
      "place_id": "ChIJD5D-HJ32wokRKiDHYLV5gww",
      "plus_code": {
        "compound_code": "R3Q6+PG New York, NY, USA",
        "global_code": "87G8R3Q6+PG"
      },
      "reference": "ChIJD5D-HJ32wokRKiDHYLV5gww",
      "scope": "GOOGLE",
      "types": [
        "doctor",
        "health",
        "point_of_interest",
        "establishment"
      ],
      "vicinity": "21 Audubon Avenue, New York"
    },
    {
      "business_status": "OPERATIONAL",
      "geometry": {
        "location": {
          "lat": 40.83580250000001,
          "lng": -73.9410015
        },
        "viewport": {
          "northeast": {
            "lat": 40.83711518029151,
            "lng": -73.9396691197085
          },
          "southwest": {
            "lat": 40.83441721970851,
            "lng": -73.9423670802915
          }
        }
      },
      "icon": "https://maps.gstatic.com/mapfiles/place_api/icons/v1/png_71/civic_building-71.png",
      "icon_background_color": "#7B9EB0",
      "icon_mask_base_uri": "https://maps.gstatic.com/mapfiles/place_api/icons/v2/civic-bldg_pinlet",
      "name": "FDNY Engine 84/Ladder 34",
      "opening_hours": {
        "open_now": false
      },
      "photos": [
        {
          "height": 3024,
          "html_attributions": [
            "<a href=\"https://maps.google.com/maps/contrib/114152831381566847780\">Ariano Gomes</a>"
          ],
          "photo_reference": "AeJbb3dbPYe5_dv1AkziyzfwKp9nWwwiiNirYnFJWM7s8n6yZFvFe0pyP-zK0OCMsrq89-4oAXnEXrYeh1EwuTF4yVXsfWb9q5UB2pU86bAbdr8LA4AgiaS5ytJuK58QiwbfjohE7roWNuqYzqA1eTTsVxT_PglBOMEzx0taMTFhNrNqVLsq",
          "width": 4032
        }
      ],
      "place_id": "ChIJlTded4P2wokRfykh45EqlgA",
      "plus_code": {
        "compound_code": "R3P5+8H New York, NY, USA",
        "global_code": "87G8R3P5+8H"
      },
      "rating": 4.1,
      "reference": "ChIJlTded4P2wokRfykh45EqlgA",
      "scope": "GOOGLE",
      "types": [
        "fire_station",
        "point_of_interest",
        "establishment"
      ],
      "user_ratings_total": 11,
      "vicinity": "513 West 161st Street, New York"
    },
    {
      "business_status": "OPERATIONAL",
      "geometry": {
        "location": {
          "lat": 40.839408,
          "lng": -73.938839
        },
        "viewport": {
          "northeast": {
            "lat": 40.8408092802915,
            "lng": -73.9376152697085
          },
          "southwest": {
            "lat": 40.8381113197085,
            "lng": -73.94031323029151
          }
        }
      },
      "icon": "https://maps.gstatic.com/mapfiles/place_api/icons/v1/png_71/generic_business-71.png",
      "icon_background_color": "#7B9EB0",
      "icon_mask_base_uri": "https://maps.gstatic.com/mapfiles/place_api/icons/v2/generic_pinlet",
      "name": "Nikki Timko, MD",
      "place_id": "ChIJD5D-HJ32wokRoLW32Of-XfA",
      "plus_code": {
        "compound_code": "R3Q6+QF New York, NY, USA",
        "global_code": "87G8R3Q6+QF"
      },
      "reference": "ChIJD5D-HJ32wokRoLW32Of-XfA",
      "scope": "GOOGLE",
      "types": [
        "doctor",
        "health",
        "point_of_interest",
        "establishment"
      ],
      "vicinity": "21 Audubon Avenue, New York"
    },
    {
      "business_status": "OPERATIONAL",
      "geometry": {
        "location": {
          "lat": 40.83936300000001,
          "lng": -73.938723
        },
        "viewport": {
          "northeast": {
            "lat": 40.8407863802915,
            "lng": -73.9375575697085
          },
          "southwest": {
            "lat": 40.83808841970851,
            "lng": -73.94025553029151
          }
        }
      },
      "icon": "https://maps.gstatic.com/mapfiles/place_api/icons/v1/png_71/generic_business-71.png",
      "icon_background_color": "#7B9EB0",
      "icon_mask_base_uri": "https://maps.gstatic.com/mapfiles/place_api/icons/v2/generic_pinlet",
      "name": "Soren Karen MD",
      "opening_hours": {
        "open_now": false
      },
      "place_id": "ChIJD5D-HJ32wokRwDHNeP90Bgc",
      "plus_code": {
        "compound_code": "R3Q6+PG New York, NY, USA",
        "global_code": "87G8R3Q6+PG"
      },
      "rating": 5,
      "reference": "ChIJD5D-HJ32wokRwDHNeP90Bgc",
      "scope": "GOOGLE",
      "types": [
        "doctor",
        "health",
        "point_of_interest",
        "establishment"
      ],
      "user_ratings_total": 1,
      "vicinity": "21 Audubon Avenue, New York"
    },
    {
      "business_status": "OPERATIONAL",
      "geometry": {
        "location": {
          "lat": 40.8383343,
          "lng": -73.9378412
        },
        "viewport": {
          "northeast": {
            "lat": 40.8396788802915,
            "lng": -73.93656396970849
          },
          "southwest": {
            "lat": 40.8369809197085,
            "lng": -73.9392619302915
          }
        }
      },
      "icon": "https://maps.gstatic.com/mapfiles/place_api/icons/v1/png_71/restaurant-71.png",
      "icon_background_color": "#FF9E67",
      "icon_mask_base_uri": "https://maps.gstatic.com/mapfiles/place_api/icons/v2/restaurant_pinlet",
      "name": "Jade House",
      "opening_hours": {
        "open_now": true
      },
      "photos": [
        {
          "height": 2448,
          "html_attributions": [
            "<a href=\"https://maps.google.com/maps/contrib/114134102057220519862\">jian feng Pan</a>"
          ],
          "photo_reference": "AeJbb3e3uyjzkACzyGC1_REaCw0zpC2PiZvqQiTcOloTRMsRKm2VZUeNFREb4sR-m5OBkSPRDL1FtOa6MTzJNgtyWrMngrnc9XRgm_ZT9ELMKKO-3BGjJQIKY2ewWqiVSxf_AkiJEtR7XkRHO1yQ_GalvMmFUXxtij9R91crEOjltwlBXMbd",
          "width": 3264
        }
      ],
      "place_id": "ChIJYRmhLpz2wokRnx167buEJAw",
      "plus_code": {
        "compound_code": "R3Q6+8V New York, NY, USA",
        "global_code": "87G8R3Q6+8V"
      },
      "price_level": 2,
      "rating": 3.7,
      "reference": "ChIJYRmhLpz2wokRnx167buEJAw",
      "scope": "GOOGLE",
      "types": [
        "meal_delivery",
        "restaurant",
        "point_of_interest",
        "food",
        "establishment"
      ],
      "user_ratings_total": 106,
      "vicinity": "2131 Amsterdam Avenue, New York"
    },
    {
      "business_status": "OPERATIONAL",
      "geometry": {
        "location": {
          "lat": 40.83555399999999,
          "lng": -73.937782
        },
        "viewport": {
          "northeast": {
            "lat": 40.8368698302915,
            "lng": -73.9362819697085
          },
          "southwest": {
            "lat": 40.8341718697085,
            "lng": -73.93897993029151
          }
        }
      },
      "icon": "https://maps.gstatic.com/mapfiles/place_api/icons/v1/png_71/generic_business-71.png",
      "icon_background_color": "#7B9EB0",
      "icon_mask_base_uri": "https://maps.gstatic.com/mapfiles/place_api/icons/v2/generic_pinlet",
      "name": "Basil Smikle Associates",
      "place_id": "ChIJCXAl8oL2wokRFyvXIpN0vzg",
      "plus_code": {
        "compound_code": "R3P6+6V New York, NY, USA",
        "global_code": "87G8R3P6+6V"
      },
      "rating": 4.7,
      "reference": "ChIJCXAl8oL2wokRFyvXIpN0vzg",
      "scope": "GOOGLE",
      "types": [
        "point_of_interest",
        "establishment"
      ],
      "user_ratings_total": 3,
      "vicinity": "596 Edgecombe Avenue, New York"
    },
    {
      "business_status": "OPERATIONAL",
      "geometry": {
        "location": {
          "lat": 40.8376723,
          "lng": -73.9394854
        },
        "viewport": {
          "northeast": {
            "lat": 40.83895383029149,
            "lng": -73.9381859197085
          },
          "southwest": {
            "lat": 40.83625586970849,
            "lng": -73.94088388029151
          }
        }
      },
      "icon": "https://maps.gstatic.com/mapfiles/place_api/icons/v1/png_71/worship_general-71.png",
      "icon_background_color": "#7B9EB0",
      "icon_mask_base_uri": "https://maps.gstatic.com/mapfiles/place_api/icons/v2/worship_christian_pinlet",
      "name": "Centro Altagracia",
      "opening_hours": {
        "open_now": false
      },
      "place_id": "ChIJnauRLYP2wokRhqORLTg102g",
      "plus_code": {
        "compound_code": "R3Q6+36 New York, NY, USA",
        "global_code": "87G8R3Q6+36"
      },
      "rating": 4.7,
      "reference": "ChIJnauRLYP2wokRhqORLTg102g",
      "scope": "GOOGLE",
      "types": [
        "church",
        "place_of_worship",
        "point_of_interest",
        "establishment"
      ],
      "user_ratings_total": 3,
      "vicinity": "511 West 164th Street, New York"
    },
    {
      "business_status": "OPERATIONAL",
      "geometry": {
        "location": {
          "lat": 40.83936300000001,
          "lng": -73.938723
        },
        "viewport": {
          "northeast": {
            "lat": 40.8407863802915,
            "lng": -73.9375575697085
          },
          "southwest": {
            "lat": 40.83808841970851,
            "lng": -73.94025553029151
          }
        }
      },
      "icon": "https://maps.gstatic.com/mapfiles/place_api/icons/v1/png_71/generic_business-71.png",
      "icon_background_color": "#7B9EB0",
      "icon_mask_base_uri": "https://maps.gstatic.com/mapfiles/place_api/icons/v2/generic_pinlet",
      "name": "Audubon Practice (a NewYork-Presbyterian clinic)",
      "opening_hours": {
        "open_now": false
      },
      "photos": [
        {
          "height": 2560,
          "html_attributions": [
            "<a href=\"https://maps.google.com/maps/contrib/113876615821864967164\">Kyara Melo</a>"
          ],
          "photo_reference": "AeJbb3eWG7YmDb_Wot5oZIgrvEbJ-_G28TezeLPjKPtUD5JpxcBG51365-l23gUZqgeeQNUr2LmNXHwZINiPJw0ASI4bZoTltyOJxvA83lBpGG0LdxzZJz7UdE8OQtCKpwcxer75c4Zbux98cN5aJbbYOA-5585SM55I7Nj7UqcAQwDN4ecz",
          "width": 1440
        }
      ],
      "place_id": "ChIJD5D-HJ32wokRQ_IS_LIfh-8",
      "plus_code": {
        "compound_code": "R3Q6+PG New York, NY, USA",
        "global_code": "87G8R3Q6+PG"
      },
      "rating": 2.7,
      "reference": "ChIJD5D-HJ32wokRQ_IS_LIfh-8",
      "scope": "GOOGLE",
      "types": [
        "health",
        "point_of_interest",
        "establishment"
      ],
      "user_ratings_total": 45,
      "vicinity": "21 Audubon Avenue, New York"
    },
    {
      "business_status": "CLOSED_TEMPORARILY",
      "geometry": {
        "location": {
          "lat": 40.835367,
          "lng": -73.93817
        },
        "viewport": {
          "northeast": {
            "lat": 40.8366021302915,
            "lng": -73.93690256970848
          },
          "southwest": {
            "lat": 40.8339041697085,
            "lng": -73.93960053029149
          }
        }
      },
      "icon": "https://maps.gstatic.com/mapfiles/place_api/icons/v1/png_71/generic_business-71.png",
      "icon_background_color": "#7B9EB0",
      "icon_mask_base_uri": "https://maps.gstatic.com/mapfiles/place_api/icons/v2/generic_pinlet",
      "name": "African Folk Heritage Circle",
      "permanently_closed": true,
      "place_id": "ChIJd6FZ94L2wokRTEQaFoEXw7w",
      "plus_code": {
        "compound_code": "R3P6+4P New York, NY, USA",
        "global_code": "87G8R3P6+4P"
      },
      "rating": 5,
      "reference": "ChIJd6FZ94L2wokRTEQaFoEXw7w",
      "scope": "GOOGLE",
      "types": [
        "point_of_interest",
        "establishment"
      ],
      "user_ratings_total": 2,
      "vicinity": "425 West 162nd Street, New York"
    },
    {
      "business_status": "OPERATIONAL",
      "geometry": {
        "location": {
          "lat": 40.83309330000001,
          "lng": -73.9358611
        },
        "viewport": {
          "northeast": {
            "lat": 40.8344475802915,
            "lng": -73.9343779197085
          },
          "southwest": {
            "lat": 40.8317496197085,
            "lng": -73.9370758802915
          }
        }
      },
      "icon": "https://maps.gstatic.com/mapfiles/place_api/icons/v1/png_71/school-71.png",
      "icon_background_color": "#7B9EB0",
      "icon_mask_base_uri": "https://maps.gstatic.com/mapfiles/place_api/icons/v2/school_pinlet",
      "name": "New York City Housing Authority's Rangel Day Care Center",
      "opening_hours": {
        "open_now": false
      },
      "place_id": "ChIJyc92LSj0wokRPbkfq6H9eBc",
      "plus_code": {
        "compound_code": "R3M7+6M New York, NY, USA",
        "global_code": "87G8R3M7+6M"
      },
      "rating": 5,
      "reference": "ChIJyc92LSj0wokRPbkfq6H9eBc",
      "scope": "GOOGLE",
      "types": [
        "point_of_interest",
        "local_government_office",
        "establishment"
      ],
      "user_ratings_total": 1,
      "vicinity": "159-30 Harlem River Drive, New York"
    },
    {
      "business_status": "OPERATIONAL",
      "geometry": {
        "location": {
          "lat": 40.83738089999999,
          "lng": -73.9403449
        },
        "viewport": {
          "northeast": {
            "lat": 40.83860868029149,
            "lng": -73.9391065697085
          },
          "southwest": {
            "lat": 40.8359107197085,
            "lng": -73.9418045302915
          }
        }
      },
      "icon": "https://maps.gstatic.com/mapfiles/place_api/icons/v1/png_71/generic_business-71.png",
      "icon_background_color": "#7B9EB0",
      "icon_mask_base_uri": "https://maps.gstatic.com/mapfiles/place_api/icons/v2/generic_pinlet",
      "name": "Stellar Management",
      "place_id": "ChIJR5kWSIP2wokRPk7JPA0NfOQ",
      "plus_code": {
        "compound_code": "R3P5+XV New York, NY, USA",
        "global_code": "87G8R3P5+XV"
      },
      "rating": 2,
      "reference": "ChIJR5kWSIP2wokRPk7JPA0NfOQ",
      "scope": "GOOGLE",
      "types": [
        "point_of_interest",
        "establishment"
      ],
      "user_ratings_total": 1,
      "vicinity": "1061 Saint Nicholas Avenue, New York"
    },
    {
      "business_status": "OPERATIONAL",
      "geometry": {
        "location": {
          "lat": 40.83791919999999,
          "lng": -73.9401622
        },
        "viewport": {
          "northeast": {
            "lat": 40.8392479302915,
            "lng": -73.93871371970849
          },
          "southwest": {
            "lat": 40.8365499697085,
            "lng": -73.9414116802915
          }
        }
      },
      "icon": "https://maps.gstatic.com/mapfiles/place_api/icons/v1/png_71/shopping-71.png",
      "icon_background_color": "#4B96F3",
      "icon_mask_base_uri": "https://maps.gstatic.com/mapfiles/place_api/icons/v2/shopping_pinlet",
      "name": "Presbyterian Deli",
      "opening_hours": {
        "open_now": true
      },
      "photos": [
        {
          "height": 4032,
          "html_attributions": [
            "<a href=\"https://maps.google.com/maps/contrib/103919812803298686196\">massimo</a>"
          ],
          "photo_reference": "AeJbb3dLye-2IsFxiorBcykIxKDmHqoX3Sm8ndj1fmx5TLrCWJVZKNZnu-6rklLhkGsYdtIHhnPDScyV28UaHYcNxp1SqEn6lqv717MBqpe_xQPV1SNCfZTE1VrodPpeeybrCkPXwi4hmxSZkK_nOAdidPeapkopbJE3W5ncvdyFvuuZAKaM",
          "width": 3024
        }
      ],
      "place_id": "ChIJ_____5r2wokRP7DWV-jbhJM",
      "plus_code": {
        "compound_code": "R3Q5+5W New York, NY, USA",
        "global_code": "87G8R3Q5+5W"
      },
      "price_level": 2,
      "rating": 3.8,
      "reference": "ChIJ_____5r2wokRP7DWV-jbhJM",
      "scope": "GOOGLE",
      "types": [
        "food",
        "store",
        "point_of_interest",
        "establishment"
      ],
      "user_ratings_total": 149,
      "vicinity": "1081 Saint Nicholas Avenue, New York"
    },
    {
      "business_status": "OPERATIONAL",
      "geometry": {
        "location": {
          "lat": 40.8346461,
          "lng": -73.9383369
        },
        "viewport": {
          "northeast": {
            "lat": 40.8360871802915,
            "lng": -73.93720811970849
          },
          "southwest": {
            "lat": 40.8333892197085,
            "lng": -73.93990608029151
          }
        }
      },
      "icon": "https://maps.gstatic.com/mapfiles/place_api/icons/v1/png_71/park-71.png",
      "icon_background_color": "#4DB546",
      "icon_mask_base_uri": "https://maps.gstatic.com/mapfiles/place_api/icons/v2/tree_pinlet",
      "name": "Roger Morris Park",
      "opening_hours": {
        "open_now": true
      },
      "photos": [
        {
          "height": 3024,
          "html_attributions": [
            "<a href=\"https://maps.google.com/maps/contrib/107669147909154511915\">Fernanda</a>"
          ],
          "photo_reference": "AeJbb3ddcrE5t2lB4ikQiwOzZ-f9GlkCzvznNVwl0uObXaiC04eab5Z4s-R9CPQycEoTLPagMribZOc0e3gjah05VQEyzD8XNcWD6qKY6xT_lxTKB1kUEPbpSKoV1B-x650mFKNHyECridnqXxonV-i9HEAH5yLUOxLnJNFj2MEvRdUUnH76",
          "width": 3024
        }
      ],
      "place_id": "ChIJ8xMfToL2wokRzNFCZB5D0jc",
      "plus_code": {
        "compound_code": "R3M6+VM New York, NY, USA",
        "global_code": "87G8R3M6+VM"
      },
      "rating": 4.6,
      "reference": "ChIJ8xMfToL2wokRzNFCZB5D0jc",
      "scope": "GOOGLE",
      "types": [
        "park",
        "tourist_attraction",
        "point_of_interest",
        "establishment"
      ],
      "user_ratings_total": 268,
      "vicinity": "65 Jumel Terrace, New York"
    },
    {
      "business_status": "OPERATIONAL",
      "geometry": {
        "location": {
          "lat": 40.8359885,
          "lng": -73.9401913
        },
        "viewport": {
          "northeast": {
            "lat": 40.8372875302915,
            "lng": -73.9387433197085
          },
          "southwest": {
            "lat": 40.8345895697085,
            "lng": -73.9414412802915
          }
        }
      },
      "icon": "https://maps.gstatic.com/mapfiles/place_api/icons/v1/png_71/atm-71.png",
      "icon_background_color": "#909CE1",
      "icon_mask_base_uri": "https://maps.gstatic.com/mapfiles/place_api/icons/v2/atm_pinlet",
      "name": "Cardtronics ATM",
      "place_id": "ChIJYwDiEYP2wokRjyRH_pPNAPQ",
      "plus_code": {
        "compound_code": "R3P5+9W New York, NY, USA",
        "global_code": "87G8R3P5+9W"
      },
      "rating": 5,
      "reference": "ChIJYwDiEYP2wokRjyRH_pPNAPQ",
      "scope": "GOOGLE",
      "types": [
        "atm",
        "finance",
        "point_of_interest",
        "establishment"
      ],
      "user_ratings_total": 2,
      "vicinity": "1033 Saint Nicholas Avenue, New York"
    },
    {
      "business_status": "CLOSED_TEMPORARILY",
      "geometry": {
        "location": {
          "lat": 40.83691100000001,
          "lng": -73.939498
        },
        "viewport": {
          "northeast": {
            "lat": 40.8382058302915,
            "lng": -73.93802041970851
          },
          "southwest": {
            "lat": 40.8355078697085,
            "lng": -73.94071838029151
          }
        }
      },
      "icon": "https://maps.gstatic.com/mapfiles/place_api/icons/v1/png_71/generic_business-71.png",
      "icon_background_color": "#7B9EB0",
      "icon_mask_base_uri": "https://maps.gstatic.com/mapfiles/place_api/icons/v2/generic_pinlet",
      "name": "Empire Billing Services Inc.",
      "permanently_closed": true,
      "place_id": "ChIJxzEaJIP2wokRR8O0ZG3pTAc",
      "plus_code": {
        "compound_code": "R3P6+Q6 New York, NY, USA",
        "global_code": "87G8R3P6+Q6"
      },
      "rating": 2,
      "reference": "ChIJxzEaJIP2wokRR8O0ZG3pTAc",
      "scope": "GOOGLE",
      "types": [
        "accounting",
        "finance",
        "point_of_interest",
        "establishment"
      ],
      "user_ratings_total": 1,
      "vicinity": "2088 Amsterdam Avenue, New York"
    },
    {
      "business_status": "OPERATIONAL",
      "geometry": {
        "location": {
          "lat": 40.8386274,
          "lng": -73.9389722
        },
        "viewport": {
          "northeast": {
            "lat": 40.8398951302915,
            "lng": -73.93770876970848
          },
          "southwest": {
            "lat": 40.8371971697085,
            "lng": -73.9404067302915
          }
        }
      },
      "icon": "https://maps.gstatic.com/mapfiles/place_api/icons/v1/png_71/generic_business-71.png",
      "icon_background_color": "#7B9EB0",
      "icon_mask_base_uri": "https://maps.gstatic.com/mapfiles/place_api/icons/v2/generic_pinlet",
      "name": "Veterans Association of America, Inc.",
      "opening_hours": {
        "open_now": false
      },
      "photos": [
        {
          "height": 865,
          "html_attributions": [
            "<a href=\"https://maps.google.com/maps/contrib/103325337404426789737\">Veterans Association of America, Inc.</a>"
          ],
          "photo_reference": "AeJbb3ecopfcScAS7shMXErJM7aF-ZjxO0x4lVyGUPhgoqdzK-6KKY-IaorIkaRtyIMUJ4WCk6HwL7ztblKkGhzGx7ARjhOSdDQoLyILPYDgtz2ZzK2dps2wyAq0_6oatf4vyswmpJl64f73nssGfOI8yt2ggTB02XPAjmpZn5-ZSVyEF7Qx",
          "width": 1536
        }
      ],
      "place_id": "ChIJKYCZuRL2wokRei47ozAJTDI",
      "plus_code": {
        "compound_code": "R3Q6+FC New York, NY, USA",
        "global_code": "87G8R3Q6+FC"
      },
      "rating": 4.3,
      "reference": "ChIJKYCZuRL2wokRei47ozAJTDI",
      "scope": "GOOGLE",
      "types": [
        "point_of_interest",
        "establishment"
      ],
      "user_ratings_total": 3,
      "vicinity": "511 West 165th Street #309, New York"
    },
    {
      "business_status": "CLOSED_TEMPORARILY",
      "geometry": {
        "location": {
          "lat": 40.83757730000001,
          "lng": -73.9380717
        },
        "viewport": {
          "northeast": {
            "lat": 40.8390027302915,
            "lng": -73.93666576970848
          },
          "southwest": {
            "lat": 40.83630476970851,
            "lng": -73.93936373029149
          }
        }
      },
      "icon": "https://maps.gstatic.com/mapfiles/place_api/icons/v1/png_71/generic_business-71.png",
      "icon_background_color": "#7B9EB0",
      "icon_mask_base_uri": "https://maps.gstatic.com/mapfiles/place_api/icons/v2/generic_pinlet",
      "name": "ONLIMITED, THE GRAPHIC DESIGNER",
      "permanently_closed": true,
      "place_id": "ChIJt0u3M532wokRT8qjPsP0bSM",
      "plus_code": {
        "compound_code": "R3Q6+2Q New York, NY, USA",
        "global_code": "87G8R3Q6+2Q"
      },
      "reference": "ChIJt0u3M532wokRT8qjPsP0bSM",
      "scope": "GOOGLE",
      "types": [
        "point_of_interest",
        "establishment"
      ],
      "vicinity": "486 West 165th Street, New York"
    },
    {
      "business_status": "OPERATIONAL",
      "geometry": {
        "location": {
          "lat": 40.8362516,
          "lng": -73.93759659999999
        },
        "viewport": {
          "northeast": {
            "lat": 40.8375750802915,
            "lng": -73.93616086970849
          },
          "southwest": {
            "lat": 40.8348771197085,
            "lng": -73.93885883029151
          }
        }
      },
      "icon": "https://maps.gstatic.com/mapfiles/place_api/icons/v1/png_71/generic_business-71.png",
      "icon_background_color": "#7B9EB0",
      "icon_mask_base_uri": "https://maps.gstatic.com/mapfiles/place_api/icons/v2/generic_pinlet",
      "name": "Edgecombe Residential Treatment Program",
      "photos": [
        {
          "height": 3072,
          "html_attributions": [
            "<a href=\"https://maps.google.com/maps/contrib/108473027080975528253\">Aleksandr Alekseenko</a>"
          ],
          "photo_reference": "AeJbb3cGXtXXThJ5MvBk7FudJAsse8XlhUKMy3JbYqZpDE6NVV2ubnBIOsoMyNPuMNN68DNjz-9kkjt387DlTaZEOQtqhKZiYvrIAE_dVCnieq553HIzYZk1_aX1pd9Mgr8sJ31j-kVcYZEjoHNjEG28nSpwAUHS2m-XOp9W_3pDTyv5gVeb",
          "width": 4096
        }
      ],
      "place_id": "ChIJMbaI6YL2wokR4njB0zGu5iA",
      "plus_code": {
        "compound_code": "R3P6+GX New York, NY, USA",
        "global_code": "87G8R3P6+GX"
      },
      "rating": 3,
      "reference": "ChIJMbaI6YL2wokR4njB0zGu5iA",
      "scope": "GOOGLE",
      "types": [
        "point_of_interest",
        "establishment"
      ],
      "user_ratings_total": 2,
      "vicinity": "611 Edgecombe Avenue, New York"
    },
    {
      "business_status": "OPERATIONAL",
      "geometry": {
        "location": {
          "lat": 40.8368277,
          "lng": -73.9387605
        },
        "viewport": {
          "northeast": {
            "lat": 40.8382288302915,
            "lng": -73.9375356697085
          },
          "southwest": {
            "lat": 40.8355308697085,
            "lng": -73.9402336302915
          }
        }
      },
      "icon": "https://maps.gstatic.com/mapfiles/place_api/icons/v1/png_71/generic_business-71.png",
      "icon_background_color": "#7B9EB0",
      "icon_mask_base_uri": "https://maps.gstatic.com/mapfiles/place_api/icons/v2/generic_pinlet",
      "name": "Baez Construction Corp.",
      "opening_hours": {
        "open_now": true
      },
      "place_id": "ChIJMQ_l2IL2wokRp3kd4HOL9l8",
      "plus_code": {
        "compound_code": "R3P6+PF New York, NY, USA",
        "global_code": "87G8R3P6+PF"
      },
      "rating": 5,
      "reference": "ChIJMQ_l2IL2wokRp3kd4HOL9l8",
      "scope": "GOOGLE",
      "types": [
        "general_contractor",
        "point_of_interest",
        "establishment"
      ],
      "user_ratings_total": 1,
      "vicinity": "2089 Amsterdam Avenue, New York"
    },
    {
      "business_status": "OPERATIONAL",
      "geometry": {
        "location": {
          "lat": 40.83699829999999,
          "lng": -73.9386074
        },
        "viewport": {
          "northeast": {
            "lat": 40.8384288802915,
            "lng": -73.9373310197085
          },
          "southwest": {
            "lat": 40.8357309197085,
            "lng": -73.94002898029152
          }
        }
      },
      "icon": "https://maps.gstatic.com/mapfiles/place_api/icons/v1/png_71/shopping-71.png",
      "icon_background_color": "#4B96F3",
      "icon_mask_base_uri": "https://maps.gstatic.com/mapfiles/place_api/icons/v2/shopping_pinlet",
      "name": "Boost Mobile",
      "opening_hours": {
        "open_now": true
      },
      "photos": [
        {
          "height": 4032,
          "html_attributions": [
            "<a href=\"https://maps.google.com/maps/contrib/100482331660920474397\">gabrielle feliciano</a>"
          ],
          "photo_reference": "AeJbb3fRW13O3gBA_R4NbJxM2c6EA8b6SDhnJ6qERdiyMJmra8x7SbT6lw15VIwyX0ZUt4M-W8wxaRl5bGwL-b1KXEX9aTXhIYobPGgGd6eTr5qWpfcXJoOVztYdh-7eGaVh4w018DS6XDkOuAtP4S_VdEEJFDxhslGiyVc0qyUD-kYSQlf8",
          "width": 2268
        }
      ],
      "place_id": "ChIJIXre14L2wokRgm3eR3thPq0",
      "plus_code": {
        "compound_code": "R3P6+QH New York, NY, USA",
        "global_code": "87G8R3P6+QH"
      },
      "price_level": 1,
      "rating": 4.3,
      "reference": "ChIJIXre14L2wokRgm3eR3thPq0",
      "scope": "GOOGLE",
      "types": [
        "store",
        "point_of_interest",
        "establishment"
      ],
      "user_ratings_total": 24,
      "vicinity": "2095 Amsterdam Avenue, New York"
    },
    {
      "business_status": "OPERATIONAL",
      "geometry": {
        "location": {
          "lat": 40.8368768,
          "lng": -73.938859
        },
        "viewport": {
          "northeast": {
            "lat": 40.8382513802915,
            "lng": -73.9375863697085
          },
          "southwest": {
            "lat": 40.8355534197085,
            "lng": -73.9402843302915
          }
        }
      },
      "icon": "https://maps.gstatic.com/mapfiles/place_api/icons/v1/png_71/restaurant-71.png",
      "icon_background_color": "#FF9E67",
      "icon_mask_base_uri": "https://maps.gstatic.com/mapfiles/place_api/icons/v2/restaurant_pinlet",
      "name": "J & M's",
      "opening_hours": {
        "open_now": true
      },
      "place_id": "ChIJzS0h2YL2wokR_ofbzQxS9XI",
      "plus_code": {
        "compound_code": "R3P6+QF New York, NY, USA",
        "global_code": "87G8R3P6+QF"
      },
      "price_level": 2,
      "rating": 4,
      "reference": "ChIJzS0h2YL2wokR_ofbzQxS9XI",
      "scope": "GOOGLE",
      "types": [
        "restaurant",
        "food",
        "point_of_interest",
        "establishment"
      ],
      "user_ratings_total": 9,
      "vicinity": "2089 Amsterdam Avenue, New York"
    },
    {
      "business_status": "CLOSED_TEMPORARILY",
      "geometry": {
        "location": {
          "lat": 40.834865,
          "lng": -73.939049
        },
        "viewport": {
          "northeast": {
            "lat": 40.8361664302915,
            "lng": -73.93758626970849
          },
          "southwest": {
            "lat": 40.83346846970851,
            "lng": -73.94028423029151
          }
        }
      },
      "icon": "https://maps.gstatic.com/mapfiles/place_api/icons/v1/png_71/school-71.png",
      "icon_background_color": "#7B9EB0",
      "icon_mask_base_uri": "https://maps.gstatic.com/mapfiles/place_api/icons/v2/school_pinlet",
      "name": "Kathleen Scarborough",
      "permanently_closed": true,
      "place_id": "ChIJ_ymSrIP2wokRseV2-kJdZ0k",
      "plus_code": {
        "compound_code": "R3M6+W9 New York, NY, USA",
        "global_code": "87G8R3M6+W9"
      },
      "reference": "ChIJ_ymSrIP2wokRseV2-kJdZ0k",
      "scope": "GOOGLE",
      "types": [
        "school",
        "point_of_interest",
        "establishment"
      ],
      "vicinity": "14 Jumel Terrace #2, New York"
    },
    {
      "business_status": "CLOSED_TEMPORARILY",
      "geometry": {
        "location": {
          "lat": 40.8353842,
          "lng": -73.9394354
        },
        "viewport": {
          "northeast": {
            "lat": 40.8367147302915,
            "lng": -73.9382389197085
          },
          "southwest": {
            "lat": 40.8340167697085,
            "lng": -73.9409368802915
          }
        }
      },
      "icon": "https://maps.gstatic.com/mapfiles/place_api/icons/v1/png_71/generic_business-71.png",
      "icon_background_color": "#7B9EB0",
      "icon_mask_base_uri": "https://maps.gstatic.com/mapfiles/place_api/icons/v2/generic_pinlet",
      "name": "Radiant Skin Dermatology and Laser",
      "permanently_closed": true,
      "photos": [
        {
          "height": 576,
          "html_attributions": [
            "<a href=\"https://maps.google.com/maps/contrib/110383854917615293790\">Radiant Skin Dermatology and Laser</a>"
          ],
          "photo_reference": "AeJbb3dAjLL9NuaVQX3IoBY-XgcarVAgnq6UVogLTaa69R9wLbKurfZ_bOVWGw20O-wqQe7gUp6lxXbQPg3lbZnoI18gk5va9KUMXH3otlTGt5_ZuLpmJVEd9AhD4bWa8mePAS48hvbSFiHOLE8Ih7-oQ7C-G38D7H6h8pxZ77LaK9AkBNM0",
          "width": 1024
        }
      ],
      "place_id": "ChIJE4EqB4P2wokR20sXRfMOT9I",
      "plus_code": {
        "compound_code": "R3P6+56 New York, NY, USA",
        "global_code": "87G8R3P6+56"
      },
      "rating": 4.3,
      "reference": "ChIJE4EqB4P2wokR20sXRfMOT9I",
      "scope": "GOOGLE",
      "types": [
        "beauty_salon",
        "spa",
        "hair_care",
        "doctor",
        "health",
        "point_of_interest",
        "establishment"
      ],
      "user_ratings_total": 16,
      "vicinity": "446 West 162nd Street, New York"
    },
    {
      "business_status": "OPERATIONAL",
      "geometry": {
        "location": {
          "lat": 40.8371734,
          "lng": -73.9391278
        },
        "viewport": {
          "northeast": {
            "lat": 40.8384966802915,
            "lng": -73.9377178197085
          },
          "southwest": {
            "lat": 40.8357987197085,
            "lng": -73.9404157802915
          }
        }
      },
      "icon": "https://maps.gstatic.com/mapfiles/place_api/icons/v1/png_71/generic_business-71.png",
      "icon_background_color": "#7B9EB0",
      "icon_mask_base_uri": "https://maps.gstatic.com/mapfiles/place_api/icons/v2/generic_pinlet",
      "name": "Mercedes Multi Service",
      "opening_hours": {
        "open_now": false
      },
      "photos": [
        {
          "height": 3024,
          "html_attributions": [
            "<a href=\"https://maps.google.com/maps/contrib/109475975745447555726\">Mercedes Multi Service</a>"
          ],
          "photo_reference": "AeJbb3c2GTcK7jbOBEx0qZQ5XxqkQCMKKVZDzCgm5RX5AQ-bspuCJxBX3XCNqzNLRU1noh4uoZjNsu5sdKFDPsrrNPaT2oKpI7fhAUO8yvi1MjsrMOEzDpeaEI4jFjZVFJzGRcsOvSyZmFGhDPOpva3EAJIG3GbK0CKSgF95apiUjxrQNqFV",
          "width": 3024
        }
      ],
      "place_id": "ChIJVxRYL4P2wokRx1l8UTio-tI",
      "plus_code": {
        "compound_code": "R3P6+V8 New York, NY, USA",
        "global_code": "87G8R3P6+V8"
      },
      "rating": 5,
      "reference": "ChIJVxRYL4P2wokRx1l8UTio-tI",
      "scope": "GOOGLE",
      "types": [
        "accounting",
        "finance",
        "point_of_interest",
        "establishment"
      ],
      "user_ratings_total": 9,
      "vicinity": "2094 Amsterdam Avenue, New York"
    },
    {
      "business_status": "OPERATIONAL",
      "geometry": {
        "location": {
          "lat": 40.83324570000001,
          "lng": -73.9360921
        },
        "viewport": {
          "northeast": {
            "lat": 40.8346051802915,
            "lng": -73.93449816970849
          },
          "southwest": {
            "lat": 40.8319072197085,
            "lng": -73.9371961302915
          }
        }
      },
      "icon": "https://maps.gstatic.com/mapfiles/place_api/icons/v1/png_71/school-71.png",
      "icon_background_color": "#7B9EB0",
      "icon_mask_base_uri": "https://maps.gstatic.com/mapfiles/place_api/icons/v2/school_pinlet",
      "name": "New York City Housing Authority Rangel Senior Center",
      "place_id": "ChIJJwwjFij0wokRyc0myCKost4",
      "plus_code": {
        "compound_code": "R3M7+7H New York, NY, USA",
        "global_code": "87G8R3M7+7H"
      },
      "reference": "ChIJJwwjFij0wokRyc0myCKost4",
      "scope": "GOOGLE",
      "types": [
        "point_of_interest",
        "establishment"
      ],
      "vicinity": "159-36 Harlem River Drive, New York"
    },
    {
      "business_status": "OPERATIONAL",
      "geometry": {
        "location": {
          "lat": 40.8378529,
          "lng": -73.93720379999999
        },
        "viewport": {
          "northeast": {
            "lat": 40.8391999802915,
            "lng": -73.93584886970851
          },
          "southwest": {
            "lat": 40.8365020197085,
            "lng": -73.93854683029151
          }
        }
      },
      "icon": "https://maps.gstatic.com/mapfiles/place_api/icons/v1/png_71/parking-71.png",
      "icon_background_color": "#7B9EB0",
      "icon_mask_base_uri": "https://maps.gstatic.com/mapfiles/place_api/icons/v2/parking_pinlet",
      "name": "Columbia University Lot",
      "place_id": "ChIJ4cAQSZ32wokRM8h0FEwaH9k",
      "plus_code": {
        "compound_code": "R3Q7+44 New York, NY, USA",
        "global_code": "87G8R3Q7+44"
      },
      "reference": "ChIJ4cAQSZ32wokRM8h0FEwaH9k",
      "scope": "GOOGLE",
      "types": [
        "parking",
        "point_of_interest",
        "establishment"
      ],
      "vicinity": "458 West 165th Street, New York"
    },
    {
      "business_status": "OPERATIONAL",
      "geometry": {
        "location": {
          "lat": 40.8356652,
          "lng": -73.940382
        },
        "viewport": {
          "northeast": {
            "lat": 40.83695223029149,
            "lng": -73.9388863697085
          },
          "southwest": {
            "lat": 40.8342542697085,
            "lng": -73.9415843302915
          }
        }
      },
      "icon": "https://maps.gstatic.com/mapfiles/place_api/icons/v1/png_71/generic_business-71.png",
      "icon_background_color": "#7B9EB0",
      "icon_mask_base_uri": "https://maps.gstatic.com/mapfiles/place_api/icons/v2/generic_pinlet",
      "name": "Western Union",
      "opening_hours": {
        "open_now": true
      },
      "photos": [
        {
          "height": 1000,
          "html_attributions": [
            "<a href=\"https://maps.google.com/maps/contrib/118043596601254149732\">Western Union</a>"
          ],
          "photo_reference": "AeJbb3dj9ofYID28Cf7Xlt2cnQinVpIa7YR6njlZky0_-I5QtZUeHekNt4J62aEe_lOjeuVDp4nmASrZtniN6Gk1kH8zvy4TSSEIdBSMFFP482txZjAf2vRFEgOEkCU0O9HLHDCkoKMI-Q19dU-M0hfNqzYCIuGLiNedAfc9HbTAWN4eR1hM",
          "width": 1000
        }
      ],
      "place_id": "ChIJEQ5LC4P2wokRl0lc1aabMF0",
      "plus_code": {
        "compound_code": "R3P5+7R New York, NY, USA",
        "global_code": "87G8R3P5+7R"
      },
      "rating": 3,
      "reference": "ChIJEQ5LC4P2wokRl0lc1aabMF0",
      "scope": "GOOGLE",
      "types": [
        "finance",
        "point_of_interest",
        "establishment"
      ],
      "user_ratings_total": 2,
      "vicinity": "2040 Amsterdam Ave Pls Check Cashers Cc902, New York"
    },
    {
      "business_status": "OPERATIONAL",
      "geometry": {
        "location": {
          "lat": 40.8338678,
          "lng": -73.939082
        },
        "viewport": {
          "northeast": {
            "lat": 40.83510468029149,
            "lng": -73.93756451970849
          },
          "southwest": {
            "lat": 40.83240671970849,
            "lng": -73.94026248029151
          }
        }
      },
      "icon": "https://maps.gstatic.com/mapfiles/place_api/icons/v1/png_71/generic_business-71.png",
      "icon_background_color": "#7B9EB0",
      "icon_mask_base_uri": "https://maps.gstatic.com/mapfiles/place_api/icons/v2/generic_pinlet",
      "name": "While We Are Still Here",
      "photos": [
        {
          "height": 1080,
          "html_attributions": [
            "<a href=\"https://maps.google.com/maps/contrib/106765989703599550688\">While We Are Still Here</a>"
          ],
          "photo_reference": "AeJbb3fJs1YkSVmeBTq_Zn64tL3TlmvY0w-pVY5Hvl1cmsAmTdzESQtD_XY66KAVNVzTGVA49KgAbqcFo0QEWt6ROAeWCJeB8-93qdRp_5hJRmcX0Smoi782FK5YKYOQ2NZm3eU26H8NFzSMX0OB6wE0qpBFPMM0tkOGy5rDcu82Xns_fc5P",
          "width": 1080
        }
      ],
      "place_id": "ChIJY-TbyoP2wokRfg8C1pd63Gc",
      "plus_code": {
        "compound_code": "R3M6+G9 New York, NY, USA",
        "global_code": "87G8R3M6+G9"
      },
      "rating": 5,
      "reference": "ChIJY-TbyoP2wokRfg8C1pd63Gc",
      "scope": "GOOGLE",
      "types": [
        "point_of_interest",
        "establishment"
      ],
      "user_ratings_total": 1,
      "vicinity": "555 Edgecombe Avenue, New York"
    },
    {
      "business_status": "OPERATIONAL",
      "geometry": {
        "location": {
          "lat": 40.8349343,
          "lng": -73.94027419999999
        },
        "viewport": {
          "northeast": {
            "lat": 40.8363238302915,
            "lng": -73.93902276970849
          },
          "southwest": {
            "lat": 40.8336258697085,
            "lng": -73.9417207302915
          }
        }
      },
      "icon": "https://maps.gstatic.com/mapfiles/place_api/icons/v1/png_71/generic_business-71.png",
      "icon_background_color": "#7B9EB0",
      "icon_mask_base_uri": "https://maps.gstatic.com/mapfiles/place_api/icons/v2/generic_pinlet",
      "name": "Big Media Entertainment",
      "opening_hours": {
        "open_now": true
      },
      "photos": [
        {
          "height": 3640,
          "html_attributions": [
            "<a href=\"https://maps.google.com/maps/contrib/112736061531438276143\">Big Media Entertainment</a>"
          ],
          "photo_reference": "AeJbb3epp6tyvr4esyC-lGucTEn-C8XCiUjmTW25zKIQ0vbdX7CtZXj6m1-OWumgGepmvqIpKCUErqpRgaNrEEgWzbWHgwQJA8Yglhjvs5XGEOpGmKLXsWQO_vkOCqcEEatxQf5X_mMyulsm0mU9wA5YX9zmHSE6RMZPpSuO9QeE1Hq6wBhu",
          "width": 5329
        }
      ],
      "place_id": "ChIJCaeTooP2wokRTnIApchQ0pg",
      "plus_code": {
        "compound_code": "R3M5+XV New York, NY, USA",
        "global_code": "87G8R3M5+XV"
      },
      "rating": 5,
      "reference": "ChIJCaeTooP2wokRTnIApchQ0pg",
      "scope": "GOOGLE",
      "types": [
        "food",
        "point_of_interest",
        "establishment"
      ],
      "user_ratings_total": 1,
      "vicinity": "2027 Amsterdam Avenue, New York"
    },
    {
      "business_status": "OPERATIONAL",
      "geometry": {
        "location": {
          "lat": 40.8348323,
          "lng": -73.9403895
        },
        "viewport": {
          "northeast": {
            "lat": 40.83620178029149,
            "lng": -73.9391276197085
          },
          "southwest": {
            "lat": 40.8335038197085,
            "lng": -73.9418255802915
          }
        }
      },
      "icon": "https://maps.gstatic.com/mapfiles/place_api/icons/v1/png_71/restaurant-71.png",
      "icon_background_color": "#FF9E67",
      "icon_mask_base_uri": "https://maps.gstatic.com/mapfiles/place_api/icons/v2/restaurant_pinlet",
      "name": "Crown Fried Chicken",
      "opening_hours": {
        "open_now": true
      },
      "photos": [
        {
          "height": 3024,
          "html_attributions": [
            "<a href=\"https://maps.google.com/maps/contrib/117082189680317322766\">Crown Fried Chicken</a>"
          ],
          "photo_reference": "AeJbb3cWza6BW7QQk3tVRvlXLEGv2MukP9daQofnXnvF7YOb3qrMOV1CnBwJETbIIpKPQrIrl_JQS31FkzdE-WGzYRRSeQ8lPN3GWegPuBcqnQyh4MYBVZ6ZdItGb4xCOiXzlCS_7U7UwbS2q7mkXCBts_-1zuHCCgCS3rCov0g76wwuPhj4",
          "width": 4032
        }
      ],
      "place_id": "ChIJdZmnooP2wokRHjaBDHGAoLU",
      "plus_code": {
        "compound_code": "R3M5+WR New York, NY, USA",
        "global_code": "87G8R3M5+WR"
      },
      "price_level": 1,
      "rating": 4,
      "reference": "ChIJdZmnooP2wokRHjaBDHGAoLU",
      "scope": "GOOGLE",
      "types": [
        "meal_delivery",
        "meal_takeaway",
        "restaurant",
        "food",
        "point_of_interest",
        "establishment"
      ],
      "user_ratings_total": 110,
      "vicinity": "2021 Amsterdam Avenue, New York"
    },
    {
      "business_status": "CLOSED_TEMPORARILY",
      "geometry": {
        "location": {
          "lat": 40.83825509999999,
          "lng": -73.9378796
        },
        "viewport": {
          "northeast": {
            "lat": 40.83963728029149,
            "lng": -73.9365951697085
          },
          "southwest": {
            "lat": 40.83693931970849,
            "lng": -73.9392931302915
          }
        }
      },
      "icon": "https://maps.gstatic.com/mapfiles/place_api/icons/v1/png_71/generic_business-71.png",
      "icon_background_color": "#7B9EB0",
      "icon_mask_base_uri": "https://maps.gstatic.com/mapfiles/place_api/icons/v2/generic_pinlet",
      "name": "Luigi's Pizza",
      "permanently_closed": true,
      "photos": [
        {
          "height": 1872,
          "html_attributions": [
            "<a href=\"https://maps.google.com/maps/contrib/113680995487147569654\">Mari Gajic</a>"
          ],
          "photo_reference": "AeJbb3dtS-o09iCGBsJjrRGJzIoj8xzlnqmBV2rGItxA6y7NOpnrsT-ZShBuMERbL5YClSXoc1eGzdaknikdodPPBLk0aZwvfW9_R-Yg6Wg4DubU3Cl-pjnakminjnJmtHjOBzs2ktWyCo2CHNvJ5NNJ9gJphYqHlfUd_jAI-ggPx00ikthm",
          "width": 3328
        }
      ],
      "place_id": "ChIJz086Op32wokRbni5moCmDvE",
      "plus_code": {
        "compound_code": "R3Q6+8R New York, NY, USA",
        "global_code": "87G8R3Q6+8R"
      },
      "price_level": 2,
      "rating": 3.8,
      "reference": "ChIJz086Op32wokRbni5moCmDvE",
      "scope": "GOOGLE",
      "types": [
        "meal_delivery",
        "food",
        "point_of_interest",
        "establishment"
      ],
      "user_ratings_total": 88,
      "vicinity": "2127 Amsterdam Avenue, New York"
    }
  ],
  "status": "OK"
}