{
  "html_attributions": [],
  "results": [
    {
      "geometry": {
        "location": {
          "lat": 40.7127753,
          "lng": -74.0059728
        },
        "viewport": {
          "northeast": {
            "lat": 40.91757705070789,
            "lng": -73.70027206817629
          },
          "southwest": {
            "lat": 40.47739906045452,
            "lng": -74.25908991427882
          }
        }
      },
      "icon": "https://maps.gstatic.com/mapfiles/place_api/icons/v1/png_71/geocode-71.png",
      "icon_background_color": "#7B9EB0",
      "icon_mask_base_uri": "https://maps.gstatic.com/mapfiles/place_api/icons/v2/generic_pinlet",
      "name": "\u7d10\u7d04",
      "photos": [
        {
          "height": 600,
          "html_attributions": [
            "<a href=\"https://maps.google.com/maps/contrib/102389334567210814614\">Bukurie</a>"
          ],
          "photo_reference": "AeJbb3cml8bblaCRzqIZF0Tdv6IFVG29iKBxijsB0kbd1Jp4Y9iE6kdPDnLyZbEvpHv6CknClmb_0eJxt_3ps6vewHBxXItH4usz3GDGdqho69GREn2xxAAIskup3AD4k0IYU47rT-s6x99AWDjw4ohVShJSEuolLp2rh4TORz0EgDqwN3On",
          "width": 480
        }
      ],
      "place_id": "ChIJOwg_06VPwokRYv534QaPC8g",
      "reference": "ChIJOwg_06VPwokRYv534QaPC8g",
      "scope": "GOOGLE",
      "types": [
        "locality",
        "political"
      ],
      "vicinity": "\u7d10\u7d04"
    },
    {
      "business_status": "OPERATIONAL",
      "geometry": {
        "location": {
          "lat": 40.8421936,
          "lng": -73.9413146
        },
        "viewport": {
          "northeast": {
            "lat": 40.8436717302915,
            "lng": -73.94038781970849
          },
          "southwest": {
            "lat": 40.8409737697085,
            "lng": -73.9430857802915
          }
        }
      },
      "icon": "https://maps.gstatic.com/mapfiles/place_api/icons/v1/png_71/generic_business-71.png",
      "icon_background_color": "#7B9EB0",
      "icon_mask_base_uri": "https://maps.gstatic.com/mapfiles/place_api/icons/v2/generic_pinlet",
      "name": "Armory Track",
      "opening_hours": {
        "open_now": false
      },
      "photos": [
        {
          "height": 3999,
          "html_attributions": [
            "<a href=\"https://maps.google.com/maps/contrib/117275155420516146447\">Armory Track</a>"
          ],
          "photo_reference": "AeJbb3fX81K_jTt3Q4xaaQBC364pitijmLlQo6DSIxUElwhXIynUVJjPDTR9HVgUC5rLuDLqmPS4DJoygb2Yo-czs2YG_2Gacr-07rBrSivZt_VZiraHlAioD9tCxe8MMfsas0DITJ7wjVP2MzL31tsGYRQ_2pal9QaAwWi7gHKxpeofcWL0",
          "width": 5998
        }
      ],
      "place_id": "ChIJi3eY95v2wokR4cL4GcqwiWM",
      "plus_code": {
        "compound_code": "R3R5+VF \u7f8e\u570b\u7d10\u7d04",
        "global_code": "87G8R3R5+VF"
      },
      "rating": 4.6,
      "reference": "ChIJi3eY95v2wokR4cL4GcqwiWM",
      "scope": "GOOGLE",
      "types": [
        "point_of_interest",
        "establishment"
      ],
      "user_ratings_total": 1608,
      "vicinity": "216 Fort Washington Avenue, New York"
    },
    {
      "business_status": "OPERATIONAL",
      "geometry": {
        "location": {
          "lat": 40.84154280000001,
          "lng": -73.94139229999999
        },
        "viewport": {
          "northeast": {
            "lat": 40.8428013802915,
            "lng": -73.93988941970849
          },
          "southwest": {
            "lat": 40.84010341970851,
            "lng": -73.9425873802915
          }
        }
      },
      "icon": "https://maps.gstatic.com/mapfiles/place_api/icons/v1/png_71/school-71.png",
      "icon_background_color": "#7B9EB0",
      "icon_mask_base_uri": "https://maps.gstatic.com/mapfiles/place_api/icons/v2/school_pinlet",
      "name": "Columbia University Vagelos College of Physicians and Surgeons",
      "opening_hours": {
        "open_now": false
      },
      "photos": [
        {
          "height": 1836,
          "html_attributions": [
            "<a href=\"https://maps.google.com/maps/contrib/107787087750745664988\">Josue Martinez</a>"
          ],
          "photo_reference": "AeJbb3eKTP0AdXLDp4FZE8YG7macRKDTLF6mJcH7tdzLdAXjS8HuCVolteWisfziE8ws1o8LvRyRNSlU2YTAX0V_KLm1kHvpWryCXGMNwDFw70EASQ-vLI6csxN_Ct8AxZfoNjYveaLoNoGvrrFHUUR-WvGigYPetq8Wgh6HcH6xdp7Gxlvx",
          "width": 3264
        }
      ],
      "place_id": "ChIJ61x_cpz2wokR6gZxFDspG5Q",
      "plus_code": {
        "compound_code": "R3R5+JC \u7f8e\u570b\u7d10\u7d04",
        "global_code": "87G8R3R5+JC"
      },
      "rating": 4.6,
      "reference": "ChIJ61x_cpz2wokR6gZxFDspG5Q",
      "scope": "GOOGLE",
      "types": [
        "university",
        "health",
        "point_of_interest",
        "establishment"
      ],
      "user_ratings_total": 39,
      "vicinity": "630 West 168th Street, New York"
    },
    {
      "business_status": "OPERATIONAL",
      "geometry": {
        "location": {
          "lat": 40.841311,
          "lng": -73.94067
        },
        "viewport": {
          "northeast": {
            "lat": 40.84271448029151,
            "lng": -73.93948821970848
          },
          "southwest": {
            "lat": 40.84001651970851,
            "lng": -73.9421861802915
          }
        }
      },
      "icon": "https://maps.gstatic.com/mapfiles/place_api/icons/v1/png_71/generic_business-71.png",
      "icon_background_color": "#7B9EB0",
      "icon_mask_base_uri": "https://maps.gstatic.com/mapfiles/place_api/icons/v2/generic_pinlet",
      "name": "Center for Liver Disease and Transplantation at Columbia",
      "opening_hours": {
        "open_now": false
      },
      "place_id": "ChIJydaXaZz2wokRHZuwOKpos8w",
      "plus_code": {
        "compound_code": "R3R5+GP \u7f8e\u570b\u7d10\u7d04",
        "global_code": "87G8R3R5+GP"
      },
      "rating": 3.3,
      "reference": "ChIJydaXaZz2wokRHZuwOKpos8w",
      "scope": "GOOGLE",
      "types": [
        "doctor",
        "health",
        "point_of_interest",
        "establishment"
      ],
      "user_ratings_total": 3,
      "vicinity": "622 West 168th Street, New York"
    },
    {
      "business_status": "OPERATIONAL",
      "geometry": {
        "location": {
          "lat": 40.8408953,
          "lng": -73.9409419
        },
        "viewport": {
          "northeast": {
            "lat": 40.8424779802915,
            "lng": -73.9396612197085
          },
          "southwest": {
            "lat": 40.8397800197085,
            "lng": -73.9423591802915
          }
        }
      },
      "icon": "https://maps.gstatic.com/mapfiles/place_api/icons/v1/png_71/generic_business-71.png",
      "icon_background_color": "#7B9EB0",
      "icon_mask_base_uri": "https://maps.gstatic.com/mapfiles/place_api/icons/v2/generic_pinlet",
      "name": "Lung Transplant",
      "place_id": "ChIJW2D3c5v2wokRmi3_6mq-lXI",
      "plus_code": {
        "compound_code": "R3R5+9J \u7f8e\u570b\u7d10\u7d04",
        "global_code": "87G8R3R5+9J"
      },
      "reference": "ChIJW2D3c5v2wokRmi3_6mq-lXI",
      "scope": "GOOGLE",
      "types": [
        "hospital",
        "doctor",
        "health",
        "point_of_interest",
        "establishment"
      ],
      "vicinity": "166 Fort Washington Avenue, New York"
    },
    {
      "business_status": "OPERATIONAL",
      "geometry": {
        "location": {
          "lat": 40.8409549,
          "lng": -73.941459
        },
        "viewport": {
          "northeast": {
            "lat": 40.8425418802915,
            "lng": -73.9399227697085
          },
          "southwest": {
            "lat": 40.8398439197085,
            "lng": -73.94262073029151
          }
        }
      },
      "icon": "https://maps.gstatic.com/mapfiles/place_api/icons/v1/png_71/generic_business-71.png",
      "icon_background_color": "#7B9EB0",
      "icon_mask_base_uri": "https://maps.gstatic.com/mapfiles/place_api/icons/v2/generic_pinlet",
      "name": "Anil Rustgi, MD",
      "place_id": "ChIJTwu3r1vGxokRmlLtOw8UUMM",
      "plus_code": {
        "compound_code": "R3R5+9C \u7f8e\u570b\u7d10\u7d04",
        "global_code": "87G8R3R5+9C"
      },
      "reference": "ChIJTwu3r1vGxokRmlLtOw8UUMM",
      "scope": "GOOGLE",
      "types": [
        "doctor",
        "health",
        "point_of_interest",
        "establishment"
      ],
      "vicinity": "630 West 168th Street, New York"
    },
    {
      "business_status": "OPERATIONAL",
      "geometry": {
        "location": {
          "lat": 40.8410971,
          "lng": -73.9411973
        },
        "viewport": {
          "northeast": {
            "lat": 40.8425832802915,
            "lng": -73.93973816970849
          },
          "southwest": {
            "lat": 40.8398853197085,
            "lng": -73.94243613029151
          }
        }
      },
      "icon": "https://maps.gstatic.com/mapfiles/place_api/icons/v1/png_71/school-71.png",
      "icon_background_color": "#7B9EB0",
      "icon_mask_base_uri": "https://maps.gstatic.com/mapfiles/place_api/icons/v2/school_pinlet",
      "name": "Department of Pathology and Cell Biology",
      "place_id": "ChIJlytJcJz2wokRfnsKGQViag8",
      "plus_code": {
        "compound_code": "R3R5+CG \u7f8e\u570b\u7d10\u7d04",
        "global_code": "87G8R3R5+CG"
      },
      "reference": "ChIJlytJcJz2wokRfnsKGQViag8",
      "scope": "GOOGLE",
      "types": [
        "point_of_interest",
        "establishment"
      ],
      "vicinity": "630 West 168th Street, New York"
    },
    {
      "business_status": "OPERATIONAL",
      "geometry": {
        "location": {
          "lat": 40.841704,
          "lng": -73.942039
        },
        "viewport": {
          "northeast": {
            "lat": 40.8431772302915,
            "lng": -73.94059681970847
          },
          "southwest": {
            "lat": 40.8404792697085,
            "lng": -73.94329478029148
          }
        }
      },
      "icon": "https://maps.gstatic.com/mapfiles/place_api/icons/v1/png_71/school-71.png",
      "icon_background_color": "#7B9EB0",
      "icon_mask_base_uri": "https://maps.gstatic.com/mapfiles/place_api/icons/v2/school_pinlet",
      "name": "Columbia University Center for Advanced Information Management",
      "opening_hours": {
        "open_now": false
      },
      "place_id": "ChIJvV8ObJz2wokRlAuiJ_OQz70",
      "plus_code": {
        "compound_code": "R3R5+M5 \u7f8e\u570b\u7d10\u7d04",
        "global_code": "87G8R3R5+M5"
      },
      "reference": "ChIJvV8ObJz2wokRlAuiJ_OQz70",
      "scope": "GOOGLE",
      "types": [
        "university",
        "point_of_interest",
        "establishment"
      ],
      "vicinity": "650 West 168th Street, New York"
    },
    {
      "business_status": "OPERATIONAL",
      "geometry": {
        "location": {
          "lat": 40.841311,
          "lng": -73.94067
        },
        "viewport": {
          "northeast": {
            "lat": 40.84271448029151,
            "lng": -73.93948821970848
          },
          "southwest": {
            "lat": 40.84001651970851,
            "lng": -73.9421861802915
          }
        }
      },
      "icon": "https://maps.gstatic.com/mapfiles/place_api/icons/v1/png_71/generic_business-71.png",
      "icon_background_color": "#7B9EB0",
      "icon_mask_base_uri": "https://maps.gstatic.com/mapfiles/place_api/icons/v2/generic_pinlet",
      "name": "Tennyson Joanne S",
      "place_id": "ChIJ8eKXaZz2wokRyKCtaigu_sI",
      "plus_code": {
        "compound_code": "R3R5+GP \u7f8e\u570b\u7d10\u7d04",
        "global_code": "87G8R3R5+GP"
      },
      "reference": "ChIJ8eKXaZz2wokRyKCtaigu_sI",
      "scope": "GOOGLE",
      "types": [
        "doctor",
        "health",
        "point_of_interest",
        "establishment"
      ],
      "vicinity": "622 West 168th Street, New York"
    },
    {
      "business_status": "OPERATIONAL",
      "geometry": {
        "location": {
          "lat": 40.841311,
          "lng": -73.94067
        },
        "viewport": {
          "northeast": {
            "lat": 40.84271448029151,
            "lng": -73.93948821970848
          },
          "southwest": {
            "lat": 40.84001651970851,
            "lng": -73.9421861802915
          }
        }
      },
      "icon": "https://maps.gstatic.com/mapfiles/place_api/icons/v1/png_71/generic_business-71.png",
      "icon_background_color": "#7B9EB0",
      "icon_mask_base_uri": "https://maps.gstatic.com/mapfiles/place_api/icons/v2/generic_pinlet",
      "name": "Douglas Nataki C MD",
      "place_id": "ChIJ8eKXaZz2wokRBAXhTYpuluo",
      "plus_code": {
        "compound_code": "R3R5+GP \u7f8e\u570b\u7d10\u7d04",
        "global_code": "87G8R3R5+GP"
      },
      "reference": "ChIJ8eKXaZz2wokRBAXhTYpuluo",
      "scope": "GOOGLE",
      "types": [
        "doctor",
        "health",
        "point_of_interest",
        "establishment"
      ],
      "vicinity": "622 West 168th Street, New York"
    },
    {
      "business_status": "OPERATIONAL",
      "geometry": {
        "location": {
          "lat": 40.841311,
          "lng": -73.94067
        },
        "viewport": {
          "northeast": {
            "lat": 40.84271448029151,
            "lng": -73.93948821970848
          },
          "southwest": {
            "lat": 40.84001651970851,
            "lng": -73.9421861802915
          }
        }
      },
      "icon": "https://maps.gstatic.com/mapfiles/place_api/icons/v1/png_71/generic_business-71.png",
      "icon_background_color": "#7B9EB0",
      "icon_mask_base_uri": "https://maps.gstatic.com/mapfiles/place_api/icons/v2/generic_pinlet",
      "name": "Sampson Jacinda B MD",
      "place_id": "ChIJ8eKXaZz2wokR9Ema9q-WV1Q",
      "plus_code": {
        "compound_code": "R3R5+GP \u7f8e\u570b\u7d10\u7d04",
        "global_code": "87G8R3R5+GP"
      },
      "reference": "ChIJ8eKXaZz2wokR9Ema9q-WV1Q",
      "scope": "GOOGLE",
      "types": [
        "doctor",
        "health",
        "point_of_interest",
        "establishment"
      ],
      "vicinity": "622 West 168th Street, New York"
    },
    {
      "business_status": "OPERATIONAL",
      "geometry": {
        "location": {
          "lat": 40.841311,
          "lng": -73.94067
        },
        "viewport": {
          "northeast": {
            "lat": 40.84271448029151,
            "lng": -73.93948821970848
          },
          "southwest": {
            "lat": 40.84001651970851,
            "lng": -73.9421861802915
          }
        }
      },
      "icon": "https://maps.gstatic.com/mapfiles/place_api/icons/v1/png_71/generic_business-71.png",
      "icon_background_color": "#7B9EB0",
      "icon_mask_base_uri": "https://maps.gstatic.com/mapfiles/place_api/icons/v2/generic_pinlet",
      "name": "Tresgallo Mary Ellen",
      "place_id": "ChIJ8eKXaZz2wokRjdPyeJAw8Ac",
      "plus_code": {
        "compound_code": "R3R5+GP \u7f8e\u570b\u7d10\u7d04",
        "global_code": "87G8R3R5+GP"
      },
      "reference": "ChIJ8eKXaZz2wokRjdPyeJAw8Ac",
      "scope": "GOOGLE",
      "types": [
        "doctor",
        "health",
        "point_of_interest",
        "establishment"
      ],
      "vicinity": "622 West 168th Street #505, New York"
    },
    {
      "business_status": "OPERATIONAL",
      "geometry": {
        "location": {
          "lat": 40.841311,
          "lng": -73.94067
        },
        "viewport": {
          "northeast": {
            "lat": 40.84271448029151,
            "lng": -73.93948821970848
          },
          "southwest": {
            "lat": 40.84001651970851,
            "lng": -73.9421861802915
          }
        }
      },
      "icon": "https://maps.gstatic.com/mapfiles/place_api/icons/v1/png_71/generic_business-71.png",
      "icon_background_color": "#7B9EB0",
      "icon_mask_base_uri": "https://maps.gstatic.com/mapfiles/place_api/icons/v2/generic_pinlet",
      "name": "Raza Kashif MD",
      "place_id": "ChIJ8eKXaZz2wokR2Qo8ipfWtq4",
      "plus_code": {
        "compound_code": "R3R5+GP \u7f8e\u570b\u7d10\u7d04",
        "global_code": "87G8R3R5+GP"
      },
      "rating": 5,
      "reference": "ChIJ8eKXaZz2wokR2Qo8ipfWtq4",
      "scope": "GOOGLE",
      "types": [
        "doctor",
        "health",
        "point_of_interest",
        "establishment"
      ],
      "user_ratings_total": 1,
      "vicinity": "622 West 168th Street, New York"
    },
    {
      "business_status": "OPERATIONAL",
      "geometry": {
        "location": {
          "lat": 40.841311,
          "lng": -73.94067
        },
        "viewport": {
          "northeast": {
            "lat": 40.84271448029151,
            "lng": -73.93948821970848
          },
          "southwest": {
            "lat": 40.84001651970851,
            "lng": -73.9421861802915
          }
        }
      },
      "icon": "https://maps.gstatic.com/mapfiles/place_api/icons/v1/png_71/generic_business-71.png",
      "icon_background_color": "#7B9EB0",
      "icon_mask_base_uri": "https://maps.gstatic.com/mapfiles/place_api/icons/v2/generic_pinlet",
      "name": "Sahyoun Cyril MD",
      "place_id": "ChIJ8eKXaZz2wokRX2fxff0j4cQ",
      "plus_code": {
        "compound_code": "R3R5+GP \u7f8e\u570b\u7d10\u7d04",
        "global_code": "87G8R3R5+GP"
      },
      "reference": "ChIJ8eKXaZz2wokRX2fxff0j4cQ",
      "scope": "GOOGLE",
      "types": [
        "doctor",
        "health",
        "point_of_interest",
        "establishment"
      ],
      "vicinity": "622 West 168th Street #137, New York"
    },
    {
      "business_status": "OPERATIONAL",
      "geometry": {
        "location": {
          "lat": 40.841311,
          "lng": -73.94067
        },
        "viewport": {
          "northeast": {
            "lat": 40.84271448029151,
            "lng": -73.93948821970848
          },
          "southwest": {
            "lat": 40.84001651970851,
            "lng": -73.9421861802915
          }
        }
      },
      "icon": "https://maps.gstatic.com/mapfiles/place_api/icons/v1/png_71/generic_business-71.png",
      "icon_background_color": "#7B9EB0",
      "icon_mask_base_uri": "https://maps.gstatic.com/mapfiles/place_api/icons/v2/generic_pinlet",
      "name": "Regan Dallas D",
      "place_id": "ChIJ8eKXaZz2wokRxMZAWNhKu5g",
      "plus_code": {
        "compound_code": "R3R5+GP \u7f8e\u570b\u7d10\u7d04",
        "global_code": "87G8R3R5+GP"
      },
      "reference": "ChIJ8eKXaZz2wokRxMZAWNhKu5g",
      "scope": "GOOGLE",
      "types": [
        "doctor",
        "health",
        "point_of_interest",
        "establishment"
      ],
      "vicinity": "622 West 168th Street, New York"
    },
    {
      "business_status": "OPERATIONAL",
      "geometry": {
        "location": {
          "lat": 40.841311,
          "lng": -73.94067
        },
        "viewport": {
          "northeast": {
            "lat": 40.84271448029151,
            "lng": -73.93948821970848
          },
          "southwest": {
            "lat": 40.84001651970851,
            "lng": -73.9421861802915
          }
        }
      },
      "icon": "https://maps.gstatic.com/mapfiles/place_api/icons/v1/png_71/generic_business-71.png",
      "icon_background_color": "#7B9EB0",
      "icon_mask_base_uri": "https://maps.gstatic.com/mapfiles/place_api/icons/v2/generic_pinlet",
      "name": "Barr Robert G MD",
      "place_id": "ChIJ8eKXaZz2wokRisDKvqL2aRw",
      "plus_code": {
        "compound_code": "R3R5+GP \u7f8e\u570b\u7d10\u7d04",
        "global_code": "87G8R3R5+GP"
      },
      "rating": 5,
      "reference": "ChIJ8eKXaZz2wokRisDKvqL2aRw",
      "scope": "GOOGLE",
      "types": [
        "doctor",
        "health",
        "point_of_interest",
        "establishment"
      ],
      "user_ratings_total": 1,
      "vicinity": "622 West 168th Street, New York"
    },
    {
      "business_status": "OPERATIONAL",
      "geometry": {
        "location": {
          "lat": 40.8425628,
          "lng": -73.94166059999999
        },
        "viewport": {
          "northeast": {
            "lat": 40.84395698029149,
            "lng": -73.9402966197085
          },
          "southwest": {
            "lat": 40.8412590197085,
            "lng": -73.94299458029151
          }
        }
      },
      "icon": "https://maps.gstatic.com/mapfiles/place_api/icons/v1/png_71/school-71.png",
      "icon_background_color": "#7B9EB0",
      "icon_mask_base_uri": "https://maps.gstatic.com/mapfiles/place_api/icons/v2/school_pinlet",
      "name": "Armory Center (PAL)\u2014 Police Athletic League, Inc.",
      "opening_hours": {
        "open_now": false
      },
      "place_id": "ChIJLatDDpz2wokRMXHYfUzJHjA",
      "plus_code": {
        "compound_code": "R3V5+28 \u7f8e\u570b\u7d10\u7d04",
        "global_code": "87G8R3V5+28"
      },
      "rating": 5,
      "reference": "ChIJLatDDpz2wokRMXHYfUzJHjA",
      "scope": "GOOGLE",
      "types": [
        "point_of_interest",
        "establishment"
      ],
      "user_ratings_total": 5,
      "vicinity": "216 Fort Washington Avenue, New York"
    },
    {
      "business_status": "OPERATIONAL",
      "geometry": {
        "location": {
          "lat": 40.8412426,
          "lng": -73.9409706
        },
        "viewport": {
          "northeast": {
            "lat": 40.8426519302915,
            "lng": -73.9396663197085
          },
          "southwest": {
            "lat": 40.8399539697085,
            "lng": -73.94236428029151
          }
        }
      },
      "icon": "https://maps.gstatic.com/mapfiles/place_api/icons/v1/png_71/generic_business-71.png",
      "icon_background_color": "#7B9EB0",
      "icon_mask_base_uri": "https://maps.gstatic.com/mapfiles/place_api/icons/v2/generic_pinlet",
      "name": "Sharon E. Oberfield, MD",
      "photos": [
        {
          "height": 650,
          "html_attributions": [
            "<a href=\"https://maps.google.com/maps/contrib/112068925695223857671\">Sharon E. Oberfield, MD</a>"
          ],
          "photo_reference": "AeJbb3c3T_3vHMZcqLzT7wLXbiM8tkj5XB6IpPagavN2j8hF2hb8FdYLO2un74ebpHaW5Vl9Z4SoYPWeLnV7smzlnInQ_7HKCGaxsDmA4zgdCoVfaU_NQXvILcEwYc7cb3cLPseQk3HtREcWfwrwiBcH0tV_zkekFiYPeXaiaGHWTdnCJHds",
          "width": 433
        }
      ],
      "place_id": "ChIJC9X3mpz2wokR4IqImTVsgGY",
      "plus_code": {
        "compound_code": "R3R5+FJ \u7f8e\u570b\u7d10\u7d04",
        "global_code": "87G8R3R5+FJ"
      },
      "rating": 5,
      "reference": "ChIJC9X3mpz2wokR4IqImTVsgGY",
      "scope": "GOOGLE",
      "types": [
        "doctor",
        "health",
        "point_of_interest",
        "establishment"
      ],
      "user_ratings_total": 1,
      "vicinity": "622 West 168th Street, New York"
    },
    {
      "business_status": "OPERATIONAL",
      "geometry": {
        "location": {
          "lat": 40.8408953,
          "lng": -73.9409419
        },
        "viewport": {
          "northeast": {
            "lat": 40.8424779802915,
            "lng": -73.9396612197085
          },
          "southwest": {
            "lat": 40.8397800197085,
            "lng": -73.9423591802915
          }
        }
      },
      "icon": "https://maps.gstatic.com/mapfiles/place_api/icons/v1/png_71/hospital-71.png",
      "icon_background_color": "#F88181",
      "icon_mask_base_uri": "https://maps.gstatic.com/mapfiles/place_api/icons/v2/hospital-H_pinlet",
      "name": "New York Presbyterian Hospital Rdo",
      "opening_hours": {
        "open_now": false
      },
      "place_id": "ChIJydaXaZz2wokR8RGqfhwUMcI",
      "plus_code": {
        "compound_code": "R3R5+9J \u7f8e\u570b\u7d10\u7d04",
        "global_code": "87G8R3R5+9J"
      },
      "rating": 3.4,
      "reference": "ChIJydaXaZz2wokR8RGqfhwUMcI",
      "scope": "GOOGLE",
      "types": [
        "hospital",
        "health",
        "point_of_interest",
        "establishment"
      ],
      "user_ratings_total": 5,
      "vicinity": "622 West 168th Street, New York"
    },
    {
      "geometry": {
        "location": {
          "lat": 40.8240478,
          "lng": -73.9447643
        },
        "viewport": {
          "northeast": {
            "lat": 40.87822003591612,
            "lng": -73.91064591328563
          },
          "southwest": {
            "lat": 40.78278392408598,
            "lng": -73.97119006413347
          }
        }
      },
      "icon": "https://maps.gstatic.com/mapfiles/place_api/icons/v1/png_71/geocode-71.png",
      "icon_background_color": "#7B9EB0",
      "icon_mask_base_uri": "https://maps.gstatic.com/mapfiles/place_api/icons/v2/generic_pinlet",
      "name": "\u66fc\u54c8\u9813\u4e0a\u57ce",
      "photos": [
        {
          "height": 4000,
          "html_attributions": [
            "<a href=\"https://maps.google.com/maps/contrib/108665206705263687409\">Chris Lidstone</a>"
          ],
          "photo_reference": "AeJbb3cop2ttbagqgnFCsJ5c5UCYpjH4Fly-cFHSrIUg4CsjW7r3G3oDkvmQTsP2V5k1aaIfHXtFUQx1etzeCeXZQEkkR1NpOKLmrEeebddGXPF9BeDASC35N63hzoUOdo1ALF2EJeumbz00l1H1XVZuKibJlmWWS3pZuRbPRaKd-mQfoFu1",
          "width": 3000
        }
      ],
      "place_id": "ChIJY50xHxP2wokR7WhhDNRmgRU",
      "reference": "ChIJY50xHxP2wokR7WhhDNRmgRU",
      "scope": "GOOGLE",
      "types": [
        "neighborhood",
        "political"
      ],
      "vicinity": "\u66fc\u54c8\u9813"
    },
    {
      "business_status": "OPERATIONAL",
      "geometry": {
        "location": {
          "lat": 40.8396572,
          "lng": -73.940451
        },
        "viewport": {
          "northeast": {
            "lat": 40.84107743029151,
            "lng": -73.9392152197085
          },
          "southwest": {
            "lat": 40.83837946970851,
            "lng": -73.94191318029151
          }
        }
      },
      "icon": "https://maps.gstatic.com/mapfiles/place_api/icons/v1/png_71/restaurant-71.png",
      "icon_background_color": "#FF9E67",
      "icon_mask_base_uri": "https://maps.gstatic.com/mapfiles/place_api/icons/v2/restaurant_pinlet",
      "name": "Dallas BBQ Washington Heights",
      "opening_hours": {
        "open_now": true
      },
      "photos": [
        {
          "height": 2147,
          "html_attributions": [
            "<a href=\"https://maps.google.com/maps/contrib/111719219215411994893\">Hecatonic</a>"
          ],
          "photo_reference": "AeJbb3dk1m9sM54O98tVwKsuzcqtERFtk0CKy2AR5bptOJBc5M6R0jML5_wMOv_pXYZOMKHc7aKkogteJohKtijoXaJBkS_xSaOBxEL8t_PsY7RB47-bVnz-z4TzLeDGNtRDBudWGyrhy5Z4pK1m49EQ3XAbGQ4cCQC5pxwuROf0tlo5h2k5",
          "width": 4088
        }
      ],
      "place_id": "ChIJ1Tldkpz2wokR1BvQMWlaoOs",
      "plus_code": {
        "compound_code": "R3Q5+VR New York, NY, USA",
        "global_code": "87G8R3Q5+VR"
      },
      "price_level": 2,
      "rating": 4.1,
      "reference": "ChIJ1Tldkpz2wokR1BvQMWlaoOs",
      "scope": "GOOGLE",
      "types": [
        "restaurant",
        "food",
        "bar",
        "point_of_interest",
        "establishment"
      ],
      "user_ratings_total": 3474,
      "vicinity": "3956 Broadway, New York"
    },
    {
      "business_status": "OPERATIONAL",
      "geometry": {
        "location": {
          "lat": 40.8421049,
          "lng": -73.941251
        },
        "viewport": {
          "northeast": {
            "lat": 40.8436913802915,
            "lng": -73.9400022197085
          },
          "southwest": {
            "lat": 40.8409934197085,
            "lng": -73.94270018029152
          }
        }
      },
      "icon": "https://maps.gstatic.com/mapfiles/place_api/icons/v1/png_71/generic_business-71.png",
      "icon_background_color": "#7B9EB0",
      "icon_mask_base_uri": "https://maps.gstatic.com/mapfiles/place_api/icons/v2/generic_pinlet",
      "name": "Phoenix House Mica Program",
      "place_id": "ChIJLatDDpz2wokR8Q7cEa1OwE4",
      "plus_code": {
        "compound_code": "R3R5+RF New York, NY, USA",
        "global_code": "87G8R3R5+RF"
      },
      "rating": 5,
      "reference": "ChIJLatDDpz2wokR8Q7cEa1OwE4",
      "scope": "GOOGLE",
      "types": [
        "health",
        "point_of_interest",
        "establishment"
      ],
      "user_ratings_total": 1,
      "vicinity": "216 Fort Washington Avenue, New York"
    },
    {
      "business_status": "OPERATIONAL",
      "geometry": {
        "location": {
          "lat": 40.8397384,
          "lng": -73.94142149999999
        },
        "viewport": {
          "northeast": {
            "lat": 40.8410477802915,
            "lng": -73.93992576970848
          },
          "southwest": {
            "lat": 40.8383498197085,
            "lng": -73.9426237302915
          }
        }
      },
      "icon": "https://maps.gstatic.com/mapfiles/place_api/icons/v1/png_71/generic_business-71.png",
      "icon_background_color": "#7B9EB0",
      "icon_mask_base_uri": "https://maps.gstatic.com/mapfiles/place_api/icons/v2/generic_pinlet",
      "name": "Div Of Pediatric Surgery, Columbia University",
      "place_id": "ChIJC9X3mpz2wokR_ior-MwANHY",
      "plus_code": {
        "compound_code": "R3Q5+VC New York, NY, USA",
        "global_code": "87G8R3Q5+VC"
      },
      "reference": "ChIJC9X3mpz2wokR_ior-MwANHY",
      "scope": "GOOGLE",
      "types": [
        "doctor",
        "health",
        "point_of_interest",
        "establishment"
      ],
      "vicinity": "3959 Broadway, New York"
    },
    {
      "business_status": "OPERATIONAL",
      "geometry": {
        "location": {
          "lat": 40.8421049,
          "lng": -73.941251
        },
        "viewport": {
          "northeast": {
            "lat": 40.8436913802915,
            "lng": -73.9400022197085
          },
          "southwest": {
            "lat": 40.8409934197085,
            "lng": -73.94270018029152
          }
        }
      },
      "icon": "https://maps.gstatic.com/mapfiles/place_api/icons/v1/png_71/generic_business-71.png",
      "icon_background_color": "#7B9EB0",
      "icon_mask_base_uri": "https://maps.gstatic.com/mapfiles/place_api/icons/v2/generic_pinlet",
      "name": "Growth & Development Services",
      "photos": [
        {
          "height": 2448,
          "html_attributions": [
            "<a href=\"https://maps.google.com/maps/contrib/111461450876489245128\">Beyond Brothers</a>"
          ],
          "photo_reference": "AeJbb3fGkij-FVXsalJTkFV2ah2iCv1gti5SUapT6xGk-bFTHWud5IQAmWoleEDzQVleICHGshaQ9z9NIufPUvR5LwzJtAojtSGy2ju38WO9sxowFhy9w-n6PgMXt-9eId8a8YIhRHgQYYu64Hg2KwpNoKz1BNm1jY2IHh11LeMoGUkBRFml",
          "width": 3264
        }
      ],
      "place_id": "ChIJi3eY95v2wokREHKA5Kc0f9s",
      "plus_code": {
        "compound_code": "R3R5+RF New York, NY, USA",
        "global_code": "87G8R3R5+RF"
      },
      "rating": 5,
      "reference": "ChIJi3eY95v2wokREHKA5Kc0f9s",
      "scope": "GOOGLE",
      "types": [
        "point_of_interest",
        "establishment"
      ],
      "user_ratings_total": 1,
      "vicinity": "216 Fort Washington Avenue, New York"
    },
    {
      "business_status": "OPERATIONAL",
      "geometry": {
        "location": {
          "lat": 40.8397069,
          "lng": -73.94125249999999
        },
        "viewport": {
          "northeast": {
            "lat": 40.8410789802915,
            "lng": -73.9398191197085
          },
          "southwest": {
            "lat": 40.8383810197085,
            "lng": -73.94251708029151
          }
        }
      },
      "icon": "https://maps.gstatic.com/mapfiles/place_api/icons/v1/png_71/generic_business-71.png",
      "icon_background_color": "#7B9EB0",
      "icon_mask_base_uri": "https://maps.gstatic.com/mapfiles/place_api/icons/v2/generic_pinlet",
      "name": "Joshua E Hyman, MD",
      "photos": [
        {
          "height": 1100,
          "html_attributions": [
            "<a href=\"https://maps.google.com/maps/contrib/110144590460089323788\">Joshua E Hyman, MD</a>"
          ],
          "photo_reference": "AeJbb3eLmYNq-5hVQrWuph3hlus6enPgJhtPfv24MXOuQ6PY-9PONi0gvIgd89zTDjVRwJ6sd9HfOHf66JiLjyfoLDOYSBV30YKkUwwBXuHIEksLZc-Nm7QxA1TjYzbO8QbSAujjqevI9JcJ0nc_eMiY_OMEr5dUu-C8lKFSex2w3rxmZ0X6",
          "width": 1955
        }
      ],
      "place_id": "ChIJC9X3mpz2wokRk1LHJ8I58LQ",
      "plus_code": {
        "compound_code": "R3Q5+VF New York, NY, USA",
        "global_code": "87G8R3Q5+VF"
      },
      "rating": 4.7,
      "reference": "ChIJC9X3mpz2wokRk1LHJ8I58LQ",
      "scope": "GOOGLE",
      "types": [
        "doctor",
        "health",
        "point_of_interest",
        "establishment"
      ],
      "user_ratings_total": 42,
      "vicinity": "3959 Broadway, New York"
    },
    {
      "business_status": "OPERATIONAL",
      "geometry": {
        "location": {
          "lat": 40.8397069,
          "lng": -73.94125249999999
        },
        "viewport": {
          "northeast": {
            "lat": 40.8410548302915,
            "lng": -73.9398581697085
          },
          "southwest": {
            "lat": 40.8383568697085,
            "lng": -73.9425561302915
          }
        }
      },
      "icon": "https://maps.gstatic.com/mapfiles/place_api/icons/v1/png_71/generic_business-71.png",
      "icon_background_color": "#7B9EB0",
      "icon_mask_base_uri": "https://maps.gstatic.com/mapfiles/place_api/icons/v2/generic_pinlet",
      "name": "Dr. Robert L. Seigle, MD",
      "place_id": "ChIJC9X3mpz2wokR5q0U94q08ZA",
      "plus_code": {
        "compound_code": "R3Q5+VF New York, NY, USA",
        "global_code": "87G8R3Q5+VF"
      },
      "reference": "ChIJC9X3mpz2wokR5q0U94q08ZA",
      "scope": "GOOGLE",
      "types": [
        "doctor",
        "health",
        "point_of_interest",
        "establishment"
      ],
      "vicinity": "3959 Broadway # 701, New York"
    },
    {
      "business_status": "OPERATIONAL",
      "geometry": {
        "location": {
          "lat": 40.8397069,
          "lng": -73.94125249999999
        },
        "viewport": {
          "northeast": {
            "lat": 40.8410548302915,
            "lng": -73.9398581697085
          },
          "southwest": {
            "lat": 40.8383568697085,
            "lng": -73.9425561302915
          }
        }
      },
      "icon": "https://maps.gstatic.com/mapfiles/place_api/icons/v1/png_71/generic_business-71.png",
      "icon_background_color": "#7B9EB0",
      "icon_mask_base_uri": "https://maps.gstatic.com/mapfiles/place_api/icons/v2/generic_pinlet",
      "name": "Turkish Aaron R MD",
      "place_id": "ChIJC9X3mpz2wokRBlg82OyNPtc",
      "plus_code": {
        "compound_code": "R3Q5+VF New York, NY, USA",
        "global_code": "87G8R3Q5+VF"
      },
      "reference": "ChIJC9X3mpz2wokRBlg82OyNPtc",
      "scope": "GOOGLE",
      "types": [
        "doctor",
        "health",
        "point_of_interest",
        "establishment"
      ],
      "vicinity": "3959 Broadway, New York"
    },
    {
      "business_status": "OPERATIONAL",
      "geometry": {
        "location": {
          "lat": 40.8397069,
          "lng": -73.94125249999999
        },
        "viewport": {
          "northeast": {
            "lat": 40.8410548302915,
            "lng": -73.9398581697085
          },
          "southwest": {
            "lat": 40.8383568697085,
            "lng": -73.9425561302915
          }
        }
      },
      "icon": "https://maps.gstatic.com/mapfiles/place_api/icons/v1/png_71/generic_business-71.png",
      "icon_background_color": "#7B9EB0",
      "icon_mask_base_uri": "https://maps.gstatic.com/mapfiles/place_api/icons/v2/generic_pinlet",
      "name": "Dr. Julie A. Vincent, MD",
      "opening_hours": {
        "open_now": true
      },
      "place_id": "ChIJC9X3mpz2wokRrmR8ZnkqFxA",
      "plus_code": {
        "compound_code": "R3Q5+VF New York, NY, USA",
        "global_code": "87G8R3Q5+VF"
      },
      "rating": 1.5,
      "reference": "ChIJC9X3mpz2wokRrmR8ZnkqFxA",
      "scope": "GOOGLE",
      "types": [
        "doctor",
        "health",
        "point_of_interest",
        "establishment"
      ],
      "user_ratings_total": 2,
      "vicinity": "3959 Broadway # 517, New York"
    },
    {
      "business_status": "OPERATIONAL",
      "geometry": {
        "location": {
          "lat": 40.8397069,
          "lng": -73.94125249999999
        },
        "viewport": {
          "northeast": {
            "lat": 40.8410548302915,
            "lng": -73.9398581697085
          },
          "southwest": {
            "lat": 40.8383568697085,
            "lng": -73.9425561302915
          }
        }
      },
      "icon": "https://maps.gstatic.com/mapfiles/place_api/icons/v1/png_71/generic_business-71.png",
      "icon_background_color": "#7B9EB0",
      "icon_mask_base_uri": "https://maps.gstatic.com/mapfiles/place_api/icons/v2/generic_pinlet",
      "name": "Pediatric Hand Center of New York",
      "place_id": "ChIJU-Ppj5z2wokRA87DBzM3zGI",
      "plus_code": {
        "compound_code": "R3Q5+VF New York, NY, USA",
        "global_code": "87G8R3Q5+VF"
      },
      "reference": "ChIJU-Ppj5z2wokRA87DBzM3zGI",
      "scope": "GOOGLE",
      "types": [
        "doctor",
        "health",
        "point_of_interest",
        "establishment"
      ],
      "vicinity": "3959 Broadway # 8n, New York"
    },
    {
      "business_status": "OPERATIONAL",
      "geometry": {
        "location": {
          "lat": 40.8399581,
          "lng": -73.9420394
        },
        "viewport": {
          "northeast": {
            "lat": 40.84214225,
            "lng": -73.9402048697085
          },
          "southwest": {
            "lat": 40.83923004999999,
            "lng": -73.9429028302915
          }
        }
      },
      "icon": "https://maps.gstatic.com/mapfiles/place_api/icons/v1/png_71/generic_business-71.png",
      "icon_background_color": "#7B9EB0",
      "icon_mask_base_uri": "https://maps.gstatic.com/mapfiles/place_api/icons/v2/generic_pinlet",
      "name": "New York Presbyterian Hospital-Columbia: Cancer Center",
      "opening_hours": {
        "open_now": true
      },
      "photos": [
        {
          "height": 2160,
          "html_attributions": [
            "<a href=\"https://maps.google.com/maps/contrib/100537377439989665909\">Bryce Bensema</a>"
          ],
          "photo_reference": "AeJbb3c8QiSKRByujDe8xHUSwk_hyhn5QRE4zW77wDSkYHXiJwzSNAMBCSVIxE8upgViSjDpdtEGo0xv1wAv2iNF-irHNtF7gs19gm1nJR465W4C6F2gBdCeaRA7QDR5HUkIaL-9fzEie0AIyQS5u8ybrm5LNpBDkyfnIfcswfze337dkWb1",
          "width": 3840
        }
      ],
      "place_id": "ChIJ61x_cpz2wokRG1SmA_ez-kM",
      "plus_code": {
        "compound_code": "R3Q5+X5 New York, NY, USA",
        "global_code": "87G8R3Q5+X5"
      },
      "rating": 4.4,
      "reference": "ChIJ61x_cpz2wokRG1SmA_ez-kM",
      "scope": "GOOGLE",
      "types": [
        "health",
        "point_of_interest",
        "establishment"
      ],
      "user_ratings_total": 5,
      "vicinity": "622 West 168th Street, New York"
    },
    {
      "business_status": "OPERATIONAL",
      "geometry": {
        "location": {
          "lat": 40.8397069,
          "lng": -73.94125249999999
        },
        "viewport": {
          "northeast": {
            "lat": 40.8410548302915,
            "lng": -73.9398581697085
          },
          "southwest": {
            "lat": 40.8383568697085,
            "lng": -73.9425561302915
          }
        }
      },
      "icon": "https://maps.gstatic.com/mapfiles/place_api/icons/v1/png_71/generic_business-71.png",
      "icon_background_color": "#7B9EB0",
      "icon_mask_base_uri": "https://maps.gstatic.com/mapfiles/place_api/icons/v2/generic_pinlet",
      "name": "Dr. David J. Resnick, MD",
      "place_id": "ChIJC9X3mpz2wokRRMJ3-eXIQuQ",
      "plus_code": {
        "compound_code": "R3Q5+VF New York, NY, USA",
        "global_code": "87G8R3Q5+VF"
      },
      "reference": "ChIJC9X3mpz2wokRRMJ3-eXIQuQ",
      "scope": "GOOGLE",
      "types": [
        "doctor",
        "health",
        "point_of_interest",
        "establishment"
      ],
      "vicinity": "3959 Broadway # 107N, New York"
    },
    {
      "business_status": "OPERATIONAL",
      "geometry": {
        "location": {
          "lat": 40.8398048,
          "lng": -73.9414011
        },
        "viewport": {
          "northeast": {
            "lat": 40.8410983802915,
            "lng": -73.93991556970849
          },
          "southwest": {
            "lat": 40.83840041970851,
            "lng": -73.9426135302915
          }
        }
      },
      "icon": "https://maps.gstatic.com/mapfiles/place_api/icons/v1/png_71/generic_business-71.png",
      "icon_background_color": "#7B9EB0",
      "icon_mask_base_uri": "https://maps.gstatic.com/mapfiles/place_api/icons/v2/generic_pinlet",
      "name": "Eli Grunstein, MD",
      "photos": [
        {
          "height": 645,
          "html_attributions": [
            "<a href=\"https://maps.google.com/maps/contrib/113434820629639369187\">Eli Grunstein, MD</a>"
          ],
          "photo_reference": "AeJbb3cly3-6uW9T-rRaJ7GDwBGyIg3Mp8SjWMTjxv23xQ4uVU4_3ypU8gJeT_A_dPzP9GooTMU378zxPIJdcOxqJpA3STm0-RJkaQUVL_FZyT5T6Fs1JWaboCwip-fXtV3NgEArFItpk5W2B3VWGe1vW3I8OltSx08X-FEH1w5N_12XsQph",
          "width": 430
        }
      ],
      "place_id": "ChIJC9X3mpz2wokR9XoUCfbiR2E",
      "plus_code": {
        "compound_code": "R3Q5+WC New York, NY, USA",
        "global_code": "87G8R3Q5+WC"
      },
      "rating": 5,
      "reference": "ChIJC9X3mpz2wokR9XoUCfbiR2E",
      "scope": "GOOGLE",
      "types": [
        "doctor",
        "health",
        "point_of_interest",
        "establishment"
      ],
      "user_ratings_total": 15,
      "vicinity": "3959 Broadway, New York"
    },
    {
      "business_status": "OPERATIONAL",
      "geometry": {
        "location": {
          "lat": 40.8393896,
          "lng": -73.9387421
        },
        "viewport": {
          "northeast": {
            "lat": 40.8408085302915,
            "lng": -73.9375606697085
          },
          "southwest": {
            "lat": 40.8381105697085,
            "lng": -73.94025863029151
          }
        }
      },
      "icon": "https://maps.gstatic.com/mapfiles/place_api/icons/v1/png_71/hospital-71.png",
      "icon_background_color": "#F88181",
      "icon_mask_base_uri": "https://maps.gstatic.com/mapfiles/place_api/icons/v2/hospital-H_pinlet",
      "name": "New York Presbyterian Hospital",
      "photos": [
        {
          "height": 3024,
          "html_attributions": [
            "<a href=\"https://maps.google.com/maps/contrib/108434605385638852727\">Leonardo Guevara raicestv</a>"
          ],
          "photo_reference": "AeJbb3dmO1_nxsR4-JWZOpaZjFq_tRL5YNvf3UedZyutHDZQyFY3hqD2aoeGGw34BWjCJiXQkAifNgGay3hemRxwMBFYXh5eY7K56_npVC3P9rTbLTlg4w2dXAWwF2CXH4HoGA8xfSE5zb_fjmwpBJ1Tuo86JjYbzK0RWDYxi_XpwKBmi_Os",
          "width": 4032
        }
      ],
      "place_id": "ChIJ1bi4eZz2wokRQN0l_v9vN14",
      "plus_code": {
        "compound_code": "R3Q6+QG New York, NY, USA",
        "global_code": "87G8R3Q6+QG"
      },
      "rating": 3.8,
      "reference": "ChIJ1bi4eZz2wokRQN0l_v9vN14",
      "scope": "GOOGLE",
      "types": [
        "hospital",
        "health",
        "point_of_interest",
        "establishment"
      ],
      "user_ratings_total": 45,
      "vicinity": "21 Audubon Avenue, New York"
    },
    {
      "business_status": "OPERATIONAL",
      "geometry": {
        "location": {
          "lat": 40.8397384,
          "lng": -73.9414214
        },
        "viewport": {
          "northeast": {
            "lat": 40.8410477802915,
            "lng": -73.93992571970848
          },
          "southwest": {
            "lat": 40.8383498197085,
            "lng": -73.94262368029149
          }
        }
      },
      "icon": "https://maps.gstatic.com/mapfiles/place_api/icons/v1/png_71/generic_business-71.png",
      "icon_background_color": "#7B9EB0",
      "icon_mask_base_uri": "https://maps.gstatic.com/mapfiles/place_api/icons/v2/generic_pinlet",
      "name": "Jan M. Quaegebeur, MD, PhD",
      "place_id": "ChIJUW9tVR9awokREBTuCjoNAzI",
      "plus_code": {
        "compound_code": "R3Q5+VC New York, NY, USA",
        "global_code": "87G8R3Q5+VC"
      },
      "rating": 5,
      "reference": "ChIJUW9tVR9awokREBTuCjoNAzI",
      "scope": "GOOGLE",
      "types": [
        "doctor",
        "health",
        "point_of_interest",
        "establishment"
      ],
      "user_ratings_total": 2,
      "vicinity": "3959 Broadway, New York"
    },
    {
      "business_status": "OPERATIONAL",
      "geometry": {
        "location": {
          "lat": 40.8398447,
          "lng": -73.9413787
        },
        "viewport": {
          "northeast": {
            "lat": 40.8411061302915,
            "lng": -73.9398516197085
          },
          "southwest": {
            "lat": 40.8384081697085,
            "lng": -73.94254958029151
          }
        }
      },
      "icon": "https://maps.gstatic.com/mapfiles/place_api/icons/v1/png_71/hospital-71.png",
      "icon_background_color": "#F88181",
      "icon_mask_base_uri": "https://maps.gstatic.com/mapfiles/place_api/icons/v2/hospital-H_pinlet",
      "name": "NewYork-Presbyterian Morgan Stanley Children's Hospital",
      "photos": [
        {
          "height": 1836,
          "html_attributions": [
            "<a href=\"https://maps.google.com/maps/contrib/105289502610381455194\">George Li</a>"
          ],
          "photo_reference": "AeJbb3fAWvLO3JnvN4jzeSgBjeei7d8BZFSz2-GB-u1LKv5UPsFPGfxG6T2q74IKNKl2qBb2MeIcyXmnylXqxWp0SGE5G_ZohfjkQu7tcrhVr0OBBgjHCDUp1YIja_LH2Agq3-23C_7sqXobM1ImVZSvmIT0Zk437Bd3SRlrnxR7S8ekjolZ",
          "width": 3264
        }
      ],
      "place_id": "ChIJC9X3mpz2wokRMQIJt2JmuPk",
      "plus_code": {
        "compound_code": "R3Q5+WC New York, NY, USA",
        "global_code": "87G8R3Q5+WC"
      },
      "rating": 3.8,
      "reference": "ChIJC9X3mpz2wokRMQIJt2JmuPk",
      "scope": "GOOGLE",
      "types": [
        "hospital",
        "health",
        "point_of_interest",
        "establishment"
      ],
      "user_ratings_total": 333,
      "vicinity": "3959 Broadway, New York"
    },
    {
      "business_status": "OPERATIONAL",
      "geometry": {
        "location": {
          "lat": 40.8397384,
          "lng": -73.9414214
        },
        "viewport": {
          "northeast": {
            "lat": 40.8410477802915,
            "lng": -73.93992571970848
          },
          "southwest": {
            "lat": 40.8383498197085,
            "lng": -73.94262368029149
          }
        }
      },
      "icon": "https://maps.gstatic.com/mapfiles/place_api/icons/v1/png_71/generic_business-71.png",
      "icon_background_color": "#7B9EB0",
      "icon_mask_base_uri": "https://maps.gstatic.com/mapfiles/place_api/icons/v2/generic_pinlet",
      "name": "Dr. Kenneth I. Glassberg, MD",
      "place_id": "ChIJC9X3mpz2wokRi6MsMAZ0Y94",
      "plus_code": {
        "compound_code": "R3Q5+VC New York, NY, USA",
        "global_code": "87G8R3Q5+VC"
      },
      "reference": "ChIJC9X3mpz2wokRi6MsMAZ0Y94",
      "scope": "GOOGLE",
      "types": [
        "doctor",
        "health",
        "point_of_interest",
        "establishment"
      ],
      "vicinity": "3959 Broadway, New York"
    },
    {
      "business_status": "OPERATIONAL",
      "geometry": {
        "location": {
          "lat": 40.8398048,
          "lng": -73.9414011
        },
        "viewport": {
          "northeast": {
            "lat": 40.8410983802915,
            "lng": -73.93991556970849
          },
          "southwest": {
            "lat": 40.83840041970851,
            "lng": -73.9426135302915
          }
        }
      },
      "icon": "https://maps.gstatic.com/mapfiles/place_api/icons/v1/png_71/generic_business-71.png",
      "icon_background_color": "#7B9EB0",
      "icon_mask_base_uri": "https://maps.gstatic.com/mapfiles/place_api/icons/v2/generic_pinlet",
      "name": "William Middlesworth, MD",
      "photos": [
        {
          "height": 630,
          "html_attributions": [
            "<a href=\"https://maps.google.com/maps/contrib/110062610502099903100\">William Middlesworth, MD</a>"
          ],
          "photo_reference": "AeJbb3dT0F4MnLXRz8S2fij2zBc4BvTQqfnYEYbnrMOc97CBQN_8EUiSqI1Tk0xjV_7-nby0G_s3Z5-e9DsmpjrAZ9pWk0uFYGWpKvMyk7a-1pij3_Y6GP0mzqghG6XYuEbPOV1l6maRrQ7JMO_3YojusbLj1LHNdELEGwPDx4IY2Q_-KdXT",
          "width": 422
        }
      ],
      "place_id": "ChIJC9X3mpz2wokRa3ZI6S1tP8o",
      "plus_code": {
        "compound_code": "R3Q5+WC New York, NY, USA",
        "global_code": "87G8R3Q5+WC"
      },
      "rating": 4,
      "reference": "ChIJC9X3mpz2wokRa3ZI6S1tP8o",
      "scope": "GOOGLE",
      "types": [
        "doctor",
        "health",
        "point_of_interest",
        "establishment"
      ],
      "user_ratings_total": 4,
      "vicinity": "3959 Broadway Suite 216B, New York"
    },
    {
      "business_status": "OPERATIONAL",
      "geometry": {
        "location": {
          "lat": 40.8398048,
          "lng": -73.9414011
        },
        "viewport": {
          "northeast": {
            "lat": 40.8410983802915,
            "lng": -73.93991556970849
          },
          "southwest": {
            "lat": 40.83840041970851,
            "lng": -73.9426135302915
          }
        }
      },
      "icon": "https://maps.gstatic.com/mapfiles/place_api/icons/v1/png_71/generic_business-71.png",
      "icon_background_color": "#7B9EB0",
      "icon_mask_base_uri": "https://maps.gstatic.com/mapfiles/place_api/icons/v2/generic_pinlet",
      "name": "Leonardo Liberman, MD",
      "photos": [
        {
          "height": 630,
          "html_attributions": [
            "<a href=\"https://maps.google.com/maps/contrib/108285132950532370532\">Leonardo Liberman, MD</a>"
          ],
          "photo_reference": "AeJbb3fF0z7qpuUurCl9C_1hPYgjgwotOKMKgSfQXSeCwjXYvCRJBcPCDvHkaYtWsrhPjvkrqEBtMr-ybPS8v30bdolLL5tY6I77KaNQWbUwGmf7XfwY_zGoxazkud6EtQ3sOEVuFsBT4rLkHBeancMDDqVlEq1DZyx78dNrGiCLxN0JOh27",
          "width": 422
        }
      ],
      "place_id": "ChIJC9X3mpz2wokREL9ChUhTboQ",
      "plus_code": {
        "compound_code": "R3Q5+WC New York, NY, USA",
        "global_code": "87G8R3Q5+WC"
      },
      "rating": 5,
      "reference": "ChIJC9X3mpz2wokREL9ChUhTboQ",
      "scope": "GOOGLE",
      "types": [
        "doctor",
        "health",
        "point_of_interest",
        "establishment"
      ],
      "user_ratings_total": 3,
      "vicinity": "3959 Broadway, New York"
    },
    {
      "business_status": "OPERATIONAL",
      "geometry": {
        "location": {
          "lat": 40.8444908,
          "lng": -73.94319209999999
        },
        "viewport": {
          "northeast": {
            "lat": 40.84577608029151,
            "lng": -73.94151596970849
          },
          "southwest": {
            "lat": 40.84307811970851,
            "lng": -73.94421393029151
          }
        }
      },
      "icon": "https://maps.gstatic.com/mapfiles/place_api/icons/v1/png_71/generic_business-71.png",
      "icon_background_color": "#7B9EB0",
      "icon_mask_base_uri": "https://maps.gstatic.com/mapfiles/place_api/icons/v2/generic_pinlet",
      "name": "Sunil Wadhwa, DDS",
      "place_id": "ChIJ8eKXaZz2wokRnLpUostlg3U",
      "plus_code": {
        "compound_code": "R3V4+QP New York, NY, USA",
        "global_code": "87G8R3V4+QP"
      },
      "reference": "ChIJ8eKXaZz2wokRnLpUostlg3U",
      "scope": "GOOGLE",
      "types": [
        "dentist",
        "health",
        "point_of_interest",
        "establishment"
      ],
      "vicinity": "100 Haven Avenue, New York"
    },
    {
      "business_status": "OPERATIONAL",
      "geometry": {
        "location": {
          "lat": 40.8411547,
          "lng": -73.9407372
        },
        "viewport": {
          "northeast": {
            "lat": 40.84261198029149,
            "lng": -73.93956186970851
          },
          "southwest": {
            "lat": 40.8399140197085,
            "lng": -73.94225983029152
          }
        }
      },
      "icon": "https://maps.gstatic.com/mapfiles/place_api/icons/v1/png_71/generic_business-71.png",
      "icon_background_color": "#7B9EB0",
      "icon_mask_base_uri": "https://maps.gstatic.com/mapfiles/place_api/icons/v2/generic_pinlet",
      "name": "Ronnie Myers, DDS",
      "place_id": "ChIJydaXaZz2wokRQboDvAQ7gWA",
      "plus_code": {
        "compound_code": "R3R5+FP New York, NY, USA",
        "global_code": "87G8R3R5+FP"
      },
      "reference": "ChIJydaXaZz2wokRQboDvAQ7gWA",
      "scope": "GOOGLE",
      "types": [
        "dentist",
        "doctor",
        "health",
        "point_of_interest",
        "establishment"
      ],
      "vicinity": "622 West 168th Street, New York"
    },
    {
      "business_status": "OPERATIONAL",
      "geometry": {
        "location": {
          "lat": 40.8398049,
          "lng": -73.9414011
        },
        "viewport": {
          "northeast": {
            "lat": 40.8410984302915,
            "lng": -73.93991556970849
          },
          "southwest": {
            "lat": 40.8384004697085,
            "lng": -73.9426135302915
          }
        }
      },
      "icon": "https://maps.gstatic.com/mapfiles/place_api/icons/v1/png_71/generic_business-71.png",
      "icon_background_color": "#7B9EB0",
      "icon_mask_base_uri": "https://maps.gstatic.com/mapfiles/place_api/icons/v2/generic_pinlet",
      "name": "Printz Beth Feller MD",
      "place_id": "ChIJC9X3mpz2wokRwawTKR21bK0",
      "plus_code": {
        "compound_code": "R3Q5+WC New York, NY, USA",
        "global_code": "87G8R3Q5+WC"
      },
      "reference": "ChIJC9X3mpz2wokRwawTKR21bK0",
      "scope": "GOOGLE",
      "types": [
        "doctor",
        "health",
        "point_of_interest",
        "establishment"
      ],
      "vicinity": "3959 Broadway #517, New York"
    },
    {
      "business_status": "OPERATIONAL",
      "geometry": {
        "location": {
          "lat": 40.8398048,
          "lng": -73.9414011
        },
        "viewport": {
          "northeast": {
            "lat": 40.8410983802915,
            "lng": -73.93991556970849
          },
          "southwest": {
            "lat": 40.83840041970851,
            "lng": -73.9426135302915
          }
        }
      },
      "icon": "https://maps.gstatic.com/mapfiles/place_api/icons/v1/png_71/generic_business-71.png",
      "icon_background_color": "#7B9EB0",
      "icon_mask_base_uri": "https://maps.gstatic.com/mapfiles/place_api/icons/v2/generic_pinlet",
      "name": "Charles A. Popkin, MD",
      "photos": [
        {
          "height": 1365,
          "html_attributions": [
            "<a href=\"https://maps.google.com/maps/contrib/116079977436629468982\">Charles A. Popkin, MD</a>"
          ],
          "photo_reference": "AeJbb3esONkW2yXmSHQztNSx3aHGWzu2YVBNxkmLkYei0TMgynZvGzIR8JqRXnhcnshD_D9Y3zpS0S3u1GyJ1LcPeQ-FnGJahM1E5Tw383QU3SViA9VxLzjWquZcHV5QaRi_P2uktz0QrKMq3AKgA2nNFEXn5ze2cnhusNqT308XsPQuSnLa",
          "width": 2048
        }
      ],
      "place_id": "ChIJC9X3mpz2wokR_DnWN8IKR2o",
      "plus_code": {
        "compound_code": "R3Q5+WC New York, NY, USA",
        "global_code": "87G8R3Q5+WC"
      },
      "rating": 4.9,
      "reference": "ChIJC9X3mpz2wokR_DnWN8IKR2o",
      "scope": "GOOGLE",
      "types": [
        "doctor",
        "health",
        "point_of_interest",
        "establishment"
      ],
      "user_ratings_total": 38,
      "vicinity": "3959 Broadway, New York"
    },
    {
      "business_status": "OPERATIONAL",
      "geometry": {
        "location": {
          "lat": 40.841311,
          "lng": -73.94067
        },
        "viewport": {
          "northeast": {
            "lat": 40.8426902302915,
            "lng": -73.93952826970849
          },
          "southwest": {
            "lat": 40.8399922697085,
            "lng": -73.9422262302915
          }
        }
      },
      "icon": "https://maps.gstatic.com/mapfiles/place_api/icons/v1/png_71/generic_business-71.png",
      "icon_background_color": "#7B9EB0",
      "icon_mask_base_uri": "https://maps.gstatic.com/mapfiles/place_api/icons/v2/generic_pinlet",
      "name": "Genevieve Catherine Reilly, NP",
      "photos": [
        {
          "height": 1600,
          "html_attributions": [
            "<a href=\"https://maps.google.com/maps/contrib/107062147300793927587\">QUI CAM</a>"
          ],
          "photo_reference": "AeJbb3c-V2uKVuEETmWtv8RVDru-xGZR3NTEFVL5XODlt_kTpderWCz67vDyjTaau_1uG8VLh91IR__a1VHlkgOjNDW2o4NNwBpPaG3T4ri_vhPeGfoauXtnK8qZlYuHaU_SeyIeHI7l8mZKjY48SsPKOKvgut5KiYqCRj0cVAAA8jpzhpRK",
          "width": 1200
        }
      ],
      "place_id": "ChIJydaXaZz2wokRyTkGW24Cqs8",
      "plus_code": {
        "compound_code": "R3R5+GP New York, NY, USA",
        "global_code": "87G8R3R5+GP"
      },
      "rating": 4.7,
      "reference": "ChIJydaXaZz2wokRyTkGW24Cqs8",
      "scope": "GOOGLE",
      "types": [
        "health",
        "point_of_interest",
        "establishment"
      ],
      "user_ratings_total": 3,
      "vicinity": "622 West 168th Street Floor 14, New York"
    },
    {
      "business_status": "OPERATIONAL",
      "geometry": {
        "location": {
          "lat": 40.8397069,
          "lng": -73.94125249999999
        },
        "viewport": {
          "northeast": {
            "lat": 40.8410548302915,
            "lng": -73.9398581697085
          },
          "southwest": {
            "lat": 40.8383568697085,
            "lng": -73.9425561302915
          }
        }
      },
      "icon": "https://maps.gstatic.com/mapfiles/place_api/icons/v1/png_71/generic_business-71.png",
      "icon_background_color": "#7B9EB0",
      "icon_mask_base_uri": "https://maps.gstatic.com/mapfiles/place_api/icons/v2/generic_pinlet",
      "name": "Allergy Division",
      "place_id": "ChIJC9X3mpz2wokR3B6ZmJ3CypQ",
      "plus_code": {
        "compound_code": "R3Q5+VF New York, NY, USA",
        "global_code": "87G8R3Q5+VF"
      },
      "reference": "ChIJC9X3mpz2wokR3B6ZmJ3CypQ",
      "scope": "GOOGLE",
      "types": [
        "doctor",
        "health",
        "point_of_interest",
        "establishment"
      ],
      "vicinity": "3959 Broadway # 107N, New York"
    },
    {
      "business_status": "OPERATIONAL",
      "geometry": {
        "location": {
          "lat": 40.8397069,
          "lng": -73.94125249999999
        },
        "viewport": {
          "northeast": {
            "lat": 40.8410548302915,
            "lng": -73.9398581697085
          },
          "southwest": {
            "lat": 40.8383568697085,
            "lng": -73.9425561302915
          }
        }
      },
      "icon": "https://maps.gstatic.com/mapfiles/place_api/icons/v1/png_71/generic_business-71.png",
      "icon_background_color": "#7B9EB0",
      "icon_mask_base_uri": "https://maps.gstatic.com/mapfiles/place_api/icons/v2/generic_pinlet",
      "name": "Ten Vadim MD",
      "place_id": "ChIJC9X3mpz2wokRmTBvuu_nF60",
      "plus_code": {
        "compound_code": "R3Q5+VF New York, NY, USA",
        "global_code": "87G8R3Q5+VF"
      },
      "rating": 5,
      "reference": "ChIJC9X3mpz2wokRmTBvuu_nF60",
      "scope": "GOOGLE",
      "types": [
        "doctor",
        "health",
        "point_of_interest",
        "establishment"
      ],
      "user_ratings_total": 1,
      "vicinity": "3959 Broadway # 1201, New York"
    },
    {
      "business_status": "OPERATIONAL",
      "geometry": {
        "location": {
          "lat": 40.8397069,
          "lng": -73.94125249999999
        },
        "viewport": {
          "northeast": {
            "lat": 40.8410548302915,
            "lng": -73.9398581697085
          },
          "southwest": {
            "lat": 40.8383568697085,
            "lng": -73.9425561302915
          }
        }
      },
      "icon": "https://maps.gstatic.com/mapfiles/place_api/icons/v1/png_71/generic_business-71.png",
      "icon_background_color": "#7B9EB0",
      "icon_mask_base_uri": "https://maps.gstatic.com/mapfiles/place_api/icons/v2/generic_pinlet",
      "name": "Altman Peter R MD",
      "place_id": "ChIJC9X3mpz2wokRJgsOg0ansRU",
      "plus_code": {
        "compound_code": "R3Q5+VF New York, NY, USA",
        "global_code": "87G8R3Q5+VF"
      },
      "reference": "ChIJC9X3mpz2wokRJgsOg0ansRU",
      "scope": "GOOGLE",
      "types": [
        "doctor",
        "health",
        "point_of_interest",
        "establishment"
      ],
      "vicinity": "3959 Broadway, New York"
    },
    {
      "business_status": "OPERATIONAL",
      "geometry": {
        "location": {
          "lat": 40.8397069,
          "lng": -73.94125249999999
        },
        "viewport": {
          "northeast": {
            "lat": 40.8410548302915,
            "lng": -73.9398581697085
          },
          "southwest": {
            "lat": 40.8383568697085,
            "lng": -73.9425561302915
          }
        }
      },
      "icon": "https://maps.gstatic.com/mapfiles/place_api/icons/v1/png_71/generic_business-71.png",
      "icon_background_color": "#7B9EB0",
      "icon_mask_base_uri": "https://maps.gstatic.com/mapfiles/place_api/icons/v2/generic_pinlet",
      "name": "Morgan Stanley Children's Hospital: Stone Anne MD",
      "place_id": "ChIJC9X3mpz2wokRP_NLY9Cuurk",
      "plus_code": {
        "compound_code": "R3Q5+VF New York, NY, USA",
        "global_code": "87G8R3Q5+VF"
      },
      "reference": "ChIJC9X3mpz2wokRP_NLY9Cuurk",
      "scope": "GOOGLE",
      "types": [
        "doctor",
        "health",
        "point_of_interest",
        "establishment"
      ],
      "vicinity": "3959 Broadway # 517, New York"
    },
    {
      "business_status": "OPERATIONAL",
      "geometry": {
        "location": {
          "lat": 40.8397069,
          "lng": -73.94125249999999
        },
        "viewport": {
          "northeast": {
            "lat": 40.8410548302915,
            "lng": -73.9398581697085
          },
          "southwest": {
            "lat": 40.8383568697085,
            "lng": -73.9425561302915
          }
        }
      },
      "icon": "https://maps.gstatic.com/mapfiles/place_api/icons/v1/png_71/generic_business-71.png",
      "icon_background_color": "#7B9EB0",
      "icon_mask_base_uri": "https://maps.gstatic.com/mapfiles/place_api/icons/v2/generic_pinlet",
      "name": "Dr. Cherise A. Rowan, MD",
      "place_id": "ChIJC9X3mpz2wokRNPxVoHMoOI0",
      "plus_code": {
        "compound_code": "R3Q5+VF New York, NY, USA",
        "global_code": "87G8R3Q5+VF"
      },
      "reference": "ChIJC9X3mpz2wokRNPxVoHMoOI0",
      "scope": "GOOGLE",
      "types": [
        "doctor",
        "health",
        "point_of_interest",
        "establishment"
      ],
      "vicinity": "3959 Broadway # 517, New York"
    },
    {
      "business_status": "OPERATIONAL",
      "geometry": {
        "location": {
          "lat": 40.8397069,
          "lng": -73.94125249999999
        },
        "viewport": {
          "northeast": {
            "lat": 40.8410548302915,
            "lng": -73.9398581697085
          },
          "southwest": {
            "lat": 40.8383568697085,
            "lng": -73.9425561302915
          }
        }
      },
      "icon": "https://maps.gstatic.com/mapfiles/place_api/icons/v1/png_71/generic_business-71.png",
      "icon_background_color": "#7B9EB0",
      "icon_mask_base_uri": "https://maps.gstatic.com/mapfiles/place_api/icons/v2/generic_pinlet",
      "name": "Dr. Ulana M. Sanocka, MD",
      "place_id": "ChIJC9X3mpz2wokRF-t3SnrV0I0",
      "plus_code": {
        "compound_code": "R3Q5+VF New York, NY, USA",
        "global_code": "87G8R3Q5+VF"
      },
      "reference": "ChIJC9X3mpz2wokRF-t3SnrV0I0",
      "scope": "GOOGLE",
      "types": [
        "doctor",
        "health",
        "point_of_interest",
        "establishment"
      ],
      "vicinity": "3959 Broadway # 517, New York"
    },
    {
      "business_status": "OPERATIONAL",
      "geometry": {
        "location": {
          "lat": 40.8397069,
          "lng": -73.94125249999999
        },
        "viewport": {
          "northeast": {
            "lat": 40.8410548302915,
            "lng": -73.9398581697085
          },
          "southwest": {
            "lat": 40.8383568697085,
            "lng": -73.9425561302915
          }
        }
      },
      "icon": "https://maps.gstatic.com/mapfiles/place_api/icons/v1/png_71/generic_business-71.png",
      "icon_background_color": "#7B9EB0",
      "icon_mask_base_uri": "https://maps.gstatic.com/mapfiles/place_api/icons/v2/generic_pinlet",
      "name": "Morgan Stanley Children's Hospital: Szlam Sarah M MD",
      "place_id": "ChIJC9X3mpz2wokRhg-ENZB6vqQ",
      "plus_code": {
        "compound_code": "R3Q5+VF New York, NY, USA",
        "global_code": "87G8R3Q5+VF"
      },
      "reference": "ChIJC9X3mpz2wokRhg-ENZB6vqQ",
      "scope": "GOOGLE",
      "types": [
        "doctor",
        "health",
        "point_of_interest",
        "establishment"
      ],
      "vicinity": "3959 Broadway # 517, New York"
    },
    {
      "business_status": "OPERATIONAL",
      "geometry": {
        "location": {
          "lat": 40.8397069,
          "lng": -73.94125249999999
        },
        "viewport": {
          "northeast": {
            "lat": 40.8410548302915,
            "lng": -73.9398581697085
          },
          "southwest": {
            "lat": 40.8383568697085,
            "lng": -73.9425561302915
          }
        }
      },
      "icon": "https://maps.gstatic.com/mapfiles/place_api/icons/v1/png_71/generic_business-71.png",
      "icon_background_color": "#7B9EB0",
      "icon_mask_base_uri": "https://maps.gstatic.com/mapfiles/place_api/icons/v2/generic_pinlet",
      "name": "Dr. Veniamin Ratner, MD",
      "place_id": "ChIJC9X3mpz2wokRKxmnQVsctYg",
      "plus_code": {
        "compound_code": "R3Q5+VF New York, NY, USA",
        "global_code": "87G8R3Q5+VF"
      },
      "reference": "ChIJC9X3mpz2wokRKxmnQVsctYg",
      "scope": "GOOGLE",
      "types": [
        "doctor",
        "health",
        "point_of_interest",
        "establishment"
      ],
      "vicinity": "3959 Broadway # 517, New York"
    },
    {
      "business_status": "OPERATIONAL",
      "geometry": {
        "location": {
          "lat": 40.8397069,
          "lng": -73.94125249999999
        },
        "viewport": {
          "northeast": {
            "lat": 40.8410548302915,
            "lng": -73.9398581697085
          },
          "southwest": {
            "lat": 40.8383568697085,
            "lng": -73.9425561302915
          }
        }
      },
      "icon": "https://maps.gstatic.com/mapfiles/place_api/icons/v1/png_71/generic_business-71.png",
      "icon_background_color": "#7B9EB0",
      "icon_mask_base_uri": "https://maps.gstatic.com/mapfiles/place_api/icons/v2/generic_pinlet",
      "name": "Landis Benjamin J MD",
      "place_id": "ChIJC9X3mpz2wokRCKKgS2XOj5A",
      "plus_code": {
        "compound_code": "R3Q5+VF New York, NY, USA",
        "global_code": "87G8R3Q5+VF"
      },
      "reference": "ChIJC9X3mpz2wokRCKKgS2XOj5A",
      "scope": "GOOGLE",
      "types": [
        "doctor",
        "health",
        "point_of_interest",
        "establishment"
      ],
      "vicinity": "3959 Broadway # 517, New York"
    },
    {
      "business_status": "OPERATIONAL",
      "geometry": {
        "location": {
          "lat": 40.8397069,
          "lng": -73.94125249999999
        },
        "viewport": {
          "northeast": {
            "lat": 40.8410548302915,
            "lng": -73.9398581697085
          },
          "southwest": {
            "lat": 40.8383568697085,
            "lng": -73.9425561302915
          }
        }
      },
      "icon": "https://maps.gstatic.com/mapfiles/place_api/icons/v1/png_71/generic_business-71.png",
      "icon_background_color": "#7B9EB0",
      "icon_mask_base_uri": "https://maps.gstatic.com/mapfiles/place_api/icons/v2/generic_pinlet",
      "name": "Morgan Stanley Children's Hospital: Walsh Christopher MD",
      "place_id": "ChIJC9X3mpz2wokRX2J8e02sdQI",
      "plus_code": {
        "compound_code": "R3Q5+VF New York, NY, USA",
        "global_code": "87G8R3Q5+VF"
      },
      "reference": "ChIJC9X3mpz2wokRX2J8e02sdQI",
      "scope": "GOOGLE",
      "types": [
        "doctor",
        "health",
        "point_of_interest",
        "establishment"
      ],
      "vicinity": "3959 Broadway # 517, New York"
    },
    {
      "business_status": "OPERATIONAL",
      "geometry": {
        "location": {
          "lat": 40.8397069,
          "lng": -73.94125249999999
        },
        "viewport": {
          "northeast": {
            "lat": 40.8410548302915,
            "lng": -73.9398581697085
          },
          "southwest": {
            "lat": 40.8383568697085,
            "lng": -73.9425561302915
          }
        }
      },
      "icon": "https://maps.gstatic.com/mapfiles/place_api/icons/v1/png_71/generic_business-71.png",
      "icon_background_color": "#7B9EB0",
      "icon_mask_base_uri": "https://maps.gstatic.com/mapfiles/place_api/icons/v2/generic_pinlet",
      "name": "Morgan Stanley Children's Hospital: Driscoll Jr John M MD",
      "place_id": "ChIJC9X3mpz2wokRBc0FvtOhiVg",
      "plus_code": {
        "compound_code": "R3Q5+VF New York, NY, USA",
        "global_code": "87G8R3Q5+VF"
      },
      "reference": "ChIJC9X3mpz2wokRBc0FvtOhiVg",
      "scope": "GOOGLE",
      "types": [
        "doctor",
        "health",
        "point_of_interest",
        "establishment"
      ],
      "vicinity": "3959 Broadway # 517, New York"
    },
    {
      "business_status": "OPERATIONAL",
      "geometry": {
        "location": {
          "lat": 40.8397069,
          "lng": -73.94125249999999
        },
        "viewport": {
          "northeast": {
            "lat": 40.8410789802915,
            "lng": -73.9398191197085
          },
          "southwest": {
            "lat": 40.8383810197085,
            "lng": -73.94251708029151
          }
        }
      },
      "icon": "https://maps.gstatic.com/mapfiles/place_api/icons/v1/png_71/generic_business-71.png",
      "icon_background_color": "#7B9EB0",
      "icon_mask_base_uri": "https://maps.gstatic.com/mapfiles/place_api/icons/v2/generic_pinlet",
      "name": "Dr. John M. Lorenz, MD",
      "place_id": "ChIJC9X3mpz2wokRnXRX6FVao04",
      "plus_code": {
        "compound_code": "R3Q5+VF New York, NY, USA",
        "global_code": "87G8R3Q5+VF"
      },
      "reference": "ChIJC9X3mpz2wokRnXRX6FVao04",
      "scope": "GOOGLE",
      "types": [
        "doctor",
        "health",
        "point_of_interest",
        "establishment"
      ],
      "vicinity": "3959 Broadway, New York"
    },
    {
      "business_status": "OPERATIONAL",
      "geometry": {
        "location": {
          "lat": 40.8397069,
          "lng": -73.94125249999999
        },
        "viewport": {
          "northeast": {
            "lat": 40.8410548302915,
            "lng": -73.9398581697085
          },
          "southwest": {
            "lat": 40.8383568697085,
            "lng": -73.9425561302915
          }
        }
      },
      "icon": "https://maps.gstatic.com/mapfiles/place_api/icons/v1/png_71/generic_business-71.png",
      "icon_background_color": "#7B9EB0",
      "icon_mask_base_uri": "https://maps.gstatic.com/mapfiles/place_api/icons/v2/generic_pinlet",
      "name": "Morgan Stanley Children's Hospital: Guimbellot Jennifer S MD",
      "place_id": "ChIJC9X3mpz2wokRql21o4IHmGQ",
      "plus_code": {
        "compound_code": "R3Q5+VF New York, NY, USA",
        "global_code": "87G8R3Q5+VF"
      },
      "reference": "ChIJC9X3mpz2wokRql21o4IHmGQ",
      "scope": "GOOGLE",
      "types": [
        "doctor",
        "health",
        "point_of_interest",
        "establishment"
      ],
      "vicinity": "3959 Broadway # 517, New York"
    },
    {
      "business_status": "OPERATIONAL",
      "geometry": {
        "location": {
          "lat": 40.8397069,
          "lng": -73.94125249999999
        },
        "viewport": {
          "northeast": {
            "lat": 40.8410548302915,
            "lng": -73.9398581697085
          },
          "southwest": {
            "lat": 40.8383568697085,
            "lng": -73.9425561302915
          }
        }
      },
      "icon": "https://maps.gstatic.com/mapfiles/place_api/icons/v1/png_71/generic_business-71.png",
      "icon_background_color": "#7B9EB0",
      "icon_mask_base_uri": "https://maps.gstatic.com/mapfiles/place_api/icons/v2/generic_pinlet",
      "name": "Ali Andre Mencin, MD",
      "photos": [
        {
          "height": 653,
          "html_attributions": [
            "<a href=\"https://maps.google.com/maps/contrib/105075524988992791297\">Ali Andre Mencin, MD</a>"
          ],
          "photo_reference": "AeJbb3dqM6fp-dYYMOo0m6oYjaDhNnHy33PbvzIdkikdRHeC-hLiTzk-O6ySXRzpKjSgE2rrGPiEeiiAjC-sk84pZgNfH5UZ2vqVWyNzs5CChFoMR0UrGBfnU42ZdbCCMTHP8nffrOj8FtuAfV3RsnkFJYYcfn8tsUPlCnaQbPT_XFATs5H0",
          "width": 435
        }
      ],
      "place_id": "ChIJC9X3mpz2wokRbc6HWVuuImU",
      "plus_code": {
        "compound_code": "R3Q5+VF New York, NY, USA",
        "global_code": "87G8R3Q5+VF"
      },
      "rating": 5,
      "reference": "ChIJC9X3mpz2wokRbc6HWVuuImU",
      "scope": "GOOGLE",
      "types": [
        "doctor",
        "health",
        "point_of_interest",
        "establishment"
      ],
      "user_ratings_total": 3,
      "vicinity": "3959 Broadway, New York"
    },
    {
      "business_status": "OPERATIONAL",
      "geometry": {
        "location": {
          "lat": 40.8397069,
          "lng": -73.94125249999999
        },
        "viewport": {
          "northeast": {
            "lat": 40.8410548302915,
            "lng": -73.9398581697085
          },
          "southwest": {
            "lat": 40.8383568697085,
            "lng": -73.9425561302915
          }
        }
      },
      "icon": "https://maps.gstatic.com/mapfiles/place_api/icons/v1/png_71/generic_business-71.png",
      "icon_background_color": "#7B9EB0",
      "icon_mask_base_uri": "https://maps.gstatic.com/mapfiles/place_api/icons/v2/generic_pinlet",
      "name": "Morgan Stanley Children's Hospital: Huang Jennifer MD",
      "place_id": "ChIJC9X3mpz2wokRW4HlaFhNtas",
      "plus_code": {
        "compound_code": "R3Q5+VF New York, NY, USA",
        "global_code": "87G8R3Q5+VF"
      },
      "reference": "ChIJC9X3mpz2wokRW4HlaFhNtas",
      "scope": "GOOGLE",
      "types": [
        "doctor",
        "health",
        "point_of_interest",
        "establishment"
      ],
      "vicinity": "3959 Broadway # 517, New York"
    },
    {
      "business_status": "OPERATIONAL",
      "geometry": {
        "location": {
          "lat": 40.8397069,
          "lng": -73.94125249999999
        },
        "viewport": {
          "northeast": {
            "lat": 40.8410548302915,
            "lng": -73.9398581697085
          },
          "southwest": {
            "lat": 40.8383568697085,
            "lng": -73.9425561302915
          }
        }
      },
      "icon": "https://maps.gstatic.com/mapfiles/place_api/icons/v1/png_71/generic_business-71.png",
      "icon_background_color": "#7B9EB0",
      "icon_mask_base_uri": "https://maps.gstatic.com/mapfiles/place_api/icons/v2/generic_pinlet",
      "name": "Morgan Stanley Children's Hospital: Greenstein Emily P MD",
      "place_id": "ChIJC9X3mpz2wokRx9fDMZPWEx4",
      "plus_code": {
        "compound_code": "R3Q5+VF New York, NY, USA",
        "global_code": "87G8R3Q5+VF"
      },
      "reference": "ChIJC9X3mpz2wokRx9fDMZPWEx4",
      "scope": "GOOGLE",
      "types": [
        "doctor",
        "health",
        "point_of_interest",
        "establishment"
      ],
      "vicinity": "3959 Broadway # 517, New York"
    },
    {
      "business_status": "OPERATIONAL",
      "geometry": {
        "location": {
          "lat": 40.8397069,
          "lng": -73.94125249999999
        },
        "viewport": {
          "northeast": {
            "lat": 40.8410548302915,
            "lng": -73.9398581697085
          },
          "southwest": {
            "lat": 40.8383568697085,
            "lng": -73.9425561302915
          }
        }
      },
      "icon": "https://maps.gstatic.com/mapfiles/place_api/icons/v1/png_71/generic_business-71.png",
      "icon_background_color": "#7B9EB0",
      "icon_mask_base_uri": "https://maps.gstatic.com/mapfiles/place_api/icons/v2/generic_pinlet",
      "name": "Morgan Stanley Children's Hospital: Markley Tonnie C MD",
      "place_id": "ChIJC9X3mpz2wokRY3Elrujynak",
      "plus_code": {
        "compound_code": "R3Q5+VF New York, NY, USA",
        "global_code": "87G8R3Q5+VF"
      },
      "reference": "ChIJC9X3mpz2wokRY3Elrujynak",
      "scope": "GOOGLE",
      "types": [
        "doctor",
        "health",
        "point_of_interest",
        "establishment"
      ],
      "vicinity": "3959 Broadway # 517, New York"
    }
  ],
  "status": "OK"
}