{
  "html_attributions": [],
  "results": [
    {
      "geometry": {
        "location": {
          "lat": 40.7127753,
          "lng": -74.0059728
        },
        "viewport": {
          "northeast": {
            "lat": 40.91757705070789,
            "lng": -73.70027206817629
          },
          "southwest": {
            "lat": 40.47739906045452,
            "lng": -74.25908991427882
          }
        }
      },
      "icon": "https://maps.gstatic.com/mapfiles/place_api/icons/v1/png_71/geocode-71.png",
      "icon_background_color": "#7B9EB0",
      "icon_mask_base_uri": "https://maps.gstatic.com/mapfiles/place_api/icons/v2/generic_pinlet",
      "name": "\u7d10\u7d04",
      "photos": [
        {
          "height": 600,
          "html_attributions": [
            "<a href=\"https://maps.google.com/maps/contrib/102389334567210814614\">Bukurie</a>"
          ],
          "photo_reference": "AeJbb3eiIdLaIculJCnMbx5lvsPBMOSkRS1NsqstKIF_acx_O4Je1mP1gGzdhNeVXMw4Zo4HuFDg3YOiOjSSwVhdPe8VRu78Hvyz2Dn-tqy8DB0V3AZugJTX-sKg8d4a2CLKCVHd63s9W8WjLLbkmKM696CztdVCleHqzV2p0i3lSq3lr_2k",
          "width": 480
        }
      ],
      "place_id": "ChIJOwg_06VPwokRYv534QaPC8g",
      "reference": "ChIJOwg_06VPwokRYv534QaPC8g",
      "scope": "GOOGLE",
      "types": [
        "locality",
        "political"
      ],
      "vicinity": "\u7d10\u7d04"
    },
    {
      "business_status": "OPERATIONAL",
      "geometry": {
        "location": {
          "lat": 40.69865610000001,
          "lng": -73.9753866
        },
        "viewport": {
          "northeast": {
            "lat": 40.7000839302915,
            "lng": -73.97390671970848
          },
          "southwest": {
            "lat": 40.6973859697085,
            "lng": -73.9766046802915
          }
        }
      },
      "icon": "https://maps.gstatic.com/mapfiles/place_api/icons/v1/png_71/generic_business-71.png",
      "icon_background_color": "#7B9EB0",
      "icon_mask_base_uri": "https://maps.gstatic.com/mapfiles/place_api/icons/v2/generic_pinlet",
      "name": "Evan Eisman Company",
      "opening_hours": {
        "open_now": false
      },
      "photos": [
        {
          "height": 816,
          "html_attributions": [
            "<a href=\"https://maps.google.com/maps/contrib/100285376008119560170\">Evan Eisman Company</a>"
          ],
          "photo_reference": "AeJbb3du7JtXpZBkIHFULBN55wIEjB8PnyyJ0T8Rkx1Yx8-5PSSgIfoyM_qfziO9q777pz4kdPZ5tHL_qlrk6L5ONOfdJb9ZCeSYn18Q75A7WgSkAFg1ko3szu0pY4iYnKorQ7JRQ48HDI5lvP8M1nm7EuHWvEHJPTkq1IaDwygx2kZ0Blr5",
          "width": 1056
        }
      ],
      "place_id": "ChIJy4PYQMlbwokRPqUb1rroyN8",
      "plus_code": {
        "compound_code": "M2XF+FR \u7f8e\u570b\u7d10\u7d04\u5e03\u9c81\u514b\u6797",
        "global_code": "87G8M2XF+FR"
      },
      "rating": 4.7,
      "reference": "ChIJy4PYQMlbwokRPqUb1rroyN8",
      "scope": "GOOGLE",
      "types": [
        "point_of_interest",
        "store",
        "establishment"
      ],
      "user_ratings_total": 3,
      "vicinity": "Building 280, Brooklyn Navy Yard, 63 Flushing Avenue Suite 817, Brooklyn"
    },
    {
      "business_status": "OPERATIONAL",
      "geometry": {
        "location": {
          "lat": 40.6983689,
          "lng": -73.9750269
        },
        "viewport": {
          "northeast": {
            "lat": 40.6995603302915,
            "lng": -73.9736894697085
          },
          "southwest": {
            "lat": 40.6968623697085,
            "lng": -73.97638743029151
          }
        }
      },
      "icon": "https://maps.gstatic.com/mapfiles/place_api/icons/v1/png_71/generic_business-71.png",
      "icon_background_color": "#7B9EB0",
      "icon_mask_base_uri": "https://maps.gstatic.com/mapfiles/place_api/icons/v2/generic_pinlet",
      "name": "New York Decks",
      "opening_hours": {
        "open_now": true
      },
      "photos": [
        {
          "height": 1080,
          "html_attributions": [
            "<a href=\"https://maps.google.com/maps/contrib/108680460749788558546\">New York Decks</a>"
          ],
          "photo_reference": "AeJbb3em-nJ-QyAM5zfTHTmrlpBZz4xk8E43O5uKohOZWWL9FbaHlfubMTGmP8g7B-e2BWVkau4ObFCuCBM9FrANuVYBifaXCNv1ZlunD2r5cIxmk70Hv8Nwq64ZVu0y4OoNWBbh6tI3my_HF5M6twQOBdCo7UJduu5knngLc8dcbAyNOLO6",
          "width": 1920
        }
      ],
      "place_id": "ChIJpVzI6MhbwokRzQeWUJu9JZE",
      "plus_code": {
        "compound_code": "M2XF+8X \u7f8e\u570b\u7d10\u7d04\u5e03\u9c81\u514b\u6797",
        "global_code": "87G8M2XF+8X"
      },
      "rating": 5,
      "reference": "ChIJpVzI6MhbwokRzQeWUJu9JZE",
      "scope": "GOOGLE",
      "types": [
        "general_contractor",
        "point_of_interest",
        "establishment"
      ],
      "user_ratings_total": 3,
      "vicinity": "63 Flushing Avenue unit 120 suite 213, Brooklyn"
    },
    {
      "business_status": "OPERATIONAL",
      "geometry": {
        "location": {
          "lat": 40.6930536,
          "lng": -73.97049539999999
        },
        "viewport": {
          "northeast": {
            "lat": 40.6944575802915,
            "lng": -73.9691449197085
          },
          "southwest": {
            "lat": 40.6917596197085,
            "lng": -73.9718428802915
          }
        }
      },
      "icon": "https://maps.gstatic.com/mapfiles/place_api/icons/v1/png_71/restaurant-71.png",
      "icon_background_color": "#FF9E67",
      "icon_mask_base_uri": "https://maps.gstatic.com/mapfiles/place_api/icons/v2/restaurant_pinlet",
      "name": "Energy Fuel Fort Greene",
      "opening_hours": {
        "open_now": true
      },
      "photos": [
        {
          "height": 2912,
          "html_attributions": [
            "<a href=\"https://maps.google.com/maps/contrib/111977151648541863254\">Energy Fuel Fort Greene</a>"
          ],
          "photo_reference": "AeJbb3fUW_CC8qSpFQOrxA8EMgy34M9tbi9G4iWs9VYVqxMIqv9sQUHWwuK_Ts4DP74-Ngc-WdS7m57W2kfYkIVcmDXSAF-KQnPPk1xQblLzvE0xumcdspoPVRk8pt_aG9SyUN959qokZ6Atl6kEBiYkKBcjtMODG7CtAV1zws5QJgyJDzX4",
          "width": 4368
        }
      ],
      "place_id": "ChIJqRCAF7hbwokRSOXqtotDWRw",
      "plus_code": {
        "compound_code": "M2VH+6R \u7f8e\u570b\u7d10\u7d04\u5e03\u9c81\u514b\u6797",
        "global_code": "87G8M2VH+6R"
      },
      "price_level": 2,
      "rating": 4.1,
      "reference": "ChIJqRCAF7hbwokRSOXqtotDWRw",
      "scope": "GOOGLE",
      "types": [
        "meal_delivery",
        "restaurant",
        "food",
        "point_of_interest",
        "establishment"
      ],
      "user_ratings_total": 155,
      "vicinity": "386 Myrtle Avenue, Brooklyn"
    },
    {
      "business_status": "OPERATIONAL",
      "geometry": {
        "location": {
          "lat": 40.6961073,
          "lng": -73.9681653
        },
        "viewport": {
          "northeast": {
            "lat": 40.69741688029149,
            "lng": -73.96682081970849
          },
          "southwest": {
            "lat": 40.6947189197085,
            "lng": -73.96951878029151
          }
        }
      },
      "icon": "https://maps.gstatic.com/mapfiles/place_api/icons/v1/png_71/generic_business-71.png",
      "icon_background_color": "#7B9EB0",
      "icon_mask_base_uri": "https://maps.gstatic.com/mapfiles/place_api/icons/v2/generic_pinlet",
      "name": "Body By Brooklyn",
      "opening_hours": {
        "open_now": true
      },
      "photos": [
        {
          "height": 3024,
          "html_attributions": [
            "<a href=\"https://maps.google.com/maps/contrib/117107098413140759802\">Jane Doe</a>"
          ],
          "photo_reference": "AeJbb3eIth-kyJKSNKW5dNjqlg_wDIFp0dtBYcDrrO5X2gth3TNAOZxgDXBIxhoLMpyvSXq5LQQLQkH8dhVpYjj4kAUeDd57X-j3wA0-fqMktzTqdNufGFQZ40TaWfNZ6YldLA8nojJCSMteTkBJ0aK_C5EtdrjZUMJ_jXMwCjdb0xt7zF17",
          "width": 4032
        }
      ],
      "place_id": "ChIJoSEl_MZbwokRcRiR7vpzqn8",
      "plus_code": {
        "compound_code": "M2WJ+CP \u7f8e\u570b\u7d10\u7d04\u5e03\u9c81\u514b\u6797",
        "global_code": "87G8M2WJ+CP"
      },
      "rating": 4,
      "reference": "ChIJoSEl_MZbwokRcRiR7vpzqn8",
      "scope": "GOOGLE",
      "types": [
        "spa",
        "night_club",
        "bar",
        "restaurant",
        "food",
        "point_of_interest",
        "establishment"
      ],
      "user_ratings_total": 480,
      "vicinity": "275 Park Avenue, Brooklyn"
    },
    {
      "business_status": "OPERATIONAL",
      "geometry": {
        "location": {
          "lat": 40.6982846,
          "lng": -73.9712074
        },
        "viewport": {
          "northeast": {
            "lat": 40.6994351302915,
            "lng": -73.9695193197085
          },
          "southwest": {
            "lat": 40.6967371697085,
            "lng": -73.97221728029152
          }
        }
      },
      "icon": "https://maps.gstatic.com/mapfiles/place_api/icons/v1/png_71/generic_business-71.png",
      "icon_background_color": "#7B9EB0",
      "icon_mask_base_uri": "https://maps.gstatic.com/mapfiles/place_api/icons/v2/generic_pinlet",
      "name": "Casual Films",
      "opening_hours": {
        "open_now": false
      },
      "photos": [
        {
          "height": 1365,
          "html_attributions": [
            "<a href=\"https://maps.google.com/maps/contrib/114590602786988438936\">Casual Films</a>"
          ],
          "photo_reference": "AeJbb3fxR99SXlc9Xz0FTrPZymjTGIKclNYywlvYucWrhb3_-Gsv-lLVlx34bTYxr1hwa6qh6B8_J6KPnFhe7J9DFsCFukoy7wMt4WXUdbx-kBNJY9j3Fc64swUu9shUiqpqN_2rmXztvg3430f_spGn_tzro9aFUd1QYxXkb37-TUtOSUgH",
          "width": 2048
        }
      ],
      "place_id": "ChIJV47CR41ZwokRUoX___chVGs",
      "plus_code": {
        "compound_code": "M2XH+8G \u7f8e\u570b\u7d10\u7d04\u5e03\u9c81\u514b\u6797",
        "global_code": "87G8M2XH+8G"
      },
      "rating": 5,
      "reference": "ChIJV47CR41ZwokRUoX___chVGs",
      "scope": "GOOGLE",
      "types": [
        "point_of_interest",
        "establishment"
      ],
      "user_ratings_total": 2,
      "vicinity": "141 Flushing Avenue building 77 suite 902, Brooklyn"
    },
    {
      "business_status": "OPERATIONAL",
      "geometry": {
        "location": {
          "lat": 40.69547410000001,
          "lng": -73.9690605
        },
        "viewport": {
          "northeast": {
            "lat": 40.6968110302915,
            "lng": -73.96782216970848
          },
          "southwest": {
            "lat": 40.6941130697085,
            "lng": -73.9705201302915
          }
        }
      },
      "icon": "https://maps.gstatic.com/mapfiles/place_api/icons/v1/png_71/school-71.png",
      "icon_background_color": "#7B9EB0",
      "icon_mask_base_uri": "https://maps.gstatic.com/mapfiles/place_api/icons/v2/school_pinlet",
      "name": "Benjamin Banneker Academy for Community Development",
      "opening_hours": {
        "open_now": false
      },
      "photos": [
        {
          "height": 2048,
          "html_attributions": [
            "<a href=\"https://maps.google.com/maps/contrib/104097172679766434366\">Gabriel Holley</a>"
          ],
          "photo_reference": "AeJbb3d72tZxgArSbfjBWn332yWuhlBZm-pBAi7VyMJHIdEgSso4PQz07E1LS5JioRlvQnVNLerKxLdazbZGwf1isGlS_22NB_D_a9EXI5fi1BCdMaN2_0d4bM7Gcfp0o4wqIY844XYwiCgu_Z2OjBGt-buoqSkWPtJOUTisHetevZ6jM0iL",
          "width": 1536
        }
      ],
      "place_id": "ChIJqS4iu8dbwokRE4HLESf-A6E",
      "plus_code": {
        "compound_code": "M2WJ+59 \u7f8e\u570b\u7d10\u7d04",
        "global_code": "87G8M2WJ+59"
      },
      "rating": 3.7,
      "reference": "ChIJqS4iu8dbwokRE4HLESf-A6E",
      "scope": "GOOGLE",
      "types": [
        "secondary_school",
        "school",
        "point_of_interest",
        "establishment"
      ],
      "user_ratings_total": 47,
      "vicinity": "71-77 Clinton Avenue, Brooklyn"
    },
    {
      "business_status": "OPERATIONAL",
      "geometry": {
        "location": {
          "lat": 40.699056,
          "lng": -73.972449
        },
        "viewport": {
          "northeast": {
            "lat": 40.7004931802915,
            "lng": -73.9710917197085
          },
          "southwest": {
            "lat": 40.6977952197085,
            "lng": -73.97378968029152
          }
        }
      },
      "icon": "https://maps.gstatic.com/mapfiles/place_api/icons/v1/png_71/generic_business-71.png",
      "icon_background_color": "#7B9EB0",
      "icon_mask_base_uri": "https://maps.gstatic.com/mapfiles/place_api/icons/v2/generic_pinlet",
      "name": "Ideal Giant",
      "photos": [
        {
          "height": 1365,
          "html_attributions": [
            "<a href=\"https://maps.google.com/maps/contrib/109013555979735020155\">Ideal Giant</a>"
          ],
          "photo_reference": "AeJbb3cI9tT6YnJueQqMZs_OTiqacSjwhVXuuLhr6RniRbJRJwP2VSiKXBQBgKN_PKp7vFmK7WMGpcAiwBwJJmn1nPb9CHZouk1ssCgxyTdPrUH4lHQ-HSdiMQ5NPcTnDjVfMccFYGvorC0iY9Yv7neD8RVbtZ5i1b2HJY_zVqQLV-LZcvu0",
          "width": 2048
        }
      ],
      "place_id": "ChIJSy5XLsJbwokRooXInBVunn4",
      "plus_code": {
        "compound_code": "M2XH+J2 \u7f8e\u570b\u7d10\u7d04\u5e03\u9c81\u514b\u6797",
        "global_code": "87G8M2XH+J2"
      },
      "reference": "ChIJSy5XLsJbwokRooXInBVunn4",
      "scope": "GOOGLE",
      "types": [
        "point_of_interest",
        "establishment"
      ],
      "vicinity": "Navy Yard, Flushing Avenue, Brooklyn"
    },
    {
      "business_status": "OPERATIONAL",
      "geometry": {
        "location": {
          "lat": 40.6963574,
          "lng": -73.96813809999999
        },
        "viewport": {
          "northeast": {
            "lat": 40.69754168029149,
            "lng": -73.96680466970848
          },
          "southwest": {
            "lat": 40.6948437197085,
            "lng": -73.9695026302915
          }
        }
      },
      "icon": "https://maps.gstatic.com/mapfiles/place_api/icons/v1/png_71/generic_business-71.png",
      "icon_background_color": "#7B9EB0",
      "icon_mask_base_uri": "https://maps.gstatic.com/mapfiles/place_api/icons/v2/generic_pinlet",
      "name": "Chocolate Factory Lofts",
      "opening_hours": {
        "open_now": false
      },
      "photos": [
        {
          "height": 800,
          "html_attributions": [
            "<a href=\"https://maps.google.com/maps/contrib/111957837543466687725\">Chocolate Factory Lofts</a>"
          ],
          "photo_reference": "AeJbb3ethNdr9_L8VYW4X9l1mOaiZZLbEy6ng1dgnmd3B_LqDkeBsfj9C0O_dPLR0ZwB16hU4PqYhTF0T43xvPQhhBI5RDwZgaJQ4uNuENxecGpqZmme9yyR1Vx5T7Jr0SvIhQFTTgKrPh-JGfaDPBJofM4o5hbksrtcRAj_Ri1jWU2Eudyb",
          "width": 1200
        }
      ],
      "place_id": "ChIJoSEl_MZbwokRNy-Q73RNDgs",
      "plus_code": {
        "compound_code": "M2WJ+GP \u7f8e\u570b\u7d10\u7d04",
        "global_code": "87G8M2WJ+GP"
      },
      "rating": 2.9,
      "reference": "ChIJoSEl_MZbwokRNy-Q73RNDgs",
      "scope": "GOOGLE",
      "types": [
        "point_of_interest",
        "establishment"
      ],
      "user_ratings_total": 10,
      "vicinity": "275 Park Avenue, Brooklyn"
    },
    {
      "business_status": "CLOSED_TEMPORARILY",
      "geometry": {
        "location": {
          "lat": 40.6984715,
          "lng": -73.9777647
        },
        "viewport": {
          "northeast": {
            "lat": 40.6998365302915,
            "lng": -73.9762469197085
          },
          "southwest": {
            "lat": 40.6971385697085,
            "lng": -73.97894488029151
          }
        }
      },
      "icon": "https://maps.gstatic.com/mapfiles/place_api/icons/v1/png_71/shopping-71.png",
      "icon_background_color": "#4B96F3",
      "icon_mask_base_uri": "https://maps.gstatic.com/mapfiles/place_api/icons/v2/shopping_pinlet",
      "name": "Engage Green Inc",
      "permanently_closed": true,
      "place_id": "ChIJy4PYQMlbwokRdoVU2jfquVI",
      "plus_code": {
        "compound_code": "M2XC+9V \u7f8e\u570b\u7d10\u7d04",
        "global_code": "87G8M2XC+9V"
      },
      "rating": 5,
      "reference": "ChIJy4PYQMlbwokRdoVU2jfquVI",
      "scope": "GOOGLE",
      "types": [
        "clothing_store",
        "point_of_interest",
        "store",
        "establishment"
      ],
      "user_ratings_total": 1,
      "vicinity": "63 Flushing Avenue #403, Brooklyn"
    },
    {
      "business_status": "OPERATIONAL",
      "geometry": {
        "location": {
          "lat": 40.6984715,
          "lng": -73.9777647
        },
        "viewport": {
          "northeast": {
            "lat": 40.6998365302915,
            "lng": -73.9762469197085
          },
          "southwest": {
            "lat": 40.6971385697085,
            "lng": -73.97894488029151
          }
        }
      },
      "icon": "https://maps.gstatic.com/mapfiles/place_api/icons/v1/png_71/generic_business-71.png",
      "icon_background_color": "#7B9EB0",
      "icon_mask_base_uri": "https://maps.gstatic.com/mapfiles/place_api/icons/v2/generic_pinlet",
      "name": "AIS Furniture Refinishing",
      "place_id": "ChIJy4PYQMlbwokRZzdiLkowkCE",
      "plus_code": {
        "compound_code": "M2XC+9V \u7f8e\u570b\u7d10\u7d04",
        "global_code": "87G8M2XC+9V"
      },
      "reference": "ChIJy4PYQMlbwokRZzdiLkowkCE",
      "scope": "GOOGLE",
      "types": [
        "point_of_interest",
        "establishment"
      ],
      "vicinity": "63 Flushing Avenue, Brooklyn"
    },
    {
      "business_status": "OPERATIONAL",
      "geometry": {
        "location": {
          "lat": 40.695099,
          "lng": -73.9764879
        },
        "viewport": {
          "northeast": {
            "lat": 40.6966472802915,
            "lng": -73.9750294697085
          },
          "southwest": {
            "lat": 40.6939493197085,
            "lng": -73.97772743029152
          }
        }
      },
      "icon": "https://maps.gstatic.com/mapfiles/place_api/icons/v1/png_71/generic_business-71.png",
      "icon_background_color": "#7B9EB0",
      "icon_mask_base_uri": "https://maps.gstatic.com/mapfiles/place_api/icons/v2/generic_pinlet",
      "name": "NYC Health + Hospitals/Gotham Health, Cumberland",
      "opening_hours": {
        "open_now": true
      },
      "photos": [
        {
          "height": 4160,
          "html_attributions": [
            "<a href=\"https://maps.google.com/maps/contrib/103871888243431749848\">Benjamin Hernandez-Santiago</a>"
          ],
          "photo_reference": "AeJbb3fsU4YpVq7LmbAupBthvBvO_7FhE7fWA8XQZWS5zdelON9Vnd1DHgLnJty9JJ2O5AGtM-lUZIUHAtqKoUJJ0kSDgUCYFVUQ47GsKiHYxDLZEdf3PBmX_vwHSvxT4E-QCv8C5dt0vQ8NPRzbjHF4qHP4ge5CMljDfEv4xc7rSo-bEoQp",
          "width": 3120
        }
      ],
      "place_id": "ChIJZSAb8MlbwokRtGxnnbMXNiY",
      "plus_code": {
        "compound_code": "M2WF+2C \u7f8e\u570b\u7d10\u7d04",
        "global_code": "87G8M2WF+2C"
      },
      "rating": 2.9,
      "reference": "ChIJZSAb8MlbwokRtGxnnbMXNiY",
      "scope": "GOOGLE",
      "types": [
        "health",
        "point_of_interest",
        "establishment"
      ],
      "user_ratings_total": 64,
      "vicinity": "100 North Portland Avenue, Brooklyn"
    },
    {
      "business_status": "OPERATIONAL",
      "geometry": {
        "location": {
          "lat": 40.6932799,
          "lng": -73.9695563
        },
        "viewport": {
          "northeast": {
            "lat": 40.69455448029149,
            "lng": -73.96821196970849
          },
          "southwest": {
            "lat": 40.6918565197085,
            "lng": -73.97090993029151
          }
        }
      },
      "icon": "https://maps.gstatic.com/mapfiles/place_api/icons/v1/png_71/restaurant-71.png",
      "icon_background_color": "#FF9E67",
      "icon_mask_base_uri": "https://maps.gstatic.com/mapfiles/place_api/icons/v2/restaurant_pinlet",
      "name": "Damas Falafel House",
      "opening_hours": {
        "open_now": true
      },
      "photos": [
        {
          "height": 3500,
          "html_attributions": [
            "<a href=\"https://maps.google.com/maps/contrib/111978627659031176655\">Damas Falafel House</a>"
          ],
          "photo_reference": "AeJbb3c8wOiNk65YfoWcYkYF8QB7QRs6cWKZJpNoFZZrnSbrtBp2D9F7VdYkIZ9NEi8ftBkMvf5_jgT61mGQxkHKay397x9Korq158FtHE0GkXj0P1xGEhXapnv2YwIRRxz8_tc8826NlOs8acmyqzQU8RRzYjTu_YB2DjBdZwOgZXxKFG8",
          "width": 5250
        }
      ],
      "place_id": "ChIJGbyObbhbwokRGgwmVBZoNwQ",
      "plus_code": {
        "compound_code": "M2VJ+85 \u7f8e\u570b\u7d10\u7d04",
        "global_code": "87G8M2VJ+85"
      },
      "price_level": 1,
      "rating": 4.3,
      "reference": "ChIJGbyObbhbwokRGgwmVBZoNwQ",
      "scope": "GOOGLE",
      "types": [
        "restaurant",
        "food",
        "point_of_interest",
        "establishment"
      ],
      "user_ratings_total": 158,
      "vicinity": "407 Myrtle Avenue, Brooklyn"
    },
    {
      "business_status": "CLOSED_TEMPORARILY",
      "geometry": {
        "location": {
          "lat": 40.6963574,
          "lng": -73.96813809999999
        },
        "viewport": {
          "northeast": {
            "lat": 40.69754168029149,
            "lng": -73.96680466970848
          },
          "southwest": {
            "lat": 40.6948437197085,
            "lng": -73.9695026302915
          }
        }
      },
      "icon": "https://maps.gstatic.com/mapfiles/place_api/icons/v1/png_71/generic_business-71.png",
      "icon_background_color": "#7B9EB0",
      "icon_mask_base_uri": "https://maps.gstatic.com/mapfiles/place_api/icons/v2/generic_pinlet",
      "name": "SUSTAINABLE CHANGE COACHING",
      "permanently_closed": true,
      "place_id": "ChIJoSEl_MZbwokRS1HO6mMJMhg",
      "plus_code": {
        "compound_code": "M2WJ+GP \u7f8e\u570b\u7d10\u7d04\u5e03\u9c81\u514b\u6797",
        "global_code": "87G8M2WJ+GP"
      },
      "reference": "ChIJoSEl_MZbwokRS1HO6mMJMhg",
      "scope": "GOOGLE",
      "types": [
        "health",
        "point_of_interest",
        "establishment"
      ],
      "vicinity": "275 Park Avenue, Brooklyn"
    },
    {
      "business_status": "OPERATIONAL",
      "geometry": {
        "location": {
          "lat": 40.6981933,
          "lng": -73.97420799999999
        },
        "viewport": {
          "northeast": {
            "lat": 40.69945568029149,
            "lng": -73.97286501970848
          },
          "southwest": {
            "lat": 40.69675771970849,
            "lng": -73.9755629802915
          }
        }
      },
      "icon": "https://maps.gstatic.com/mapfiles/place_api/icons/v1/png_71/shopping-71.png",
      "icon_background_color": "#4B96F3",
      "icon_mask_base_uri": "https://maps.gstatic.com/mapfiles/place_api/icons/v2/shopping_pinlet",
      "name": "First Class Trading",
      "opening_hours": {
        "open_now": false
      },
      "place_id": "ChIJO1Tq6MhbwokRAIfVSG9LQHA",
      "plus_code": {
        "compound_code": "M2XG+78 \u7f8e\u570b\u7d10\u7d04\u5e03\u9c81\u514b\u6797",
        "global_code": "87G8M2XG+78"
      },
      "rating": 1,
      "reference": "ChIJO1Tq6MhbwokRAIfVSG9LQHA",
      "scope": "GOOGLE",
      "types": [
        "point_of_interest",
        "jewelry_store",
        "store",
        "establishment"
      ],
      "user_ratings_total": 2,
      "vicinity": "63 Flushing Avenue #299, Brooklyn"
    },
    {
      "business_status": "OPERATIONAL",
      "geometry": {
        "location": {
          "lat": 40.69854689999999,
          "lng": -73.9753052
        },
        "viewport": {
          "northeast": {
            "lat": 40.69965543029149,
            "lng": -73.97397381970849
          },
          "southwest": {
            "lat": 40.69695746970849,
            "lng": -73.97667178029151
          }
        }
      },
      "icon": "https://maps.gstatic.com/mapfiles/place_api/icons/v1/png_71/generic_business-71.png",
      "icon_background_color": "#7B9EB0",
      "icon_mask_base_uri": "https://maps.gstatic.com/mapfiles/place_api/icons/v2/generic_pinlet",
      "name": "Puerto Rico USA Import Inc",
      "place_id": "ChIJn71GEclbwokRmki6E62Jhdg",
      "plus_code": {
        "compound_code": "M2XF+CV \u7f8e\u570b\u7d10\u7d04\u5e03\u9c81\u514b\u6797",
        "global_code": "87G8M2XF+CV"
      },
      "rating": 4,
      "reference": "ChIJn71GEclbwokRmki6E62Jhdg",
      "scope": "GOOGLE",
      "types": [
        "point_of_interest",
        "establishment"
      ],
      "user_ratings_total": 3,
      "vicinity": "63 Flushing Avenue, Brooklyn"
    },
    {
      "business_status": "OPERATIONAL",
      "geometry": {
        "location": {
          "lat": 40.6971971,
          "lng": -73.9687742
        },
        "viewport": {
          "northeast": {
            "lat": 40.6985536802915,
            "lng": -73.96735686970848
          },
          "southwest": {
            "lat": 40.6958557197085,
            "lng": -73.9700548302915
          }
        }
      },
      "icon": "https://maps.gstatic.com/mapfiles/place_api/icons/v1/png_71/generic_business-71.png",
      "icon_background_color": "#7B9EB0",
      "icon_mask_base_uri": "https://maps.gstatic.com/mapfiles/place_api/icons/v2/generic_pinlet",
      "name": "Hypersonic [art & design]",
      "opening_hours": {
        "open_now": false
      },
      "photos": [
        {
          "height": 3024,
          "html_attributions": [
            "<a href=\"https://maps.google.com/maps/contrib/107149520303956402697\">Bill Washabaugh</a>"
          ],
          "photo_reference": "AeJbb3cGiUE8z08bxM1QMFMYoQzqaIUQulhRV18xWP6aQf69DcEvAtxd8Z3sRgLtS6yOLD1SM1i-w-LWmPDNYqYAXu6cnUyhOAcVIe-x9LDG5eEBplTCilhKqhYwJvg5r52fZQsds8MxhJ9GqdGzyt_b6mCuCG4pwu9e_YZ1Kz-zmQdsgJJm",
          "width": 4032
        }
      ],
      "place_id": "ChIJj6qRVbJbwokRv9Q9T_Iz3v8",
      "plus_code": {
        "compound_code": "M2WJ+VF \u7f8e\u570b\u7d10\u7d04",
        "global_code": "87G8M2WJ+VF"
      },
      "rating": 4.7,
      "reference": "ChIJj6qRVbJbwokRv9Q9T_Iz3v8",
      "scope": "GOOGLE",
      "types": [
        "point_of_interest",
        "establishment"
      ],
      "user_ratings_total": 3,
      "vicinity": "16 Waverly Avenue, Brooklyn"
    },
    {
      "business_status": "OPERATIONAL",
      "geometry": {
        "location": {
          "lat": 40.6983375,
          "lng": -73.9725952
        },
        "viewport": {
          "northeast": {
            "lat": 40.69955528029151,
            "lng": -73.9712548197085
          },
          "southwest": {
            "lat": 40.69685731970851,
            "lng": -73.97395278029151
          }
        }
      },
      "icon": "https://maps.gstatic.com/mapfiles/place_api/icons/v1/png_71/generic_business-71.png",
      "icon_background_color": "#7B9EB0",
      "icon_mask_base_uri": "https://maps.gstatic.com/mapfiles/place_api/icons/v2/generic_pinlet",
      "name": "Dieu Donn\u00e9",
      "opening_hours": {
        "open_now": false
      },
      "photos": [
        {
          "height": 3024,
          "html_attributions": [
            "<a href=\"https://maps.google.com/maps/contrib/112393954559953303137\">Brent Unkrich</a>"
          ],
          "photo_reference": "AeJbb3c841lwhWAZNGMi-IsLf_LfGax0PmnBcO9zJSCPVYT8a4Ug-pRMg-FSH6YoGkiB4q-jCgPlGFYx8IaaawVkAqZdjjPuv-wVhpzktHakf2nOUofgOS8Xi0muozHM10Zli10VfNqkC4Zb_umg5KNmRemY_nXSqVKy9HGba8XTQDJ5hzZs",
          "width": 4032
        }
      ],
      "place_id": "ChIJYfLkn61ZwokRxygFlTcswAE",
      "plus_code": {
        "compound_code": "M2XG+8X \u7f8e\u570b\u7d10\u7d04\u5e03\u9c81\u514b\u6797",
        "global_code": "87G8M2XG+8X"
      },
      "rating": 4.8,
      "reference": "ChIJYfLkn61ZwokRxygFlTcswAE",
      "scope": "GOOGLE",
      "types": [
        "point_of_interest",
        "establishment"
      ],
      "user_ratings_total": 6,
      "vicinity": "63 Flushing Avenue Suite 602, Brooklyn"
    },
    {
      "business_status": "OPERATIONAL",
      "geometry": {
        "location": {
          "lat": 40.698646,
          "lng": -73.975381
        },
        "viewport": {
          "northeast": {
            "lat": 40.70007478029149,
            "lng": -73.9738995697085
          },
          "southwest": {
            "lat": 40.6973768197085,
            "lng": -73.9765975302915
          }
        }
      },
      "icon": "https://maps.gstatic.com/mapfiles/place_api/icons/v1/png_71/generic_business-71.png",
      "icon_background_color": "#7B9EB0",
      "icon_mask_base_uri": "https://maps.gstatic.com/mapfiles/place_api/icons/v2/generic_pinlet",
      "name": "DCM Fabrication INC.",
      "opening_hours": {
        "open_now": false
      },
      "photos": [
        {
          "height": 3264,
          "html_attributions": [
            "<a href=\"https://maps.google.com/maps/contrib/101334414168319538181\">Caitlin Nugent</a>"
          ],
          "photo_reference": "AeJbb3dAZ4JkBsXC4l_FIXQ8Jr7bKeNuNg7W1hcYK1mNfTGjdUMvIiGSbbKDtUES2iex4V7ayXIHtjKwb8xZUl_4yQpyWETzPMo_i617UdrxKSgTisTilkmx3-fjrAhqiq6lkEnwpHgIZyN10U4oxV6wexDXmKr-bH2ue4MrZ6_ePHmhD59z",
          "width": 2448
        }
      ],
      "place_id": "ChIJy4PYQMlbwokRikTBFVjc-us",
      "plus_code": {
        "compound_code": "M2XF+FR \u7f8e\u570b\u7d10\u7d04\u5e03\u9c81\u514b\u6797",
        "global_code": "87G8M2XF+FR"
      },
      "rating": 5,
      "reference": "ChIJy4PYQMlbwokRikTBFVjc-us",
      "scope": "GOOGLE",
      "types": [
        "general_contractor",
        "point_of_interest",
        "establishment"
      ],
      "user_ratings_total": 3,
      "vicinity": "63 Flushing Avenue Bldg. 280 #509, Brooklyn"
    },
    {
      "geometry": {
        "location": {
          "lat": 40.6781784,
          "lng": -73.9441579
        },
        "viewport": {
          "northeast": {
            "lat": 40.73944597129348,
            "lng": -73.83336505117123
          },
          "southwest": {
            "lat": 40.55104197967331,
            "lng": -74.05662998413648
          }
        }
      },
      "icon": "https://maps.gstatic.com/mapfiles/place_api/icons/v1/png_71/geocode-71.png",
      "icon_background_color": "#7B9EB0",
      "icon_mask_base_uri": "https://maps.gstatic.com/mapfiles/place_api/icons/v2/generic_pinlet",
      "name": "\u5e03\u9c81\u514b\u6797",
      "photos": [
        {
          "height": 3024,
          "html_attributions": [
            "<a href=\"https://maps.google.com/maps/contrib/114417859579881743500\">Chengxiang Yuan</a>"
          ],
          "photo_reference": "AeJbb3cdDSOCNd-1dtPy2NhWo09SGXPKWonDG_ZsLoyPl2pVYGSEl5WN7Zf2UGKs8Z-4LoqxOWVWJXJ3GudGq00Zl7CprCRZjR5LFg_PL1de_YzY1A-G_7gqTRhVy4bJFekgHzklQ6FB7w1fRXWJSnircFCV22I8AOH2tu9-VIQNtH0BrXg6",
          "width": 4032
        }
      ],
      "place_id": "ChIJCSF8lBZEwokRhngABHRcdoI",
      "reference": "ChIJCSF8lBZEwokRhngABHRcdoI",
      "scope": "GOOGLE",
      "types": [
        "sublocality_level_1",
        "sublocality",
        "political"
      ],
      "vicinity": "\u5e03\u9c81\u514b\u6797"
    },
    {
      "business_status": "OPERATIONAL",
      "geometry": {
        "location": {
          "lat": 40.6986462,
          "lng": -73.9753812
        },
        "viewport": {
          "northeast": {
            "lat": 40.7000749802915,
            "lng": -73.9738997697085
          },
          "southwest": {
            "lat": 40.6973770197085,
            "lng": -73.9765977302915
          }
        }
      },
      "icon": "https://maps.gstatic.com/mapfiles/place_api/icons/v1/png_71/generic_business-71.png",
      "icon_background_color": "#7B9EB0",
      "icon_mask_base_uri": "https://maps.gstatic.com/mapfiles/place_api/icons/v2/generic_pinlet",
      "name": "Devore Fidelity Ltd",
      "photos": [
        {
          "height": 3024,
          "html_attributions": [
            "<a href=\"https://maps.google.com/maps/contrib/112407068927502000726\">AG SP</a>"
          ],
          "photo_reference": "AeJbb3dm5AhsUm4GIWwOl_6WO78FvECwOIJpFCJ5wyq1my8mo6g6VyQ-yTy12B9aZdHcPAGav4K2ZyknszAOvCS4y2AQigq8T8nJsNFG0-IsaXVkKqHr1YiGrdaNg4qYnmP1SM8izBSL2GZBVZk0HhTT0YJOeXOOWP78lxUHMYFtyPlQpg3N",
          "width": 4032
        }
      ],
      "place_id": "ChIJy4PYQMlbwokR1UX3IXIUJy0",
      "plus_code": {
        "compound_code": "M2XF+FR Brooklyn, NY, USA",
        "global_code": "87G8M2XF+FR"
      },
      "rating": 5,
      "reference": "ChIJy4PYQMlbwokR1UX3IXIUJy0",
      "scope": "GOOGLE",
      "types": [
        "point_of_interest",
        "establishment"
      ],
      "user_ratings_total": 4,
      "vicinity": "63 Flushing Avenue, Brooklyn"
    },
    {
      "business_status": "OPERATIONAL",
      "geometry": {
        "location": {
          "lat": 40.6983369,
          "lng": -73.9752132
        },
        "viewport": {
          "northeast": {
            "lat": 40.69954818029151,
            "lng": -73.9738743197085
          },
          "southwest": {
            "lat": 40.69685021970851,
            "lng": -73.9765722802915
          }
        }
      },
      "icon": "https://maps.gstatic.com/mapfiles/place_api/icons/v1/png_71/generic_business-71.png",
      "icon_background_color": "#7B9EB0",
      "icon_mask_base_uri": "https://maps.gstatic.com/mapfiles/place_api/icons/v2/generic_pinlet",
      "name": "Matter Architecture Practice",
      "opening_hours": {
        "open_now": false
      },
      "place_id": "ChIJZaiaZzFawokR0RiuD2Pbv2Y",
      "plus_code": {
        "compound_code": "M2XF+8W New York, NY, USA",
        "global_code": "87G8M2XF+8W"
      },
      "rating": 4,
      "reference": "ChIJZaiaZzFawokR0RiuD2Pbv2Y",
      "scope": "GOOGLE",
      "types": [
        "point_of_interest",
        "establishment"
      ],
      "user_ratings_total": 2,
      "vicinity": "63 Flushing Avenue Bldg 280 Ste 508, Brooklyn"
    },
    {
      "business_status": "OPERATIONAL",
      "geometry": {
        "location": {
          "lat": 40.6970596,
          "lng": -73.9698828
        },
        "viewport": {
          "northeast": {
            "lat": 40.6984405802915,
            "lng": -73.96839866970849
          },
          "southwest": {
            "lat": 40.6957426197085,
            "lng": -73.9710966302915
          }
        }
      },
      "icon": "https://maps.gstatic.com/mapfiles/place_api/icons/v1/png_71/generic_business-71.png",
      "icon_background_color": "#7B9EB0",
      "icon_mask_base_uri": "https://maps.gstatic.com/mapfiles/place_api/icons/v2/generic_pinlet",
      "name": "Bangkok Market",
      "opening_hours": {
        "open_now": false
      },
      "photos": [
        {
          "height": 4128,
          "html_attributions": [
            "<a href=\"https://maps.google.com/maps/contrib/105635639113848117379\">Rafika Yousfi</a>"
          ],
          "photo_reference": "AeJbb3eq-FMDThxVI6rVG72e7MwB7EfvixFAwGQbvC9iC77zDCM0LdPAkJDZPRnvmVF74kfku2Pt3B0ciLwt5AWiFVP_ux9surdtljOG3P7RFwOjASDUY_WPwOmBZxfox-zvxOYaCb4vGty2muGdx2wurpWMmJ_nSKitAHyz_6gFRbbrX4zE",
          "width": 2322
        }
      ],
      "place_id": "ChIJtYybR8ZbwokRIY5y-PhReac",
      "plus_code": {
        "compound_code": "M2WJ+R2 Brooklyn, NY, USA",
        "global_code": "87G8M2WJ+R2"
      },
      "rating": 3.6,
      "reference": "ChIJtYybR8ZbwokRIY5y-PhReac",
      "scope": "GOOGLE",
      "types": [
        "food",
        "point_of_interest",
        "establishment"
      ],
      "user_ratings_total": 8,
      "vicinity": "22 Clinton Avenue, Brooklyn"
    },
    {
      "business_status": "OPERATIONAL",
      "geometry": {
        "location": {
          "lat": 40.6967903,
          "lng": -73.9687576
        },
        "viewport": {
          "northeast": {
            "lat": 40.6981310302915,
            "lng": -73.96730976970849
          },
          "southwest": {
            "lat": 40.69543306970851,
            "lng": -73.9700077302915
          }
        }
      },
      "icon": "https://maps.gstatic.com/mapfiles/place_api/icons/v1/png_71/generic_business-71.png",
      "icon_background_color": "#7B9EB0",
      "icon_mask_base_uri": "https://maps.gstatic.com/mapfiles/place_api/icons/v2/generic_pinlet",
      "name": "STILIANI",
      "opening_hours": {
        "open_now": false
      },
      "photos": [
        {
          "height": 1084,
          "html_attributions": [
            "<a href=\"https://maps.google.com/maps/contrib/108649580839903676489\">STILCLAY@601</a>"
          ],
          "photo_reference": "AeJbb3dPkQW0IMLEzS2FV2jcgeQAOng9NYJGWUuRx53_o861xZhnoxgxNK-AXqXIqDnTo7tqjyF9X1ADdHV7TaCCSAeTHvce836My4KkMELws-TJk48mf291DHi9CgiSqqfSPzeYORuey86MXzh4jOQCuHPigpMljz7CYR9K6h-cFoQOyLFC",
          "width": 2048
        }
      ],
      "place_id": "ChIJh8Ih2kFZwokRJDcJ8A2ptt4",
      "plus_code": {
        "compound_code": "M2WJ+PF Brooklyn, NY, USA",
        "global_code": "87G8M2WJ+PF"
      },
      "rating": 4.7,
      "reference": "ChIJh8Ih2kFZwokRJDcJ8A2ptt4",
      "scope": "GOOGLE",
      "types": [
        "art_gallery",
        "point_of_interest",
        "establishment"
      ],
      "user_ratings_total": 7,
      "vicinity": "36 Waverly Avenue, Brooklyn"
    },
    {
      "business_status": "OPERATIONAL",
      "geometry": {
        "location": {
          "lat": 40.697444,
          "lng": -73.9753291
        },
        "viewport": {
          "northeast": {
            "lat": 40.69878918029149,
            "lng": -73.97415216970849
          },
          "southwest": {
            "lat": 40.69609121970849,
            "lng": -73.9768501302915
          }
        }
      },
      "icon": "https://maps.gstatic.com/mapfiles/place_api/icons/v1/png_71/generic_business-71.png",
      "icon_background_color": "#7B9EB0",
      "icon_mask_base_uri": "https://maps.gstatic.com/mapfiles/place_api/icons/v2/generic_pinlet",
      "name": "Dumbo Moving and Storage NYC",
      "opening_hours": {
        "open_now": true
      },
      "photos": [
        {
          "height": 1078,
          "html_attributions": [
            "<a href=\"https://maps.google.com/maps/contrib/117275907778722622045\">Dumbo Moving and Storage NYC</a>"
          ],
          "photo_reference": "AeJbb3eOTglYg0304gEHcORSi9CZCsRP3vkXPRJH9Fl2rGezsFm0XVgfxxqGosyGKR6PTx7XvVdwp4Skizay006EU2Gmbdn90ZKuCgy0tPJQrS-gjrbtlnq2KE2PZeEx8mfP4WpUbCwYhXoc0MFO3RT1IvT2--h65xdkjIF5_e8vAzo1JWDs",
          "width": 2917
        }
      ],
      "place_id": "ChIJtw2-vDNawokRd10kH3ot4xs",
      "plus_code": {
        "compound_code": "M2WF+XV New York, NY, USA",
        "global_code": "87G8M2WF+XV"
      },
      "rating": 4.3,
      "reference": "ChIJtw2-vDNawokRd10kH3ot4xs",
      "scope": "GOOGLE",
      "types": [
        "moving_company",
        "storage",
        "point_of_interest",
        "establishment"
      ],
      "user_ratings_total": 2196,
      "vicinity": "15 North Oxford Street, Brooklyn"
    },
    {
      "business_status": "OPERATIONAL",
      "geometry": {
        "location": {
          "lat": 40.6984782,
          "lng": -73.9725471
        },
        "viewport": {
          "northeast": {
            "lat": 40.6996241802915,
            "lng": -73.97118951970849
          },
          "southwest": {
            "lat": 40.6969262197085,
            "lng": -73.9738874802915
          }
        }
      },
      "icon": "https://maps.gstatic.com/mapfiles/place_api/icons/v1/png_71/shopping-71.png",
      "icon_background_color": "#4B96F3",
      "icon_mask_base_uri": "https://maps.gstatic.com/mapfiles/place_api/icons/v2/shopping_pinlet",
      "name": "Stitch NYC Inc",
      "place_id": "ChIJy4PYQMlbwokR0palVJBcix0",
      "plus_code": {
        "compound_code": "M2XG+9X New York, NY, USA",
        "global_code": "87G8M2XG+9X"
      },
      "reference": "ChIJy4PYQMlbwokR0palVJBcix0",
      "scope": "GOOGLE",
      "types": [
        "furniture_store",
        "general_contractor",
        "home_goods_store",
        "store",
        "point_of_interest",
        "establishment"
      ],
      "vicinity": "Brooklyn Navy Yard, 63 Flushing Avenue Bldg 3, Brooklyn"
    },
    {
      "business_status": "OPERATIONAL",
      "geometry": {
        "location": {
          "lat": 40.6933808,
          "lng": -73.97116
        },
        "viewport": {
          "northeast": {
            "lat": 40.6947951802915,
            "lng": -73.96969871970849
          },
          "southwest": {
            "lat": 40.6920972197085,
            "lng": -73.9723966802915
          }
        }
      },
      "icon": "https://maps.gstatic.com/mapfiles/place_api/icons/v1/png_71/generic_business-71.png",
      "icon_background_color": "#4B96F3",
      "icon_mask_base_uri": "https://maps.gstatic.com/mapfiles/place_api/icons/v2/generic_pinlet",
      "name": "Walgreens",
      "opening_hours": {
        "open_now": true
      },
      "photos": [
        {
          "height": 4032,
          "html_attributions": [
            "<a href=\"https://maps.google.com/maps/contrib/108795807677422200987\">2wheel Ferrari</a>"
          ],
          "photo_reference": "AeJbb3eHEfUedNZcqIeIWA4m0kTTXx2EQrlTlZsUyNPlQeTvr-Rdg3xsLB-F4Csq72IQ_ufOTORfVGkRdkdL4Xa1czsnkcWDLJtIhI4FA8Qn-Mjy_Q7TvH2SP-eEVR6CXwtR8lmxH_bqrNX9GmnTqiOdhMS2w9v-OZlcG2rVK-Xn8BNlLaDE",
          "width": 2268
        }
      ],
      "place_id": "ChIJGV4IHLhbwokRoVd3p-Ml4vM",
      "plus_code": {
        "compound_code": "M2VH+9G New York, NY, USA",
        "global_code": "87G8M2VH+9G"
      },
      "price_level": 2,
      "rating": 2.6,
      "reference": "ChIJGV4IHLhbwokRoVd3p-Ml4vM",
      "scope": "GOOGLE",
      "types": [
        "drugstore",
        "convenience_store",
        "clothing_store",
        "health",
        "food",
        "store",
        "point_of_interest",
        "establishment"
      ],
      "user_ratings_total": 112,
      "vicinity": "379 Myrtle Avenue, Brooklyn"
    },
    {
      "business_status": "OPERATIONAL",
      "geometry": {
        "location": {
          "lat": 40.6930292,
          "lng": -73.9700056
        },
        "viewport": {
          "northeast": {
            "lat": 40.69442078029151,
            "lng": -73.96857091970848
          },
          "southwest": {
            "lat": 40.69172281970851,
            "lng": -73.9712688802915
          }
        }
      },
      "icon": "https://maps.gstatic.com/mapfiles/place_api/icons/v1/png_71/restaurant-71.png",
      "icon_background_color": "#FF9E67",
      "icon_mask_base_uri": "https://maps.gstatic.com/mapfiles/place_api/icons/v2/restaurant_pinlet",
      "name": "Subway",
      "opening_hours": {
        "open_now": true
      },
      "photos": [
        {
          "height": 2448,
          "html_attributions": [
            "<a href=\"https://maps.google.com/maps/contrib/108797309755825154694\">Alessandro Frati</a>"
          ],
          "photo_reference": "AeJbb3ctOqmP2BOrEG5S7_Qi58YkFjDmQ6He3cpZzGF3EmkkolxdBTnjvbQotLY3b_wS9_vP57FCPhmfcZJcgqMGVBCof_MPpzLlLlFrteb6-UI2C2g1pOeBvSir7vCm1mP8ZybRAIWhBj2GlIRfbH2Wzh7MEaNw7RkADbNSr1p43amCnFIE",
          "width": 3264
        }
      ],
      "place_id": "ChIJYZB-E7hbwokRLiL6-1_g7Ss",
      "plus_code": {
        "compound_code": "M2VH+6X New York, NY, USA",
        "global_code": "87G8M2VH+6X"
      },
      "price_level": 1,
      "rating": 3.3,
      "reference": "ChIJYZB-E7hbwokRLiL6-1_g7Ss",
      "scope": "GOOGLE",
      "types": [
        "meal_takeaway",
        "restaurant",
        "food",
        "point_of_interest",
        "establishment"
      ],
      "user_ratings_total": 139,
      "vicinity": "400 Myrtle Avenue, Brooklyn"
    },
    {
      "business_status": "OPERATIONAL",
      "geometry": {
        "location": {
          "lat": 40.6990661,
          "lng": -73.9769105
        },
        "viewport": {
          "northeast": {
            "lat": 40.7003410302915,
            "lng": -73.97567041970849
          },
          "southwest": {
            "lat": 40.6976430697085,
            "lng": -73.97836838029151
          }
        }
      },
      "icon": "https://maps.gstatic.com/mapfiles/place_api/icons/v1/png_71/generic_business-71.png",
      "icon_background_color": "#7B9EB0",
      "icon_mask_base_uri": "https://maps.gstatic.com/mapfiles/place_api/icons/v2/generic_pinlet",
      "name": "IA Construction Management",
      "opening_hours": {
        "open_now": false
      },
      "place_id": "ChIJIVm7PjFawokRK2Vl7tI8qUg",
      "plus_code": {
        "compound_code": "M2XF+J6 New York, NY, USA",
        "global_code": "87G8M2XF+J6"
      },
      "rating": 5,
      "reference": "ChIJIVm7PjFawokRK2Vl7tI8qUg",
      "scope": "GOOGLE",
      "types": [
        "general_contractor",
        "point_of_interest",
        "establishment"
      ],
      "user_ratings_total": 1,
      "vicinity": "Building 132, 63 Flushing Avenue Building 280, Suite 804, Brooklyn"
    },
    {
      "business_status": "OPERATIONAL",
      "geometry": {
        "location": {
          "lat": 40.69686240000001,
          "lng": -73.9723486
        },
        "viewport": {
          "northeast": {
            "lat": 40.6982163302915,
            "lng": -73.9711264697085
          },
          "southwest": {
            "lat": 40.6955183697085,
            "lng": -73.9738244302915
          }
        }
      },
      "icon": "https://maps.gstatic.com/mapfiles/place_api/icons/v1/png_71/school-71.png",
      "icon_background_color": "#7B9EB0",
      "icon_mask_base_uri": "https://maps.gstatic.com/mapfiles/place_api/icons/v2/school_pinlet",
      "name": "Greene Hill School",
      "photos": [
        {
          "height": 522,
          "html_attributions": [
            "<a href=\"https://maps.google.com/maps/contrib/113329825629377700389\">Greene Hill School</a>"
          ],
          "photo_reference": "AeJbb3f60Cq2pl4FDBrF9mhKsC7y233fxdUVOEbBHuA63IzFYVSIMEkq8GdInALyYJmEov1JmuuFASUqjh6xVVFtVw9A7ydpSiI4LcPgeRvYuh7yaJX4HqNlz19KcyQsu7mTXIITls__YrdVkJeIOSUxn53vmB8lBHBQYNSKfJZPB6GIiAXT",
          "width": 827
        }
      ],
      "place_id": "ChIJeW9NYMhbwokRCpADzpttDE4",
      "plus_code": {
        "compound_code": "M2WH+P3 Brooklyn, NY, USA",
        "global_code": "87G8M2WH+P3"
      },
      "rating": 4.8,
      "reference": "ChIJeW9NYMhbwokRCpADzpttDE4",
      "scope": "GOOGLE",
      "types": [
        "primary_school",
        "school",
        "point_of_interest",
        "establishment"
      ],
      "user_ratings_total": 5,
      "vicinity": "39 Adelphi Street, Brooklyn"
    },
    {
      "business_status": "OPERATIONAL",
      "geometry": {
        "location": {
          "lat": 40.6987286,
          "lng": -73.9731376
        },
        "viewport": {
          "northeast": {
            "lat": 40.7000790302915,
            "lng": -73.9718468697085
          },
          "southwest": {
            "lat": 40.69738106970851,
            "lng": -73.9745448302915
          }
        }
      },
      "icon": "https://maps.gstatic.com/mapfiles/place_api/icons/v1/png_71/generic_business-71.png",
      "icon_background_color": "#7B9EB0",
      "icon_mask_base_uri": "https://maps.gstatic.com/mapfiles/place_api/icons/v2/generic_pinlet",
      "name": "Everyday Import & Export Inc",
      "place_id": "ChIJy4PYQMlbwokRlEf2oeQ7fys",
      "plus_code": {
        "compound_code": "M2XG+FP Brooklyn, NY, USA",
        "global_code": "87G8M2XG+FP"
      },
      "reference": "ChIJy4PYQMlbwokRlEf2oeQ7fys",
      "scope": "GOOGLE",
      "types": [
        "point_of_interest",
        "establishment"
      ],
      "vicinity": "63 Flushing Avenue #308, Brooklyn"
    },
    {
      "business_status": "OPERATIONAL",
      "geometry": {
        "location": {
          "lat": 40.6943613,
          "lng": -73.97160699999999
        },
        "viewport": {
          "northeast": {
            "lat": 40.6957930302915,
            "lng": -73.97001871970849
          },
          "southwest": {
            "lat": 40.69309506970851,
            "lng": -73.97271668029151
          }
        }
      },
      "icon": "https://maps.gstatic.com/mapfiles/place_api/icons/v1/png_71/school-71.png",
      "icon_background_color": "#7B9EB0",
      "icon_mask_base_uri": "https://maps.gstatic.com/mapfiles/place_api/icons/v2/school_pinlet",
      "name": "P.S. 046 Edward C. Blum",
      "opening_hours": {
        "open_now": false
      },
      "place_id": "ChIJqYgEBMhbwokR-ryFqg5ZeD4",
      "plus_code": {
        "compound_code": "M2VH+P9 New York, NY, USA",
        "global_code": "87G8M2VH+P9"
      },
      "rating": 3.8,
      "reference": "ChIJqYgEBMhbwokR-ryFqg5ZeD4",
      "scope": "GOOGLE",
      "types": [
        "primary_school",
        "school",
        "point_of_interest",
        "establishment"
      ],
      "user_ratings_total": 8,
      "vicinity": "100 Clermont Avenue, Brooklyn"
    },
    {
      "business_status": "CLOSED_TEMPORARILY",
      "geometry": {
        "location": {
          "lat": 40.69854689999999,
          "lng": -73.9753052
        },
        "viewport": {
          "northeast": {
            "lat": 40.69965543029149,
            "lng": -73.97397381970849
          },
          "southwest": {
            "lat": 40.69695746970849,
            "lng": -73.97667178029151
          }
        }
      },
      "icon": "https://maps.gstatic.com/mapfiles/place_api/icons/v1/png_71/generic_business-71.png",
      "icon_background_color": "#7B9EB0",
      "icon_mask_base_uri": "https://maps.gstatic.com/mapfiles/place_api/icons/v2/generic_pinlet",
      "name": "IV Design Corporation",
      "permanently_closed": true,
      "place_id": "ChIJAQAAQMVbwokRbnDdGWy9kgc",
      "plus_code": {
        "compound_code": "M2XF+CV Brooklyn, NY, USA",
        "global_code": "87G8M2XF+CV"
      },
      "reference": "ChIJAQAAQMVbwokRbnDdGWy9kgc",
      "scope": "GOOGLE",
      "types": [
        "point_of_interest",
        "establishment"
      ],
      "vicinity": "63 Flushing Avenue, Brooklyn"
    },
    {
      "business_status": "CLOSED_TEMPORARILY",
      "geometry": {
        "location": {
          "lat": 40.69854689999999,
          "lng": -73.9753052
        },
        "viewport": {
          "northeast": {
            "lat": 40.69965543029149,
            "lng": -73.97397381970849
          },
          "southwest": {
            "lat": 40.69695746970849,
            "lng": -73.97667178029151
          }
        }
      },
      "icon": "https://maps.gstatic.com/mapfiles/place_api/icons/v1/png_71/generic_business-71.png",
      "icon_background_color": "#7B9EB0",
      "icon_mask_base_uri": "https://maps.gstatic.com/mapfiles/place_api/icons/v2/generic_pinlet",
      "name": "Active International Marketing",
      "permanently_closed": true,
      "place_id": "ChIJy4PYQMlbwokRk9wvIsfTWEE",
      "plus_code": {
        "compound_code": "M2XF+CV Brooklyn, NY, USA",
        "global_code": "87G8M2XF+CV"
      },
      "reference": "ChIJy4PYQMlbwokRk9wvIsfTWEE",
      "scope": "GOOGLE",
      "types": [
        "point_of_interest",
        "establishment"
      ],
      "vicinity": "63 Flushing Avenue, Brooklyn"
    },
    {
      "business_status": "OPERATIONAL",
      "geometry": {
        "location": {
          "lat": 40.69854689999999,
          "lng": -73.9753052
        },
        "viewport": {
          "northeast": {
            "lat": 40.69965543029149,
            "lng": -73.97397381970849
          },
          "southwest": {
            "lat": 40.69695746970849,
            "lng": -73.97667178029151
          }
        }
      },
      "icon": "https://maps.gstatic.com/mapfiles/place_api/icons/v1/png_71/generic_business-71.png",
      "icon_background_color": "#7B9EB0",
      "icon_mask_base_uri": "https://maps.gstatic.com/mapfiles/place_api/icons/v2/generic_pinlet",
      "name": "Bailey Humbert Heck",
      "place_id": "ChIJn71GEclbwokRuChQV4aJQGY",
      "plus_code": {
        "compound_code": "M2XF+CV Brooklyn, NY, USA",
        "global_code": "87G8M2XF+CV"
      },
      "reference": "ChIJn71GEclbwokRuChQV4aJQGY",
      "scope": "GOOGLE",
      "types": [
        "point_of_interest",
        "establishment"
      ],
      "vicinity": "63 Flushing Avenue, Brooklyn"
    },
    {
      "business_status": "OPERATIONAL",
      "geometry": {
        "location": {
          "lat": 40.6988463,
          "lng": -73.9730987
        },
        "viewport": {
          "northeast": {
            "lat": 40.7001608302915,
            "lng": -73.9717524197085
          },
          "southwest": {
            "lat": 40.6974628697085,
            "lng": -73.97445038029151
          }
        }
      },
      "icon": "https://maps.gstatic.com/mapfiles/place_api/icons/v1/png_71/generic_business-71.png",
      "icon_background_color": "#7B9EB0",
      "icon_mask_base_uri": "https://maps.gstatic.com/mapfiles/place_api/icons/v2/generic_pinlet",
      "name": "BMB Sales Manufacturers Reps",
      "place_id": "ChIJy4PYQMlbwokRSyWoLu6HY5Y",
      "plus_code": {
        "compound_code": "M2XG+GQ New York, NY, USA",
        "global_code": "87G8M2XG+GQ"
      },
      "reference": "ChIJy4PYQMlbwokRSyWoLu6HY5Y",
      "scope": "GOOGLE",
      "types": [
        "point_of_interest",
        "establishment"
      ],
      "vicinity": "63 Flushing Avenue building 249, Brooklyn"
    },
    {
      "business_status": "CLOSED_TEMPORARILY",
      "geometry": {
        "location": {
          "lat": 40.6986462,
          "lng": -73.9753812
        },
        "viewport": {
          "northeast": {
            "lat": 40.7000749802915,
            "lng": -73.9738997697085
          },
          "southwest": {
            "lat": 40.6973770197085,
            "lng": -73.9765977302915
          }
        }
      },
      "icon": "https://maps.gstatic.com/mapfiles/place_api/icons/v1/png_71/generic_business-71.png",
      "icon_background_color": "#7B9EB0",
      "icon_mask_base_uri": "https://maps.gstatic.com/mapfiles/place_api/icons/v2/generic_pinlet",
      "name": "Spectraserv Inc",
      "permanently_closed": true,
      "place_id": "ChIJbYKZPMlbwokRRAYGHcteglA",
      "plus_code": {
        "compound_code": "M2XF+FR Brooklyn, NY, USA",
        "global_code": "87G8M2XF+FR"
      },
      "reference": "ChIJbYKZPMlbwokRRAYGHcteglA",
      "scope": "GOOGLE",
      "types": [
        "point_of_interest",
        "establishment"
      ],
      "vicinity": "63 Flushing Avenue, Brooklyn"
    },
    {
      "business_status": "OPERATIONAL",
      "geometry": {
        "location": {
          "lat": 40.69811,
          "lng": -73.97120749999999
        },
        "viewport": {
          "northeast": {
            "lat": 40.69935493029151,
            "lng": -73.96979711970849
          },
          "southwest": {
            "lat": 40.69665696970851,
            "lng": -73.9724950802915
          }
        }
      },
      "icon": "https://maps.gstatic.com/mapfiles/place_api/icons/v1/png_71/generic_business-71.png",
      "icon_background_color": "#7B9EB0",
      "icon_mask_base_uri": "https://maps.gstatic.com/mapfiles/place_api/icons/v2/generic_pinlet",
      "name": "SITU",
      "opening_hours": {
        "open_now": false
      },
      "photos": [
        {
          "height": 1365,
          "html_attributions": [
            "<a href=\"https://maps.google.com/maps/contrib/116197596885796217613\">SITU</a>"
          ],
          "photo_reference": "AeJbb3dh34BeCdpMqvlmRiT_o-9gSDHtyz0-Fxx7Hfa9c1QTVx7vkvTqo2PQurYwFZoWxfrNxslf5YY55nKd4RqEjNUSLS0SGbw4_pNaSwQL2h6zFRnf0zt7jFn58GVXBFgZgasU9jlrCZgJN3H-pEDoNjc8dXqxOUQy9HgjnPqr70c1yE2O",
          "width": 2048
        }
      ],
      "place_id": "ChIJiRPETzJawokRtMx-17XGIhY",
      "plus_code": {
        "compound_code": "M2XH+6G New York, NY, USA",
        "global_code": "87G8M2XH+6G"
      },
      "rating": 5,
      "reference": "ChIJiRPETzJawokRtMx-17XGIhY",
      "scope": "GOOGLE",
      "types": [
        "point_of_interest",
        "establishment"
      ],
      "user_ratings_total": 4,
      "vicinity": "141 Flushing Avenue building 77 ste 508, Brooklyn"
    },
    {
      "business_status": "OPERATIONAL",
      "geometry": {
        "location": {
          "lat": 40.69544010000001,
          "lng": -73.9764715
        },
        "viewport": {
          "northeast": {
            "lat": 40.6968285302915,
            "lng": -73.97502356970851
          },
          "southwest": {
            "lat": 40.6941305697085,
            "lng": -73.97772153029152
          }
        }
      },
      "icon": "https://maps.gstatic.com/mapfiles/place_api/icons/v1/png_71/generic_business-71.png",
      "icon_background_color": "#7B9EB0",
      "icon_mask_base_uri": "https://maps.gstatic.com/mapfiles/place_api/icons/v2/generic_pinlet",
      "name": "Cumberland Diagnostic & Treatment: Opoku Evelyn MD",
      "photos": [
        {
          "height": 3024,
          "html_attributions": [
            "<a href=\"https://maps.google.com/maps/contrib/106709796805518094581\">Angel Arizmendi</a>"
          ],
          "photo_reference": "AeJbb3cLWHbKG_gJW47fTIY7VzLpJWFwzN3TSZYLznb-aH1AULDhl_AjT8wj4HKxOX1iD8OOTVgPNe-X67KM9KAv4_bdK44cot0MN46rUoyRT4sYtSaLh58Y8mU5eSC1o8DK3ani2mnUHNbsugrcW8YkMF53bu_cVfkM4dJulZpG-_l0kwbA",
          "width": 4032
        }
      ],
      "place_id": "ChIJZSAb8MlbwokRy1Uw_oXtDKk",
      "plus_code": {
        "compound_code": "M2WF+5C New York, NY, USA",
        "global_code": "87G8M2WF+5C"
      },
      "rating": 4.3,
      "reference": "ChIJZSAb8MlbwokRy1Uw_oXtDKk",
      "scope": "GOOGLE",
      "types": [
        "doctor",
        "health",
        "point_of_interest",
        "establishment"
      ],
      "user_ratings_total": 8,
      "vicinity": "100 North Portland Avenue, Brooklyn"
    },
    {
      "business_status": "OPERATIONAL",
      "geometry": {
        "location": {
          "lat": 40.69323609999999,
          "lng": -73.9690528
        },
        "viewport": {
          "northeast": {
            "lat": 40.6946036802915,
            "lng": -73.96762241970849
          },
          "southwest": {
            "lat": 40.6919057197085,
            "lng": -73.9703203802915
          }
        }
      },
      "icon": "https://maps.gstatic.com/mapfiles/place_api/icons/v1/png_71/bar-71.png",
      "icon_background_color": "#FF9E67",
      "icon_mask_base_uri": "https://maps.gstatic.com/mapfiles/place_api/icons/v2/bar_pinlet",
      "name": "Putnam's Pub & Cooker",
      "opening_hours": {
        "open_now": true
      },
      "photos": [
        {
          "height": 4000,
          "html_attributions": [
            "<a href=\"https://maps.google.com/maps/contrib/103438886012267267494\">Putnam&#39;s Pub &amp; Cooker</a>"
          ],
          "photo_reference": "AeJbb3flPgF3nn71bkCxJ5gYgUHyJPZinK2qiHw8q69cTr_N7qBw4m3b4xSXTz9kOMMcc0Nt0-wHHVkS_GRK--VJ7Z1VN9MM4I0DmqHZX5MX4f1_gk5f5TTccUUP0PVqH7cFTqvREtArqQLXWQofqcyK7h2C_feCSWIGbIMXd87xlsEENVQM",
          "width": 6000
        }
      ],
      "place_id": "ChIJeXCwerhbwokRtUOhu4zzZzs",
      "plus_code": {
        "compound_code": "M2VJ+79 Brooklyn, NY, USA",
        "global_code": "87G8M2VJ+79"
      },
      "price_level": 2,
      "rating": 4.4,
      "reference": "ChIJeXCwerhbwokRtUOhu4zzZzs",
      "scope": "GOOGLE",
      "types": [
        "bar",
        "restaurant",
        "food",
        "point_of_interest",
        "establishment"
      ],
      "user_ratings_total": 714,
      "vicinity": "419 Myrtle Avenue, Brooklyn"
    },
    {
      "business_status": "CLOSED_TEMPORARILY",
      "geometry": {
        "location": {
          "lat": 40.6986462,
          "lng": -73.9753812
        },
        "viewport": {
          "northeast": {
            "lat": 40.7000749802915,
            "lng": -73.9738997697085
          },
          "southwest": {
            "lat": 40.6973770197085,
            "lng": -73.9765977302915
          }
        }
      },
      "icon": "https://maps.gstatic.com/mapfiles/place_api/icons/v1/png_71/generic_business-71.png",
      "icon_background_color": "#7B9EB0",
      "icon_mask_base_uri": "https://maps.gstatic.com/mapfiles/place_api/icons/v2/generic_pinlet",
      "name": "European Art Design",
      "permanently_closed": true,
      "place_id": "ChIJbYKZPMlbwokRfYGp84S3XGs",
      "plus_code": {
        "compound_code": "M2XF+FR Brooklyn, NY, USA",
        "global_code": "87G8M2XF+FR"
      },
      "reference": "ChIJbYKZPMlbwokRfYGp84S3XGs",
      "scope": "GOOGLE",
      "types": [
        "point_of_interest",
        "establishment"
      ],
      "vicinity": "63 Flushing Avenue, Brooklyn"
    },
    {
      "business_status": "CLOSED_TEMPORARILY",
      "geometry": {
        "location": {
          "lat": 40.69451399999999,
          "lng": -73.971642
        },
        "viewport": {
          "northeast": {
            "lat": 40.6958597302915,
            "lng": -73.9700362197085
          },
          "southwest": {
            "lat": 40.6931617697085,
            "lng": -73.97273418029151
          }
        }
      },
      "icon": "https://maps.gstatic.com/mapfiles/place_api/icons/v1/png_71/generic_business-71.png",
      "icon_background_color": "#7B9EB0",
      "icon_mask_base_uri": "https://maps.gstatic.com/mapfiles/place_api/icons/v2/generic_pinlet",
      "name": "Temco Service Industries Inc",
      "permanently_closed": true,
      "place_id": "ChIJqYgEBMhbwokRW5rxnV7630o",
      "plus_code": {
        "compound_code": "M2VH+R8 New York, NY, USA",
        "global_code": "87G8M2VH+R8"
      },
      "reference": "ChIJqYgEBMhbwokRW5rxnV7630o",
      "scope": "GOOGLE",
      "types": [
        "school",
        "point_of_interest",
        "establishment"
      ],
      "vicinity": "100 Clermont Avenue, Brooklyn"
    },
    {
      "business_status": "OPERATIONAL",
      "geometry": {
        "location": {
          "lat": 40.6982066,
          "lng": -73.9726592
        },
        "viewport": {
          "northeast": {
            "lat": 40.6994908802915,
            "lng": -73.9713144697085
          },
          "southwest": {
            "lat": 40.69679291970851,
            "lng": -73.97401243029151
          }
        }
      },
      "icon": "https://maps.gstatic.com/mapfiles/place_api/icons/v1/png_71/generic_business-71.png",
      "icon_background_color": "#7B9EB0",
      "icon_mask_base_uri": "https://maps.gstatic.com/mapfiles/place_api/icons/v2/generic_pinlet",
      "name": "Bien Hecho",
      "opening_hours": {
        "open_now": false
      },
      "place_id": "ChIJbYKZPMlbwokR7q7bdgg3tEQ",
      "plus_code": {
        "compound_code": "M2XG+7W Brooklyn, NY, USA",
        "global_code": "87G8M2XG+7W"
      },
      "rating": 2.3,
      "reference": "ChIJbYKZPMlbwokR7q7bdgg3tEQ",
      "scope": "GOOGLE",
      "types": [
        "point_of_interest",
        "establishment"
      ],
      "user_ratings_total": 3,
      "vicinity": "Building 3, 63 Flushing Avenue, Brooklyn"
    },
    {
      "business_status": "OPERATIONAL",
      "geometry": {
        "location": {
          "lat": 40.69504,
          "lng": -73.9776992
        },
        "viewport": {
          "northeast": {
            "lat": 40.69637083029149,
            "lng": -73.9765485697085
          },
          "southwest": {
            "lat": 40.69367286970849,
            "lng": -73.97924653029152
          }
        }
      },
      "icon": "https://maps.gstatic.com/mapfiles/place_api/icons/v1/png_71/school-71.png",
      "icon_background_color": "#7B9EB0",
      "icon_mask_base_uri": "https://maps.gstatic.com/mapfiles/place_api/icons/v2/school_pinlet",
      "name": "Community Roots Charter School - Elementary School Campus",
      "opening_hours": {
        "open_now": false
      },
      "photos": [
        {
          "height": 4032,
          "html_attributions": [
            "<a href=\"https://maps.google.com/maps/contrib/104164383584758029287\">Cham Rocka</a>"
          ],
          "photo_reference": "AeJbb3cJI_JKf7vlUScb_Iv2noJKE9GziGCByz4r4Bx4b0JyximZ1-eiA4HqkbPpvuKk5u9L7_xyy2Wdthv21LKnd32700eoSNoqDXRcGJnz8bP7a6Hz_ijNevxwbDl5v753nN4Ooth4kc95VDV1H3oYKYIZuIDer7Po1hlvTfKwpJX3Hgqi",
          "width": 3024
        }
      ],
      "place_id": "ChIJe_Qp8LVbwokRvbhQ3maWG3w",
      "plus_code": {
        "compound_code": "M2WC+2W New York, NY, USA",
        "global_code": "87G8M2WC+2W"
      },
      "rating": 4.5,
      "reference": "ChIJe_Qp8LVbwokRvbhQ3maWG3w",
      "scope": "GOOGLE",
      "types": [
        "primary_school",
        "school",
        "point_of_interest",
        "establishment"
      ],
      "user_ratings_total": 13,
      "vicinity": "51 Saint Edwards Street, Brooklyn"
    },
    {
      "business_status": "OPERATIONAL",
      "geometry": {
        "location": {
          "lat": 40.6930805,
          "lng": -73.97333809999999
        },
        "viewport": {
          "northeast": {
            "lat": 40.6945227802915,
            "lng": -73.97198656970848
          },
          "southwest": {
            "lat": 40.6918248197085,
            "lng": -73.9746845302915
          }
        }
      },
      "icon": "https://maps.gstatic.com/mapfiles/place_api/icons/v1/png_71/generic_business-71.png",
      "icon_background_color": "#7B9EB0",
      "icon_mask_base_uri": "https://maps.gstatic.com/mapfiles/place_api/icons/v2/generic_pinlet",
      "name": "Domino's Pizza",
      "opening_hours": {
        "open_now": true
      },
      "photos": [
        {
          "height": 4032,
          "html_attributions": [
            "<a href=\"https://maps.google.com/maps/contrib/102666179909302270183\">Lisa C</a>"
          ],
          "photo_reference": "AeJbb3eJ4mO2EPZDojKXffGKzt5qaJMUOAcC3Sl-_JMwyqo0YbUv0pAWH_lNjjtZHgakygSrxF1g0i3DUOFZAdj4gaDjsHokQCh-P9y5B_ljfpb9sgxl8ZFbRMdsRIBrtr4Lp6Oym3erc96B3YzgT6Tw326tn9mZMVv6OULT4RyQ49ygJRjB",
          "width": 3024
        }
      ],
      "place_id": "ChIJk14KuLdbwokRaJ4QwB3yHcY",
      "plus_code": {
        "compound_code": "M2VG+6M New York, NY, USA",
        "global_code": "87G8M2VG+6M"
      },
      "price_level": 1,
      "rating": 2.6,
      "reference": "ChIJk14KuLdbwokRaJ4QwB3yHcY",
      "scope": "GOOGLE",
      "types": [
        "meal_delivery",
        "meal_takeaway",
        "restaurant",
        "food",
        "point_of_interest",
        "establishment"
      ],
      "user_ratings_total": 388,
      "vicinity": "328 Myrtle Avenue, Brooklyn"
    },
    {
      "business_status": "CLOSED_TEMPORARILY",
      "geometry": {
        "location": {
          "lat": 40.6948508,
          "lng": -73.97096429999999
        },
        "viewport": {
          "northeast": {
            "lat": 40.6961868302915,
            "lng": -73.96972736970848
          },
          "southwest": {
            "lat": 40.69348886970851,
            "lng": -73.9724253302915
          }
        }
      },
      "icon": "https://maps.gstatic.com/mapfiles/place_api/icons/v1/png_71/school-71.png",
      "icon_background_color": "#7B9EB0",
      "icon_mask_base_uri": "https://maps.gstatic.com/mapfiles/place_api/icons/v2/school_pinlet",
      "name": "Guitar Lessons with Matthew Albeck",
      "permanently_closed": true,
      "place_id": "ChIJO968GBtcwokRSThpototVVo",
      "plus_code": {
        "compound_code": "M2VH+WJ Brooklyn, NY, USA",
        "global_code": "87G8M2VH+WJ"
      },
      "rating": 5,
      "reference": "ChIJO968GBtcwokRSThpototVVo",
      "scope": "GOOGLE",
      "types": [
        "school",
        "point_of_interest",
        "establishment"
      ],
      "user_ratings_total": 1,
      "vicinity": "95 Clermont Avenue, Brooklyn"
    },
    {
      "business_status": "OPERATIONAL",
      "geometry": {
        "location": {
          "lat": 40.6930211,
          "lng": -73.9714156
        },
        "viewport": {
          "northeast": {
            "lat": 40.6944576802915,
            "lng": -73.97009086970849
          },
          "southwest": {
            "lat": 40.6917597197085,
            "lng": -73.97278883029149
          }
        }
      },
      "icon": "https://maps.gstatic.com/mapfiles/place_api/icons/v1/png_71/restaurant-71.png",
      "icon_background_color": "#FF9E67",
      "icon_mask_base_uri": "https://maps.gstatic.com/mapfiles/place_api/icons/v2/restaurant_pinlet",
      "name": "Kinara",
      "opening_hours": {
        "open_now": true
      },
      "photos": [
        {
          "height": 810,
          "html_attributions": [
            "<a href=\"https://maps.google.com/maps/contrib/106972725881552287287\">Janson Barrimore</a>"
          ],
          "photo_reference": "AeJbb3fE1wlJ6Y5eADhgaj_29AnuE0sCS8QSl1lhvoqQEXjZV-HsyFaqqXmEXxhzNf5ohAp_dqt9f8mUOZPoUEHGPSjnfN1Hmhtjmg3FdTgn1MWwpQDhjPEycjYnUc_e6pweDZ23U_pFjgP8BqKTqiXUMvrilwog7HE_l6bRTUKsq02y4dPm",
          "width": 1080
        }
      ],
      "place_id": "ChIJH39N9LdbwokRhuheE2lZtkE",
      "plus_code": {
        "compound_code": "M2VH+6C New York, NY, USA",
        "global_code": "87G8M2VH+6C"
      },
      "price_level": 2,
      "rating": 3.8,
      "reference": "ChIJH39N9LdbwokRhuheE2lZtkE",
      "scope": "GOOGLE",
      "types": [
        "restaurant",
        "food",
        "point_of_interest",
        "establishment"
      ],
      "user_ratings_total": 58,
      "vicinity": "368 Myrtle Avenue, Brooklyn"
    },
    {
      "business_status": "OPERATIONAL",
      "geometry": {
        "location": {
          "lat": 40.6982207,
          "lng": -73.9723447
        },
        "viewport": {
          "northeast": {
            "lat": 40.6994920302915,
            "lng": -73.9710008197085
          },
          "southwest": {
            "lat": 40.6967940697085,
            "lng": -73.9736987802915
          }
        }
      },
      "icon": "https://maps.gstatic.com/mapfiles/place_api/icons/v1/png_71/generic_business-71.png",
      "icon_background_color": "#7B9EB0",
      "icon_mask_base_uri": "https://maps.gstatic.com/mapfiles/place_api/icons/v2/generic_pinlet",
      "name": "Ruckel Manufacturing. Co.",
      "place_id": "ChIJy4PYQMlbwokR6ZK4LDUzDps",
      "plus_code": {
        "compound_code": "M2XH+73 Brooklyn, NY, USA",
        "global_code": "87G8M2XH+73"
      },
      "reference": "ChIJy4PYQMlbwokR6ZK4LDUzDps",
      "scope": "GOOGLE",
      "types": [
        "point_of_interest",
        "establishment"
      ],
      "vicinity": "63 Flushing Avenue Bldg 3, Brooklyn"
    },
    {
      "business_status": "OPERATIONAL",
      "geometry": {
        "location": {
          "lat": 40.6962047,
          "lng": -73.9681279
        },
        "viewport": {
          "northeast": {
            "lat": 40.6974649302915,
            "lng": -73.96679956970848
          },
          "southwest": {
            "lat": 40.6947669697085,
            "lng": -73.96949753029149
          }
        }
      },
      "icon": "https://maps.gstatic.com/mapfiles/place_api/icons/v1/png_71/generic_business-71.png",
      "icon_background_color": "#7B9EB0",
      "icon_mask_base_uri": "https://maps.gstatic.com/mapfiles/place_api/icons/v2/generic_pinlet",
      "name": "Brooklyn Creative League",
      "opening_hours": {
        "open_now": true
      },
      "photos": [
        {
          "height": 1440,
          "html_attributions": [
            "<a href=\"https://maps.google.com/maps/contrib/111185763059405194224\">Brooklyn Creative League</a>"
          ],
          "photo_reference": "AeJbb3dM42AyraH6wNHymQs0YDCluKV0N6GLPGhHfXuokYe29Iimt1NLuWGOHwPDKlREDIAv27g3RnajmO2MvdL4FF43K5x4EUzct33EVc2FBucSIAwUSB_unY63a_iZmeh0YWL33nDzeksd0n76NHjLJvygldhJRw7QYdrrVP868Q3wB8Bf",
          "width": 2560
        }
      ],
      "place_id": "ChIJ30CebVVawokRlZoezfcLlyU",
      "plus_code": {
        "compound_code": "M2WJ+FP New York, NY, USA",
        "global_code": "87G8M2WJ+FP"
      },
      "rating": 4.8,
      "reference": "ChIJ30CebVVawokRlZoezfcLlyU",
      "scope": "GOOGLE",
      "types": [
        "real_estate_agency",
        "point_of_interest",
        "establishment"
      ],
      "user_ratings_total": 36,
      "vicinity": "275 Park Avenue, Brooklyn"
    },
    {
      "business_status": "OPERATIONAL",
      "geometry": {
        "location": {
          "lat": 40.6947705,
          "lng": -73.9764222
        },
        "viewport": {
          "northeast": {
            "lat": 40.6964823302915,
            "lng": -73.97497951970848
          },
          "southwest": {
            "lat": 40.6937843697085,
            "lng": -73.97767748029149
          }
        }
      },
      "icon": "https://maps.gstatic.com/mapfiles/place_api/icons/v1/png_71/generic_business-71.png",
      "icon_background_color": "#7B9EB0",
      "icon_mask_base_uri": "https://maps.gstatic.com/mapfiles/place_api/icons/v2/generic_pinlet",
      "name": "Auburn Assessment Center",
      "photos": [
        {
          "height": 4608,
          "html_attributions": [
            "<a href=\"https://maps.google.com/maps/contrib/113525491460781236829\">Dominick Sinclair</a>"
          ],
          "photo_reference": "AeJbb3eiscnV43B2TMrVA-uTKf1u_PoaJAxz4eoHDW1qr0rYoGb4OgzWs-5LWTZNMO7rjsgicQItQEyUQ4OPQAVqAG5evSDZ5ruq2lDLs1Qp-YSQJt-W6qVO3h3mM6FrjcPhGy81HhHnqSamhTOsHDLSawmnBYK6nG3BAz6mxsMGAdCPW1F9",
          "width": 3456
        }
      ],
      "place_id": "ChIJa5MiG7ZbwokRzzwFEyBl0to",
      "plus_code": {
        "compound_code": "M2VF+WC Brooklyn, NY, USA",
        "global_code": "87G8M2VF+WC"
      },
      "rating": 2.5,
      "reference": "ChIJa5MiG7ZbwokRzzwFEyBl0to",
      "scope": "GOOGLE",
      "types": [
        "point_of_interest",
        "establishment"
      ],
      "user_ratings_total": 85,
      "vicinity": "39 Auburn Place, Brooklyn"
    },
    {
      "business_status": "OPERATIONAL",
      "geometry": {
        "location": {
          "lat": 40.698642,
          "lng": -73.97503999999999
        },
        "viewport": {
          "northeast": {
            "lat": 40.7000065802915,
            "lng": -73.97366516970848
          },
          "southwest": {
            "lat": 40.6973086197085,
            "lng": -73.9763631302915
          }
        }
      },
      "icon": "https://maps.gstatic.com/mapfiles/place_api/icons/v1/png_71/shopping-71.png",
      "icon_background_color": "#4B96F3",
      "icon_mask_base_uri": "https://maps.gstatic.com/mapfiles/place_api/icons/v2/shopping_pinlet",
      "name": "Shop Bedding",
      "opening_hours": {
        "open_now": false
      },
      "place_id": "ChIJbYKZPMlbwokRuR2Rb1Flv_E",
      "plus_code": {
        "compound_code": "M2XF+FX Brooklyn, NY, USA",
        "global_code": "87G8M2XF+FX"
      },
      "rating": 5,
      "reference": "ChIJbYKZPMlbwokRuR2Rb1Flv_E",
      "scope": "GOOGLE",
      "types": [
        "home_goods_store",
        "store",
        "point_of_interest",
        "establishment"
      ],
      "user_ratings_total": 1,
      "vicinity": "63 Flushing Avenue # 331, Brooklyn"
    },
    {
      "business_status": "OPERATIONAL",
      "geometry": {
        "location": {
          "lat": 40.6963143,
          "lng": -73.9726129
        },
        "viewport": {
          "northeast": {
            "lat": 40.6976024802915,
            "lng": -73.97128796970851
          },
          "southwest": {
            "lat": 40.6949045197085,
            "lng": -73.97398593029152
          }
        }
      },
      "icon": "https://maps.gstatic.com/mapfiles/place_api/icons/v1/png_71/shopping-71.png",
      "icon_background_color": "#4B96F3",
      "icon_mask_base_uri": "https://maps.gstatic.com/mapfiles/place_api/icons/v2/shopping_pinlet",
      "name": "Bicycle Station",
      "opening_hours": {
        "open_now": true
      },
      "photos": [
        {
          "height": 2268,
          "html_attributions": [
            "<a href=\"https://maps.google.com/maps/contrib/115647033908194984232\">Shmuli Evers</a>"
          ],
          "photo_reference": "AeJbb3ch6Md9tuXph62lffDrRfJrguYwLYZWh8YNK_KNfSnL9qC_HijIXH38L4VIsRYVXJVWz8qntsaYmbOce3R6_B-zOWTStR9ZU6lCgTDQlA8GvQrz1kvSWkqShJR3yCDiYwBSyrpfGZejeuxj-G5Vb0U_Kznw6TZcyzNlJeB4mtnaCbYf",
          "width": 4032
        }
      ],
      "place_id": "ChIJ2RFmZ8hbwokR-8kxQgNxgyA",
      "plus_code": {
        "compound_code": "M2WG+GX Brooklyn, NY, USA",
        "global_code": "87G8M2WG+GX"
      },
      "rating": 4.8,
      "reference": "ChIJ2RFmZ8hbwokR-8kxQgNxgyA",
      "scope": "GOOGLE",
      "types": [
        "bicycle_store",
        "store",
        "point_of_interest",
        "establishment"
      ],
      "user_ratings_total": 156,
      "vicinity": "171 Park Avenue, Brooklyn"
    },
    {
      "business_status": "OPERATIONAL",
      "geometry": {
        "location": {
          "lat": 40.6945977,
          "lng": -73.9729832
        },
        "viewport": {
          "northeast": {
            "lat": 40.69592883029149,
            "lng": -73.9717060197085
          },
          "southwest": {
            "lat": 40.69323086970849,
            "lng": -73.97440398029151
          }
        }
      },
      "icon": "https://maps.gstatic.com/mapfiles/place_api/icons/v1/png_71/generic_business-71.png",
      "icon_background_color": "#7B9EB0",
      "icon_mask_base_uri": "https://maps.gstatic.com/mapfiles/place_api/icons/v2/generic_pinlet",
      "name": "Brooklyn Community Housing & Services",
      "opening_hours": {
        "open_now": true
      },
      "photos": [
        {
          "height": 1732,
          "html_attributions": [
            "<a href=\"https://maps.google.com/maps/contrib/100190500278788159778\">Brooklyn Community Housing &amp; Services</a>"
          ],
          "photo_reference": "AeJbb3dFwAM6xkdf2n5P4Rfa3vUe0cjBbIosmIK9MXellt7Ua0g5mk8gxl_xVAK0NhDSyZ2tYv8bfdfqAhmxOjGWgGBSDtByWq5AzfY2Ls0ewrKbP96Y3POZ1wO9dksr5t70_KnXRNE9lthcDkDinj6OvcWh2Oln4NNj0RqVHVec63riTh9E",
          "width": 2309
        }
      ],
      "place_id": "ChIJnUk6IchbwokRgONBscsMcnM",
      "plus_code": {
        "compound_code": "M2VG+RR New York, NY, USA",
        "global_code": "87G8M2VG+RR"
      },
      "rating": 3.5,
      "reference": "ChIJnUk6IchbwokRgONBscsMcnM",
      "scope": "GOOGLE",
      "types": [
        "point_of_interest",
        "establishment"
      ],
      "user_ratings_total": 17,
      "vicinity": "105 Carlton Avenue, Brooklyn"
    },
    {
      "business_status": "OPERATIONAL",
      "geometry": {
        "location": {
          "lat": 40.6984223,
          "lng": -73.97548499999999
        },
        "viewport": {
          "northeast": {
            "lat": 40.6997434802915,
            "lng": -73.97418001970848
          },
          "southwest": {
            "lat": 40.69704551970851,
            "lng": -73.9768779802915
          }
        }
      },
      "icon": "https://maps.gstatic.com/mapfiles/place_api/icons/v1/png_71/civic_building-71.png",
      "icon_background_color": "#7B9EB0",
      "icon_mask_base_uri": "https://maps.gstatic.com/mapfiles/place_api/icons/v2/civic-bldg_pinlet",
      "name": "New York City Auto Auction",
      "opening_hours": {
        "open_now": false
      },
      "place_id": "ChIJy4PYQMlbwokRLUZKkKIj7i4",
      "plus_code": {
        "compound_code": "M2XF+9R New York, NY, USA",
        "global_code": "87G8M2XF+9R"
      },
      "rating": 4.8,
      "reference": "ChIJy4PYQMlbwokRLUZKkKIj7i4",
      "scope": "GOOGLE",
      "types": [
        "local_government_office",
        "point_of_interest",
        "establishment"
      ],
      "user_ratings_total": 4,
      "vicinity": "63 Flushing Avenue, Brooklyn"
    },
    {
      "business_status": "OPERATIONAL",
      "geometry": {
        "location": {
          "lat": 40.69829119999999,
          "lng": -73.97433850000002
        },
        "viewport": {
          "northeast": {
            "lat": 40.6995073802915,
            "lng": -73.97299871970851
          },
          "southwest": {
            "lat": 40.6968094197085,
            "lng": -73.97569668029152
          }
        }
      },
      "icon": "https://maps.gstatic.com/mapfiles/place_api/icons/v1/png_71/generic_business-71.png",
      "icon_background_color": "#7B9EB0",
      "icon_mask_base_uri": "https://maps.gstatic.com/mapfiles/place_api/icons/v2/generic_pinlet",
      "name": "Brand's Paycheck & HR Services Inc",
      "opening_hours": {
        "open_now": false
      },
      "photos": [
        {
          "height": 720,
          "html_attributions": [
            "<a href=\"https://maps.google.com/maps/contrib/117851081194157908922\">Brand&#39;s Paycheck &amp; HR Services Inc</a>"
          ],
          "photo_reference": "AeJbb3dfzEtjO1h-tc8zKEWEyPy72iJEr07bijuGEQEJI8qKlIv3U723iKyvtRrCQKS2cZGdXv1TAtC2vSlu-9ZHCVRUmxrRmwFJfzTNiml8hBMJ5d2jZAL3wQEW3u4Srs5YueEtbHyk6X8AmdKG_n7jtkdaqokaCWLQ3lTR6O7otJopiURq",
          "width": 1702
        }
      ],
      "place_id": "ChIJbYKZPMlbwokR67XnFMMRgEw",
      "plus_code": {
        "compound_code": "M2XG+87 New York, NY, USA",
        "global_code": "87G8M2XG+87"
      },
      "rating": 4.6,
      "reference": "ChIJbYKZPMlbwokR67XnFMMRgEw",
      "scope": "GOOGLE",
      "types": [
        "finance",
        "point_of_interest",
        "establishment"
      ],
      "user_ratings_total": 19,
      "vicinity": "63 Flushing Avenue #101, Brooklyn"
    },
    {
      "business_status": "OPERATIONAL",
      "geometry": {
        "location": {
          "lat": 40.69833819999999,
          "lng": -73.975393
        },
        "viewport": {
          "northeast": {
            "lat": 40.6996594802915,
            "lng": -73.97408791970848
          },
          "southwest": {
            "lat": 40.6969615197085,
            "lng": -73.9767858802915
          }
        }
      },
      "icon": "https://maps.gstatic.com/mapfiles/place_api/icons/v1/png_71/generic_business-71.png",
      "icon_background_color": "#7B9EB0",
      "icon_mask_base_uri": "https://maps.gstatic.com/mapfiles/place_api/icons/v2/generic_pinlet",
      "name": "Ecologic Solutions",
      "opening_hours": {
        "open_now": false
      },
      "place_id": "ChIJxehNXCRbwokRuLGxlKiCIm0",
      "plus_code": {
        "compound_code": "M2XF+8R Brooklyn, NY, USA",
        "global_code": "87G8M2XF+8R"
      },
      "rating": 5,
      "reference": "ChIJxehNXCRbwokRuLGxlKiCIm0",
      "scope": "GOOGLE",
      "types": [
        "point_of_interest",
        "establishment"
      ],
      "user_ratings_total": 2,
      "vicinity": "63 Flushing Avenue, Brooklyn"
    },
    {
      "business_status": "OPERATIONAL",
      "geometry": {
        "location": {
          "lat": 40.6984193,
          "lng": -73.9711878
        },
        "viewport": {
          "northeast": {
            "lat": 40.69950268029149,
            "lng": -73.9696901197085
          },
          "southwest": {
            "lat": 40.6968047197085,
            "lng": -73.97238808029151
          }
        }
      },
      "icon": "https://maps.gstatic.com/mapfiles/place_api/icons/v1/png_71/generic_business-71.png",
      "icon_background_color": "#7B9EB0",
      "icon_mask_base_uri": "https://maps.gstatic.com/mapfiles/place_api/icons/v2/generic_pinlet",
      "name": "Fidelity Payment Services",
      "opening_hours": {
        "open_now": false
      },
      "photos": [
        {
          "height": 3992,
          "html_attributions": [
            "<a href=\"https://maps.google.com/maps/contrib/106420889571884557253\">Fidelity Payment Services</a>"
          ],
          "photo_reference": "AeJbb3evyHKuYHotDP8HOx91T7hq9WNN76xp3MHg9jd5BfWw7IeFQE1J-Lug9_LPJFxByzp-d-7uggwQMAE7CrRLztyfmAMImoi90nkQY55p8R5kaSSJt7_PRzXZfOpSYsO-Ak7htJjI7-LnBs_MHLhbA07_PLWdb_I0JJ8bEM1xTEIdVVtI",
          "width": 5989
        }
      ],
      "place_id": "ChIJU0GBmuNbwokR2n_qOxrLmPk",
      "plus_code": {
        "compound_code": "M2XH+9G Brooklyn, NY, USA",
        "global_code": "87G8M2XH+9G"
      },
      "rating": 5,
      "reference": "ChIJU0GBmuNbwokR2n_qOxrLmPk",
      "scope": "GOOGLE",
      "types": [
        "atm",
        "finance",
        "point_of_interest",
        "establishment"
      ],
      "user_ratings_total": 1231,
      "vicinity": "Building 77, 141 Flushing Avenue #501, Brooklyn"
    },
    {
      "business_status": "OPERATIONAL",
      "geometry": {
        "location": {
          "lat": 40.6988026,
          "lng": -73.9755862
        },
        "viewport": {
          "northeast": {
            "lat": 40.7000647802915,
            "lng": -73.97437466970851
          },
          "southwest": {
            "lat": 40.6973668197085,
            "lng": -73.97707263029152
          }
        }
      },
      "icon": "https://maps.gstatic.com/mapfiles/place_api/icons/v1/png_71/generic_business-71.png",
      "icon_background_color": "#7B9EB0",
      "icon_mask_base_uri": "https://maps.gstatic.com/mapfiles/place_api/icons/v2/generic_pinlet",
      "name": "Ten Ton Studio",
      "opening_hours": {
        "open_now": false
      },
      "photos": [
        {
          "height": 1365,
          "html_attributions": [
            "<a href=\"https://maps.google.com/maps/contrib/101859551502954344665\">Ten Ton Studio</a>"
          ],
          "photo_reference": "AeJbb3dUMV2TrCpPJ8R7R7ySfsFEYTp7Rx4IeE8TbkG38Cdd0X3XIpLbi6A6Ve0E4J5KO494PbMsdx1Dj7dpjZ7cdEmpyw9DGyegqmGIapPNnw9n8ieFQgO6xohBPfqGHCf2W2g-N9ft65Y42xBG6uMTpSqbExg6VUbjzo07p9m-XHihQn5R",
          "width": 2048
        }
      ],
      "place_id": "ChIJy4PYQMlbwokRccC14NchloI",
      "plus_code": {
        "compound_code": "M2XF+GQ Brooklyn, NY, USA",
        "global_code": "87G8M2XF+GQ"
      },
      "rating": 5,
      "reference": "ChIJy4PYQMlbwokRccC14NchloI",
      "scope": "GOOGLE",
      "types": [
        "point_of_interest",
        "establishment"
      ],
      "user_ratings_total": 5,
      "vicinity": "63 Flushing Avenue #819, Brooklyn"
    },
    {
      "business_status": "OPERATIONAL",
      "geometry": {
        "location": {
          "lat": 40.69854689999999,
          "lng": -73.9753052
        },
        "viewport": {
          "northeast": {
            "lat": 40.69965543029149,
            "lng": -73.97397381970849
          },
          "southwest": {
            "lat": 40.69695746970849,
            "lng": -73.97667178029151
          }
        }
      },
      "icon": "https://maps.gstatic.com/mapfiles/place_api/icons/v1/png_71/generic_business-71.png",
      "icon_background_color": "#7B9EB0",
      "icon_mask_base_uri": "https://maps.gstatic.com/mapfiles/place_api/icons/v2/generic_pinlet",
      "name": "Justin Paul Inc.",
      "opening_hours": {
        "open_now": false
      },
      "photos": [
        {
          "height": 3024,
          "html_attributions": [
            "<a href=\"https://maps.google.com/maps/contrib/112249438466083953326\">Cindy Lai</a>"
          ],
          "photo_reference": "AeJbb3ctp2FcBkGyN6WMsr51tlnb6Us27Vl0sj2Nu6RpZZqCOF0wlFZ7mSofFoMsCMeWw54Dv_VpuFQuC51x-yoQ1-2iIgtHIC8iF3kqR2L2qXM6Q_9umX9KMqOynhCXqV1YQkBmZfIw8qGygKyUYZ5gWJQAlheQvlerv_tdRSqOdiCCaqXz",
          "width": 4032
        }
      ],
      "place_id": "ChIJy4PYQMlbwokR7UG41193i6Y",
      "plus_code": {
        "compound_code": "M2XF+CV Brooklyn, NY, USA",
        "global_code": "87G8M2XF+CV"
      },
      "rating": 5,
      "reference": "ChIJy4PYQMlbwokR7UG41193i6Y",
      "scope": "GOOGLE",
      "types": [
        "point_of_interest",
        "establishment"
      ],
      "user_ratings_total": 1,
      "vicinity": "63 Flushing Avenue, Brooklyn"
    },
    {
      "business_status": "OPERATIONAL",
      "geometry": {
        "location": {
          "lat": 40.695562,
          "lng": -73.9764947
        },
        "viewport": {
          "northeast": {
            "lat": 40.6968780802915,
            "lng": -73.97503516970849
          },
          "southwest": {
            "lat": 40.69418011970851,
            "lng": -73.97773313029151
          }
        }
      },
      "icon": "https://maps.gstatic.com/mapfiles/place_api/icons/v1/png_71/generic_business-71.png",
      "icon_background_color": "#7B9EB0",
      "icon_mask_base_uri": "https://maps.gstatic.com/mapfiles/place_api/icons/v2/generic_pinlet",
      "name": "Ollivierre-Noe Debbie R DDS",
      "place_id": "ChIJZSAb8MlbwokR8oEsBPFmqss",
      "plus_code": {
        "compound_code": "M2WF+6C New York, NY, USA",
        "global_code": "87G8M2WF+6C"
      },
      "reference": "ChIJZSAb8MlbwokR8oEsBPFmqss",
      "scope": "GOOGLE",
      "types": [
        "dentist",
        "health",
        "point_of_interest",
        "establishment"
      ],
      "vicinity": "100 North Portland Avenue, Brooklyn"
    }
  ],
  "status": "OK"
}