{
  "html_attributions": [],
  "results": [
    {
      "geometry": {
        "location": {
          "lat": 40.7127753,
          "lng": -74.0059728
        },
        "viewport": {
          "northeast": {
            "lat": 40.91757705070789,
            "lng": -73.70027206817629
          },
          "southwest": {
            "lat": 40.47739906045452,
            "lng": -74.25908991427882
          }
        }
      },
      "icon": "https://maps.gstatic.com/mapfiles/place_api/icons/v1/png_71/geocode-71.png",
      "icon_background_color": "#7B9EB0",
      "icon_mask_base_uri": "https://maps.gstatic.com/mapfiles/place_api/icons/v2/generic_pinlet",
      "name": "\u7d10\u7d04",
      "photos": [
        {
          "height": 600,
          "html_attributions": [
            "<a href=\"https://maps.google.com/maps/contrib/102389334567210814614\">Bukurie</a>"
          ],
          "photo_reference": "AeJbb3foewPRs1I_2QE1GvVMFrztrcKUgwQjumCwG2Xy5jbq3Poo-gfsXVBzUj1EoPnWOAvSPTl33l4eE-t3bykABzWTAOnca8yGFzUaHuHTAW_mOhDP9G84mGK1uy6e_20kBdqKX3wmEBCGRTKVoSRp62CBo-65U5ydHc1m-MX2wP30BcCQ",
          "width": 480
        }
      ],
      "place_id": "ChIJOwg_06VPwokRYv534QaPC8g",
      "reference": "ChIJOwg_06VPwokRYv534QaPC8g",
      "scope": "GOOGLE",
      "types": [
        "locality",
        "political"
      ],
      "vicinity": "\u7d10\u7d04"
    },
    {
      "business_status": "OPERATIONAL",
      "geometry": {
        "location": {
          "lat": 40.7506692,
          "lng": -73.96895769999999
        },
        "viewport": {
          "northeast": {
            "lat": 40.7519119802915,
            "lng": -73.96797116970849
          },
          "southwest": {
            "lat": 40.7492140197085,
            "lng": -73.9706691302915
          }
        }
      },
      "icon": "https://maps.gstatic.com/mapfiles/place_api/icons/v1/png_71/lodging-71.png",
      "icon_background_color": "#909CE1",
      "icon_mask_base_uri": "https://maps.gstatic.com/mapfiles/place_api/icons/v2/hotel_pinlet",
      "name": "Millennium Hilton New York One UN Plaza",
      "photos": [
        {
          "height": 3000,
          "html_attributions": [
            "<a href=\"https://maps.google.com/maps/contrib/105579319772507281266\">Millennium Hilton New York One UN Plaza</a>"
          ],
          "photo_reference": "AeJbb3dWBJualqTHJlAe3OdIxuzUhlOeQor0iZdMDfI9SWf82l3I6B9TR-in-ALGZEYH4dsqljxLI4trQB5V4vArzWl_FRA2mf7p41CmOZ15rFM9MqHIdDBncmUYlsE_QylMKODuum37CAzalo2Fa40oz0hYkfmy8W64En6KXHfQBcVqI7A7",
          "width": 4501
        }
      ],
      "place_id": "ChIJEU2H4BxZwokRNsE531E6mZM",
      "plus_code": {
        "compound_code": "Q22J+7C \u7f8e\u570b\u7d10\u7d04",
        "global_code": "87G8Q22J+7C"
      },
      "rating": 4.2,
      "reference": "ChIJEU2H4BxZwokRNsE531E6mZM",
      "scope": "GOOGLE",
      "types": [
        "lodging",
        "point_of_interest",
        "establishment"
      ],
      "user_ratings_total": 2801,
      "vicinity": "One Un Plaza, New York"
    },
    {
      "business_status": "OPERATIONAL",
      "geometry": {
        "location": {
          "lat": 40.7509308,
          "lng": -73.9722361
        },
        "viewport": {
          "northeast": {
            "lat": 40.7521945302915,
            "lng": -73.97093771970849
          },
          "southwest": {
            "lat": 40.7494965697085,
            "lng": -73.9736356802915
          }
        }
      },
      "icon": "https://maps.gstatic.com/mapfiles/place_api/icons/v1/png_71/lodging-71.png",
      "icon_background_color": "#909CE1",
      "icon_mask_base_uri": "https://maps.gstatic.com/mapfiles/place_api/icons/v2/hotel_pinlet",
      "name": "\u66fc\u54c8\u9813\u4e2d\u592e\u8eca\u7ad9\u5e0c\u723e\u9813\u6052\u5ead\u98ef\u5e97",
      "photos": [
        {
          "height": 855,
          "html_attributions": [
            "<a href=\"https://maps.google.com/maps/contrib/100913704804987337772\">Hampton Inn Manhattan Grand Central</a>"
          ],
          "photo_reference": "AeJbb3dQYb2Gd1LApXHuVjl5vGRsGQBR_LmZv9DwyTRKsiEZtsi69UAeDJ7X9GYzONlDi51KaCk8CyCwz6em8l8vn0katV--1C8I25LLh-gx97fTHHX08k_Bs6gob-PWI7zmoOorF-YmOaEWRgOpOApyzT49lramoYatjn-5wgjZKFPOE4FT",
          "width": 1280
        }
      ],
      "place_id": "ChIJXWOUJgNZwokR0VrAkVbSZkM",
      "plus_code": {
        "compound_code": "Q22H+94 \u7f8e\u570b\u7d10\u7d04",
        "global_code": "87G8Q22H+94"
      },
      "rating": 4.1,
      "reference": "ChIJXWOUJgNZwokR0VrAkVbSZkM",
      "scope": "GOOGLE",
      "types": [
        "lodging",
        "point_of_interest",
        "establishment"
      ],
      "user_ratings_total": 1169,
      "vicinity": "231 East 43rd Street, New York"
    },
    {
      "business_status": "OPERATIONAL",
      "geometry": {
        "location": {
          "lat": 40.753283,
          "lng": -73.97105549999999
        },
        "viewport": {
          "northeast": {
            "lat": 40.7547132302915,
            "lng": -73.96960821970849
          },
          "southwest": {
            "lat": 40.7520152697085,
            "lng": -73.9723061802915
          }
        }
      },
      "icon": "https://maps.gstatic.com/mapfiles/place_api/icons/v1/png_71/generic_business-71.png",
      "icon_background_color": "#7B9EB0",
      "icon_mask_base_uri": "https://maps.gstatic.com/mapfiles/place_api/icons/v2/generic_pinlet",
      "name": "Vanderbilt YMCA",
      "opening_hours": {
        "open_now": false
      },
      "photos": [
        {
          "height": 355,
          "html_attributions": [
            "<a href=\"https://maps.google.com/maps/contrib/101955149384955030657\">Vanderbilt YMCA</a>"
          ],
          "photo_reference": "AeJbb3flpJQSpvYT1Z1pdh35ReMlWAuFNZUBH0SBr0g6HhCg_WFSrcWO2NcAm6NktoP1puvJJIIq02EnPmZlGAtY1jB2bUd-mblrZ_hJl-4ura8vVmOZ4YheXtoQtk6bwVQecGqWEYAL4H4XPoNRNJw098A51a5ph0r34sfDOLRo_T8ohokO",
          "width": 900
        }
      ],
      "place_id": "ChIJm91rq-JYwokRT45xayJrXiw",
      "plus_code": {
        "compound_code": "Q23H+8H \u7f8e\u570b\u7d10\u7d04",
        "global_code": "87G8Q23H+8H"
      },
      "rating": 3.4,
      "reference": "ChIJm91rq-JYwokRT45xayJrXiw",
      "scope": "GOOGLE",
      "types": [
        "lodging",
        "gym",
        "health",
        "point_of_interest",
        "establishment"
      ],
      "user_ratings_total": 489,
      "vicinity": "224 East 47th Street, New York"
    },
    {
      "business_status": "OPERATIONAL",
      "geometry": {
        "location": {
          "lat": 40.75035080000001,
          "lng": -73.9738897
        },
        "viewport": {
          "northeast": {
            "lat": 40.7514869802915,
            "lng": -73.9726271197085
          },
          "southwest": {
            "lat": 40.7487890197085,
            "lng": -73.97532508029151
          }
        }
      },
      "icon": "https://maps.gstatic.com/mapfiles/place_api/icons/v1/png_71/lodging-71.png",
      "icon_background_color": "#909CE1",
      "icon_mask_base_uri": "https://maps.gstatic.com/mapfiles/place_api/icons/v2/hotel_pinlet",
      "name": "\u7d10\u7d04\u4e2d\u592e\u8eca\u7ad9\u5a01\u65af\u6c40\u9152\u5e97",
      "photos": [
        {
          "height": 1366,
          "html_attributions": [
            "<a href=\"https://maps.google.com/maps/contrib/105896680691466392029\">The Westin New York Grand Central</a>"
          ],
          "photo_reference": "AeJbb3fQsYdhgr3vLaRqh1IhjrSOTOxUKLhd5Qd3TMTDbQXbrTYd-OXXiDSPATrkRSpYLVpBilpOntZQ14kzzKTTz4S4xYAamvFUoF-bXIM41IMS8i59Q1mExnmovZyyroxiP-Dkh4-OMefLDWKNZ1_GWxMuU6FKtYpmOMxhZ721I7eVZVPq",
          "width": 2048
        }
      ],
      "place_id": "ChIJTQ_vCwNZwokRuxUsMUImL5M",
      "plus_code": {
        "compound_code": "Q22G+4C \u7f8e\u570b\u7d10\u7d04",
        "global_code": "87G8Q22G+4C"
      },
      "rating": 4.2,
      "reference": "ChIJTQ_vCwNZwokRuxUsMUImL5M",
      "scope": "GOOGLE",
      "types": [
        "lodging",
        "point_of_interest",
        "establishment"
      ],
      "user_ratings_total": 3162,
      "vicinity": "212 East 42nd Street, New York"
    },
    {
      "business_status": "OPERATIONAL",
      "geometry": {
        "location": {
          "lat": 40.7525789,
          "lng": -73.9713762
        },
        "viewport": {
          "northeast": {
            "lat": 40.7540303302915,
            "lng": -73.96999166970849
          },
          "southwest": {
            "lat": 40.7513323697085,
            "lng": -73.9726896302915
          }
        }
      },
      "icon": "https://maps.gstatic.com/mapfiles/place_api/icons/v1/png_71/lodging-71.png",
      "icon_background_color": "#909CE1",
      "icon_mask_base_uri": "https://maps.gstatic.com/mapfiles/place_api/icons/v2/hotel_pinlet",
      "name": "AKA\u5c24\u5948\u8482\u5fb7\u5167\u7533\u65af",
      "opening_hours": {
        "open_now": true
      },
      "photos": [
        {
          "height": 1920,
          "html_attributions": [
            "<a href=\"https://maps.google.com/maps/contrib/113580599312381246134\">Zoltan Nagy</a>"
          ],
          "photo_reference": "AeJbb3dvjcnrUx-nlxHU_zyraGyqRPxuByozVgdzmTCqxfHDhWNzyei5kW-a7WrvbtulMnZTaelFNnJmMEngxhez3B-8D0E9okl5DLmEcOOYZyLAWkKbnIBPMSrDK7rObD0Vpxwo-bNHRMPJDRIfmYwLfcWdIXOniLOWeMaAPbvAKrFRymNv",
          "width": 2560
        }
      ],
      "place_id": "ChIJ44hwswJZwokRNU7abYxgTUc",
      "plus_code": {
        "compound_code": "Q23H+2C \u7f8e\u570b\u7d10\u7d04",
        "global_code": "87G8Q23H+2C"
      },
      "rating": 4.6,
      "reference": "ChIJ44hwswJZwokRNU7abYxgTUc",
      "scope": "GOOGLE",
      "types": [
        "lodging",
        "point_of_interest",
        "establishment"
      ],
      "user_ratings_total": 27,
      "vicinity": "234 East 46th Street, New York"
    },
    {
      "business_status": "OPERATIONAL",
      "geometry": {
        "location": {
          "lat": 40.7526556,
          "lng": -73.9724804
        },
        "viewport": {
          "northeast": {
            "lat": 40.7539340302915,
            "lng": -73.9711925197085
          },
          "southwest": {
            "lat": 40.7512360697085,
            "lng": -73.9738904802915
          }
        }
      },
      "icon": "https://maps.gstatic.com/mapfiles/place_api/icons/v1/png_71/lodging-71.png",
      "icon_background_color": "#909CE1",
      "icon_mask_base_uri": "https://maps.gstatic.com/mapfiles/place_api/icons/v2/hotel_pinlet",
      "name": "Club Wyndham Midtown 45",
      "opening_hours": {
        "open_now": true
      },
      "photos": [
        {
          "height": 4000,
          "html_attributions": [
            "<a href=\"https://maps.google.com/maps/contrib/101409016759000966352\">Dorian Brown</a>"
          ],
          "photo_reference": "AeJbb3cBVHJYVhg6Rg9Q5HgTJ2JSWbFVcQL8cfLpZEnTvFuaOEPNrSWnAeEA3ysdMGF7An0FkOBqBKQfszexUid7lVhK0f_yeOg5bCTo7bkVDp9_sF5CCZ9ueqdq-5BTEhNEaL-NARyaO2dop19cqnLORLk0Cq76yYkBYVPGf1iwxUGyToGU",
          "width": 3000
        }
      ],
      "place_id": "ChIJiW0WvwJZwokRIWyzCvo3o5k",
      "plus_code": {
        "compound_code": "Q23H+32 \u7f8e\u570b\u7d10\u7d04",
        "global_code": "87G8Q23H+32"
      },
      "rating": 4.4,
      "reference": "ChIJiW0WvwJZwokRIWyzCvo3o5k",
      "scope": "GOOGLE",
      "types": [
        "real_estate_agency",
        "lodging",
        "travel_agency",
        "point_of_interest",
        "establishment"
      ],
      "user_ratings_total": 1671,
      "vicinity": "205 East 45th Street, New York"
    },
    {
      "business_status": "OPERATIONAL",
      "geometry": {
        "location": {
          "lat": 40.749168,
          "lng": -73.9674781
        },
        "viewport": {
          "northeast": {
            "lat": 40.75174260000001,
            "lng": -73.96648134999998
          },
          "southwest": {
            "lat": 40.74830979999999,
            "lng": -73.97046835000002
          }
        }
      },
      "icon": "https://maps.gstatic.com/mapfiles/place_api/icons/v1/png_71/generic_business-71.png",
      "icon_background_color": "#7B9EB0",
      "icon_mask_base_uri": "https://maps.gstatic.com/mapfiles/place_api/icons/v2/generic_pinlet",
      "name": "\u806f\u5408\u570b\u7e3d\u90e8\u5927\u6a13",
      "opening_hours": {
        "open_now": false
      },
      "photos": [
        {
          "height": 3024,
          "html_attributions": [
            "<a href=\"https://maps.google.com/maps/contrib/100413092636343026359\">Joy Chrissokerakis</a>"
          ],
          "photo_reference": "AeJbb3e_r9HuDsM2k2UTbyOZESliziLg0wn1hT4RJhE-6pBI10akU2XXknstZAQ1J1g3Vtq0MB8GukwgcklbvRnJMdNAj1Mi9TzTMWp_OIl9ZzoWhuz3n1K6SsCuTpnAOa1ie3rXsBrsOJnW0D1j9T_gLJNunByU57441dkanLlNlQTNcIZb",
          "width": 4032
        }
      ],
      "place_id": "ChIJEU2H4BxZwokRNfY93Yvi-sU",
      "plus_code": {
        "compound_code": "P2XM+M2 \u7f8e\u570b\u7d10\u7d04",
        "global_code": "87G8P2XM+M2"
      },
      "rating": 4.5,
      "reference": "ChIJEU2H4BxZwokRNfY93Yvi-sU",
      "scope": "GOOGLE",
      "types": [
        "tourist_attraction",
        "point_of_interest",
        "establishment"
      ],
      "user_ratings_total": 11526,
      "vicinity": "405 East 42nd Street, New York"
    },
    {
      "business_status": "OPERATIONAL",
      "geometry": {
        "location": {
          "lat": 40.7511139,
          "lng": -73.97350829999999
        },
        "viewport": {
          "northeast": {
            "lat": 40.7521814802915,
            "lng": -73.97236816970849
          },
          "southwest": {
            "lat": 40.7494835197085,
            "lng": -73.9750661302915
          }
        }
      },
      "icon": "https://maps.gstatic.com/mapfiles/place_api/icons/v1/png_71/restaurant-71.png",
      "icon_background_color": "#FF9E67",
      "icon_mask_base_uri": "https://maps.gstatic.com/mapfiles/place_api/icons/v2/restaurant_pinlet",
      "name": "Sushi Yasuda",
      "opening_hours": {
        "open_now": false
      },
      "photos": [
        {
          "height": 4032,
          "html_attributions": [
            "<a href=\"https://maps.google.com/maps/contrib/112523595875011550392\">Brooks Jones</a>"
          ],
          "photo_reference": "AeJbb3eL8-hnX3d4oA8I0g7gbqhczsWZfFEDBp2ASAyV40qN8oSkFh_aYQoCOmB1ln58s8eMWxl3yXn0j9UF-3XTxwk23KHN5Cxqbxsl4zkETXwHO3vOWcukIGzdq-66w_bkwJ3kV27ijx1U7mHceBP0IPlmc-O5ocS0c6VOsxzvJRDNUjGY",
          "width": 3024
        }
      ],
      "place_id": "ChIJ0Zb6HANZwokRnGIntPyqjLQ",
      "plus_code": {
        "compound_code": "Q22G+CH \u7f8e\u570b\u7d10\u7d04",
        "global_code": "87G8Q22G+CH"
      },
      "price_level": 4,
      "rating": 4.4,
      "reference": "ChIJ0Zb6HANZwokRnGIntPyqjLQ",
      "scope": "GOOGLE",
      "types": [
        "restaurant",
        "point_of_interest",
        "food",
        "establishment"
      ],
      "user_ratings_total": 1200,
      "vicinity": "204 East 43rd Street, New York"
    },
    {
      "business_status": "OPERATIONAL",
      "geometry": {
        "location": {
          "lat": 40.7529737,
          "lng": -73.9720665
        },
        "viewport": {
          "northeast": {
            "lat": 40.7543675302915,
            "lng": -73.9706740197085
          },
          "southwest": {
            "lat": 40.7516695697085,
            "lng": -73.9733719802915
          }
        }
      },
      "icon": "https://maps.gstatic.com/mapfiles/place_api/icons/v1/png_71/restaurant-71.png",
      "icon_background_color": "#FF9E67",
      "icon_mask_base_uri": "https://maps.gstatic.com/mapfiles/place_api/icons/v2/restaurant_pinlet",
      "name": "Sparks Steak House",
      "opening_hours": {
        "open_now": true
      },
      "photos": [
        {
          "height": 2579,
          "html_attributions": [
            "<a href=\"https://maps.google.com/maps/contrib/111719219215411994893\">Hecatonic</a>"
          ],
          "photo_reference": "AeJbb3fZ2VkaqYYtn9IqnvcO82E8NHStHQf_ar7XYcpheDUY0f3Ydb6CMpAg11hWrgwCFjzwsQ8jb_Ly4Juv9muRMDgq5qubpjK74g941knXJWklDZirLZMfpF1EbND_EkhN2HV7-PJTZXeSmuSpmkuU24j-cfGu9aN9EYBi5ZGo7V9_Q9VL",
          "width": 4088
        }
      ],
      "place_id": "ChIJY8nVpQJZwokR1SyYE-gyalA",
      "plus_code": {
        "compound_code": "Q23H+55 \u7f8e\u570b\u7d10\u7d04",
        "global_code": "87G8Q23H+55"
      },
      "price_level": 4,
      "rating": 4.5,
      "reference": "ChIJY8nVpQJZwokR1SyYE-gyalA",
      "scope": "GOOGLE",
      "types": [
        "restaurant",
        "point_of_interest",
        "food",
        "establishment"
      ],
      "user_ratings_total": 1726,
      "vicinity": "210 East 46th Street, New York"
    },
    {
      "business_status": "OPERATIONAL",
      "geometry": {
        "location": {
          "lat": 40.7500553,
          "lng": -73.9716691
        },
        "viewport": {
          "northeast": {
            "lat": 40.7514630802915,
            "lng": -73.97045781970849
          },
          "southwest": {
            "lat": 40.7487651197085,
            "lng": -73.97315578029149
          }
        }
      },
      "icon": "https://maps.gstatic.com/mapfiles/place_api/icons/v1/png_71/generic_business-71.png",
      "icon_background_color": "#7B9EB0",
      "icon_mask_base_uri": "https://maps.gstatic.com/mapfiles/place_api/icons/v2/generic_pinlet",
      "name": "NY Midtown OB/GYN",
      "photos": [
        {
          "height": 3264,
          "html_attributions": [
            "<a href=\"https://maps.google.com/maps/contrib/106002533161607349408\">Spencer McClelland</a>"
          ],
          "photo_reference": "AeJbb3cOAW1WuBlJfDLfD5Ve6ZCDjG4KN9c8ueM2SxSXHstaati4QoDKBGK8c2QyesbMF_-1j42Lk5WVk4BJZl72Zd3mlov45JDs4x1hBCSMTokR3E2ARoRGZCzhcUxRh6dj6qqM0cMZvgB9tp58x2mB7rh5NNDwBEerdZp2vRsFauiADx1q",
          "width": 4912
        }
      ],
      "place_id": "ChIJFewxHAVZwokR7YbIl8IH2VI",
      "plus_code": {
        "compound_code": "Q22H+28 \u7f8e\u570b\u7d10\u7d04",
        "global_code": "87G8Q22H+28"
      },
      "rating": 3.9,
      "reference": "ChIJFewxHAVZwokR7YbIl8IH2VI",
      "scope": "GOOGLE",
      "types": [
        "health",
        "point_of_interest",
        "establishment"
      ],
      "user_ratings_total": 15,
      "vicinity": "800 2nd Avenue Suite 815, New York"
    },
    {
      "business_status": "OPERATIONAL",
      "geometry": {
        "location": {
          "lat": 40.75149100000001,
          "lng": -73.9735965
        },
        "viewport": {
          "northeast": {
            "lat": 40.75276548029151,
            "lng": -73.9723223197085
          },
          "southwest": {
            "lat": 40.75006751970851,
            "lng": -73.9750202802915
          }
        }
      },
      "icon": "https://maps.gstatic.com/mapfiles/place_api/icons/v1/png_71/generic_business-71.png",
      "icon_background_color": "#7B9EB0",
      "icon_mask_base_uri": "https://maps.gstatic.com/mapfiles/place_api/icons/v2/generic_pinlet",
      "name": "Intralinks",
      "opening_hours": {
        "open_now": false
      },
      "photos": [
        {
          "height": 3024,
          "html_attributions": [
            "<a href=\"https://maps.google.com/maps/contrib/116609543002405096053\">Ciprian P\u0103lici</a>"
          ],
          "photo_reference": "AeJbb3fm5uSLH41z5prIcQBWXDowvXjwKbP7vgqhuh-siju-JJbK3Kyn6e8zW0wqCOt9NdNXRp0QhbisVqJlU_Y7PC_au7eznUbfB91tzgm0oV0GAOpFJDyJNhG08KdCbpPntOpgsQdHezVrP7QkFPgO3h_a-CyE0MUXvum7MGnSkwOYaE9Y",
          "width": 4032
        }
      ],
      "place_id": "ChIJ63s-twNZwokRrM-5dkedn-Q",
      "plus_code": {
        "compound_code": "Q22G+HH \u7f8e\u570b\u7d10\u7d04",
        "global_code": "87G8Q22G+HH"
      },
      "rating": 4.2,
      "reference": "ChIJ63s-twNZwokRrM-5dkedn-Q",
      "scope": "GOOGLE",
      "types": [
        "point_of_interest",
        "establishment"
      ],
      "user_ratings_total": 22,
      "vicinity": "685 3rd Avenue Floor 9, New York"
    },
    {
      "business_status": "OPERATIONAL",
      "geometry": {
        "location": {
          "lat": 40.7512625,
          "lng": -73.9708813
        },
        "viewport": {
          "northeast": {
            "lat": 40.75261173029151,
            "lng": -73.9696481697085
          },
          "southwest": {
            "lat": 40.74991376970851,
            "lng": -73.97234613029151
          }
        }
      },
      "icon": "https://maps.gstatic.com/mapfiles/place_api/icons/v1/png_71/civic_building-71.png",
      "icon_background_color": "#7B9EB0",
      "icon_mask_base_uri": "https://maps.gstatic.com/mapfiles/place_api/icons/v2/civic-bldg_pinlet",
      "name": "Consulate General of Nigeria",
      "opening_hours": {
        "open_now": false
      },
      "photos": [
        {
          "height": 4160,
          "html_attributions": [
            "<a href=\"https://maps.google.com/maps/contrib/116112419479344363683\">Zahra Haruna</a>"
          ],
          "photo_reference": "AeJbb3ceuhzfyuYeJa5tpsWaoAGRuoUDIovwOUAOkjv_feDD0VObgJeT4LWkp4pCAkR1nnlfagGdHjqLI26O4lT4dA5LkHMQiPi1H69AQTaCwOS0Js5PEeE2MC8c535KM9hZL59p2QQwIHmP6EcaEcIPRoUwRaY91122DSwsZZxcNTZFunAD",
          "width": 3120
        }
      ],
      "place_id": "ChIJ9_hTKR1ZwokRtletPfvSBf8",
      "plus_code": {
        "compound_code": "Q22H+GJ \u7f8e\u570b\u7d10\u7d04",
        "global_code": "87G8Q22H+GJ"
      },
      "rating": 2.4,
      "reference": "ChIJ9_hTKR1ZwokRtletPfvSBf8",
      "scope": "GOOGLE",
      "types": [
        "embassy",
        "point_of_interest",
        "establishment"
      ],
      "user_ratings_total": 439,
      "vicinity": "828 2nd Avenue, New York"
    },
    {
      "business_status": "OPERATIONAL",
      "geometry": {
        "location": {
          "lat": 40.7507481,
          "lng": -73.9684245
        },
        "viewport": {
          "northeast": {
            "lat": 40.7520817802915,
            "lng": -73.9670392697085
          },
          "southwest": {
            "lat": 40.74938381970851,
            "lng": -73.9697372302915
          }
        }
      },
      "icon": "https://maps.gstatic.com/mapfiles/place_api/icons/v1/png_71/generic_business-71.png",
      "icon_background_color": "#7B9EB0",
      "icon_mask_base_uri": "https://maps.gstatic.com/mapfiles/place_api/icons/v2/generic_pinlet",
      "name": "Manhattan Multicultural Summer Youth Program (MMSY)",
      "place_id": "ChIJq6qqThxZwokRN7BNh3LtThM",
      "plus_code": {
        "compound_code": "Q22J+7J \u7f8e\u570b\u7d10\u7d04",
        "global_code": "87G8Q22J+7J"
      },
      "reference": "ChIJq6qqThxZwokRN7BNh3LtThM",
      "scope": "GOOGLE",
      "types": [
        "point_of_interest",
        "establishment"
      ],
      "vicinity": "United Nations, New York"
    },
    {
      "business_status": "OPERATIONAL",
      "geometry": {
        "location": {
          "lat": 40.7522545,
          "lng": -73.96849859999999
        },
        "viewport": {
          "northeast": {
            "lat": 40.7537439802915,
            "lng": -73.96663965
          },
          "southwest": {
            "lat": 40.7510460197085,
            "lng": -73.97113744999999
          }
        }
      },
      "icon": "https://maps.gstatic.com/mapfiles/place_api/icons/v1/png_71/park-71.png",
      "icon_background_color": "#4DB546",
      "icon_mask_base_uri": "https://maps.gstatic.com/mapfiles/place_api/icons/v2/tree_pinlet",
      "name": "\u9054\u683c\u00b7\u54c8\u746a\u7d39\u5ee3\u5834\u4e00\u865f",
      "opening_hours": {
        "open_now": true
      },
      "photos": [
        {
          "height": 3265,
          "html_attributions": [
            "<a href=\"https://maps.google.com/maps/contrib/108582716312642197265\">Dag Hammarskj\u00f6ld Plaza</a>"
          ],
          "photo_reference": "AeJbb3fzF4mXBj-kn9e0mY1tCxqu_fBH9e3YwLBBgFpnkUuV8wQUncIEbhBP2kAvSO8J1sowz0044Lxep9bnGWePwHPr0RQ-RpaFF1gOwisjC_lqJUaq-sZM9vC3Mvkrw7PE_U_py9MrRkAwIZEZhn2lL3dyHdym7QOFr5_u4Hinhof2h7a7",
          "width": 4898
        }
      ],
      "place_id": "ChIJAYhbcB1ZwokRm5l-9P48BeI",
      "plus_code": {
        "compound_code": "Q22J+WJ \u7f8e\u570b\u7d10\u7d04",
        "global_code": "87G8Q22J+WJ"
      },
      "rating": 4.5,
      "reference": "ChIJAYhbcB1ZwokRm5l-9P48BeI",
      "scope": "GOOGLE",
      "types": [
        "park",
        "tourist_attraction",
        "point_of_interest",
        "establishment"
      ],
      "user_ratings_total": 397,
      "vicinity": "East 47th Street, New York"
    },
    {
      "business_status": "OPERATIONAL",
      "geometry": {
        "location": {
          "lat": 40.7520016,
          "lng": -73.9716213
        },
        "viewport": {
          "northeast": {
            "lat": 40.7534129802915,
            "lng": -73.9703307197085
          },
          "southwest": {
            "lat": 40.7507150197085,
            "lng": -73.9730286802915
          }
        }
      },
      "icon": "https://maps.gstatic.com/mapfiles/place_api/icons/v1/png_71/shopping-71.png",
      "icon_background_color": "#4B96F3",
      "icon_mask_base_uri": "https://maps.gstatic.com/mapfiles/place_api/icons/v2/shopping_pinlet",
      "name": "Big Apple Florist",
      "opening_hours": {
        "open_now": false
      },
      "photos": [
        {
          "height": 1642,
          "html_attributions": [
            "<a href=\"https://maps.google.com/maps/contrib/105170431124683218627\">Marc Gonzalez</a>"
          ],
          "photo_reference": "AeJbb3dlY2YzQdtUbRULqHiBY2X98FXmSsLEYRLixd98OPh-m780_Vy1D8QhtQq4obokCDk9ZzV0mzLYAnNBASzvaeF3b30iPjDOJSdvYhWgOlzLhGLTrL1mBClXtHGHxaqQITvpGENUAf-7RCaXVnLf9xYv-G3YRZGaYW5evuLT1p-qddNP",
          "width": 2197
        }
      ],
      "place_id": "ChIJgaVNzcFYwokR_DFjC0k3wbM",
      "plus_code": {
        "compound_code": "Q22H+R9 \u7f8e\u570b\u7d10\u7d04",
        "global_code": "87G8Q22H+R9"
      },
      "price_level": 3,
      "rating": 4.3,
      "reference": "ChIJgaVNzcFYwokR_DFjC0k3wbM",
      "scope": "GOOGLE",
      "types": [
        "florist",
        "store",
        "point_of_interest",
        "establishment"
      ],
      "user_ratings_total": 43,
      "vicinity": "228 East 45th Street, New York"
    },
    {
      "business_status": "OPERATIONAL",
      "geometry": {
        "location": {
          "lat": 40.7512509,
          "lng": -73.9732559
        },
        "viewport": {
          "northeast": {
            "lat": 40.7525616802915,
            "lng": -73.97193516970849
          },
          "southwest": {
            "lat": 40.7498637197085,
            "lng": -73.97463313029151
          }
        }
      },
      "icon": "https://maps.gstatic.com/mapfiles/place_api/icons/v1/png_71/generic_business-71.png",
      "icon_background_color": "#7B9EB0",
      "icon_mask_base_uri": "https://maps.gstatic.com/mapfiles/place_api/icons/v2/generic_pinlet",
      "name": "Lightning Copy",
      "opening_hours": {
        "open_now": false
      },
      "photos": [
        {
          "height": 4160,
          "html_attributions": [
            "<a href=\"https://maps.google.com/maps/contrib/111882357667825181073\">Shah Mr</a>"
          ],
          "photo_reference": "AeJbb3eht4ceKsdsw2ngT-M6eQ_pN4DKzmUBAbZRxCHXV5yR4usWGc5-2PRwz8-XN79Rq5VNFQ0F7Ns9AC7ObedyOqQwhxVamzf7NlKOsSLgDTYPFBeDRtZKRvwRB42piuvwqeCjOynOKJYGxlTv10r_tbgwPhXw8-SsB2DSwadOwAE-a4OK",
          "width": 3120
        }
      ],
      "place_id": "ChIJeTYtmQFZwokR6wIuXrEUJfs",
      "plus_code": {
        "compound_code": "Q22G+GM \u7f8e\u570b\u7d10\u7d04",
        "global_code": "87G8Q22G+GM"
      },
      "rating": 4,
      "reference": "ChIJeTYtmQFZwokR6wIuXrEUJfs",
      "scope": "GOOGLE",
      "types": [
        "store",
        "point_of_interest",
        "establishment"
      ],
      "user_ratings_total": 12,
      "vicinity": "211 East 43rd Street suite 1006, New York"
    },
    {
      "business_status": "CLOSED_TEMPORARILY",
      "geometry": {
        "location": {
          "lat": 40.751363,
          "lng": -73.9692225
        },
        "viewport": {
          "northeast": {
            "lat": 40.7526050802915,
            "lng": -73.9679518197085
          },
          "southwest": {
            "lat": 40.7499071197085,
            "lng": -73.97064978029151
          }
        }
      },
      "icon": "https://maps.gstatic.com/mapfiles/place_api/icons/v1/png_71/generic_business-71.png",
      "icon_background_color": "#7B9EB0",
      "icon_mask_base_uri": "https://maps.gstatic.com/mapfiles/place_api/icons/v2/generic_pinlet",
      "name": "OEM Capital",
      "permanently_closed": true,
      "place_id": "ChIJQUen-f1YwokRLB9Wzhlc130",
      "plus_code": {
        "compound_code": "Q22J+G8 \u7f8e\u570b\u7d10\u7d04",
        "global_code": "87G8Q22J+G8"
      },
      "reference": "ChIJQUen-f1YwokRLB9Wzhlc130",
      "scope": "GOOGLE",
      "types": [
        "finance",
        "point_of_interest",
        "establishment"
      ],
      "vicinity": "333 East 45th Street, New York"
    },
    {
      "business_status": "OPERATIONAL",
      "geometry": {
        "location": {
          "lat": 40.7501592,
          "lng": -73.9717014
        },
        "viewport": {
          "northeast": {
            "lat": 40.7515569802915,
            "lng": -73.97044391970849
          },
          "southwest": {
            "lat": 40.7488590197085,
            "lng": -73.97314188029151
          }
        }
      },
      "icon": "https://maps.gstatic.com/mapfiles/place_api/icons/v1/png_71/civic_building-71.png",
      "icon_background_color": "#7B9EB0",
      "icon_mask_base_uri": "https://maps.gstatic.com/mapfiles/place_api/icons/v2/civic-bldg_pinlet",
      "name": "Consulate General of Israel",
      "opening_hours": {
        "open_now": false
      },
      "photos": [
        {
          "height": 4032,
          "html_attributions": [
            "<a href=\"https://maps.google.com/maps/contrib/113058867138400994116\">Menachem Fooksman</a>"
          ],
          "photo_reference": "AeJbb3fg5uP06saxjtAH1xaGaX1suatNtiMyUx4tOjS6SqwG9OdbEvpLsnykf9kFTZtP7Pwve4rhpIfX0alBchZlLE4ZkHzU0fo0O4naZswpJfwudjfmp7onJlwhM4rBIAAq9NKvhJLADAXIReh_op-Bp4khChx8egYNY6nf7_12JRZd_gq_",
          "width": 3024
        }
      ],
      "place_id": "ChIJwzshOANZwokRqLhwLoX4s1s",
      "plus_code": {
        "compound_code": "Q22H+38 \u7f8e\u570b\u7d10\u7d04",
        "global_code": "87G8Q22H+38"
      },
      "rating": 2.5,
      "reference": "ChIJwzshOANZwokRqLhwLoX4s1s",
      "scope": "GOOGLE",
      "types": [
        "embassy",
        "point_of_interest",
        "establishment"
      ],
      "user_ratings_total": 214,
      "vicinity": "800 2nd Avenue, New York"
    },
    {
      "geometry": {
        "location": {
          "lat": 40.7549309,
          "lng": -73.9840195
        },
        "viewport": {
          "northeast": {
            "lat": 40.77410688375117,
            "lng": -73.95889871560205
          },
          "southwest": {
            "lat": 40.72686854646897,
            "lng": -74.00894884492357
          }
        }
      },
      "icon": "https://maps.gstatic.com/mapfiles/place_api/icons/v1/png_71/geocode-71.png",
      "icon_background_color": "#7B9EB0",
      "icon_mask_base_uri": "https://maps.gstatic.com/mapfiles/place_api/icons/v2/generic_pinlet",
      "name": "\u66fc\u54c8\u9813\u4e2d\u57ce",
      "photos": [
        {
          "height": 5450,
          "html_attributions": [
            "<a href=\"https://maps.google.com/maps/contrib/110409177493276546551\">Heidi Kirkland</a>"
          ],
          "photo_reference": "AeJbb3f26Tcr0Ao8waIoC3SoLUo0K3jB00uq896c6aVs1N8STXHGMzs95rl_gpj3hqDqReVeKWQC9cR_goVW9mBQR47-qSKqVs3v-XOGN0t1GVbwO8VpKM7gYy25yaS7SUVxE9F2NicA6WPk0Lx3BpTD-t1WnS7O3E2RATAQYlp1zM_bfPl0",
          "width": 2936
        }
      ],
      "place_id": "ChIJqXwSpAFZwokR28_WgZDMzb4",
      "reference": "ChIJqXwSpAFZwokR28_WgZDMzb4",
      "scope": "GOOGLE",
      "types": [
        "neighborhood",
        "political"
      ],
      "vicinity": "\u66fc\u54c8\u9813"
    },
    {
      "business_status": "OPERATIONAL",
      "geometry": {
        "location": {
          "lat": 40.7519151,
          "lng": -73.97182819999999
        },
        "viewport": {
          "northeast": {
            "lat": 40.75336693029151,
            "lng": -73.97040281970848
          },
          "southwest": {
            "lat": 40.75066896970851,
            "lng": -73.97310078029149
          }
        }
      },
      "icon": "https://maps.gstatic.com/mapfiles/place_api/icons/v1/png_71/generic_business-71.png",
      "icon_background_color": "#7B9EB0",
      "icon_mask_base_uri": "https://maps.gstatic.com/mapfiles/place_api/icons/v2/generic_pinlet",
      "name": "Bridal Guide Magazine",
      "place_id": "ChIJDUiwlK9ZwokR7z3gxxgWsi0",
      "plus_code": {
        "compound_code": "Q22H+Q7 New York, NY, USA",
        "global_code": "87G8Q22H+Q7"
      },
      "reference": "ChIJDUiwlK9ZwokR7z3gxxgWsi0",
      "scope": "GOOGLE",
      "types": [
        "point_of_interest",
        "establishment"
      ],
      "vicinity": "228 East 45th Street 11th floor, New York"
    },
    {
      "business_status": "OPERATIONAL",
      "geometry": {
        "location": {
          "lat": 40.7499506,
          "lng": -73.9730373
        },
        "viewport": {
          "northeast": {
            "lat": 40.75138493029149,
            "lng": -73.9716255697085
          },
          "southwest": {
            "lat": 40.74868696970849,
            "lng": -73.9743235302915
          }
        }
      },
      "icon": "https://maps.gstatic.com/mapfiles/place_api/icons/v1/png_71/hospital-71.png",
      "icon_background_color": "#F88181",
      "icon_mask_base_uri": "https://maps.gstatic.com/mapfiles/place_api/icons/v2/hospital-H_pinlet",
      "name": "ALSAC/St. Jude Children's Research Hospital",
      "opening_hours": {
        "open_now": false
      },
      "place_id": "ChIJm5XlqK9ZwokRnA5PsJihNUU",
      "plus_code": {
        "compound_code": "P2XG+XQ New York, NY, USA",
        "global_code": "87G8P2XG+XQ"
      },
      "rating": 4.6,
      "reference": "ChIJm5XlqK9ZwokRnA5PsJihNUU",
      "scope": "GOOGLE",
      "types": [
        "hospital",
        "point_of_interest",
        "health",
        "establishment"
      ],
      "user_ratings_total": 66,
      "vicinity": "220 East 42nd Street, New York"
    },
    {
      "business_status": "CLOSED_TEMPORARILY",
      "geometry": {
        "location": {
          "lat": 40.7525175,
          "lng": -73.9676903
        },
        "viewport": {
          "northeast": {
            "lat": 40.75380783029149,
            "lng": -73.9662117197085
          },
          "southwest": {
            "lat": 40.7511098697085,
            "lng": -73.9689096802915
          }
        }
      },
      "icon": "https://maps.gstatic.com/mapfiles/place_api/icons/v1/png_71/bar-71.png",
      "icon_background_color": "#FF9E67",
      "icon_mask_base_uri": "https://maps.gstatic.com/mapfiles/place_api/icons/v2/bar_pinlet",
      "name": "World Bar",
      "permanently_closed": true,
      "photos": [
        {
          "height": 4032,
          "html_attributions": [
            "<a href=\"https://maps.google.com/maps/contrib/105253837293256222364\">Anna Gvozdeva</a>"
          ],
          "photo_reference": "AeJbb3dsCDVMlhYrbNwfT8Apxc9zlTCaPTUgajuCsImzRTXts8-koUNlEMaCeipz4DAeyxIodueW-lR-Ex_lpHTc8Mao3ZLxxh7IkvkBNMSUbMPhus39-ZLz0nnYYK115MOWT3s3744e65ZP6WNhwdvaOQMlQ83ZFiQMCPGMsHQTzHAxToS0",
          "width": 3024
        }
      ],
      "place_id": "ChIJnefP_6vt2okR3aNjS2UbHP8",
      "plus_code": {
        "compound_code": "Q23J+2W New York, NY, USA",
        "global_code": "87G8Q23J+2W"
      },
      "price_level": 3,
      "rating": 3.9,
      "reference": "ChIJnefP_6vt2okR3aNjS2UbHP8",
      "scope": "GOOGLE",
      "types": [
        "bar",
        "point_of_interest",
        "establishment"
      ],
      "user_ratings_total": 93,
      "vicinity": "845 United Nations Plaza, New York"
    },
    {
      "business_status": "CLOSED_TEMPORARILY",
      "geometry": {
        "location": {
          "lat": 40.7513766,
          "lng": -73.9702121
        },
        "viewport": {
          "northeast": {
            "lat": 40.7527378802915,
            "lng": -73.96876416970849
          },
          "southwest": {
            "lat": 40.75003991970851,
            "lng": -73.97146213029151
          }
        }
      },
      "icon": "https://maps.gstatic.com/mapfiles/place_api/icons/v1/png_71/generic_business-71.png",
      "icon_background_color": "#7B9EB0",
      "icon_mask_base_uri": "https://maps.gstatic.com/mapfiles/place_api/icons/v2/generic_pinlet",
      "name": "Slade Elevator Inc",
      "permanently_closed": true,
      "place_id": "ChIJAQAAQB1ZwokRjYHbd4xjoig",
      "plus_code": {
        "compound_code": "Q22H+HW New York, NY, USA",
        "global_code": "87G8Q22H+HW"
      },
      "reference": "ChIJAQAAQB1ZwokRjYHbd4xjoig",
      "scope": "GOOGLE",
      "types": [
        "point_of_interest",
        "establishment"
      ],
      "vicinity": "1101 Bastal Rd, New York"
    },
    {
      "business_status": "OPERATIONAL",
      "geometry": {
        "location": {
          "lat": 40.75367190000001,
          "lng": -73.9700675
        },
        "viewport": {
          "northeast": {
            "lat": 40.7551089302915,
            "lng": -73.9686538197085
          },
          "southwest": {
            "lat": 40.7524109697085,
            "lng": -73.97135178029151
          }
        }
      },
      "icon": "https://maps.gstatic.com/mapfiles/place_api/icons/v1/png_71/civic_building-71.png",
      "icon_background_color": "#7B9EB0",
      "icon_mask_base_uri": "https://maps.gstatic.com/mapfiles/place_api/icons/v2/civic-bldg_pinlet",
      "name": "British Consulate General New York",
      "opening_hours": {
        "open_now": false
      },
      "place_id": "ChIJGW7mPuNYwokRXLp1pLEsv0I",
      "plus_code": {
        "compound_code": "Q23H+FX New York, NY, USA",
        "global_code": "87G8Q23H+FX"
      },
      "rating": 2.1,
      "reference": "ChIJGW7mPuNYwokRXLp1pLEsv0I",
      "scope": "GOOGLE",
      "types": [
        "embassy",
        "point_of_interest",
        "establishment"
      ],
      "user_ratings_total": 469,
      "vicinity": "885 2nd Avenue, New York"
    },
    {
      "business_status": "OPERATIONAL",
      "geometry": {
        "location": {
          "lat": 40.750049,
          "lng": -73.9716627
        },
        "viewport": {
          "northeast": {
            "lat": 40.75145858029151,
            "lng": -73.97045561970849
          },
          "southwest": {
            "lat": 40.74876061970851,
            "lng": -73.97315358029151
          }
        }
      },
      "icon": "https://maps.gstatic.com/mapfiles/place_api/icons/v1/png_71/generic_business-71.png",
      "icon_background_color": "#7B9EB0",
      "icon_mask_base_uri": "https://maps.gstatic.com/mapfiles/place_api/icons/v2/generic_pinlet",
      "name": "Parkmed NYC",
      "opening_hours": {
        "open_now": true
      },
      "photos": [
        {
          "height": 3024,
          "html_attributions": [
            "<a href=\"https://maps.google.com/maps/contrib/101287630456836638688\">Parkmed NYC</a>"
          ],
          "photo_reference": "AeJbb3cowZQwO3hxwznmB4diBNmd5r46vsXyNbXrs0GjdKuzVfnM2SVFztoZhxeMXiovaLybLjPEvadnJdtoTdhNMOsr_7ggVskwFz5ofs2QEWo19sw6D-MkF2fVRLSWmRpl-AH5KpR_N9Rqq9BEQ39qSxRpXEDk1Z__zbm6o2JrPPrRQFQM",
          "width": 4032
        }
      ],
      "place_id": "ChIJwzshOANZwokReGNHeezOYqs",
      "plus_code": {
        "compound_code": "Q22H+28 New York, NY, USA",
        "global_code": "87G8Q22H+28"
      },
      "rating": 4,
      "reference": "ChIJwzshOANZwokReGNHeezOYqs",
      "scope": "GOOGLE",
      "types": [
        "point_of_interest",
        "health",
        "establishment"
      ],
      "user_ratings_total": 248,
      "vicinity": "800 2nd Avenue #605, New York"
    },
    {
      "business_status": "OPERATIONAL",
      "geometry": {
        "location": {
          "lat": 40.7518441,
          "lng": -73.9714553
        },
        "viewport": {
          "northeast": {
            "lat": 40.7532583302915,
            "lng": -73.9700454197085
          },
          "southwest": {
            "lat": 40.7505603697085,
            "lng": -73.9727433802915
          }
        }
      },
      "icon": "https://maps.gstatic.com/mapfiles/place_api/icons/v1/png_71/shopping-71.png",
      "icon_background_color": "#4B96F3",
      "icon_mask_base_uri": "https://maps.gstatic.com/mapfiles/place_api/icons/v2/shoppingcart_pinlet",
      "name": "Amish Market East",
      "opening_hours": {
        "open_now": true
      },
      "photos": [
        {
          "height": 2592,
          "html_attributions": [
            "<a href=\"https://maps.google.com/maps/contrib/105735189217951887564\">Amish Market East</a>"
          ],
          "photo_reference": "AeJbb3fQj0CPan3tm6jO1jvyU7ZazyvYaG6XldF3y3_2jJZVzvKmeTkD5nn1MmzoQyrTFY0489_QZfknPkWTjegXFWmaHsGvDTX1OauqeGL_B7nKm-P4eP5gnIoGw1QBthVNruWodpJmEba5OdM8rwG97Hebq43bP4JwK2ErYVBglcITNWB4",
          "width": 3888
        }
      ],
      "place_id": "ChIJaTt-ywJZwokRp8aWnZvJLRQ",
      "plus_code": {
        "compound_code": "Q22H+PC New York, NY, USA",
        "global_code": "87G8Q22H+PC"
      },
      "price_level": 2,
      "rating": 4.4,
      "reference": "ChIJaTt-ywJZwokRp8aWnZvJLRQ",
      "scope": "GOOGLE",
      "types": [
        "grocery_or_supermarket",
        "cafe",
        "store",
        "restaurant",
        "point_of_interest",
        "food",
        "establishment"
      ],
      "user_ratings_total": 527,
      "vicinity": "240 East 45th Street, New York"
    },
    {
      "business_status": "OPERATIONAL",
      "geometry": {
        "location": {
          "lat": 40.7526651,
          "lng": -73.97265519999999
        },
        "viewport": {
          "northeast": {
            "lat": 40.75396123029151,
            "lng": -73.9713358697085
          },
          "southwest": {
            "lat": 40.75126326970851,
            "lng": -73.9740338302915
          }
        }
      },
      "icon": "https://maps.gstatic.com/mapfiles/place_api/icons/v1/png_71/restaurant-71.png",
      "icon_background_color": "#FF9E67",
      "icon_mask_base_uri": "https://maps.gstatic.com/mapfiles/place_api/icons/v2/restaurant_pinlet",
      "name": "The Perfect Pint",
      "opening_hours": {
        "open_now": true
      },
      "photos": [
        {
          "height": 667,
          "html_attributions": [
            "<a href=\"https://maps.google.com/maps/contrib/101145709811156233126\">The Perfect Pint</a>"
          ],
          "photo_reference": "AeJbb3fIkUBgIURKbeXmpjTJ2GL9P4dI3I11lC_DL14I5Q9RM9WadvmomBx4LTa1MK4_E0YGxsi3p1gx0yl2GuhwEw3V8Ddn_ptFxTZJcDzzLa132BzCv4vjK_YmKP-I0WDsloW2wM2V8uJvtJJZ0lwSJ0js5pENPbhGM0Xdh5EGlihUe3k7",
          "width": 1000
        }
      ],
      "place_id": "ChIJNynavQJZwokRaZVXO55O1FQ",
      "plus_code": {
        "compound_code": "Q23G+3W New York, NY, USA",
        "global_code": "87G8Q23G+3W"
      },
      "price_level": 2,
      "rating": 4.3,
      "reference": "ChIJNynavQJZwokRaZVXO55O1FQ",
      "scope": "GOOGLE",
      "types": [
        "bar",
        "restaurant",
        "point_of_interest",
        "food",
        "establishment"
      ],
      "user_ratings_total": 1301,
      "vicinity": "203 East 45th Street, New York"
    },
    {
      "business_status": "OPERATIONAL",
      "geometry": {
        "location": {
          "lat": 40.753283,
          "lng": -73.97105549999999
        },
        "viewport": {
          "northeast": {
            "lat": 40.7547132302915,
            "lng": -73.96964706970849
          },
          "southwest": {
            "lat": 40.7520152697085,
            "lng": -73.9723450302915
          }
        }
      },
      "icon": "https://maps.gstatic.com/mapfiles/place_api/icons/v1/png_71/school-71.png",
      "icon_background_color": "#7B9EB0",
      "icon_mask_base_uri": "https://maps.gstatic.com/mapfiles/place_api/icons/v2/school_pinlet",
      "name": "Little Stars Performing Arts",
      "place_id": "ChIJm91rq-JYwokREeszQHRNdPQ",
      "plus_code": {
        "compound_code": "Q23H+8H New York, NY, USA",
        "global_code": "87G8Q23H+8H"
      },
      "reference": "ChIJm91rq-JYwokREeszQHRNdPQ",
      "scope": "GOOGLE",
      "types": [
        "point_of_interest",
        "establishment"
      ],
      "vicinity": "224 East 47th Street, New York"
    },
    {
      "business_status": "OPERATIONAL",
      "geometry": {
        "location": {
          "lat": 40.75005780000001,
          "lng": -73.9716529
        },
        "viewport": {
          "northeast": {
            "lat": 40.7514679302915,
            "lng": -73.97044706970848
          },
          "southwest": {
            "lat": 40.7487699697085,
            "lng": -73.9731450302915
          }
        }
      },
      "icon": "https://maps.gstatic.com/mapfiles/place_api/icons/v1/png_71/generic_business-71.png",
      "icon_background_color": "#7B9EB0",
      "icon_mask_base_uri": "https://maps.gstatic.com/mapfiles/place_api/icons/v2/generic_pinlet",
      "name": "Dr. Nilfar Karimova, MD",
      "place_id": "ChIJwzshOANZwokR1lU9VLzMW2M",
      "plus_code": {
        "compound_code": "Q22H+28 New York, NY, USA",
        "global_code": "87G8Q22H+28"
      },
      "reference": "ChIJwzshOANZwokR1lU9VLzMW2M",
      "scope": "GOOGLE",
      "types": [
        "doctor",
        "point_of_interest",
        "health",
        "establishment"
      ],
      "vicinity": "800 2nd Avenue, New York"
    },
    {
      "business_status": "OPERATIONAL",
      "geometry": {
        "location": {
          "lat": 40.75005780000001,
          "lng": -73.9716529
        },
        "viewport": {
          "northeast": {
            "lat": 40.7514679302915,
            "lng": -73.97044706970848
          },
          "southwest": {
            "lat": 40.7487699697085,
            "lng": -73.9731450302915
          }
        }
      },
      "icon": "https://maps.gstatic.com/mapfiles/place_api/icons/v1/png_71/generic_business-71.png",
      "icon_background_color": "#7B9EB0",
      "icon_mask_base_uri": "https://maps.gstatic.com/mapfiles/place_api/icons/v2/generic_pinlet",
      "name": "Gold David J",
      "place_id": "ChIJlVCENwNZwokRmLY_SVtByeM",
      "plus_code": {
        "compound_code": "Q22H+28 New York, NY, USA",
        "global_code": "87G8Q22H+28"
      },
      "reference": "ChIJlVCENwNZwokRmLY_SVtByeM",
      "scope": "GOOGLE",
      "types": [
        "lawyer",
        "point_of_interest",
        "establishment"
      ],
      "vicinity": "800 2nd Avenue #810, New York"
    },
    {
      "business_status": "OPERATIONAL",
      "geometry": {
        "location": {
          "lat": 40.75246620000001,
          "lng": -73.9663698
        },
        "viewport": {
          "northeast": {
            "lat": 40.7537935802915,
            "lng": -73.96510031970848
          },
          "southwest": {
            "lat": 40.7510956197085,
            "lng": -73.96779828029149
          }
        }
      },
      "icon": "https://maps.gstatic.com/mapfiles/place_api/icons/v1/png_71/generic_business-71.png",
      "icon_background_color": "#7B9EB0",
      "icon_mask_base_uri": "https://maps.gstatic.com/mapfiles/place_api/icons/v2/generic_pinlet",
      "name": "Baha'i International Community",
      "opening_hours": {
        "open_now": false
      },
      "photos": [
        {
          "height": 2268,
          "html_attributions": [
            "<a href=\"https://maps.google.com/maps/contrib/108619409839206955800\">Baha&#39;i International Community</a>"
          ],
          "photo_reference": "AeJbb3fK5PJozir2n_XyFdYxgHOar-UUZNxs4aCSGRDgw6y6g9XivoZU6SjNQDcfBCKIbaBtHwlDQyu5zsJfvYIqM-sLICKNr5ArsIGrhwvqZe6Hlvdxq394ACxRttC1K7b5lUL03vL_rmWkc_WwSLA-a52dIUlsZNLV8piQuj8HOUaPgjri",
          "width": 3628
        }
      ],
      "place_id": "ChIJCV-r9h1ZwokRAB-W7au4Uxw",
      "plus_code": {
        "compound_code": "Q22M+XF New York, NY, USA",
        "global_code": "87G8Q22M+XF"
      },
      "rating": 4.9,
      "reference": "ChIJCV-r9h1ZwokRAB-W7au4Uxw",
      "scope": "GOOGLE",
      "types": [
        "point_of_interest",
        "establishment"
      ],
      "user_ratings_total": 8,
      "vicinity": "866 United Nations Plaza #120, New York"
    },
    {
      "business_status": "OPERATIONAL",
      "geometry": {
        "location": {
          "lat": 40.7519082,
          "lng": -73.9718228
        },
        "viewport": {
          "northeast": {
            "lat": 40.75336178029149,
            "lng": -73.97039611970848
          },
          "southwest": {
            "lat": 40.75066381970849,
            "lng": -73.9730940802915
          }
        }
      },
      "icon": "https://maps.gstatic.com/mapfiles/place_api/icons/v1/png_71/civic_building-71.png",
      "icon_background_color": "#7B9EB0",
      "icon_mask_base_uri": "https://maps.gstatic.com/mapfiles/place_api/icons/v2/civic-bldg_pinlet",
      "name": "America on Demand",
      "place_id": "ChIJw3bezgJZwokRuoU0SgNGcPc",
      "plus_code": {
        "compound_code": "Q22H+Q7 New York, NY, USA",
        "global_code": "87G8Q22H+Q7"
      },
      "reference": "ChIJw3bezgJZwokRuoU0SgNGcPc",
      "scope": "GOOGLE",
      "types": [
        "point_of_interest",
        "establishment"
      ],
      "vicinity": "228 East 45th Street, New York"
    },
    {
      "business_status": "OPERATIONAL",
      "geometry": {
        "location": {
          "lat": 40.7512203,
          "lng": -73.9738251
        },
        "viewport": {
          "northeast": {
            "lat": 40.7524894302915,
            "lng": -73.97267771970849
          },
          "southwest": {
            "lat": 40.7497914697085,
            "lng": -73.97537568029149
          }
        }
      },
      "icon": "https://maps.gstatic.com/mapfiles/place_api/icons/v1/png_71/shopping-71.png",
      "icon_background_color": "#4B96F3",
      "icon_mask_base_uri": "https://maps.gstatic.com/mapfiles/place_api/icons/v2/shopping_pinlet",
      "name": "Staples",
      "opening_hours": {
        "open_now": true
      },
      "photos": [
        {
          "height": 2448,
          "html_attributions": [
            "<a href=\"https://maps.google.com/maps/contrib/109028906014708659267\">Leo O</a>"
          ],
          "photo_reference": "AeJbb3eMajVV9G8jcCAu9wm3klg15PkxAaa1AO24ygJF4h66NbxCPCYx-bgTPxOsujnzL_V8vBm2JajiaARwepydcMmDsYqBr-PlrNA6vqETS4b8piuVJnfVT5HVTS0KOniiMimJ9fnFInnq_QSb5jbBrLblrOlDtOklgoc3hEIf0yCz9CEV",
          "width": 3264
        }
      ],
      "place_id": "ChIJd5X4zalZwokR8HwFrpqhZTM",
      "plus_code": {
        "compound_code": "Q22G+FF New York, NY, USA",
        "global_code": "87G8Q22G+FF"
      },
      "price_level": 2,
      "rating": 3.3,
      "reference": "ChIJd5X4zalZwokR8HwFrpqhZTM",
      "scope": "GOOGLE",
      "types": [
        "furniture_store",
        "electronics_store",
        "home_goods_store",
        "store",
        "point_of_interest",
        "establishment"
      ],
      "user_ratings_total": 86,
      "vicinity": "675 3rd Avenue, New York"
    },
    {
      "business_status": "OPERATIONAL",
      "geometry": {
        "location": {
          "lat": 40.75255089999999,
          "lng": -73.9722768
        },
        "viewport": {
          "northeast": {
            "lat": 40.7538310802915,
            "lng": -73.9709701197085
          },
          "southwest": {
            "lat": 40.7511331197085,
            "lng": -73.9736680802915
          }
        }
      },
      "icon": "https://maps.gstatic.com/mapfiles/place_api/icons/v1/png_71/restaurant-71.png",
      "icon_background_color": "#FF9E67",
      "icon_mask_base_uri": "https://maps.gstatic.com/mapfiles/place_api/icons/v2/restaurant_pinlet",
      "name": "Aburiya Kinnosuke",
      "opening_hours": {
        "open_now": false
      },
      "photos": [
        {
          "height": 2615,
          "html_attributions": [
            "<a href=\"https://maps.google.com/maps/contrib/106406626731532925074\">Aburiya Kinnosuke</a>"
          ],
          "photo_reference": "AeJbb3fCT3BTwYQa9F3aQHao4uI4OQOreRMX94RUvGZHrP72kp0z3skYrJHbEvbJkK2wA8NbdRrqh45qnTbUTpnaj0CMgjG7I0NL9F7CU5W9HAK6Pk5YPDqEJD1MZKJB8obQLb6ibBqLdGkLiGh31i19D9OSo_DJkOSTuYuzUBtes9A8cpJQ",
          "width": 3500
        }
      ],
      "place_id": "ChIJDQVduQJZwokRakKPayUL-c8",
      "plus_code": {
        "compound_code": "Q23H+23 New York, NY, USA",
        "global_code": "87G8Q23H+23"
      },
      "price_level": 3,
      "rating": 4.3,
      "reference": "ChIJDQVduQJZwokRakKPayUL-c8",
      "scope": "GOOGLE",
      "types": [
        "restaurant",
        "point_of_interest",
        "food",
        "establishment"
      ],
      "user_ratings_total": 454,
      "vicinity": "213 East 45th Street, New York"
    },
    {
      "business_status": "OPERATIONAL",
      "geometry": {
        "location": {
          "lat": 40.7509446,
          "lng": -73.97386879999999
        },
        "viewport": {
          "northeast": {
            "lat": 40.7523678302915,
            "lng": -73.97269471970849
          },
          "southwest": {
            "lat": 40.7496698697085,
            "lng": -73.9753926802915
          }
        }
      },
      "icon": "https://maps.gstatic.com/mapfiles/place_api/icons/v1/png_71/generic_business-71.png",
      "icon_background_color": "#7B9EB0",
      "icon_mask_base_uri": "https://maps.gstatic.com/mapfiles/place_api/icons/v2/generic_pinlet",
      "name": "Schwartz LLC Counsellors at Law",
      "opening_hours": {
        "open_now": false
      },
      "place_id": "ChIJK7XhT_lYwokRFUAgHEEO5OY",
      "plus_code": {
        "compound_code": "Q22G+9F New York, NY, USA",
        "global_code": "87G8Q22G+9F"
      },
      "reference": "ChIJK7XhT_lYwokRFUAgHEEO5OY",
      "scope": "GOOGLE",
      "types": [
        "lawyer",
        "point_of_interest",
        "establishment"
      ],
      "vicinity": "675 3rd Avenue, New York"
    },
    {
      "business_status": "OPERATIONAL",
      "geometry": {
        "location": {
          "lat": 40.7519151,
          "lng": -73.97182819999999
        },
        "viewport": {
          "northeast": {
            "lat": 40.75336693029151,
            "lng": -73.97040281970848
          },
          "southwest": {
            "lat": 40.75066896970851,
            "lng": -73.97310078029149
          }
        }
      },
      "icon": "https://maps.gstatic.com/mapfiles/place_api/icons/v1/png_71/generic_business-71.png",
      "icon_background_color": "#7B9EB0",
      "icon_mask_base_uri": "https://maps.gstatic.com/mapfiles/place_api/icons/v2/generic_pinlet",
      "name": "Birches Group LLC",
      "opening_hours": {
        "open_now": false
      },
      "place_id": "ChIJw3bezgJZwokR8XiCCLG5a6s",
      "plus_code": {
        "compound_code": "Q22H+Q7 New York, NY, USA",
        "global_code": "87G8Q22H+Q7"
      },
      "reference": "ChIJw3bezgJZwokR8XiCCLG5a6s",
      "scope": "GOOGLE",
      "types": [
        "point_of_interest",
        "establishment"
      ],
      "vicinity": "228 East 45th Street #12 floor south, New York"
    },
    {
      "business_status": "OPERATIONAL",
      "geometry": {
        "location": {
          "lat": 40.7526695,
          "lng": -73.972747
        },
        "viewport": {
          "northeast": {
            "lat": 40.7539808802915,
            "lng": -73.97138346970848
          },
          "southwest": {
            "lat": 40.7512829197085,
            "lng": -73.9740814302915
          }
        }
      },
      "icon": "https://maps.gstatic.com/mapfiles/place_api/icons/v1/png_71/generic_business-71.png",
      "icon_background_color": "#7B9EB0",
      "icon_mask_base_uri": "https://maps.gstatic.com/mapfiles/place_api/icons/v2/generic_pinlet",
      "name": "Rosenberg & Estis, P.C.",
      "opening_hours": {
        "open_now": false
      },
      "photos": [
        {
          "height": 788,
          "html_attributions": [
            "<a href=\"https://maps.google.com/maps/contrib/107544211800109029972\">Rosenberg &amp; Estis, P.C.</a>"
          ],
          "photo_reference": "AeJbb3f1Cx45brXQRy_rWu4tzrM9ay_xHkUYWo5QVpRfEy6nWojp0hYQR_RXcRo97cjPJ5JvPWqdoCFMUPtBXP5rB2B3mSbEBXYK9PaD0AhL_2SlmUOToDFi9RJ_SDdzk6KnzJwukIKGPNekEfq3NfWJ_JS9nnvBi_3opQxp6wJrlxXke8p2",
          "width": 1710
        }
      ],
      "place_id": "ChIJsb4luwJZwokRlguTrzZRhZQ",
      "plus_code": {
        "compound_code": "Q23G+3W New York, NY, USA",
        "global_code": "87G8Q23G+3W"
      },
      "rating": 4.6,
      "reference": "ChIJsb4luwJZwokRlguTrzZRhZQ",
      "scope": "GOOGLE",
      "types": [
        "lawyer",
        "point_of_interest",
        "establishment"
      ],
      "user_ratings_total": 25,
      "vicinity": "733 3rd Avenue, New York"
    },
    {
      "business_status": "OPERATIONAL",
      "geometry": {
        "location": {
          "lat": 40.7519708,
          "lng": -73.9717715
        },
        "viewport": {
          "northeast": {
            "lat": 40.75339228029149,
            "lng": -73.97036866970849
          },
          "southwest": {
            "lat": 40.7506943197085,
            "lng": -73.9730666302915
          }
        }
      },
      "icon": "https://maps.gstatic.com/mapfiles/place_api/icons/v1/png_71/generic_business-71.png",
      "icon_background_color": "#7B9EB0",
      "icon_mask_base_uri": "https://maps.gstatic.com/mapfiles/place_api/icons/v2/generic_pinlet",
      "name": "Warren & Panzer Engineers PC",
      "opening_hours": {
        "open_now": false
      },
      "place_id": "ChIJw3bezgJZwokRK2MtZP2er-E",
      "plus_code": {
        "compound_code": "Q22H+Q7 New York, NY, USA",
        "global_code": "87G8Q22H+Q7"
      },
      "reference": "ChIJw3bezgJZwokRK2MtZP2er-E",
      "scope": "GOOGLE",
      "types": [
        "point_of_interest",
        "establishment"
      ],
      "vicinity": "228 East 45th Street, New York"
    },
    {
      "business_status": "OPERATIONAL",
      "geometry": {
        "location": {
          "lat": 40.75171630000001,
          "lng": -73.97228439999999
        },
        "viewport": {
          "northeast": {
            "lat": 40.75299023029151,
            "lng": -73.97099346970849
          },
          "southwest": {
            "lat": 40.75029226970851,
            "lng": -73.9736914302915
          }
        }
      },
      "icon": "https://maps.gstatic.com/mapfiles/place_api/icons/v1/png_71/restaurant-71.png",
      "icon_background_color": "#FF9E67",
      "icon_mask_base_uri": "https://maps.gstatic.com/mapfiles/place_api/icons/v2/restaurant_pinlet",
      "name": "Overlook",
      "opening_hours": {
        "open_now": true
      },
      "photos": [
        {
          "height": 1960,
          "html_attributions": [
            "<a href=\"https://maps.google.com/maps/contrib/112239579769992419305\">Craig Bona</a>"
          ],
          "photo_reference": "AeJbb3dD-r6zQWmOafKcQqo1AG772En0qshLk1yEbuvw9HVFzR-H8PV417nmFXJlYNThYEDazvfy7_O8yklQ6WCsVLuifw_WPI3_i5Hrty4dY1FfTI3QQC5b-E3ZaJQ26vvgTP_wKuOPuP-IwdmLU0jqIRxa_pnqJ4eDz3zXPtYVH948Rsf8",
          "width": 4032
        }
      ],
      "place_id": "ChIJt3rcxAJZwokR35W740GarDI",
      "plus_code": {
        "compound_code": "Q22H+M3 New York, NY, USA",
        "global_code": "87G8Q22H+M3"
      },
      "price_level": 2,
      "rating": 4.1,
      "reference": "ChIJt3rcxAJZwokR35W740GarDI",
      "scope": "GOOGLE",
      "types": [
        "restaurant",
        "bar",
        "point_of_interest",
        "food",
        "establishment"
      ],
      "user_ratings_total": 404,
      "vicinity": "225 East 44th Street, New York"
    },
    {
      "business_status": "OPERATIONAL",
      "geometry": {
        "location": {
          "lat": 40.7525325,
          "lng": -73.9733874
        },
        "viewport": {
          "northeast": {
            "lat": 40.7538455802915,
            "lng": -73.97195591970849
          },
          "southwest": {
            "lat": 40.7511476197085,
            "lng": -73.9746538802915
          }
        }
      },
      "icon": "https://maps.gstatic.com/mapfiles/place_api/icons/v1/png_71/restaurant-71.png",
      "icon_background_color": "#FF9E67",
      "icon_mask_base_uri": "https://maps.gstatic.com/mapfiles/place_api/icons/v2/restaurant_pinlet",
      "name": "Bierhaus NYC",
      "opening_hours": {
        "open_now": true
      },
      "photos": [
        {
          "height": 9000,
          "html_attributions": [
            "<a href=\"https://maps.google.com/maps/contrib/109855132167827126827\">Aron Garza</a>"
          ],
          "photo_reference": "AeJbb3eGTubVCOytVAxpsD5SGZpS08Xm-2VpvWss-eKOgC85IXpiInMTI90sRnSgOTDrS-Ary0VTIbh9JkpNYB7xNRPjhuAyS8wg11q9tH69BtzP4_j5RDhh7pMUj98lkOFSen965QV6LDHXz-O2KHYIzw68kz3GA7IbuksFYpR9txhNWG-A",
          "width": 12000
        }
      ],
      "place_id": "ChIJKeZ6jQJZwokRZit5kTgxqgc",
      "plus_code": {
        "compound_code": "Q23G+2J New York, NY, USA",
        "global_code": "87G8Q23G+2J"
      },
      "price_level": 2,
      "rating": 4.3,
      "reference": "ChIJKeZ6jQJZwokRZit5kTgxqgc",
      "scope": "GOOGLE",
      "types": [
        "bar",
        "restaurant",
        "food",
        "point_of_interest",
        "establishment"
      ],
      "user_ratings_total": 2608,
      "vicinity": "712 3rd Avenue, New York"
    },
    {
      "business_status": "OPERATIONAL",
      "geometry": {
        "location": {
          "lat": 40.75128459999999,
          "lng": -73.9730738
        },
        "viewport": {
          "northeast": {
            "lat": 40.75255313029149,
            "lng": -73.9717843697085
          },
          "southwest": {
            "lat": 40.74985516970849,
            "lng": -73.97448233029151
          }
        }
      },
      "icon": "https://maps.gstatic.com/mapfiles/place_api/icons/v1/png_71/generic_business-71.png",
      "icon_background_color": "#7B9EB0",
      "icon_mask_base_uri": "https://maps.gstatic.com/mapfiles/place_api/icons/v2/generic_pinlet",
      "name": "Nathan Thoma, PhD",
      "place_id": "ChIJ-Tk87ABZwokRUzsBbpRcam4",
      "plus_code": {
        "compound_code": "Q22G+GQ New York, NY, USA",
        "global_code": "87G8Q22G+GQ"
      },
      "reference": "ChIJ-Tk87ABZwokRUzsBbpRcam4",
      "scope": "GOOGLE",
      "types": [
        "health",
        "point_of_interest",
        "establishment"
      ],
      "vicinity": "211 East 43rd Street #1305, New York"
    },
    {
      "business_status": "OPERATIONAL",
      "geometry": {
        "location": {
          "lat": 40.7532179,
          "lng": -73.9669837
        },
        "viewport": {
          "northeast": {
            "lat": 40.75451528029149,
            "lng": -73.9655411197085
          },
          "southwest": {
            "lat": 40.7518173197085,
            "lng": -73.96823908029151
          }
        }
      },
      "icon": "https://maps.gstatic.com/mapfiles/place_api/icons/v1/png_71/civic_building-71.png",
      "icon_background_color": "#7B9EB0",
      "icon_mask_base_uri": "https://maps.gstatic.com/mapfiles/place_api/icons/v2/civic-bldg_pinlet",
      "name": "Consulate General of Germany",
      "opening_hours": {
        "open_now": false
      },
      "photos": [
        {
          "height": 4032,
          "html_attributions": [
            "<a href=\"https://maps.google.com/maps/contrib/106120437381065423414\">Kirill Evseev</a>"
          ],
          "photo_reference": "AeJbb3eiTeo6QVP6g8nXdyF4MmjQQss7mKeRWi3qjQuXxcWbUVi-qTIGehhGnnh3_LoA7XGQwLRsiZos-VTRSNvPs0NXgXGI-RVq19016GEnOmynj9KWJxjl9K-S9l85NfoQQ6JPcu7XrdWNEv3F7YXiSQ8OMKiNOTeUWXLybkLn6QBf_VG9",
          "width": 3024
        }
      ],
      "place_id": "ChIJH_6ac-JYwokRcs-Fixz76WM",
      "plus_code": {
        "compound_code": "Q23M+76 New York, NY, USA",
        "global_code": "87G8Q23M+76"
      },
      "rating": 4.1,
      "reference": "ChIJH_6ac-JYwokRcs-Fixz76WM",
      "scope": "GOOGLE",
      "types": [
        "embassy",
        "point_of_interest",
        "establishment"
      ],
      "user_ratings_total": 105,
      "vicinity": "871 United Nations Plaza, New York"
    },
    {
      "business_status": "OPERATIONAL",
      "geometry": {
        "location": {
          "lat": 40.7514102,
          "lng": -73.97310089999999
        },
        "viewport": {
          "northeast": {
            "lat": 40.7526304302915,
            "lng": -73.97184431970848
          },
          "southwest": {
            "lat": 40.7499324697085,
            "lng": -73.9745422802915
          }
        }
      },
      "icon": "https://maps.gstatic.com/mapfiles/place_api/icons/v1/png_71/restaurant-71.png",
      "icon_background_color": "#FF9E67",
      "icon_mask_base_uri": "https://maps.gstatic.com/mapfiles/place_api/icons/v2/restaurant_pinlet",
      "name": "Soba Totto",
      "opening_hours": {
        "open_now": false
      },
      "photos": [
        {
          "height": 3024,
          "html_attributions": [
            "<a href=\"https://maps.google.com/maps/contrib/100335232852148192677\">Brendan A. MacWade</a>"
          ],
          "photo_reference": "AeJbb3f8omebSqO1pdrlDCc04oT6KuwTEBVVEd9KY3PdK7OlMmklwy9auCyBp8h5IXBXYlBXpr91Jo_YGi1xXFSFJuX_KEn7EtrPtWWWCbrlHFRE_zoWBHnjPZNkjtOeXycXl2vGzs6uO57VNbhnuV6GcOQsPjrad4ZTycn5Y9T3-_bhnUc2",
          "width": 4032
        }
      ],
      "place_id": "ChIJ14y5HwNZwokRrNpTpUqpB7Q",
      "plus_code": {
        "compound_code": "Q22G+HQ New York, NY, USA",
        "global_code": "87G8Q22G+HQ"
      },
      "price_level": 2,
      "rating": 4.4,
      "reference": "ChIJ14y5HwNZwokRrNpTpUqpB7Q",
      "scope": "GOOGLE",
      "types": [
        "bar",
        "restaurant",
        "food",
        "point_of_interest",
        "establishment"
      ],
      "user_ratings_total": 645,
      "vicinity": "211 East 43rd Street, New York"
    },
    {
      "business_status": "OPERATIONAL",
      "geometry": {
        "location": {
          "lat": 40.7509371,
          "lng": -73.9702846
        },
        "viewport": {
          "northeast": {
            "lat": 40.7522003802915,
            "lng": -73.96900076970849
          },
          "southwest": {
            "lat": 40.7495024197085,
            "lng": -73.9716987302915
          }
        }
      },
      "icon": "https://maps.gstatic.com/mapfiles/place_api/icons/v1/png_71/generic_business-71.png",
      "icon_background_color": "#7B9EB0",
      "icon_mask_base_uri": "https://maps.gstatic.com/mapfiles/place_api/icons/v2/generic_pinlet",
      "name": "The Beaux Arts",
      "opening_hours": {
        "open_now": true
      },
      "photos": [
        {
          "height": 500,
          "html_attributions": [
            "<a href=\"https://maps.google.com/maps/contrib/103090265833806424447\">The Beaux Arts</a>"
          ],
          "photo_reference": "AeJbb3ec-1zcMM5tyDh6cZ3sKSo8xHmr14LsweOD5QxVj5qfOmJHWo68QNydWvxzLzkmb3p1tDfczV7AYr7hAqoRZYqA8snOx5PtcncPhFw40L3sTN1vzU7NoE_qCalLghhUgV9FQsfk2IlaE_zGbZqXOoJFUDzBLKIhZxRoSdRP4CSDBpU9",
          "width": 800
        }
      ],
      "place_id": "ChIJ9d0w2BxZwokR-iFKncILCh4",
      "plus_code": {
        "compound_code": "Q22H+9V New York, NY, USA",
        "global_code": "87G8Q22H+9V"
      },
      "rating": 4.5,
      "reference": "ChIJ9d0w2BxZwokR-iFKncILCh4",
      "scope": "GOOGLE",
      "types": [
        "point_of_interest",
        "establishment"
      ],
      "user_ratings_total": 34,
      "vicinity": "307-310 East 44th Street, New York"
    },
    {
      "business_status": "OPERATIONAL",
      "geometry": {
        "location": {
          "lat": 40.7519551,
          "lng": -73.9717749
        },
        "viewport": {
          "northeast": {
            "lat": 40.7533831302915,
            "lng": -73.97036721970849
          },
          "southwest": {
            "lat": 40.7506851697085,
            "lng": -73.97306518029151
          }
        }
      },
      "icon": "https://maps.gstatic.com/mapfiles/place_api/icons/v1/png_71/generic_business-71.png",
      "icon_background_color": "#7B9EB0",
      "icon_mask_base_uri": "https://maps.gstatic.com/mapfiles/place_api/icons/v2/generic_pinlet",
      "name": "TLV Group",
      "place_id": "ChIJw3bezgJZwokR6axsKSGVhFo",
      "plus_code": {
        "compound_code": "Q22H+Q7 New York, NY, USA",
        "global_code": "87G8Q22H+Q7"
      },
      "reference": "ChIJw3bezgJZwokR6axsKSGVhFo",
      "scope": "GOOGLE",
      "types": [
        "finance",
        "point_of_interest",
        "establishment"
      ],
      "vicinity": "228 East 45th Street #1801, New York"
    },
    {
      "business_status": "OPERATIONAL",
      "geometry": {
        "location": {
          "lat": 40.7519151,
          "lng": -73.97182819999999
        },
        "viewport": {
          "northeast": {
            "lat": 40.75336693029151,
            "lng": -73.97040281970848
          },
          "southwest": {
            "lat": 40.75066896970851,
            "lng": -73.97310078029149
          }
        }
      },
      "icon": "https://maps.gstatic.com/mapfiles/place_api/icons/v1/png_71/generic_business-71.png",
      "icon_background_color": "#7B9EB0",
      "icon_mask_base_uri": "https://maps.gstatic.com/mapfiles/place_api/icons/v2/generic_pinlet",
      "name": "Single Parent Resource Center, Inc.",
      "opening_hours": {
        "open_now": false
      },
      "place_id": "ChIJw3bezgJZwokRIaAhrFc4aF8",
      "plus_code": {
        "compound_code": "Q22H+Q7 New York, NY, USA",
        "global_code": "87G8Q22H+Q7"
      },
      "rating": 4.6,
      "reference": "ChIJw3bezgJZwokRIaAhrFc4aF8",
      "scope": "GOOGLE",
      "types": [
        "health",
        "point_of_interest",
        "establishment"
      ],
      "user_ratings_total": 7,
      "vicinity": "228 East 45th Street 5th Fl, New York"
    },
    {
      "business_status": "OPERATIONAL",
      "geometry": {
        "location": {
          "lat": 40.7519483,
          "lng": -73.9717691
        },
        "viewport": {
          "northeast": {
            "lat": 40.7533779302915,
            "lng": -73.9703601697085
          },
          "southwest": {
            "lat": 40.7506799697085,
            "lng": -73.9730581302915
          }
        }
      },
      "icon": "https://maps.gstatic.com/mapfiles/place_api/icons/v1/png_71/generic_business-71.png",
      "icon_background_color": "#7B9EB0",
      "icon_mask_base_uri": "https://maps.gstatic.com/mapfiles/place_api/icons/v2/generic_pinlet",
      "name": "CFS Engineering",
      "photos": [
        {
          "height": 4032,
          "html_attributions": [
            "<a href=\"https://maps.google.com/maps/contrib/110229398390276187005\">Vignesh M</a>"
          ],
          "photo_reference": "AeJbb3eEFt9gOQLiSARt8RwLyeANT9yPHoWgtudqj6DSsunh-8eXZ_DiianHoQKgYIOLXHLPBKocMInjcCNIKGg-nUJZeV3GxUfaQ8Sa6PxVXp9i6DQNyEMCORfKOVaw-LRqMIT4qUrqmnBbHs1Xe2zC1N9Ijh3a5kZKCVdMGZI_vISX3Zp6",
          "width": 3024
        }
      ],
      "place_id": "ChIJw3bezgJZwokRNJGGyY9Fv2Q",
      "plus_code": {
        "compound_code": "Q22H+Q7 New York, NY, USA",
        "global_code": "87G8Q22H+Q7"
      },
      "rating": 5,
      "reference": "ChIJw3bezgJZwokRNJGGyY9Fv2Q",
      "scope": "GOOGLE",
      "types": [
        "point_of_interest",
        "establishment"
      ],
      "user_ratings_total": 3,
      "vicinity": "228 East 45th Street #5, New York"
    },
    {
      "business_status": "OPERATIONAL",
      "geometry": {
        "location": {
          "lat": 40.7519551,
          "lng": -73.9717749
        },
        "viewport": {
          "northeast": {
            "lat": 40.7533831302915,
            "lng": -73.97036721970849
          },
          "southwest": {
            "lat": 40.7506851697085,
            "lng": -73.97306518029151
          }
        }
      },
      "icon": "https://maps.gstatic.com/mapfiles/place_api/icons/v1/png_71/generic_business-71.png",
      "icon_background_color": "#7B9EB0",
      "icon_mask_base_uri": "https://maps.gstatic.com/mapfiles/place_api/icons/v2/generic_pinlet",
      "name": "America Works",
      "opening_hours": {
        "open_now": false
      },
      "photos": [
        {
          "height": 4128,
          "html_attributions": [
            "<a href=\"https://maps.google.com/maps/contrib/104826847654895225008\">J Bahr</a>"
          ],
          "photo_reference": "AeJbb3cHhseoWDntQkzwlNmriTgy3hJwJ6jMKM-GqYLjcvPrEd5aV0kYaQx_txnFZ2ExY3lIYcBUmZGB7FI2pVp_03AZ465DZ4ZPCfTVXIlcTirGtoZNEWV86mJnCX4AUnhX61gfIN2XYKQw_PfFYhz-2m6e0I5SVsXs45HAVEwjXlguIXqK",
          "width": 3096
        }
      ],
      "place_id": "ChIJw3bezgJZwokRt0i7AqU5j8o",
      "plus_code": {
        "compound_code": "Q22H+Q7 New York, NY, USA",
        "global_code": "87G8Q22H+Q7"
      },
      "rating": 2.7,
      "reference": "ChIJw3bezgJZwokRt0i7AqU5j8o",
      "scope": "GOOGLE",
      "types": [
        "point_of_interest",
        "establishment"
      ],
      "user_ratings_total": 16,
      "vicinity": "228 East 45th Street #16, New York"
    },
    {
      "business_status": "OPERATIONAL",
      "geometry": {
        "location": {
          "lat": 40.7519393,
          "lng": -73.97177839999999
        },
        "viewport": {
          "northeast": {
            "lat": 40.75337388029151,
            "lng": -73.97036581970849
          },
          "southwest": {
            "lat": 40.75067591970851,
            "lng": -73.9730637802915
          }
        }
      },
      "icon": "https://maps.gstatic.com/mapfiles/place_api/icons/v1/png_71/generic_business-71.png",
      "icon_background_color": "#7B9EB0",
      "icon_mask_base_uri": "https://maps.gstatic.com/mapfiles/place_api/icons/v2/generic_pinlet",
      "name": "Foreht Last Landau Katz",
      "place_id": "ChIJw3bezgJZwokRb-r-egKy2cI",
      "plus_code": {
        "compound_code": "Q22H+Q7 New York, NY, USA",
        "global_code": "87G8Q22H+Q7"
      },
      "rating": 5,
      "reference": "ChIJw3bezgJZwokRb-r-egKy2cI",
      "scope": "GOOGLE",
      "types": [
        "lawyer",
        "point_of_interest",
        "establishment"
      ],
      "user_ratings_total": 1,
      "vicinity": "228 East 45th Street #17, New York"
    },
    {
      "business_status": "OPERATIONAL",
      "geometry": {
        "location": {
          "lat": 40.7519393,
          "lng": -73.97177839999999
        },
        "viewport": {
          "northeast": {
            "lat": 40.75337388029151,
            "lng": -73.97036581970849
          },
          "southwest": {
            "lat": 40.75067591970851,
            "lng": -73.9730637802915
          }
        }
      },
      "icon": "https://maps.gstatic.com/mapfiles/place_api/icons/v1/png_71/generic_business-71.png",
      "icon_background_color": "#7B9EB0",
      "icon_mask_base_uri": "https://maps.gstatic.com/mapfiles/place_api/icons/v2/generic_pinlet",
      "name": "Saville A Mallach Law Office",
      "place_id": "ChIJw3bezgJZwokRlcC5UdLvxII",
      "plus_code": {
        "compound_code": "Q22H+Q7 New York, NY, USA",
        "global_code": "87G8Q22H+Q7"
      },
      "reference": "ChIJw3bezgJZwokRlcC5UdLvxII",
      "scope": "GOOGLE",
      "types": [
        "lawyer",
        "point_of_interest",
        "establishment"
      ],
      "vicinity": "228 East 45th Street #17, New York"
    },
    {
      "business_status": "OPERATIONAL",
      "geometry": {
        "location": {
          "lat": 40.751077,
          "lng": -73.9738022
        },
        "viewport": {
          "northeast": {
            "lat": 40.7524951802915,
            "lng": -73.97261616970849
          },
          "southwest": {
            "lat": 40.7497972197085,
            "lng": -73.9753141302915
          }
        }
      },
      "icon": "https://maps.gstatic.com/mapfiles/place_api/icons/v1/png_71/generic_business-71.png",
      "icon_background_color": "#7B9EB0",
      "icon_mask_base_uri": "https://maps.gstatic.com/mapfiles/place_api/icons/v2/generic_pinlet",
      "name": "Private Export Funding Corporation",
      "photos": [
        {
          "height": 1068,
          "html_attributions": [
            "<a href=\"https://maps.google.com/maps/contrib/111421349038162921377\">Dmitry T</a>"
          ],
          "photo_reference": "AeJbb3dNfc5rEl2GEimm5bCAjqnpPDZxAHmBu9xrZ1l-cRUbvfUiGFXE0Y0iq99gopSMage0Y8mTkzr8SnLu4Tcklh1wGCrwtMxhD0nRupt-hQ1Om81gdIx2adnnfXRQq_fgh7te1eC0NB8PPfBDz6Q6Que71ocJU2oSgkn1enekDVMB0hjS",
          "width": 2039
        }
      ],
      "place_id": "ChIJyVvFUvxYwokRD_aBgqG9giY",
      "plus_code": {
        "compound_code": "Q22G+CF New York, NY, USA",
        "global_code": "87G8Q22G+CF"
      },
      "reference": "ChIJyVvFUvxYwokRD_aBgqG9giY",
      "scope": "GOOGLE",
      "types": [
        "finance",
        "point_of_interest",
        "establishment"
      ],
      "vicinity": "675 3rd Avenue, New York"
    },
    {
      "business_status": "OPERATIONAL",
      "geometry": {
        "location": {
          "lat": 40.750816,
          "lng": -73.971091
        },
        "viewport": {
          "northeast": {
            "lat": 40.7522274302915,
            "lng": -73.96988736970849
          },
          "southwest": {
            "lat": 40.7495294697085,
            "lng": -73.97258533029151
          }
        }
      },
      "icon": "https://maps.gstatic.com/mapfiles/place_api/icons/v1/png_71/generic_business-71.png",
      "icon_background_color": "#7B9EB0",
      "icon_mask_base_uri": "https://maps.gstatic.com/mapfiles/place_api/icons/v2/generic_pinlet",
      "name": "Barbados Tourist Authority",
      "place_id": "ChIJR_RD1BxZwokRtG3Kg8JWwiw",
      "plus_code": {
        "compound_code": "Q22H+8H New York, NY, USA",
        "global_code": "87G8Q22H+8H"
      },
      "rating": 5,
      "reference": "ChIJR_RD1BxZwokRtG3Kg8JWwiw",
      "scope": "GOOGLE",
      "types": [
        "travel_agency",
        "point_of_interest",
        "establishment"
      ],
      "user_ratings_total": 1,
      "vicinity": "820 2nd Avenue #5, New York"
    },
    {
      "business_status": "OPERATIONAL",
      "geometry": {
        "location": {
          "lat": 40.7498855,
          "lng": -73.9732203
        },
        "viewport": {
          "northeast": {
            "lat": 40.7513741302915,
            "lng": -73.97173811970849
          },
          "southwest": {
            "lat": 40.7486761697085,
            "lng": -73.9744360802915
          }
        }
      },
      "icon": "https://maps.gstatic.com/mapfiles/place_api/icons/v1/png_71/generic_business-71.png",
      "icon_background_color": "#7B9EB0",
      "icon_mask_base_uri": "https://maps.gstatic.com/mapfiles/place_api/icons/v2/generic_pinlet",
      "name": "LLNS",
      "place_id": "ChIJzUyaEwNZwokR3MELJ0eylWo",
      "plus_code": {
        "compound_code": "P2XG+XP New York, NY, USA",
        "global_code": "87G8P2XG+XP"
      },
      "reference": "ChIJzUyaEwNZwokR3MELJ0eylWo",
      "scope": "GOOGLE",
      "types": [
        "point_of_interest",
        "establishment"
      ],
      "vicinity": "220 East 42nd Street, New York"
    },
    {
      "business_status": "CLOSED_TEMPORARILY",
      "geometry": {
        "location": {
          "lat": 40.7521613,
          "lng": -73.9728351
        },
        "viewport": {
          "northeast": {
            "lat": 40.7533647302915,
            "lng": -73.9717038197085
          },
          "southwest": {
            "lat": 40.7506667697085,
            "lng": -73.97440178029152
          }
        }
      },
      "icon": "https://maps.gstatic.com/mapfiles/place_api/icons/v1/png_71/civic_building-71.png",
      "icon_background_color": "#7B9EB0",
      "icon_mask_base_uri": "https://maps.gstatic.com/mapfiles/place_api/icons/v2/civic-bldg_pinlet",
      "name": "Parade Publications Inc",
      "permanently_closed": true,
      "place_id": "ChIJ63SD6wJZwokRFb-veHOkA1U",
      "plus_code": {
        "compound_code": "Q22G+VV New York, NY, USA",
        "global_code": "87G8Q22G+VV"
      },
      "reference": "ChIJ63SD6wJZwokRFb-veHOkA1U",
      "scope": "GOOGLE",
      "types": [
        "library",
        "point_of_interest",
        "establishment"
      ],
      "vicinity": "711 3rd Avenue # 7, New York"
    },
    {
      "business_status": "OPERATIONAL",
      "geometry": {
        "location": {
          "lat": 40.7509174,
          "lng": -73.9712414
        },
        "viewport": {
          "northeast": {
            "lat": 40.7522442802915,
            "lng": -73.9699521197085
          },
          "southwest": {
            "lat": 40.7495463197085,
            "lng": -73.9726500802915
          }
        }
      },
      "icon": "https://maps.gstatic.com/mapfiles/place_api/icons/v1/png_71/generic_business-71.png",
      "icon_background_color": "#7B9EB0",
      "icon_mask_base_uri": "https://maps.gstatic.com/mapfiles/place_api/icons/v2/generic_pinlet",
      "name": "Spine & Sports Medicine of New York, P.C.",
      "opening_hours": {
        "open_now": false
      },
      "photos": [
        {
          "height": 405,
          "html_attributions": [
            "<a href=\"https://maps.google.com/maps/contrib/108855117861870589852\">Spine &amp; Sports Medicine of New York, P.C.</a>"
          ],
          "photo_reference": "AeJbb3f6lZStRqcwJ7Ok-KnWmCYOSQtKmYYj1Vqn7n7Pg7r23_E095TmBRbHB-GBx9OjAZyAz6uybYtkWWtFPnl3-1J7Wq-LkFEWBPaaKN-pFXVvDdg5GDpmemBlrOr_d-pKMvn_7m82R_qeAUK5wXwL5jKKzT4-l-UcT_PwBX55UdUpHg1Y",
          "width": 720
        }
      ],
      "place_id": "ChIJR_RD1BxZwokRBavlWfvF6N0",
      "plus_code": {
        "compound_code": "Q22H+9G New York, NY, USA",
        "global_code": "87G8Q22H+9G"
      },
      "rating": 4.5,
      "reference": "ChIJR_RD1BxZwokRBavlWfvF6N0",
      "scope": "GOOGLE",
      "types": [
        "health",
        "point_of_interest",
        "establishment"
      ],
      "user_ratings_total": 11,
      "vicinity": "820 2nd Avenue Suite 6D, New York"
    },
    {
      "business_status": "OPERATIONAL",
      "geometry": {
        "location": {
          "lat": 40.75240479999999,
          "lng": -73.9660299
        },
        "viewport": {
          "northeast": {
            "lat": 40.7537122302915,
            "lng": -73.96489891970849
          },
          "southwest": {
            "lat": 40.7510142697085,
            "lng": -73.9675968802915
          }
        }
      },
      "icon": "https://maps.gstatic.com/mapfiles/place_api/icons/v1/png_71/civic_building-71.png",
      "icon_background_color": "#7B9EB0",
      "icon_mask_base_uri": "https://maps.gstatic.com/mapfiles/place_api/icons/v2/civic-bldg_pinlet",
      "name": "Permanent Mission of North Macedonia",
      "photos": [
        {
          "height": 4032,
          "html_attributions": [
            "<a href=\"https://maps.google.com/maps/contrib/116732849001236887333\">Adam Lemieux</a>"
          ],
          "photo_reference": "AeJbb3eTa-LRH51-rUPiS4oqYmvsDymXsEaUnwASDZyuXEq7892WlzgRabgx7-m_BMulSULX-YltjrDtbFwwr0Q-XEXp_45ewB7Ec8Q_r9CH9u-TXYW7w3jqR2BpqQUu9Y5lxB2HNSa2XRnD3aiROnrMSEFqpJlks4XtTq2lZm4cTa2hIuNz",
          "width": 3024
        }
      ],
      "place_id": "ChIJhZhNjx1ZwokRz27fjf8Q4I0",
      "plus_code": {
        "compound_code": "Q22M+XH New York, NY, USA",
        "global_code": "87G8Q22M+XH"
      },
      "reference": "ChIJhZhNjx1ZwokRz27fjf8Q4I0",
      "scope": "GOOGLE",
      "types": [
        "point_of_interest",
        "establishment"
      ],
      "vicinity": "866 United Nations Plaza, New York"
    },
    {
      "business_status": "OPERATIONAL",
      "geometry": {
        "location": {
          "lat": 40.751654,
          "lng": -73.969032
        },
        "viewport": {
          "northeast": {
            "lat": 40.7530679802915,
            "lng": -73.96763516970849
          },
          "southwest": {
            "lat": 40.75037001970851,
            "lng": -73.9703331302915
          }
        }
      },
      "icon": "https://maps.gstatic.com/mapfiles/place_api/icons/v1/png_71/generic_business-71.png",
      "icon_background_color": "#7B9EB0",
      "icon_mask_base_uri": "https://maps.gstatic.com/mapfiles/place_api/icons/v2/generic_pinlet",
      "name": "Julian Ribinik Wedding Photography",
      "opening_hours": {
        "open_now": true
      },
      "photos": [
        {
          "height": 4320,
          "html_attributions": [
            "<a href=\"https://maps.google.com/maps/contrib/104895238667451262332\">Julian Ribinik Wedding Photography</a>"
          ],
          "photo_reference": "AeJbb3cYPJx3YwTjvJvS9_kCDu93FtSTwlQGDu6MteBBwpOQuyaIkCIVxbYlU4f-XWsXwgOBqJLOoKCi2acA7_BBnXZIgXbJMLVOoxDgqMOJ2jem1dcqZ1Py8cPvuOOvVOGjn2kAt9gFSwD8fHEg6HZnR_0d2_v-JwW5w01VzM55AWgw2nWe",
          "width": 6480
        }
      ],
      "place_id": "ChIJTbuUip7CrIkRDXtdSCzOkv8",
      "plus_code": {
        "compound_code": "Q22J+M9 New York, NY, USA",
        "global_code": "87G8Q22J+M9"
      },
      "rating": 5,
      "reference": "ChIJTbuUip7CrIkRDXtdSCzOkv8",
      "scope": "GOOGLE",
      "types": [
        "point_of_interest",
        "establishment"
      ],
      "user_ratings_total": 42,
      "vicinity": "330 East 46th Street, New York"
    },
    {
      "business_status": "OPERATIONAL",
      "geometry": {
        "location": {
          "lat": 40.7507488,
          "lng": -73.9710554
        },
        "viewport": {
          "northeast": {
            "lat": 40.7521741802915,
            "lng": -73.9698842697085
          },
          "southwest": {
            "lat": 40.74947621970851,
            "lng": -73.97258223029151
          }
        }
      },
      "icon": "https://maps.gstatic.com/mapfiles/place_api/icons/v1/png_71/civic_building-71.png",
      "icon_background_color": "#7B9EB0",
      "icon_mask_base_uri": "https://maps.gstatic.com/mapfiles/place_api/icons/v2/civic-bldg_pinlet",
      "name": "Permanent Mission of Sri Lanka",
      "opening_hours": {
        "open_now": false
      },
      "photos": [
        {
          "height": 4048,
          "html_attributions": [
            "<a href=\"https://maps.google.com/maps/contrib/103915019008782341953\">AhamedLebbe SabarullahKhan</a>"
          ],
          "photo_reference": "AeJbb3d35o1tKXBBlnhQ3l_mo_YfEmay-WY_rllcnwpnjTdm0rmvSSwXkVp71LUiUM3mFRl3fiQTqrvUARGCmOgSZjvT5E2RhaEqenu7w27Ves5Ty3Cohrt6XPH_izyW4s8lDv1KY5TZj56gMIcAolsRl7LsLd2IV6KJvPY2x5pxsnvI2dYt",
          "width": 3036
        }
      ],
      "place_id": "ChIJv791lANZwokR5pP2QeQsrlI",
      "plus_code": {
        "compound_code": "Q22H+7H New York, NY, USA",
        "global_code": "87G8Q22H+7H"
      },
      "rating": 4.1,
      "reference": "ChIJv791lANZwokR5pP2QeQsrlI",
      "scope": "GOOGLE",
      "types": [
        "embassy",
        "point_of_interest",
        "establishment"
      ],
      "user_ratings_total": 29,
      "vicinity": "820 2nd Avenue 2nd Floor, New York"
    },
    {
      "business_status": "CLOSED_TEMPORARILY",
      "geometry": {
        "location": {
          "lat": 40.7522281,
          "lng": -73.9728587
        },
        "viewport": {
          "northeast": {
            "lat": 40.7535985802915,
            "lng": -73.9717156197085
          },
          "southwest": {
            "lat": 40.7509006197085,
            "lng": -73.97441358029151
          }
        }
      },
      "icon": "https://maps.gstatic.com/mapfiles/place_api/icons/v1/png_71/generic_business-71.png",
      "icon_background_color": "#7B9EB0",
      "icon_mask_base_uri": "https://maps.gstatic.com/mapfiles/place_api/icons/v2/generic_pinlet",
      "name": "Television Week",
      "permanently_closed": true,
      "place_id": "ChIJ63SD6wJZwokRD-JLt_lRWdA",
      "plus_code": {
        "compound_code": "Q22G+VV New York, NY, USA",
        "global_code": "87G8Q22G+VV"
      },
      "reference": "ChIJ63SD6wJZwokRD-JLt_lRWdA",
      "scope": "GOOGLE",
      "types": [
        "point_of_interest",
        "establishment"
      ],
      "vicinity": "711 3rd Avenue #3, New York"
    }
  ],
  "status": "OK"
}